[{"title": "Neue Baustellen auf A2, A9 und A38 nach Ostern", "url": "https://www.mdr.de/nachrichten/sachsen-anhalt/magdeburg/autobahn-baustellen-bundesstrasse-alleringersleben-gerwisch-barleben-100.html", "thumbnailUrl": null, "date": "Mon, 01 Apr 2024 16:02:18 +0200", "lat": 52.1205, "lon": 11.6276, "intensity": 0.6, "source": "MDR"}, {"title": "\u00c4hnlichkeit mit SS-Runen: Adidas stoppt Verkauf von deutschen EM-Trikots mit der 44", "url": "https://www.mdr.de/nachrichten/deutschland/wirtschaft/adidas-dfb-trikot-runen-waffen-ss-100.html", "thumbnailUrl": null, "date": "Mon, 01 Apr 2024 18:08:53 +0200", "lat": 53.5511, "lon": 9.9876, "intensity": 0.8, "source": "MDR"}, {"title": "\"Cannabis Social Club\" und Lokalpolitiker demonstrieren in Leipzig", "url": "https://www.mdr.de/nachrichten/sachsen/leipzig/cannabis-legalisierung-demo-augustusplatz-100.html", "thumbnailUrl": null, "date": "Mon, 01 Apr 2024 17:52:46 +0200", "lat": 51.3436, "lon": 12.3879, "intensity": 0.6, "source": "MDR"}, {"title": "Wolf l\u00e4uft MDR-Kameramann direkt vor die Linse", "url": "https://www.mdr.de/nachrichten/sachsen/bautzen/bautzen-hoyerswerda-kamenz/wolf-sichtung-niedergurig-100.html", "thumbnailUrl": null, "date": "Mon, 01 Apr 2024 18:57:48 +0200", "lat": 51.1167, "lon": 14.5333, "intensity": 0.8, "source": "MDR"}, {"title": "Waldbaden in Kohren-Sahlis: Zwischen Pilzkraut und Bl\u00fctenduft die Zeit vergessen", "url": "https://www.mdr.de/nachrichten/sachsen/leipzig/borna-geithain/wald-erholung-natur-ruhe-freizeit-100.html", "thumbnailUrl": null, "date": "Mon, 01 Apr 2024 16:49:54 +0200", "lat": 51.060497, "lon": 12.614219, "intensity": 0.7, "source": "MDR"}, {"title": "Ex-Verkehrsminister Scheuer legt Bundestagsmandat nieder", "url": "https://www.mdr.de/nachrichten/deutschland/politik/scheuer-bundestag-mandat-ruecktritt-100.html", "thumbnailUrl": null, "date": "Mon, 01 Apr 2024 19:13:07 +0200", "lat": 52.517, "lon": 13.3326, "intensity": 0.7, "source": "MDR"}, {"title": "Rettungsh\u00fcndin Blair findet vermissten f\u00fcnfj\u00e4hrigen Jungen in S\u00e4chsischer Schweiz", "url": "https://www.mdr.de/nachrichten/sachsen/dresden/dippoldiswalde-sebnitz/rathen-suche-kind-saechsische-schweiz-vermisst-100.html", "thumbnailUrl": null, "date": "Mon, 01 Apr 2024 12:47:10 +0200", "lat": 50.918, "lon": 14.1232, "intensity": 0.8, "source": "MDR"}, {"title": "FDP-Chef Lindner will Reserve der Bundeswehr st\u00e4rken", "url": "https://www.mdr.de/nachrichten/deutschland/politik/reserve-christian-lindner-fdp-bundeswehr-dienspflicht-100.html", "thumbnailUrl": null, "date": "Mon, 01 Apr 2024 18:19:49 +0200", "lat": 52.52, "lon": 13.405, "intensity": 0.6, "source": "MDR"}, {"title": "Wolmirstedt und Breitenstein: Hunderte bei Osterm\u00e4rschen", "url": "https://www.mdr.de/nachrichten/sachsen-anhalt/ostermaersche-krieg-frieden-wolmirstedt-breitenstein-100.html", "thumbnailUrl": null, "date": "Mon, 01 Apr 2024 17:53:43 +0200", "lat": 52.2077, "lon": 11.6293, "intensity": 0.6, "source": "MDR"}, {"title": "Zu Studienzwecken: Fensterbauer Eurolam in Wiegendorf f\u00fchrt 4-Tage-Woche ein", "url": "https://www.mdr.de/nachrichten/thueringen/mitte-thueringen/weimar/eurolam-wiegendorf-vier-tage-woche-100.html", "thumbnailUrl": null, "date": "Mon, 01 Apr 2024 15:17:45 +0200", "lat": 48.0629, "lon": 11.5847, "intensity": 0.5, "source": "MDR"}, {"title": "Friedensglocke auf dem Fichtelberg verstummt", "url": "https://www.mdr.de/nachrichten/sachsen/chemnitz/annaberg-aue-schwarzenberg/oberwiesenthal-fichtelberg-friedensglocke-symbol-100.html", "thumbnailUrl": null, "date": "Mon, 01 Apr 2024 19:16:54 +0200", "lat": 50.4294, "lon": 12.9724, "intensity": 0.8, "source": "MDR"}, {"title": "Tierische Sensation aus der Oberlausitz: Kaninchen mit gr\u00fcnen Augen?!", "url": "https://www.mdr.de/sachsenradio/hasenkaninchen-gruene-augen-100.html", "thumbnailUrl": null, "date": "Mon, 01 Apr 2024 07:00:00 +0200", "lat": 51.2795, "lon": 14.6507, "intensity": 0.2, "source": "MDR"}, {"title": "in Leichter Sprache", "url": "https://www.mdr.de/nachrichten-leicht/index.html", "thumbnailUrl": null, "date": "Tue, 25 Apr 2023 13:00:01 +0200", "lat": null, "lon": null, "intensity": 0, "source": "MDR"}, {"title": "Welt", "url": "https://www.mdr.de/nachrichten/welt/index.html", "thumbnailUrl": null, "date": "Tue, 25 Apr 2023 10:40:57 +0200", "lat": 0, "lon": 0, "intensity": 0, "source": "MDR"}, {"title": "Deutschland", "url": "https://www.mdr.de/nachrichten/deutschland/index.html", "thumbnailUrl": null, "date": "Tue, 25 Apr 2023 10:41:21 +0200", "lat": 0, "lon": 0, "intensity": 0, "source": "MDR"}, {"title": "Osteuropa", "url": "https://www.mdr.de/nachrichten/welt/osteuropa/index.html", "thumbnailUrl": null, "date": "Tue, 25 Apr 2023 13:02:57 +0200", "lat": 45.9432, "lon": 23.8859, "intensity": 0.5, "source": "MDR"}, {"title": "Wetter", "url": "https://www.mdr.de/wetter/index.html", "thumbnailUrl": null, "date": "Tue, 25 Apr 2023 13:03:23 +0200", "lat": null, "lon": null, "intensity": 0, "source": "MDR"}, {"title": "Verkehr", "url": "https://www.mdrjump.de/verkehr/index.html", "thumbnailUrl": null, "date": "Thu, 09 Jun 2022 11:05:09 +0200", "lat": 51.1657, "lon": 11.6229, "intensity": 0.2, "source": "MDR"}, {"title": "So ver\u00e4ndert sich das Klima in Sachsen, Sachsen-Anhalt und Th\u00fcringen", "url": "https://www.mdr.de/nachrichten/deutschland/panorama/wetter-klima-wandel-daten-archiv-region-100.html", "thumbnailUrl": null, "date": "Mon, 04 Mar 2024 10:27:56 +0100", "lat": 51.339695, "lon": 12.496365, "intensity": 0.6, "source": "MDR"}, {"title": "40 Milliarden f\u00fcr den Ausstieg aus der Braunkohle", "url": "https://www.mdr.de/nachrichten/deutschland/wirtschaft/kohlemilliarden/kohle-ausstieg-foerderung-steuergeld-100.html", "thumbnailUrl": null, "date": "Thu, 07 Dec 2023 14:06:43 +0100", "lat": 52.52, "lon": 13.405, "intensity": 0.7, "source": "MDR"}, {"title": "Schaffen wir die Energiewende? Live-Daten zum Ausbau der Windkraft in Deutschland", "url": "https://www.mdr.de/wissen/windkraft-windenergie-ausbau-deutschland-live-daten-aktuell-100.html", "thumbnailUrl": null, "date": "Thu, 16 Mar 2023 10:28:43 +0100", "lat": 51.1657, "lon": 10.4515, "intensity": 0.8, "source": "MDR"}, {"title": "Mensch Nachbar - der Podcast", "url": "https://www.mdr.de/sachsenradio/podcast/mensch-nachbar/mensch-nachbar-audios-100.html", "thumbnailUrl": null, "date": "Wed, 06 Mar 2024 10:49:37 +0100", "lat": 51.9194, "lon": 15.2551, "intensity": 0.3, "source": "MDR"}, {"title": "Regionalliga: Chemie Leipzig bringt gegen Meuselwitz knappen Vorsprung ins Ziel", "url": "https://www.mdr.de/sport/fussball_rl/spielbericht-regionalliga-nordost-bsg-chemie-leipzig-zfc-meuselwitz-100.html", "thumbnailUrl": null, "date": "Mon, 01 Apr 2024 15:08:00 +0200", "lat": 51.3127, "lon": 12.4245, "intensity": 0.6, "source": "MDR"}, {"title": "Regionalliga: Eilenburg verpasst \u00dcberraschung bei Energie Cottbus", "url": "https://www.mdr.de/sport/fussball_rl/spielbericht-regionalliga-nordost-fc-energie-cottbus-fc-eilenburg-100.html", "thumbnailUrl": null, "date": "Mon, 01 Apr 2024 15:29:25 +0200", "lat": 51.7569, "lon": 14.3325, "intensity": 0.7, "source": "MDR"}, {"title": "Volltreffer-Wahl: Lupfer, Blitztor oder Fallr\u00fcckzieher?", "url": "https://www.mdr.de/sport/sport-im-osten/volltreffer-der-woche-auswahl-lok-leipzig-atilgan-chemie-kirstein-chemnitzer-fc-bozic-100.html", "thumbnailUrl": null, "date": "Mon, 01 Apr 2024 10:00:00 +0200", "lat": 51.339695, "lon": 12.374738, "intensity": 0.5, "source": "MDR"}, {"title": "1. April: Warum Sie heute unbedingt noch Ihren Gasz\u00e4hlerstand dokumentieren sollten", "url": "https://www.mdr.de/nachrichten/deutschland/wirtschaft/zaehler-ablesen-gaspreis-steigt-april-mehrwertsteuer-erhoehung-100.html", "thumbnailUrl": null, "date": "Mon, 01 Apr 2024 07:31:21 +0200", "lat": 0, "lon": 0, "intensity": 0.3, "source": "MDR"}, {"title": "Bahn- und Busfahren im Raum Dresden und in Mittelsachsen jetzt teurer", "url": "https://www.mdr.de/nachrichten/sachsen/ticket-preis-erhoehung-bus-bahn-100.html", "thumbnailUrl": null, "date": "Mon, 01 Apr 2024 17:54:28 +0200", "lat": 51.0504, "lon": 13.7373, "intensity": 0.6, "source": "MDR"}, {"title": "Wohin man im Sommer vom Flughafen Leipzig/Halle fliegen kann", "url": "https://www.mdr.de/nachrichten/deutschland/flughafen-leipzig-halle-sommer-flugplan-100.html", "thumbnailUrl": null, "date": "Mon, 01 Apr 2024 13:59:05 +0200", "lat": 51.4325, "lon": 12.2218, "intensity": 0.3, "source": "MDR"}, {"title": "\u00dcberblick: Welche Salatsorten gibt es?", "url": "https://www.mdr.de/mdr-garten/pflanzen/salat-sorten-arten-welche-kopfsalat-pfluecksalat-blattsalat-100.html", "thumbnailUrl": null, "date": "Wed, 27 Mar 2024 11:16:17 +0100", "lat": 0, "lon": 0, "intensity": 0.3, "source": "MDR"}, {"title": "K\u00f6nigspfalz Helfta bei Eisleben wird Freilichtmuseum", "url": "https://www.mdr.de/nachrichten/sachsen-anhalt/halle/mansfeld/helfta-koenigspfalz-freilicht-museum-archaeologie-100.html", "thumbnailUrl": null, "date": "Mon, 01 Apr 2024 16:24:08 +0200", "lat": 51.5272, "lon": 11.5934, "intensity": 0.6, "source": "MDR"}, {"title": "1. Tag der MDR-Theaterchallenge \"30 Tag im Parkett\": The Bach Project am Landestheater Eisenach", "url": "https://www.mdr.de/nachrichten/thueringen/west-thueringen/eisenach/theaterchallenge-bach-project-landestheater-eisenach-100.html", "thumbnailUrl": null, "date": "Mon, 01 Apr 2024 16:40:32 +0200", "lat": 50.975, "lon": 10.3122, "intensity": 0.5, "source": "MDR"}, {"title": "Chemnitz und Zwickau: 4 besondere Konzerte im April 2024", "url": "https://www.mdr.de/kultur/musik/chemnitz-zwickau-konzerte-tipps-april-100.html", "thumbnailUrl": null, "date": "Fri, 29 Mar 2024 04:00:00 +0100", "lat": 50.8278, "lon": 12.9254, "intensity": 0.6, "source": "MDR"}, {"title": "Bahnwandern: Mit dem Ausflugszug von Zittau nach Nordb\u00f6hmen", "url": "https://www.mdr.de/nachrichten/sachsen/bautzen/goerlitz-weisswasser-zittau/bahnwandern-euroregion-neisse-100.html", "thumbnailUrl": null, "date": "Sun, 31 Mar 2024 18:36:03 +0200", "lat": 50.8968, "lon": 14.8167, "intensity": 0.4, "source": "MDR"}, {"title": "Geplante kommerzielle Raumstation Orbital Reef: Technische H\u00fcrden bestanden", "url": "https://www.mdr.de/wissen/astronomie-raumfahrt/news-gepllante-kommerzielle-raumstation-orbital-reef-besteht-wichtige-tests-100.html", "thumbnailUrl": null, "date": "Mon, 01 Apr 2024 15:59:00 +0200", "lat": 0, "lon": 0, "intensity": 0.7, "source": "MDR"}, {"title": "CGM f\u00fcr Menschen ohne Diabetes: Pro und Kontra von Glukose-Monitoring", "url": "https://www.mdr.de/wissen/medizin-gesundheit/glukose-bewusste-ernaehrung-trend-kritik-100.html", "thumbnailUrl": null, "date": "Mon, 01 Apr 2024 10:50:43 +0200", "lat": 0, "lon": 0, "intensity": 0.4, "source": "MDR"}, {"title": "Wie lebensfreundlich ist der W\u00fcstenplanet Dune wirklich?", "url": "https://www.mdr.de/wissen/astronomie-raumfahrt/wie-realistisch-ist-der-wuestenplanet-arrakis-in-dune-wissenschaftlich-untersucht-100.html", "thumbnailUrl": null, "date": "Sun, 31 Mar 2024 06:59:00 +0200", "lat": 0, "lon": 0, "intensity": 0.5, "source": "MDR"}, {"title": "Mit dem Kofferlabor aus Leipzig gegen antibiotikaresistente Keime in Afrika", "url": "https://www.mdr.de/wissen/medizin-gesundheit/kofferlabor-im-kampf-gegen-antibiotikaresitente-bakterien-in-afrika-100.html", "thumbnailUrl": null, "date": "Sat, 30 Mar 2024 15:59:00 +0100", "lat": 51.3434, "lon": 12.3778, "intensity": 0.8, "source": "MDR"}, {"title": "Tod von Schauspieler Chance Perdomo: Trauer nach Motorradunfall, Netflix Star ist tot, mit 27 Jahren gestorben", "url": "https://www.brisant.de/stars/gestorben/chance-perdomo-tot-102.html", "thumbnailUrl": null, "date": "Mon, 01 Apr 2024 11:59:45 +0200", "lat": 0, "lon": 0, "intensity": 0.8, "source": "MDR"}, {"title": "K\u00f6nig Charles - erster Auftritt nach der Krebs Diagnose - ohne Kate und William", "url": "https://www.brisant.de/royals/britisches-koenigshaus/charles-ostern-krebs-kate-100.html", "thumbnailUrl": null, "date": "Mon, 01 Apr 2024 18:50:52 +0200", "lat": 51.483462, "lon": -0.604278, "intensity": 0.8, "source": "MDR"}, {"title": "H\u00f6rt Lizzo auf: Nach Mobbing und Fake News - verk\u00fcndet sie auf Instagram ihr Karriereende?", "url": "https://www.brisant.de/stars/lizzo-instagram-106.html", "thumbnailUrl": null, "date": "Mon, 01 Apr 2024 12:02:32 +0200", "lat": 0, "lon": 0, "intensity": 0.6, "source": "MDR"}, {"title": "Sachsen-Anhalt: Was die Bezahlkarte f\u00fcr Gefl\u00fcchtete bedeutet", "url": "https://www.mdr.de/nachrichten/sachsen-anhalt/gefluechtete-bezahlkarte-herausforderungen-100.html", "thumbnailUrl": null, "date": "Mon, 01 Apr 2024 05:00:00 +0200", "lat": 52.1205, "lon": 11.6276, "intensity": 0.6, "source": "MDR"}, {"title": "Unfall mit sieben Toten bei Bad Langensalza: Stilles Gedenken in M\u00fchlhausen", "url": "https://www.mdr.de/nachrichten/thueringen/nord-thueringen/unstrut-hainich/unfall-bad-langensalza-stilles-gedenken-muehlhausen-100.html", "thumbnailUrl": null, "date": "Mon, 01 Apr 2024 12:06:22 +0200", "lat": 51.2136, "lon": 10.4538, "intensity": 0.8, "source": "MDR"}, {"title": "Ostern in Polen: Wasserschlacht als Balzritual", "url": "https://www.mdr.de/nachrichten/welt/osteuropa/land-leute/ostern-polen-tradition-100.html", "thumbnailUrl": null, "date": "Mon, 01 Apr 2024 05:00:01 +0200", "lat": 51.9194, "lon": 19.1451, "intensity": 0.7, "source": "MDR"}, {"title": "Preview der Dokumentation \"Hirschhausen \u2013 Medizin von morgen\" in Magdeburg", "url": "https://www.mdr.de/nachrichten/mitmachen/medizin-von-morgen-mit-eckart-von-hirschhausen-100.html", "thumbnailUrl": null, "date": "Thu, 28 Mar 2024 12:56:03 +0100", "lat": 52.1205, "lon": 11.6276, "intensity": 0.3, "source": "MDR"}, {"title": "MDR-Fr\u00fchlingserwachen: Alle Termine zu allen Orten", "url": "https://www.mdr.de/nachrichten/mitmachen/fruehlingserwachen/alles-zum-mdr-fruehlingswachen--100.html", "thumbnailUrl": null, "date": "Mon, 25 Mar 2024 15:59:43 +0100", "lat": 50.5821, "lon": 12.6261, "intensity": 0.5, "source": "MDR"}, {"title": "Kurzfilmzeit: MDR engagiert sich auch 2024 beim Filmfest Dresden", "url": "https://www.mdr.de/presse/kurzfilmzeit-filmfest-dresden-100.html", "thumbnailUrl": null, "date": "Tue, 26 Mar 2024 13:32:13 +0100", "lat": 51.050409, "lon": 13.737262, "intensity": 0.2, "source": "MDR"}, {"title": "Neue Baustellen auf A2, A9 und A38 nach Ostern", "url": "https://www.mdr.de/nachrichten/sachsen-anhalt/magdeburg/autobahn-baustellen-bundesstrasse-alleringersleben-gerwisch-barleben-100.html", "thumbnailUrl": null, "date": "Mon, 01 Apr 2024 16:02:18 +0200", "lat": 52.1205, "lon": 11.6276, "intensity": 0.6, "source": "MDR"}, {"title": "\u00c4hnlichkeit mit SS-Runen: Adidas stoppt Verkauf von deutschen EM-Trikots mit der 44", "url": "https://www.mdr.de/nachrichten/deutschland/wirtschaft/adidas-dfb-trikot-runen-waffen-ss-100.html", "thumbnailUrl": null, "date": "Mon, 01 Apr 2024 18:08:53 +0200", "lat": 53.5511, "lon": 9.9876, "intensity": 0.8, "source": "MDR"}, {"title": "\"Cannabis Social Club\" und Lokalpolitiker demonstrieren in Leipzig", "url": "https://www.mdr.de/nachrichten/sachsen/leipzig/cannabis-legalisierung-demo-augustusplatz-100.html", "thumbnailUrl": null, "date": "Mon, 01 Apr 2024 17:52:46 +0200", "lat": 51.3436, "lon": 12.3879, "intensity": 0.6, "source": "MDR"}, {"title": "Wolf l\u00e4uft MDR-Kameramann direkt vor die Linse", "url": "https://www.mdr.de/nachrichten/sachsen/bautzen/bautzen-hoyerswerda-kamenz/wolf-sichtung-niedergurig-100.html", "thumbnailUrl": null, "date": "Mon, 01 Apr 2024 18:57:48 +0200", "lat": 51.1167, "lon": 14.5333, "intensity": 0.8, "source": "MDR"}, {"title": "Waldbaden in Kohren-Sahlis: Zwischen Pilzkraut und Bl\u00fctenduft die Zeit vergessen", "url": "https://www.mdr.de/nachrichten/sachsen/leipzig/borna-geithain/wald-erholung-natur-ruhe-freizeit-100.html", "thumbnailUrl": null, "date": "Mon, 01 Apr 2024 16:49:54 +0200", "lat": 51.060497, "lon": 12.614219, "intensity": 0.7, "source": "MDR"}, {"title": "Ex-Verkehrsminister Scheuer legt Bundestagsmandat nieder", "url": "https://www.mdr.de/nachrichten/deutschland/politik/scheuer-bundestag-mandat-ruecktritt-100.html", "thumbnailUrl": null, "date": "Mon, 01 Apr 2024 19:13:07 +0200", "lat": 52.517, "lon": 13.3326, "intensity": 0.7, "source": "MDR"}, {"title": "Rettungsh\u00fcndin Blair findet vermissten f\u00fcnfj\u00e4hrigen Jungen in S\u00e4chsischer Schweiz", "url": "https://www.mdr.de/nachrichten/sachsen/dresden/dippoldiswalde-sebnitz/rathen-suche-kind-saechsische-schweiz-vermisst-100.html", "thumbnailUrl": null, "date": "Mon, 01 Apr 2024 12:47:10 +0200", "lat": 50.918, "lon": 14.1232, "intensity": 0.8, "source": "MDR"}, {"title": "FDP-Chef Lindner will Reserve der Bundeswehr st\u00e4rken", "url": "https://www.mdr.de/nachrichten/deutschland/politik/reserve-christian-lindner-fdp-bundeswehr-dienspflicht-100.html", "thumbnailUrl": null, "date": "Mon, 01 Apr 2024 18:19:49 +0200", "lat": 52.52, "lon": 13.405, "intensity": 0.6, "source": "MDR"}, {"title": "Wolmirstedt und Breitenstein: Hunderte bei Osterm\u00e4rschen", "url": "https://www.mdr.de/nachrichten/sachsen-anhalt/ostermaersche-krieg-frieden-wolmirstedt-breitenstein-100.html", "thumbnailUrl": null, "date": "Mon, 01 Apr 2024 17:53:43 +0200", "lat": 52.2077, "lon": 11.6293, "intensity": 0.6, "source": "MDR"}, {"title": "Zu Studienzwecken: Fensterbauer Eurolam in Wiegendorf f\u00fchrt 4-Tage-Woche ein", "url": "https://www.mdr.de/nachrichten/thueringen/mitte-thueringen/weimar/eurolam-wiegendorf-vier-tage-woche-100.html", "thumbnailUrl": null, "date": "Mon, 01 Apr 2024 15:17:45 +0200", "lat": 48.0629, "lon": 11.5847, "intensity": 0.5, "source": "MDR"}, {"title": "Friedensglocke auf dem Fichtelberg verstummt", "url": "https://www.mdr.de/nachrichten/sachsen/chemnitz/annaberg-aue-schwarzenberg/oberwiesenthal-fichtelberg-friedensglocke-symbol-100.html", "thumbnailUrl": null, "date": "Mon, 01 Apr 2024 19:16:54 +0200", "lat": 50.4294, "lon": 12.9724, "intensity": 0.8, "source": "MDR"}, {"title": "Tierische Sensation aus der Oberlausitz: Kaninchen mit gr\u00fcnen Augen?!", "url": "https://www.mdr.de/sachsenradio/hasenkaninchen-gruene-augen-100.html", "thumbnailUrl": null, "date": "Mon, 01 Apr 2024 07:00:00 +0200", "lat": 51.2795, "lon": 14.6507, "intensity": 0.2, "source": "MDR"}, {"title": "in Leichter Sprache", "url": "https://www.mdr.de/nachrichten-leicht/index.html", "thumbnailUrl": null, "date": "Tue, 25 Apr 2023 13:00:01 +0200", "lat": null, "lon": null, "intensity": 0, "source": "MDR"}, {"title": "Welt", "url": "https://www.mdr.de/nachrichten/welt/index.html", "thumbnailUrl": null, "date": "Tue, 25 Apr 2023 10:40:57 +0200", "lat": 0, "lon": 0, "intensity": 0, "source": "MDR"}, {"title": "Deutschland", "url": "https://www.mdr.de/nachrichten/deutschland/index.html", "thumbnailUrl": null, "date": "Tue, 25 Apr 2023 10:41:21 +0200", "lat": 0, "lon": 0, "intensity": 0, "source": "MDR"}, {"title": "Osteuropa", "url": "https://www.mdr.de/nachrichten/welt/osteuropa/index.html", "thumbnailUrl": null, "date": "Tue, 25 Apr 2023 13:02:57 +0200", "lat": 45.9432, "lon": 23.8859, "intensity": 0.5, "source": "MDR"}, {"title": "Wetter", "url": "https://www.mdr.de/wetter/index.html", "thumbnailUrl": null, "date": "Tue, 25 Apr 2023 13:03:23 +0200", "lat": null, "lon": null, "intensity": 0, "source": "MDR"}, {"title": "Verkehr", "url": "https://www.mdrjump.de/verkehr/index.html", "thumbnailUrl": null, "date": "Thu, 09 Jun 2022 11:05:09 +0200", "lat": 51.1657, "lon": 11.6229, "intensity": 0.2, "source": "MDR"}, {"title": "So ver\u00e4ndert sich das Klima in Sachsen, Sachsen-Anhalt und Th\u00fcringen", "url": "https://www.mdr.de/nachrichten/deutschland/panorama/wetter-klima-wandel-daten-archiv-region-100.html", "thumbnailUrl": null, "date": "Mon, 04 Mar 2024 10:27:56 +0100", "lat": 51.339695, "lon": 12.496365, "intensity": 0.6, "source": "MDR"}, {"title": "40 Milliarden f\u00fcr den Ausstieg aus der Braunkohle", "url": "https://www.mdr.de/nachrichten/deutschland/wirtschaft/kohlemilliarden/kohle-ausstieg-foerderung-steuergeld-100.html", "thumbnailUrl": null, "date": "Thu, 07 Dec 2023 14:06:43 +0100", "lat": 52.52, "lon": 13.405, "intensity": 0.7, "source": "MDR"}, {"title": "Schaffen wir die Energiewende? Live-Daten zum Ausbau der Windkraft in Deutschland", "url": "https://www.mdr.de/wissen/windkraft-windenergie-ausbau-deutschland-live-daten-aktuell-100.html", "thumbnailUrl": null, "date": "Thu, 16 Mar 2023 10:28:43 +0100", "lat": 51.1657, "lon": 10.4515, "intensity": 0.8, "source": "MDR"}, {"title": "Mensch Nachbar - der Podcast", "url": "https://www.mdr.de/sachsenradio/podcast/mensch-nachbar/mensch-nachbar-audios-100.html", "thumbnailUrl": null, "date": "Wed, 06 Mar 2024 10:49:37 +0100", "lat": 51.9194, "lon": 15.2551, "intensity": 0.3, "source": "MDR"}, {"title": "Regionalliga: Chemie Leipzig bringt gegen Meuselwitz knappen Vorsprung ins Ziel", "url": "https://www.mdr.de/sport/fussball_rl/spielbericht-regionalliga-nordost-bsg-chemie-leipzig-zfc-meuselwitz-100.html", "thumbnailUrl": null, "date": "Mon, 01 Apr 2024 15:08:00 +0200", "lat": 51.3127, "lon": 12.4245, "intensity": 0.6, "source": "MDR"}, {"title": "Regionalliga: Eilenburg verpasst \u00dcberraschung bei Energie Cottbus", "url": "https://www.mdr.de/sport/fussball_rl/spielbericht-regionalliga-nordost-fc-energie-cottbus-fc-eilenburg-100.html", "thumbnailUrl": null, "date": "Mon, 01 Apr 2024 15:29:25 +0200", "lat": 51.7569, "lon": 14.3325, "intensity": 0.7, "source": "MDR"}, {"title": "Volltreffer-Wahl: Lupfer, Blitztor oder Fallr\u00fcckzieher?", "url": "https://www.mdr.de/sport/sport-im-osten/volltreffer-der-woche-auswahl-lok-leipzig-atilgan-chemie-kirstein-chemnitzer-fc-bozic-100.html", "thumbnailUrl": null, "date": "Mon, 01 Apr 2024 10:00:00 +0200", "lat": 51.339695, "lon": 12.374738, "intensity": 0.5, "source": "MDR"}, {"title": "1. April: Warum Sie heute unbedingt noch Ihren Gasz\u00e4hlerstand dokumentieren sollten", "url": "https://www.mdr.de/nachrichten/deutschland/wirtschaft/zaehler-ablesen-gaspreis-steigt-april-mehrwertsteuer-erhoehung-100.html", "thumbnailUrl": null, "date": "Mon, 01 Apr 2024 07:31:21 +0200", "lat": 0, "lon": 0, "intensity": 0.3, "source": "MDR"}, {"title": "Bahn- und Busfahren im Raum Dresden und in Mittelsachsen jetzt teurer", "url": "https://www.mdr.de/nachrichten/sachsen/ticket-preis-erhoehung-bus-bahn-100.html", "thumbnailUrl": null, "date": "Mon, 01 Apr 2024 17:54:28 +0200", "lat": 51.0504, "lon": 13.7373, "intensity": 0.6, "source": "MDR"}, {"title": "Wohin man im Sommer vom Flughafen Leipzig/Halle fliegen kann", "url": "https://www.mdr.de/nachrichten/deutschland/flughafen-leipzig-halle-sommer-flugplan-100.html", "thumbnailUrl": null, "date": "Mon, 01 Apr 2024 13:59:05 +0200", "lat": 51.4325, "lon": 12.2218, "intensity": 0.3, "source": "MDR"}, {"title": "\u00dcberblick: Welche Salatsorten gibt es?", "url": "https://www.mdr.de/mdr-garten/pflanzen/salat-sorten-arten-welche-kopfsalat-pfluecksalat-blattsalat-100.html", "thumbnailUrl": null, "date": "Wed, 27 Mar 2024 11:16:17 +0100", "lat": 0, "lon": 0, "intensity": 0.3, "source": "MDR"}, {"title": "K\u00f6nigspfalz Helfta bei Eisleben wird Freilichtmuseum", "url": "https://www.mdr.de/nachrichten/sachsen-anhalt/halle/mansfeld/helfta-koenigspfalz-freilicht-museum-archaeologie-100.html", "thumbnailUrl": null, "date": "Mon, 01 Apr 2024 16:24:08 +0200", "lat": 51.5272, "lon": 11.5934, "intensity": 0.6, "source": "MDR"}, {"title": "1. Tag der MDR-Theaterchallenge \"30 Tag im Parkett\": The Bach Project am Landestheater Eisenach", "url": "https://www.mdr.de/nachrichten/thueringen/west-thueringen/eisenach/theaterchallenge-bach-project-landestheater-eisenach-100.html", "thumbnailUrl": null, "date": "Mon, 01 Apr 2024 16:40:32 +0200", "lat": 50.975, "lon": 10.3122, "intensity": 0.5, "source": "MDR"}, {"title": "Chemnitz und Zwickau: 4 besondere Konzerte im April 2024", "url": "https://www.mdr.de/kultur/musik/chemnitz-zwickau-konzerte-tipps-april-100.html", "thumbnailUrl": null, "date": "Fri, 29 Mar 2024 04:00:00 +0100", "lat": 50.8278, "lon": 12.9254, "intensity": 0.6, "source": "MDR"}, {"title": "Bahnwandern: Mit dem Ausflugszug von Zittau nach Nordb\u00f6hmen", "url": "https://www.mdr.de/nachrichten/sachsen/bautzen/goerlitz-weisswasser-zittau/bahnwandern-euroregion-neisse-100.html", "thumbnailUrl": null, "date": "Sun, 31 Mar 2024 18:36:03 +0200", "lat": 50.8968, "lon": 14.8167, "intensity": 0.4, "source": "MDR"}, {"title": "Geplante kommerzielle Raumstation Orbital Reef: Technische H\u00fcrden bestanden", "url": "https://www.mdr.de/wissen/astronomie-raumfahrt/news-gepllante-kommerzielle-raumstation-orbital-reef-besteht-wichtige-tests-100.html", "thumbnailUrl": null, "date": "Mon, 01 Apr 2024 15:59:00 +0200", "lat": 0, "lon": 0, "intensity": 0.7, "source": "MDR"}, {"title": "CGM f\u00fcr Menschen ohne Diabetes: Pro und Kontra von Glukose-Monitoring", "url": "https://www.mdr.de/wissen/medizin-gesundheit/glukose-bewusste-ernaehrung-trend-kritik-100.html", "thumbnailUrl": null, "date": "Mon, 01 Apr 2024 10:50:43 +0200", "lat": 0, "lon": 0, "intensity": 0.4, "source": "MDR"}, {"title": "Wie lebensfreundlich ist der W\u00fcstenplanet Dune wirklich?", "url": "https://www.mdr.de/wissen/astronomie-raumfahrt/wie-realistisch-ist-der-wuestenplanet-arrakis-in-dune-wissenschaftlich-untersucht-100.html", "thumbnailUrl": null, "date": "Sun, 31 Mar 2024 06:59:00 +0200", "lat": 0, "lon": 0, "intensity": 0.5, "source": "MDR"}, {"title": "Mit dem Kofferlabor aus Leipzig gegen antibiotikaresistente Keime in Afrika", "url": "https://www.mdr.de/wissen/medizin-gesundheit/kofferlabor-im-kampf-gegen-antibiotikaresitente-bakterien-in-afrika-100.html", "thumbnailUrl": null, "date": "Sat, 30 Mar 2024 15:59:00 +0100", "lat": 51.3434, "lon": 12.3778, "intensity": 0.8, "source": "MDR"}, {"title": "Tod von Schauspieler Chance Perdomo: Trauer nach Motorradunfall, Netflix Star ist tot, mit 27 Jahren gestorben", "url": "https://www.brisant.de/stars/gestorben/chance-perdomo-tot-102.html", "thumbnailUrl": null, "date": "Mon, 01 Apr 2024 11:59:45 +0200", "lat": 0, "lon": 0, "intensity": 0.8, "source": "MDR"}, {"title": "K\u00f6nig Charles - erster Auftritt nach der Krebs Diagnose - ohne Kate und William", "url": "https://www.brisant.de/royals/britisches-koenigshaus/charles-ostern-krebs-kate-100.html", "thumbnailUrl": null, "date": "Mon, 01 Apr 2024 18:50:52 +0200", "lat": 51.483462, "lon": -0.604278, "intensity": 0.8, "source": "MDR"}, {"title": "H\u00f6rt Lizzo auf: Nach Mobbing und Fake News - verk\u00fcndet sie auf Instagram ihr Karriereende?", "url": "https://www.brisant.de/stars/lizzo-instagram-106.html", "thumbnailUrl": null, "date": "Mon, 01 Apr 2024 12:02:32 +0200", "lat": 0, "lon": 0, "intensity": 0.6, "source": "MDR"}, {"title": "Sachsen-Anhalt: Was die Bezahlkarte f\u00fcr Gefl\u00fcchtete bedeutet", "url": "https://www.mdr.de/nachrichten/sachsen-anhalt/gefluechtete-bezahlkarte-herausforderungen-100.html", "thumbnailUrl": null, "date": "Mon, 01 Apr 2024 05:00:00 +0200", "lat": 52.1205, "lon": 11.6276, "intensity": 0.6, "source": "MDR"}, {"title": "Unfall mit sieben Toten bei Bad Langensalza: Stilles Gedenken in M\u00fchlhausen", "url": "https://www.mdr.de/nachrichten/thueringen/nord-thueringen/unstrut-hainich/unfall-bad-langensalza-stilles-gedenken-muehlhausen-100.html", "thumbnailUrl": null, "date": "Mon, 01 Apr 2024 12:06:22 +0200", "lat": 51.2136, "lon": 10.4538, "intensity": 0.8, "source": "MDR"}, {"title": "Ostern in Polen: Wasserschlacht als Balzritual", "url": "https://www.mdr.de/nachrichten/welt/osteuropa/land-leute/ostern-polen-tradition-100.html", "thumbnailUrl": null, "date": "Mon, 01 Apr 2024 05:00:01 +0200", "lat": 51.9194, "lon": 19.1451, "intensity": 0.7, "source": "MDR"}, {"title": "Preview der Dokumentation \"Hirschhausen \u2013 Medizin von morgen\" in Magdeburg", "url": "https://www.mdr.de/nachrichten/mitmachen/medizin-von-morgen-mit-eckart-von-hirschhausen-100.html", "thumbnailUrl": null, "date": "Thu, 28 Mar 2024 12:56:03 +0100", "lat": 52.1205, "lon": 11.6276, "intensity": 0.3, "source": "MDR"}, {"title": "MDR-Fr\u00fchlingserwachen: Alle Termine zu allen Orten", "url": "https://www.mdr.de/nachrichten/mitmachen/fruehlingserwachen/alles-zum-mdr-fruehlingswachen--100.html", "thumbnailUrl": null, "date": "Mon, 25 Mar 2024 15:59:43 +0100", "lat": 50.5821, "lon": 12.6261, "intensity": 0.5, "source": "MDR"}, {"title": "Kurzfilmzeit: MDR engagiert sich auch 2024 beim Filmfest Dresden", "url": "https://www.mdr.de/presse/kurzfilmzeit-filmfest-dresden-100.html", "thumbnailUrl": null, "date": "Tue, 26 Mar 2024 13:32:13 +0100", "lat": 51.050409, "lon": 13.737262, "intensity": 0.2, "source": "MDR"}, {"title": "Neue Baustellen auf A2, A9 und A38 nach Ostern", "url": "https://www.mdr.de/nachrichten/sachsen-anhalt/magdeburg/autobahn-baustellen-bundesstrasse-alleringersleben-gerwisch-barleben-100.html", "thumbnailUrl": null, "date": "Mon, 01 Apr 2024 16:02:18 +0200", "lat": 52.1205, "lon": 11.6276, "intensity": 0.6, "source": "MDR"}, {"title": "\u00c4hnlichkeit mit SS-Runen: Adidas stoppt Verkauf von deutschen EM-Trikots mit der 44", "url": "https://www.mdr.de/nachrichten/deutschland/wirtschaft/adidas-dfb-trikot-runen-waffen-ss-100.html", "thumbnailUrl": null, "date": "Mon, 01 Apr 2024 18:08:53 +0200", "lat": 53.5511, "lon": 9.9876, "intensity": 0.8, "source": "MDR"}, {"title": "\"Cannabis Social Club\" und Lokalpolitiker demonstrieren in Leipzig", "url": "https://www.mdr.de/nachrichten/sachsen/leipzig/cannabis-legalisierung-demo-augustusplatz-100.html", "thumbnailUrl": null, "date": "Mon, 01 Apr 2024 17:52:46 +0200", "lat": 51.3436, "lon": 12.3879, "intensity": 0.6, "source": "MDR"}, {"title": "Wolf l\u00e4uft MDR-Kameramann direkt vor die Linse", "url": "https://www.mdr.de/nachrichten/sachsen/bautzen/bautzen-hoyerswerda-kamenz/wolf-sichtung-niedergurig-100.html", "thumbnailUrl": null, "date": "Mon, 01 Apr 2024 18:57:48 +0200", "lat": 51.1167, "lon": 14.5333, "intensity": 0.8, "source": "MDR"}, {"title": "Waldbaden in Kohren-Sahlis: Zwischen Pilzkraut und Bl\u00fctenduft die Zeit vergessen", "url": "https://www.mdr.de/nachrichten/sachsen/leipzig/borna-geithain/wald-erholung-natur-ruhe-freizeit-100.html", "thumbnailUrl": null, "date": "Mon, 01 Apr 2024 16:49:54 +0200", "lat": 51.060497, "lon": 12.614219, "intensity": 0.7, "source": "MDR"}, {"title": "Ex-Verkehrsminister Scheuer legt Bundestagsmandat nieder", "url": "https://www.mdr.de/nachrichten/deutschland/politik/scheuer-bundestag-mandat-ruecktritt-100.html", "thumbnailUrl": null, "date": "Mon, 01 Apr 2024 19:13:07 +0200", "lat": 52.517, "lon": 13.3326, "intensity": 0.7, "source": "MDR"}, {"title": "Rettungsh\u00fcndin Blair findet vermissten f\u00fcnfj\u00e4hrigen Jungen in S\u00e4chsischer Schweiz", "url": "https://www.mdr.de/nachrichten/sachsen/dresden/dippoldiswalde-sebnitz/rathen-suche-kind-saechsische-schweiz-vermisst-100.html", "thumbnailUrl": null, "date": "Mon, 01 Apr 2024 12:47:10 +0200", "lat": 50.918, "lon": 14.1232, "intensity": 0.8, "source": "MDR"}, {"title": "FDP-Chef Lindner will Reserve der Bundeswehr st\u00e4rken", "url": "https://www.mdr.de/nachrichten/deutschland/politik/reserve-christian-lindner-fdp-bundeswehr-dienspflicht-100.html", "thumbnailUrl": null, "date": "Mon, 01 Apr 2024 18:19:49 +0200", "lat": 52.52, "lon": 13.405, "intensity": 0.6, "source": "MDR"}, {"title": "Wolmirstedt und Breitenstein: Hunderte bei Osterm\u00e4rschen", "url": "https://www.mdr.de/nachrichten/sachsen-anhalt/ostermaersche-krieg-frieden-wolmirstedt-breitenstein-100.html", "thumbnailUrl": null, "date": "Mon, 01 Apr 2024 17:53:43 +0200", "lat": 52.2077, "lon": 11.6293, "intensity": 0.6, "source": "MDR"}, {"title": "Zu Studienzwecken: Fensterbauer Eurolam in Wiegendorf f\u00fchrt 4-Tage-Woche ein", "url": "https://www.mdr.de/nachrichten/thueringen/mitte-thueringen/weimar/eurolam-wiegendorf-vier-tage-woche-100.html", "thumbnailUrl": null, "date": "Mon, 01 Apr 2024 15:17:45 +0200", "lat": 48.0629, "lon": 11.5847, "intensity": 0.5, "source": "MDR"}, {"title": "Friedensglocke auf dem Fichtelberg verstummt", "url": "https://www.mdr.de/nachrichten/sachsen/chemnitz/annaberg-aue-schwarzenberg/oberwiesenthal-fichtelberg-friedensglocke-symbol-100.html", "thumbnailUrl": null, "date": "Mon, 01 Apr 2024 19:16:54 +0200", "lat": 50.4294, "lon": 12.9724, "intensity": 0.8, "source": "MDR"}, {"title": "Tierische Sensation aus der Oberlausitz: Kaninchen mit gr\u00fcnen Augen?!", "url": "https://www.mdr.de/sachsenradio/hasenkaninchen-gruene-augen-100.html", "thumbnailUrl": null, "date": "Mon, 01 Apr 2024 07:00:00 +0200", "lat": 51.2795, "lon": 14.6507, "intensity": 0.2, "source": "MDR"}, {"title": "in Leichter Sprache", "url": "https://www.mdr.de/nachrichten-leicht/index.html", "thumbnailUrl": null, "date": "Tue, 25 Apr 2023 13:00:01 +0200", "lat": null, "lon": null, "intensity": 0, "source": "MDR"}, {"title": "Welt", "url": "https://www.mdr.de/nachrichten/welt/index.html", "thumbnailUrl": null, "date": "Tue, 25 Apr 2023 10:40:57 +0200", "lat": 0, "lon": 0, "intensity": 0, "source": "MDR"}, {"title": "Deutschland", "url": "https://www.mdr.de/nachrichten/deutschland/index.html", "thumbnailUrl": null, "date": "Tue, 25 Apr 2023 10:41:21 +0200", "lat": 0, "lon": 0, "intensity": 0, "source": "MDR"}, {"title": "Osteuropa", "url": "https://www.mdr.de/nachrichten/welt/osteuropa/index.html", "thumbnailUrl": null, "date": "Tue, 25 Apr 2023 13:02:57 +0200", "lat": 45.9432, "lon": 23.8859, "intensity": 0.5, "source": "MDR"}, {"title": "Wetter", "url": "https://www.mdr.de/wetter/index.html", "thumbnailUrl": null, "date": "Tue, 25 Apr 2023 13:03:23 +0200", "lat": null, "lon": null, "intensity": 0, "source": "MDR"}, {"title": "Verkehr", "url": "https://www.mdrjump.de/verkehr/index.html", "thumbnailUrl": null, "date": "Thu, 09 Jun 2022 11:05:09 +0200", "lat": 51.1657, "lon": 11.6229, "intensity": 0.2, "source": "MDR"}, {"title": "So ver\u00e4ndert sich das Klima in Sachsen, Sachsen-Anhalt und Th\u00fcringen", "url": "https://www.mdr.de/nachrichten/deutschland/panorama/wetter-klima-wandel-daten-archiv-region-100.html", "thumbnailUrl": null, "date": "Mon, 04 Mar 2024 10:27:56 +0100", "lat": 51.339695, "lon": 12.496365, "intensity": 0.6, "source": "MDR"}, {"title": "40 Milliarden f\u00fcr den Ausstieg aus der Braunkohle", "url": "https://www.mdr.de/nachrichten/deutschland/wirtschaft/kohlemilliarden/kohle-ausstieg-foerderung-steuergeld-100.html", "thumbnailUrl": null, "date": "Thu, 07 Dec 2023 14:06:43 +0100", "lat": 52.52, "lon": 13.405, "intensity": 0.7, "source": "MDR"}, {"title": "Schaffen wir die Energiewende? Live-Daten zum Ausbau der Windkraft in Deutschland", "url": "https://www.mdr.de/wissen/windkraft-windenergie-ausbau-deutschland-live-daten-aktuell-100.html", "thumbnailUrl": null, "date": "Thu, 16 Mar 2023 10:28:43 +0100", "lat": 51.1657, "lon": 10.4515, "intensity": 0.8, "source": "MDR"}, {"title": "Mensch Nachbar - der Podcast", "url": "https://www.mdr.de/sachsenradio/podcast/mensch-nachbar/mensch-nachbar-audios-100.html", "thumbnailUrl": null, "date": "Wed, 06 Mar 2024 10:49:37 +0100", "lat": 51.9194, "lon": 15.2551, "intensity": 0.3, "source": "MDR"}, {"title": "Regionalliga: Chemie Leipzig bringt gegen Meuselwitz knappen Vorsprung ins Ziel", "url": "https://www.mdr.de/sport/fussball_rl/spielbericht-regionalliga-nordost-bsg-chemie-leipzig-zfc-meuselwitz-100.html", "thumbnailUrl": null, "date": "Mon, 01 Apr 2024 15:08:00 +0200", "lat": 51.3127, "lon": 12.4245, "intensity": 0.6, "source": "MDR"}, {"title": "Regionalliga: Eilenburg verpasst \u00dcberraschung bei Energie Cottbus", "url": "https://www.mdr.de/sport/fussball_rl/spielbericht-regionalliga-nordost-fc-energie-cottbus-fc-eilenburg-100.html", "thumbnailUrl": null, "date": "Mon, 01 Apr 2024 15:29:25 +0200", "lat": 51.7569, "lon": 14.3325, "intensity": 0.7, "source": "MDR"}, {"title": "Volltreffer-Wahl: Lupfer, Blitztor oder Fallr\u00fcckzieher?", "url": "https://www.mdr.de/sport/sport-im-osten/volltreffer-der-woche-auswahl-lok-leipzig-atilgan-chemie-kirstein-chemnitzer-fc-bozic-100.html", "thumbnailUrl": null, "date": "Mon, 01 Apr 2024 10:00:00 +0200", "lat": 51.339695, "lon": 12.374738, "intensity": 0.5, "source": "MDR"}, {"title": "1. April: Warum Sie heute unbedingt noch Ihren Gasz\u00e4hlerstand dokumentieren sollten", "url": "https://www.mdr.de/nachrichten/deutschland/wirtschaft/zaehler-ablesen-gaspreis-steigt-april-mehrwertsteuer-erhoehung-100.html", "thumbnailUrl": null, "date": "Mon, 01 Apr 2024 07:31:21 +0200", "lat": 0, "lon": 0, "intensity": 0.3, "source": "MDR"}, {"title": "Bahn- und Busfahren im Raum Dresden und in Mittelsachsen jetzt teurer", "url": "https://www.mdr.de/nachrichten/sachsen/ticket-preis-erhoehung-bus-bahn-100.html", "thumbnailUrl": null, "date": "Mon, 01 Apr 2024 17:54:28 +0200", "lat": 51.0504, "lon": 13.7373, "intensity": 0.6, "source": "MDR"}, {"title": "Wohin man im Sommer vom Flughafen Leipzig/Halle fliegen kann", "url": "https://www.mdr.de/nachrichten/deutschland/flughafen-leipzig-halle-sommer-flugplan-100.html", "thumbnailUrl": null, "date": "Mon, 01 Apr 2024 13:59:05 +0200", "lat": 51.4325, "lon": 12.2218, "intensity": 0.3, "source": "MDR"}, {"title": "\u00dcberblick: Welche Salatsorten gibt es?", "url": "https://www.mdr.de/mdr-garten/pflanzen/salat-sorten-arten-welche-kopfsalat-pfluecksalat-blattsalat-100.html", "thumbnailUrl": null, "date": "Wed, 27 Mar 2024 11:16:17 +0100", "lat": 0, "lon": 0, "intensity": 0.3, "source": "MDR"}, {"title": "K\u00f6nigspfalz Helfta bei Eisleben wird Freilichtmuseum", "url": "https://www.mdr.de/nachrichten/sachsen-anhalt/halle/mansfeld/helfta-koenigspfalz-freilicht-museum-archaeologie-100.html", "thumbnailUrl": null, "date": "Mon, 01 Apr 2024 16:24:08 +0200", "lat": 51.5272, "lon": 11.5934, "intensity": 0.6, "source": "MDR"}, {"title": "1. Tag der MDR-Theaterchallenge \"30 Tag im Parkett\": The Bach Project am Landestheater Eisenach", "url": "https://www.mdr.de/nachrichten/thueringen/west-thueringen/eisenach/theaterchallenge-bach-project-landestheater-eisenach-100.html", "thumbnailUrl": null, "date": "Mon, 01 Apr 2024 16:40:32 +0200", "lat": 50.975, "lon": 10.3122, "intensity": 0.5, "source": "MDR"}, {"title": "Chemnitz und Zwickau: 4 besondere Konzerte im April 2024", "url": "https://www.mdr.de/kultur/musik/chemnitz-zwickau-konzerte-tipps-april-100.html", "thumbnailUrl": null, "date": "Fri, 29 Mar 2024 04:00:00 +0100", "lat": 50.8278, "lon": 12.9254, "intensity": 0.6, "source": "MDR"}, {"title": "Bahnwandern: Mit dem Ausflugszug von Zittau nach Nordb\u00f6hmen", "url": "https://www.mdr.de/nachrichten/sachsen/bautzen/goerlitz-weisswasser-zittau/bahnwandern-euroregion-neisse-100.html", "thumbnailUrl": null, "date": "Sun, 31 Mar 2024 18:36:03 +0200", "lat": 50.8968, "lon": 14.8167, "intensity": 0.4, "source": "MDR"}, {"title": "Geplante kommerzielle Raumstation Orbital Reef: Technische H\u00fcrden bestanden", "url": "https://www.mdr.de/wissen/astronomie-raumfahrt/news-gepllante-kommerzielle-raumstation-orbital-reef-besteht-wichtige-tests-100.html", "thumbnailUrl": null, "date": "Mon, 01 Apr 2024 15:59:00 +0200", "lat": 0, "lon": 0, "intensity": 0.7, "source": "MDR"}, {"title": "CGM f\u00fcr Menschen ohne Diabetes: Pro und Kontra von Glukose-Monitoring", "url": "https://www.mdr.de/wissen/medizin-gesundheit/glukose-bewusste-ernaehrung-trend-kritik-100.html", "thumbnailUrl": null, "date": "Mon, 01 Apr 2024 10:50:43 +0200", "lat": 0, "lon": 0, "intensity": 0.4, "source": "MDR"}, {"title": "Wie lebensfreundlich ist der W\u00fcstenplanet Dune wirklich?", "url": "https://www.mdr.de/wissen/astronomie-raumfahrt/wie-realistisch-ist-der-wuestenplanet-arrakis-in-dune-wissenschaftlich-untersucht-100.html", "thumbnailUrl": null, "date": "Sun, 31 Mar 2024 06:59:00 +0200", "lat": 0, "lon": 0, "intensity": 0.5, "source": "MDR"}, {"title": "Mit dem Kofferlabor aus Leipzig gegen antibiotikaresistente Keime in Afrika", "url": "https://www.mdr.de/wissen/medizin-gesundheit/kofferlabor-im-kampf-gegen-antibiotikaresitente-bakterien-in-afrika-100.html", "thumbnailUrl": null, "date": "Sat, 30 Mar 2024 15:59:00 +0100", "lat": 51.3434, "lon": 12.3778, "intensity": 0.8, "source": "MDR"}, {"title": "Tod von Schauspieler Chance Perdomo: Trauer nach Motorradunfall, Netflix Star ist tot, mit 27 Jahren gestorben", "url": "https://www.brisant.de/stars/gestorben/chance-perdomo-tot-102.html", "thumbnailUrl": null, "date": "Mon, 01 Apr 2024 11:59:45 +0200", "lat": 0, "lon": 0, "intensity": 0.8, "source": "MDR"}, {"title": "K\u00f6nig Charles - erster Auftritt nach der Krebs Diagnose - ohne Kate und William", "url": "https://www.brisant.de/royals/britisches-koenigshaus/charles-ostern-krebs-kate-100.html", "thumbnailUrl": null, "date": "Mon, 01 Apr 2024 18:50:52 +0200", "lat": 51.483462, "lon": -0.604278, "intensity": 0.8, "source": "MDR"}, {"title": "H\u00f6rt Lizzo auf: Nach Mobbing und Fake News - verk\u00fcndet sie auf Instagram ihr Karriereende?", "url": "https://www.brisant.de/stars/lizzo-instagram-106.html", "thumbnailUrl": null, "date": "Mon, 01 Apr 2024 12:02:32 +0200", "lat": 0, "lon": 0, "intensity": 0.6, "source": "MDR"}, {"title": "Sachsen-Anhalt: Was die Bezahlkarte f\u00fcr Gefl\u00fcchtete bedeutet", "url": "https://www.mdr.de/nachrichten/sachsen-anhalt/gefluechtete-bezahlkarte-herausforderungen-100.html", "thumbnailUrl": null, "date": "Mon, 01 Apr 2024 05:00:00 +0200", "lat": 52.1205, "lon": 11.6276, "intensity": 0.6, "source": "MDR"}, {"title": "Unfall mit sieben Toten bei Bad Langensalza: Stilles Gedenken in M\u00fchlhausen", "url": "https://www.mdr.de/nachrichten/thueringen/nord-thueringen/unstrut-hainich/unfall-bad-langensalza-stilles-gedenken-muehlhausen-100.html", "thumbnailUrl": null, "date": "Mon, 01 Apr 2024 12:06:22 +0200", "lat": 51.2136, "lon": 10.4538, "intensity": 0.8, "source": "MDR"}, {"title": "Ostern in Polen: Wasserschlacht als Balzritual", "url": "https://www.mdr.de/nachrichten/welt/osteuropa/land-leute/ostern-polen-tradition-100.html", "thumbnailUrl": null, "date": "Mon, 01 Apr 2024 05:00:01 +0200", "lat": 51.9194, "lon": 19.1451, "intensity": 0.7, "source": "MDR"}, {"title": "Preview der Dokumentation \"Hirschhausen \u2013 Medizin von morgen\" in Magdeburg", "url": "https://www.mdr.de/nachrichten/mitmachen/medizin-von-morgen-mit-eckart-von-hirschhausen-100.html", "thumbnailUrl": null, "date": "Thu, 28 Mar 2024 12:56:03 +0100", "lat": 52.1205, "lon": 11.6276, "intensity": 0.3, "source": "MDR"}, {"title": "MDR-Fr\u00fchlingserwachen: Alle Termine zu allen Orten", "url": "https://www.mdr.de/nachrichten/mitmachen/fruehlingserwachen/alles-zum-mdr-fruehlingswachen--100.html", "thumbnailUrl": null, "date": "Mon, 25 Mar 2024 15:59:43 +0100", "lat": 50.5821, "lon": 12.6261, "intensity": 0.5, "source": "MDR"}, {"title": "Kurzfilmzeit: MDR engagiert sich auch 2024 beim Filmfest Dresden", "url": "https://www.mdr.de/presse/kurzfilmzeit-filmfest-dresden-100.html", "thumbnailUrl": null, "date": "Tue, 26 Mar 2024 13:32:13 +0100", "lat": 51.050409, "lon": 13.737262, "intensity": 0.2, "source": "MDR"}, {"title": "Neue Baustellen auf A2, A9 und A38 nach Ostern", "url": "https://www.mdr.de/nachrichten/sachsen-anhalt/magdeburg/autobahn-baustellen-bundesstrasse-alleringersleben-gerwisch-barleben-100.html", "thumbnailUrl": null, "date": "Mon, 01 Apr 2024 16:02:18 +0200", "lat": 52.1205, "lon": 11.6276, "intensity": 0.6, "source": "MDR"}, {"title": "\u00c4hnlichkeit mit SS-Runen: Adidas stoppt Verkauf von deutschen EM-Trikots mit der 44", "url": "https://www.mdr.de/nachrichten/deutschland/wirtschaft/adidas-dfb-trikot-runen-waffen-ss-100.html", "thumbnailUrl": null, "date": "Mon, 01 Apr 2024 18:08:53 +0200", "lat": 53.5511, "lon": 9.9876, "intensity": 0.8, "source": "MDR"}, {"title": "\"Cannabis Social Club\" und Lokalpolitiker demonstrieren in Leipzig", "url": "https://www.mdr.de/nachrichten/sachsen/leipzig/cannabis-legalisierung-demo-augustusplatz-100.html", "thumbnailUrl": null, "date": "Mon, 01 Apr 2024 17:52:46 +0200", "lat": 51.3436, "lon": 12.3879, "intensity": 0.6, "source": "MDR"}, {"title": "Wolf l\u00e4uft MDR-Kameramann direkt vor die Linse", "url": "https://www.mdr.de/nachrichten/sachsen/bautzen/bautzen-hoyerswerda-kamenz/wolf-sichtung-niedergurig-100.html", "thumbnailUrl": null, "date": "Mon, 01 Apr 2024 18:57:48 +0200", "lat": 51.1167, "lon": 14.5333, "intensity": 0.8, "source": "MDR"}, {"title": "Waldbaden in Kohren-Sahlis: Zwischen Pilzkraut und Bl\u00fctenduft die Zeit vergessen", "url": "https://www.mdr.de/nachrichten/sachsen/leipzig/borna-geithain/wald-erholung-natur-ruhe-freizeit-100.html", "thumbnailUrl": null, "date": "Mon, 01 Apr 2024 16:49:54 +0200", "lat": 51.060497, "lon": 12.614219, "intensity": 0.7, "source": "MDR"}, {"title": "Ex-Verkehrsminister Scheuer legt Bundestagsmandat nieder", "url": "https://www.mdr.de/nachrichten/deutschland/politik/scheuer-bundestag-mandat-ruecktritt-100.html", "thumbnailUrl": null, "date": "Mon, 01 Apr 2024 19:13:07 +0200", "lat": 52.517, "lon": 13.3326, "intensity": 0.7, "source": "MDR"}, {"title": "Rettungsh\u00fcndin Blair findet vermissten f\u00fcnfj\u00e4hrigen Jungen in S\u00e4chsischer Schweiz", "url": "https://www.mdr.de/nachrichten/sachsen/dresden/dippoldiswalde-sebnitz/rathen-suche-kind-saechsische-schweiz-vermisst-100.html", "thumbnailUrl": null, "date": "Mon, 01 Apr 2024 12:47:10 +0200", "lat": 50.918, "lon": 14.1232, "intensity": 0.8, "source": "MDR"}, {"title": "FDP-Chef Lindner will Reserve der Bundeswehr st\u00e4rken", "url": "https://www.mdr.de/nachrichten/deutschland/politik/reserve-christian-lindner-fdp-bundeswehr-dienspflicht-100.html", "thumbnailUrl": null, "date": "Mon, 01 Apr 2024 18:19:49 +0200", "lat": 52.52, "lon": 13.405, "intensity": 0.6, "source": "MDR"}, {"title": "Wolmirstedt und Breitenstein: Hunderte bei Osterm\u00e4rschen", "url": "https://www.mdr.de/nachrichten/sachsen-anhalt/ostermaersche-krieg-frieden-wolmirstedt-breitenstein-100.html", "thumbnailUrl": null, "date": "Mon, 01 Apr 2024 17:53:43 +0200", "lat": 52.2077, "lon": 11.6293, "intensity": 0.6, "source": "MDR"}, {"title": "Zu Studienzwecken: Fensterbauer Eurolam in Wiegendorf f\u00fchrt 4-Tage-Woche ein", "url": "https://www.mdr.de/nachrichten/thueringen/mitte-thueringen/weimar/eurolam-wiegendorf-vier-tage-woche-100.html", "thumbnailUrl": null, "date": "Mon, 01 Apr 2024 15:17:45 +0200", "lat": 48.0629, "lon": 11.5847, "intensity": 0.5, "source": "MDR"}, {"title": "Friedensglocke auf dem Fichtelberg verstummt", "url": "https://www.mdr.de/nachrichten/sachsen/chemnitz/annaberg-aue-schwarzenberg/oberwiesenthal-fichtelberg-friedensglocke-symbol-100.html", "thumbnailUrl": null, "date": "Mon, 01 Apr 2024 19:16:54 +0200", "lat": 50.4294, "lon": 12.9724, "intensity": 0.8, "source": "MDR"}, {"title": "Tierische Sensation aus der Oberlausitz: Kaninchen mit gr\u00fcnen Augen?!", "url": "https://www.mdr.de/sachsenradio/hasenkaninchen-gruene-augen-100.html", "thumbnailUrl": null, "date": "Mon, 01 Apr 2024 07:00:00 +0200", "lat": 51.2795, "lon": 14.6507, "intensity": 0.2, "source": "MDR"}, {"title": "in Leichter Sprache", "url": "https://www.mdr.de/nachrichten-leicht/index.html", "thumbnailUrl": null, "date": "Tue, 25 Apr 2023 13:00:01 +0200", "lat": null, "lon": null, "intensity": 0, "source": "MDR"}, {"title": "Welt", "url": "https://www.mdr.de/nachrichten/welt/index.html", "thumbnailUrl": null, "date": "Tue, 25 Apr 2023 10:40:57 +0200", "lat": 0, "lon": 0, "intensity": 0, "source": "MDR"}, {"title": "Deutschland", "url": "https://www.mdr.de/nachrichten/deutschland/index.html", "thumbnailUrl": null, "date": "Tue, 25 Apr 2023 10:41:21 +0200", "lat": 0, "lon": 0, "intensity": 0, "source": "MDR"}, {"title": "Osteuropa", "url": "https://www.mdr.de/nachrichten/welt/osteuropa/index.html", "thumbnailUrl": null, "date": "Tue, 25 Apr 2023 13:02:57 +0200", "lat": 45.9432, "lon": 23.8859, "intensity": 0.5, "source": "MDR"}, {"title": "Wetter", "url": "https://www.mdr.de/wetter/index.html", "thumbnailUrl": null, "date": "Tue, 25 Apr 2023 13:03:23 +0200", "lat": null, "lon": null, "intensity": 0, "source": "MDR"}, {"title": "Verkehr", "url": "https://www.mdrjump.de/verkehr/index.html", "thumbnailUrl": null, "date": "Thu, 09 Jun 2022 11:05:09 +0200", "lat": 51.1657, "lon": 11.6229, "intensity": 0.2, "source": "MDR"}, {"title": "So ver\u00e4ndert sich das Klima in Sachsen, Sachsen-Anhalt und Th\u00fcringen", "url": "https://www.mdr.de/nachrichten/deutschland/panorama/wetter-klima-wandel-daten-archiv-region-100.html", "thumbnailUrl": null, "date": "Mon, 04 Mar 2024 10:27:56 +0100", "lat": 51.339695, "lon": 12.496365, "intensity": 0.6, "source": "MDR"}, {"title": "40 Milliarden f\u00fcr den Ausstieg aus der Braunkohle", "url": "https://www.mdr.de/nachrichten/deutschland/wirtschaft/kohlemilliarden/kohle-ausstieg-foerderung-steuergeld-100.html", "thumbnailUrl": null, "date": "Thu, 07 Dec 2023 14:06:43 +0100", "lat": 52.52, "lon": 13.405, "intensity": 0.7, "source": "MDR"}, {"title": "Schaffen wir die Energiewende? Live-Daten zum Ausbau der Windkraft in Deutschland", "url": "https://www.mdr.de/wissen/windkraft-windenergie-ausbau-deutschland-live-daten-aktuell-100.html", "thumbnailUrl": null, "date": "Thu, 16 Mar 2023 10:28:43 +0100", "lat": 51.1657, "lon": 10.4515, "intensity": 0.8, "source": "MDR"}, {"title": "Mensch Nachbar - der Podcast", "url": "https://www.mdr.de/sachsenradio/podcast/mensch-nachbar/mensch-nachbar-audios-100.html", "thumbnailUrl": null, "date": "Wed, 06 Mar 2024 10:49:37 +0100", "lat": 51.9194, "lon": 15.2551, "intensity": 0.3, "source": "MDR"}, {"title": "Regionalliga: Chemie Leipzig bringt gegen Meuselwitz knappen Vorsprung ins Ziel", "url": "https://www.mdr.de/sport/fussball_rl/spielbericht-regionalliga-nordost-bsg-chemie-leipzig-zfc-meuselwitz-100.html", "thumbnailUrl": null, "date": "Mon, 01 Apr 2024 15:08:00 +0200", "lat": 51.3127, "lon": 12.4245, "intensity": 0.6, "source": "MDR"}, {"title": "Regionalliga: Eilenburg verpasst \u00dcberraschung bei Energie Cottbus", "url": "https://www.mdr.de/sport/fussball_rl/spielbericht-regionalliga-nordost-fc-energie-cottbus-fc-eilenburg-100.html", "thumbnailUrl": null, "date": "Mon, 01 Apr 2024 15:29:25 +0200", "lat": 51.7569, "lon": 14.3325, "intensity": 0.7, "source": "MDR"}, {"title": "Volltreffer-Wahl: Lupfer, Blitztor oder Fallr\u00fcckzieher?", "url": "https://www.mdr.de/sport/sport-im-osten/volltreffer-der-woche-auswahl-lok-leipzig-atilgan-chemie-kirstein-chemnitzer-fc-bozic-100.html", "thumbnailUrl": null, "date": "Mon, 01 Apr 2024 10:00:00 +0200", "lat": 51.339695, "lon": 12.374738, "intensity": 0.5, "source": "MDR"}, {"title": "1. April: Warum Sie heute unbedingt noch Ihren Gasz\u00e4hlerstand dokumentieren sollten", "url": "https://www.mdr.de/nachrichten/deutschland/wirtschaft/zaehler-ablesen-gaspreis-steigt-april-mehrwertsteuer-erhoehung-100.html", "thumbnailUrl": null, "date": "Mon, 01 Apr 2024 07:31:21 +0200", "lat": 0, "lon": 0, "intensity": 0.3, "source": "MDR"}, {"title": "Bahn- und Busfahren im Raum Dresden und in Mittelsachsen jetzt teurer", "url": "https://www.mdr.de/nachrichten/sachsen/ticket-preis-erhoehung-bus-bahn-100.html", "thumbnailUrl": null, "date": "Mon, 01 Apr 2024 17:54:28 +0200", "lat": 51.0504, "lon": 13.7373, "intensity": 0.6, "source": "MDR"}, {"title": "Wohin man im Sommer vom Flughafen Leipzig/Halle fliegen kann", "url": "https://www.mdr.de/nachrichten/deutschland/flughafen-leipzig-halle-sommer-flugplan-100.html", "thumbnailUrl": null, "date": "Mon, 01 Apr 2024 13:59:05 +0200", "lat": 51.4325, "lon": 12.2218, "intensity": 0.3, "source": "MDR"}, {"title": "\u00dcberblick: Welche Salatsorten gibt es?", "url": "https://www.mdr.de/mdr-garten/pflanzen/salat-sorten-arten-welche-kopfsalat-pfluecksalat-blattsalat-100.html", "thumbnailUrl": null, "date": "Wed, 27 Mar 2024 11:16:17 +0100", "lat": 0, "lon": 0, "intensity": 0.3, "source": "MDR"}, {"title": "K\u00f6nigspfalz Helfta bei Eisleben wird Freilichtmuseum", "url": "https://www.mdr.de/nachrichten/sachsen-anhalt/halle/mansfeld/helfta-koenigspfalz-freilicht-museum-archaeologie-100.html", "thumbnailUrl": null, "date": "Mon, 01 Apr 2024 16:24:08 +0200", "lat": 51.5272, "lon": 11.5934, "intensity": 0.6, "source": "MDR"}, {"title": "1. Tag der MDR-Theaterchallenge \"30 Tag im Parkett\": The Bach Project am Landestheater Eisenach", "url": "https://www.mdr.de/nachrichten/thueringen/west-thueringen/eisenach/theaterchallenge-bach-project-landestheater-eisenach-100.html", "thumbnailUrl": null, "date": "Mon, 01 Apr 2024 16:40:32 +0200", "lat": 50.975, "lon": 10.3122, "intensity": 0.5, "source": "MDR"}, {"title": "Chemnitz und Zwickau: 4 besondere Konzerte im April 2024", "url": "https://www.mdr.de/kultur/musik/chemnitz-zwickau-konzerte-tipps-april-100.html", "thumbnailUrl": null, "date": "Fri, 29 Mar 2024 04:00:00 +0100", "lat": 50.8278, "lon": 12.9254, "intensity": 0.6, "source": "MDR"}, {"title": "Bahnwandern: Mit dem Ausflugszug von Zittau nach Nordb\u00f6hmen", "url": "https://www.mdr.de/nachrichten/sachsen/bautzen/goerlitz-weisswasser-zittau/bahnwandern-euroregion-neisse-100.html", "thumbnailUrl": null, "date": "Sun, 31 Mar 2024 18:36:03 +0200", "lat": 50.8968, "lon": 14.8167, "intensity": 0.4, "source": "MDR"}, {"title": "Geplante kommerzielle Raumstation Orbital Reef: Technische H\u00fcrden bestanden", "url": "https://www.mdr.de/wissen/astronomie-raumfahrt/news-gepllante-kommerzielle-raumstation-orbital-reef-besteht-wichtige-tests-100.html", "thumbnailUrl": null, "date": "Mon, 01 Apr 2024 15:59:00 +0200", "lat": 0, "lon": 0, "intensity": 0.7, "source": "MDR"}, {"title": "CGM f\u00fcr Menschen ohne Diabetes: Pro und Kontra von Glukose-Monitoring", "url": "https://www.mdr.de/wissen/medizin-gesundheit/glukose-bewusste-ernaehrung-trend-kritik-100.html", "thumbnailUrl": null, "date": "Mon, 01 Apr 2024 10:50:43 +0200", "lat": 0, "lon": 0, "intensity": 0.4, "source": "MDR"}, {"title": "Wie lebensfreundlich ist der W\u00fcstenplanet Dune wirklich?", "url": "https://www.mdr.de/wissen/astronomie-raumfahrt/wie-realistisch-ist-der-wuestenplanet-arrakis-in-dune-wissenschaftlich-untersucht-100.html", "thumbnailUrl": null, "date": "Sun, 31 Mar 2024 06:59:00 +0200", "lat": 0, "lon": 0, "intensity": 0.5, "source": "MDR"}, {"title": "Mit dem Kofferlabor aus Leipzig gegen antibiotikaresistente Keime in Afrika", "url": "https://www.mdr.de/wissen/medizin-gesundheit/kofferlabor-im-kampf-gegen-antibiotikaresitente-bakterien-in-afrika-100.html", "thumbnailUrl": null, "date": "Sat, 30 Mar 2024 15:59:00 +0100", "lat": 51.3434, "lon": 12.3778, "intensity": 0.8, "source": "MDR"}, {"title": "Tod von Schauspieler Chance Perdomo: Trauer nach Motorradunfall, Netflix Star ist tot, mit 27 Jahren gestorben", "url": "https://www.brisant.de/stars/gestorben/chance-perdomo-tot-102.html", "thumbnailUrl": null, "date": "Mon, 01 Apr 2024 11:59:45 +0200", "lat": 0, "lon": 0, "intensity": 0.8, "source": "MDR"}, {"title": "K\u00f6nig Charles - erster Auftritt nach der Krebs Diagnose - ohne Kate und William", "url": "https://www.brisant.de/royals/britisches-koenigshaus/charles-ostern-krebs-kate-100.html", "thumbnailUrl": null, "date": "Mon, 01 Apr 2024 18:50:52 +0200", "lat": 51.483462, "lon": -0.604278, "intensity": 0.8, "source": "MDR"}, {"title": "H\u00f6rt Lizzo auf: Nach Mobbing und Fake News - verk\u00fcndet sie auf Instagram ihr Karriereende?", "url": "https://www.brisant.de/stars/lizzo-instagram-106.html", "thumbnailUrl": null, "date": "Mon, 01 Apr 2024 12:02:32 +0200", "lat": 0, "lon": 0, "intensity": 0.6, "source": "MDR"}, {"title": "Sachsen-Anhalt: Was die Bezahlkarte f\u00fcr Gefl\u00fcchtete bedeutet", "url": "https://www.mdr.de/nachrichten/sachsen-anhalt/gefluechtete-bezahlkarte-herausforderungen-100.html", "thumbnailUrl": null, "date": "Mon, 01 Apr 2024 05:00:00 +0200", "lat": 52.1205, "lon": 11.6276, "intensity": 0.6, "source": "MDR"}, {"title": "Unfall mit sieben Toten bei Bad Langensalza: Stilles Gedenken in M\u00fchlhausen", "url": "https://www.mdr.de/nachrichten/thueringen/nord-thueringen/unstrut-hainich/unfall-bad-langensalza-stilles-gedenken-muehlhausen-100.html", "thumbnailUrl": null, "date": "Mon, 01 Apr 2024 12:06:22 +0200", "lat": 51.2136, "lon": 10.4538, "intensity": 0.8, "source": "MDR"}, {"title": "Ostern in Polen: Wasserschlacht als Balzritual", "url": "https://www.mdr.de/nachrichten/welt/osteuropa/land-leute/ostern-polen-tradition-100.html", "thumbnailUrl": null, "date": "Mon, 01 Apr 2024 05:00:01 +0200", "lat": 51.9194, "lon": 19.1451, "intensity": 0.7, "source": "MDR"}, {"title": "Preview der Dokumentation \"Hirschhausen \u2013 Medizin von morgen\" in Magdeburg", "url": "https://www.mdr.de/nachrichten/mitmachen/medizin-von-morgen-mit-eckart-von-hirschhausen-100.html", "thumbnailUrl": null, "date": "Thu, 28 Mar 2024 12:56:03 +0100", "lat": 52.1205, "lon": 11.6276, "intensity": 0.3, "source": "MDR"}, {"title": "MDR-Fr\u00fchlingserwachen: Alle Termine zu allen Orten", "url": "https://www.mdr.de/nachrichten/mitmachen/fruehlingserwachen/alles-zum-mdr-fruehlingswachen--100.html", "thumbnailUrl": null, "date": "Mon, 25 Mar 2024 15:59:43 +0100", "lat": 50.5821, "lon": 12.6261, "intensity": 0.5, "source": "MDR"}, {"title": "Kurzfilmzeit: MDR engagiert sich auch 2024 beim Filmfest Dresden", "url": "https://www.mdr.de/presse/kurzfilmzeit-filmfest-dresden-100.html", "thumbnailUrl": null, "date": "Tue, 26 Mar 2024 13:32:13 +0100", "lat": 51.050409, "lon": 13.737262, "intensity": 0.2, "source": "MDR"}, {"title": "Neue Baustellen auf A2, A9 und A38 nach Ostern", "url": "https://www.mdr.de/nachrichten/sachsen-anhalt/magdeburg/autobahn-baustellen-bundesstrasse-alleringersleben-gerwisch-barleben-100.html", "thumbnailUrl": null, "date": "Mon, 01 Apr 2024 16:02:18 +0200", "lat": 52.1205, "lon": 11.6276, "intensity": 0.6, "source": "MDR"}, {"title": "\u00c4hnlichkeit mit SS-Runen: Adidas stoppt Verkauf von deutschen EM-Trikots mit der 44", "url": "https://www.mdr.de/nachrichten/deutschland/wirtschaft/adidas-dfb-trikot-runen-waffen-ss-100.html", "thumbnailUrl": null, "date": "Mon, 01 Apr 2024 18:08:53 +0200", "lat": 53.5511, "lon": 9.9876, "intensity": 0.8, "source": "MDR"}, {"title": "\"Cannabis Social Club\" und Lokalpolitiker demonstrieren in Leipzig", "url": "https://www.mdr.de/nachrichten/sachsen/leipzig/cannabis-legalisierung-demo-augustusplatz-100.html", "thumbnailUrl": null, "date": "Mon, 01 Apr 2024 17:52:46 +0200", "lat": 51.3436, "lon": 12.3879, "intensity": 0.6, "source": "MDR"}, {"title": "Wolf l\u00e4uft MDR-Kameramann direkt vor die Linse", "url": "https://www.mdr.de/nachrichten/sachsen/bautzen/bautzen-hoyerswerda-kamenz/wolf-sichtung-niedergurig-100.html", "thumbnailUrl": null, "date": "Mon, 01 Apr 2024 18:57:48 +0200", "lat": 51.1167, "lon": 14.5333, "intensity": 0.8, "source": "MDR"}, {"title": "Waldbaden in Kohren-Sahlis: Zwischen Pilzkraut und Bl\u00fctenduft die Zeit vergessen", "url": "https://www.mdr.de/nachrichten/sachsen/leipzig/borna-geithain/wald-erholung-natur-ruhe-freizeit-100.html", "thumbnailUrl": null, "date": "Mon, 01 Apr 2024 16:49:54 +0200", "lat": 51.060497, "lon": 12.614219, "intensity": 0.7, "source": "MDR"}, {"title": "Ex-Verkehrsminister Scheuer legt Bundestagsmandat nieder", "url": "https://www.mdr.de/nachrichten/deutschland/politik/scheuer-bundestag-mandat-ruecktritt-100.html", "thumbnailUrl": null, "date": "Mon, 01 Apr 2024 19:13:07 +0200", "lat": 52.517, "lon": 13.3326, "intensity": 0.7, "source": "MDR"}, {"title": "Rettungsh\u00fcndin Blair findet vermissten f\u00fcnfj\u00e4hrigen Jungen in S\u00e4chsischer Schweiz", "url": "https://www.mdr.de/nachrichten/sachsen/dresden/dippoldiswalde-sebnitz/rathen-suche-kind-saechsische-schweiz-vermisst-100.html", "thumbnailUrl": null, "date": "Mon, 01 Apr 2024 12:47:10 +0200", "lat": 50.918, "lon": 14.1232, "intensity": 0.8, "source": "MDR"}, {"title": "FDP-Chef Lindner will Reserve der Bundeswehr st\u00e4rken", "url": "https://www.mdr.de/nachrichten/deutschland/politik/reserve-christian-lindner-fdp-bundeswehr-dienspflicht-100.html", "thumbnailUrl": null, "date": "Mon, 01 Apr 2024 18:19:49 +0200", "lat": 52.52, "lon": 13.405, "intensity": 0.6, "source": "MDR"}, {"title": "Wolmirstedt und Breitenstein: Hunderte bei Osterm\u00e4rschen", "url": "https://www.mdr.de/nachrichten/sachsen-anhalt/ostermaersche-krieg-frieden-wolmirstedt-breitenstein-100.html", "thumbnailUrl": null, "date": "Mon, 01 Apr 2024 17:53:43 +0200", "lat": 52.2077, "lon": 11.6293, "intensity": 0.6, "source": "MDR"}, {"title": "Zu Studienzwecken: Fensterbauer Eurolam in Wiegendorf f\u00fchrt 4-Tage-Woche ein", "url": "https://www.mdr.de/nachrichten/thueringen/mitte-thueringen/weimar/eurolam-wiegendorf-vier-tage-woche-100.html", "thumbnailUrl": null, "date": "Mon, 01 Apr 2024 15:17:45 +0200", "lat": 48.0629, "lon": 11.5847, "intensity": 0.5, "source": "MDR"}, {"title": "Friedensglocke auf dem Fichtelberg verstummt", "url": "https://www.mdr.de/nachrichten/sachsen/chemnitz/annaberg-aue-schwarzenberg/oberwiesenthal-fichtelberg-friedensglocke-symbol-100.html", "thumbnailUrl": null, "date": "Mon, 01 Apr 2024 19:16:54 +0200", "lat": 50.4294, "lon": 12.9724, "intensity": 0.8, "source": "MDR"}, {"title": "Tierische Sensation aus der Oberlausitz: Kaninchen mit gr\u00fcnen Augen?!", "url": "https://www.mdr.de/sachsenradio/hasenkaninchen-gruene-augen-100.html", "thumbnailUrl": null, "date": "Mon, 01 Apr 2024 07:00:00 +0200", "lat": 51.2795, "lon": 14.6507, "intensity": 0.2, "source": "MDR"}, {"title": "in Leichter Sprache", "url": "https://www.mdr.de/nachrichten-leicht/index.html", "thumbnailUrl": null, "date": "Tue, 25 Apr 2023 13:00:01 +0200", "lat": null, "lon": null, "intensity": 0, "source": "MDR"}, {"title": "Welt", "url": "https://www.mdr.de/nachrichten/welt/index.html", "thumbnailUrl": null, "date": "Tue, 25 Apr 2023 10:40:57 +0200", "lat": 0, "lon": 0, "intensity": 0, "source": "MDR"}, {"title": "Deutschland", "url": "https://www.mdr.de/nachrichten/deutschland/index.html", "thumbnailUrl": null, "date": "Tue, 25 Apr 2023 10:41:21 +0200", "lat": 0, "lon": 0, "intensity": 0, "source": "MDR"}, {"title": "Osteuropa", "url": "https://www.mdr.de/nachrichten/welt/osteuropa/index.html", "thumbnailUrl": null, "date": "Tue, 25 Apr 2023 13:02:57 +0200", "lat": 45.9432, "lon": 23.8859, "intensity": 0.5, "source": "MDR"}, {"title": "Wetter", "url": "https://www.mdr.de/wetter/index.html", "thumbnailUrl": null, "date": "Tue, 25 Apr 2023 13:03:23 +0200", "lat": null, "lon": null, "intensity": 0, "source": "MDR"}, {"title": "Verkehr", "url": "https://www.mdrjump.de/verkehr/index.html", "thumbnailUrl": null, "date": "Thu, 09 Jun 2022 11:05:09 +0200", "lat": 51.1657, "lon": 11.6229, "intensity": 0.2, "source": "MDR"}, {"title": "So ver\u00e4ndert sich das Klima in Sachsen, Sachsen-Anhalt und Th\u00fcringen", "url": "https://www.mdr.de/nachrichten/deutschland/panorama/wetter-klima-wandel-daten-archiv-region-100.html", "thumbnailUrl": null, "date": "Mon, 04 Mar 2024 10:27:56 +0100", "lat": 51.339695, "lon": 12.496365, "intensity": 0.6, "source": "MDR"}, {"title": "40 Milliarden f\u00fcr den Ausstieg aus der Braunkohle", "url": "https://www.mdr.de/nachrichten/deutschland/wirtschaft/kohlemilliarden/kohle-ausstieg-foerderung-steuergeld-100.html", "thumbnailUrl": null, "date": "Thu, 07 Dec 2023 14:06:43 +0100", "lat": 52.52, "lon": 13.405, "intensity": 0.7, "source": "MDR"}, {"title": "Schaffen wir die Energiewende? Live-Daten zum Ausbau der Windkraft in Deutschland", "url": "https://www.mdr.de/wissen/windkraft-windenergie-ausbau-deutschland-live-daten-aktuell-100.html", "thumbnailUrl": null, "date": "Thu, 16 Mar 2023 10:28:43 +0100", "lat": 51.1657, "lon": 10.4515, "intensity": 0.8, "source": "MDR"}, {"title": "Mensch Nachbar - der Podcast", "url": "https://www.mdr.de/sachsenradio/podcast/mensch-nachbar/mensch-nachbar-audios-100.html", "thumbnailUrl": null, "date": "Wed, 06 Mar 2024 10:49:37 +0100", "lat": 51.9194, "lon": 15.2551, "intensity": 0.3, "source": "MDR"}, {"title": "Regionalliga: Chemie Leipzig bringt gegen Meuselwitz knappen Vorsprung ins Ziel", "url": "https://www.mdr.de/sport/fussball_rl/spielbericht-regionalliga-nordost-bsg-chemie-leipzig-zfc-meuselwitz-100.html", "thumbnailUrl": null, "date": "Mon, 01 Apr 2024 15:08:00 +0200", "lat": 51.3127, "lon": 12.4245, "intensity": 0.6, "source": "MDR"}, {"title": "Regionalliga: Eilenburg verpasst \u00dcberraschung bei Energie Cottbus", "url": "https://www.mdr.de/sport/fussball_rl/spielbericht-regionalliga-nordost-fc-energie-cottbus-fc-eilenburg-100.html", "thumbnailUrl": null, "date": "Mon, 01 Apr 2024 15:29:25 +0200", "lat": 51.7569, "lon": 14.3325, "intensity": 0.7, "source": "MDR"}, {"title": "Volltreffer-Wahl: Lupfer, Blitztor oder Fallr\u00fcckzieher?", "url": "https://www.mdr.de/sport/sport-im-osten/volltreffer-der-woche-auswahl-lok-leipzig-atilgan-chemie-kirstein-chemnitzer-fc-bozic-100.html", "thumbnailUrl": null, "date": "Mon, 01 Apr 2024 10:00:00 +0200", "lat": 51.339695, "lon": 12.374738, "intensity": 0.5, "source": "MDR"}, {"title": "1. April: Warum Sie heute unbedingt noch Ihren Gasz\u00e4hlerstand dokumentieren sollten", "url": "https://www.mdr.de/nachrichten/deutschland/wirtschaft/zaehler-ablesen-gaspreis-steigt-april-mehrwertsteuer-erhoehung-100.html", "thumbnailUrl": null, "date": "Mon, 01 Apr 2024 07:31:21 +0200", "lat": 0, "lon": 0, "intensity": 0.3, "source": "MDR"}, {"title": "Bahn- und Busfahren im Raum Dresden und in Mittelsachsen jetzt teurer", "url": "https://www.mdr.de/nachrichten/sachsen/ticket-preis-erhoehung-bus-bahn-100.html", "thumbnailUrl": null, "date": "Mon, 01 Apr 2024 17:54:28 +0200", "lat": 51.0504, "lon": 13.7373, "intensity": 0.6, "source": "MDR"}, {"title": "Wohin man im Sommer vom Flughafen Leipzig/Halle fliegen kann", "url": "https://www.mdr.de/nachrichten/deutschland/flughafen-leipzig-halle-sommer-flugplan-100.html", "thumbnailUrl": null, "date": "Mon, 01 Apr 2024 13:59:05 +0200", "lat": 51.4325, "lon": 12.2218, "intensity": 0.3, "source": "MDR"}, {"title": "\u00dcberblick: Welche Salatsorten gibt es?", "url": "https://www.mdr.de/mdr-garten/pflanzen/salat-sorten-arten-welche-kopfsalat-pfluecksalat-blattsalat-100.html", "thumbnailUrl": null, "date": "Wed, 27 Mar 2024 11:16:17 +0100", "lat": 0, "lon": 0, "intensity": 0.3, "source": "MDR"}, {"title": "K\u00f6nigspfalz Helfta bei Eisleben wird Freilichtmuseum", "url": "https://www.mdr.de/nachrichten/sachsen-anhalt/halle/mansfeld/helfta-koenigspfalz-freilicht-museum-archaeologie-100.html", "thumbnailUrl": null, "date": "Mon, 01 Apr 2024 16:24:08 +0200", "lat": 51.5272, "lon": 11.5934, "intensity": 0.6, "source": "MDR"}, {"title": "1. Tag der MDR-Theaterchallenge \"30 Tag im Parkett\": The Bach Project am Landestheater Eisenach", "url": "https://www.mdr.de/nachrichten/thueringen/west-thueringen/eisenach/theaterchallenge-bach-project-landestheater-eisenach-100.html", "thumbnailUrl": null, "date": "Mon, 01 Apr 2024 16:40:32 +0200", "lat": 50.975, "lon": 10.3122, "intensity": 0.5, "source": "MDR"}, {"title": "Chemnitz und Zwickau: 4 besondere Konzerte im April 2024", "url": "https://www.mdr.de/kultur/musik/chemnitz-zwickau-konzerte-tipps-april-100.html", "thumbnailUrl": null, "date": "Fri, 29 Mar 2024 04:00:00 +0100", "lat": 50.8278, "lon": 12.9254, "intensity": 0.6, "source": "MDR"}, {"title": "Bahnwandern: Mit dem Ausflugszug von Zittau nach Nordb\u00f6hmen", "url": "https://www.mdr.de/nachrichten/sachsen/bautzen/goerlitz-weisswasser-zittau/bahnwandern-euroregion-neisse-100.html", "thumbnailUrl": null, "date": "Sun, 31 Mar 2024 18:36:03 +0200", "lat": 50.8968, "lon": 14.8167, "intensity": 0.4, "source": "MDR"}, {"title": "Geplante kommerzielle Raumstation Orbital Reef: Technische H\u00fcrden bestanden", "url": "https://www.mdr.de/wissen/astronomie-raumfahrt/news-gepllante-kommerzielle-raumstation-orbital-reef-besteht-wichtige-tests-100.html", "thumbnailUrl": null, "date": "Mon, 01 Apr 2024 15:59:00 +0200", "lat": 0, "lon": 0, "intensity": 0.7, "source": "MDR"}, {"title": "CGM f\u00fcr Menschen ohne Diabetes: Pro und Kontra von Glukose-Monitoring", "url": "https://www.mdr.de/wissen/medizin-gesundheit/glukose-bewusste-ernaehrung-trend-kritik-100.html", "thumbnailUrl": null, "date": "Mon, 01 Apr 2024 10:50:43 +0200", "lat": 0, "lon": 0, "intensity": 0.4, "source": "MDR"}, {"title": "Wie lebensfreundlich ist der W\u00fcstenplanet Dune wirklich?", "url": "https://www.mdr.de/wissen/astronomie-raumfahrt/wie-realistisch-ist-der-wuestenplanet-arrakis-in-dune-wissenschaftlich-untersucht-100.html", "thumbnailUrl": null, "date": "Sun, 31 Mar 2024 06:59:00 +0200", "lat": 0, "lon": 0, "intensity": 0.5, "source": "MDR"}, {"title": "Mit dem Kofferlabor aus Leipzig gegen antibiotikaresistente Keime in Afrika", "url": "https://www.mdr.de/wissen/medizin-gesundheit/kofferlabor-im-kampf-gegen-antibiotikaresitente-bakterien-in-afrika-100.html", "thumbnailUrl": null, "date": "Sat, 30 Mar 2024 15:59:00 +0100", "lat": 51.3434, "lon": 12.3778, "intensity": 0.8, "source": "MDR"}, {"title": "Tod von Schauspieler Chance Perdomo: Trauer nach Motorradunfall, Netflix Star ist tot, mit 27 Jahren gestorben", "url": "https://www.brisant.de/stars/gestorben/chance-perdomo-tot-102.html", "thumbnailUrl": null, "date": "Mon, 01 Apr 2024 11:59:45 +0200", "lat": 0, "lon": 0, "intensity": 0.8, "source": "MDR"}, {"title": "K\u00f6nig Charles - erster Auftritt nach der Krebs Diagnose - ohne Kate und William", "url": "https://www.brisant.de/royals/britisches-koenigshaus/charles-ostern-krebs-kate-100.html", "thumbnailUrl": null, "date": "Mon, 01 Apr 2024 18:50:52 +0200", "lat": 51.483462, "lon": -0.604278, "intensity": 0.8, "source": "MDR"}, {"title": "H\u00f6rt Lizzo auf: Nach Mobbing und Fake News - verk\u00fcndet sie auf Instagram ihr Karriereende?", "url": "https://www.brisant.de/stars/lizzo-instagram-106.html", "thumbnailUrl": null, "date": "Mon, 01 Apr 2024 12:02:32 +0200", "lat": 0, "lon": 0, "intensity": 0.6, "source": "MDR"}, {"title": "Sachsen-Anhalt: Was die Bezahlkarte f\u00fcr Gefl\u00fcchtete bedeutet", "url": "https://www.mdr.de/nachrichten/sachsen-anhalt/gefluechtete-bezahlkarte-herausforderungen-100.html", "thumbnailUrl": null, "date": "Mon, 01 Apr 2024 05:00:00 +0200", "lat": 52.1205, "lon": 11.6276, "intensity": 0.6, "source": "MDR"}, {"title": "Unfall mit sieben Toten bei Bad Langensalza: Stilles Gedenken in M\u00fchlhausen", "url": "https://www.mdr.de/nachrichten/thueringen/nord-thueringen/unstrut-hainich/unfall-bad-langensalza-stilles-gedenken-muehlhausen-100.html", "thumbnailUrl": null, "date": "Mon, 01 Apr 2024 12:06:22 +0200", "lat": 51.2136, "lon": 10.4538, "intensity": 0.8, "source": "MDR"}, {"title": "Ostern in Polen: Wasserschlacht als Balzritual", "url": "https://www.mdr.de/nachrichten/welt/osteuropa/land-leute/ostern-polen-tradition-100.html", "thumbnailUrl": null, "date": "Mon, 01 Apr 2024 05:00:01 +0200", "lat": 51.9194, "lon": 19.1451, "intensity": 0.7, "source": "MDR"}, {"title": "Preview der Dokumentation \"Hirschhausen \u2013 Medizin von morgen\" in Magdeburg", "url": "https://www.mdr.de/nachrichten/mitmachen/medizin-von-morgen-mit-eckart-von-hirschhausen-100.html", "thumbnailUrl": null, "date": "Thu, 28 Mar 2024 12:56:03 +0100", "lat": 52.1205, "lon": 11.6276, "intensity": 0.3, "source": "MDR"}, {"title": "MDR-Fr\u00fchlingserwachen: Alle Termine zu allen Orten", "url": "https://www.mdr.de/nachrichten/mitmachen/fruehlingserwachen/alles-zum-mdr-fruehlingswachen--100.html", "thumbnailUrl": null, "date": "Mon, 25 Mar 2024 15:59:43 +0100", "lat": 50.5821, "lon": 12.6261, "intensity": 0.5, "source": "MDR"}, {"title": "Kurzfilmzeit: MDR engagiert sich auch 2024 beim Filmfest Dresden", "url": "https://www.mdr.de/presse/kurzfilmzeit-filmfest-dresden-100.html", "thumbnailUrl": null, "date": "Tue, 26 Mar 2024 13:32:13 +0100", "lat": 51.050409, "lon": 13.737262, "intensity": 0.2, "source": "MDR"}, {"title": "Neue Baustellen auf A2, A9 und A38 nach Ostern", "url": "https://www.mdr.de/nachrichten/sachsen-anhalt/magdeburg/autobahn-baustellen-bundesstrasse-alleringersleben-gerwisch-barleben-100.html", "thumbnailUrl": null, "date": "Mon, 01 Apr 2024 16:02:18 +0200", "lat": 52.1205, "lon": 11.6276, "intensity": 0.6, "source": "MDR"}, {"title": "\u00c4hnlichkeit mit SS-Runen: Adidas stoppt Verkauf von deutschen EM-Trikots mit der 44", "url": "https://www.mdr.de/nachrichten/deutschland/wirtschaft/adidas-dfb-trikot-runen-waffen-ss-100.html", "thumbnailUrl": null, "date": "Mon, 01 Apr 2024 18:08:53 +0200", "lat": 53.5511, "lon": 9.9876, "intensity": 0.8, "source": "MDR"}, {"title": "\"Cannabis Social Club\" und Lokalpolitiker demonstrieren in Leipzig", "url": "https://www.mdr.de/nachrichten/sachsen/leipzig/cannabis-legalisierung-demo-augustusplatz-100.html", "thumbnailUrl": null, "date": "Mon, 01 Apr 2024 17:52:46 +0200", "lat": 51.3436, "lon": 12.3879, "intensity": 0.6, "source": "MDR"}, {"title": "Wolf l\u00e4uft MDR-Kameramann direkt vor die Linse", "url": "https://www.mdr.de/nachrichten/sachsen/bautzen/bautzen-hoyerswerda-kamenz/wolf-sichtung-niedergurig-100.html", "thumbnailUrl": null, "date": "Mon, 01 Apr 2024 18:57:48 +0200", "lat": 51.1167, "lon": 14.5333, "intensity": 0.8, "source": "MDR"}, {"title": "Waldbaden in Kohren-Sahlis: Zwischen Pilzkraut und Bl\u00fctenduft die Zeit vergessen", "url": "https://www.mdr.de/nachrichten/sachsen/leipzig/borna-geithain/wald-erholung-natur-ruhe-freizeit-100.html", "thumbnailUrl": null, "date": "Mon, 01 Apr 2024 16:49:54 +0200", "lat": 51.060497, "lon": 12.614219, "intensity": 0.7, "source": "MDR"}, {"title": "Ex-Verkehrsminister Scheuer legt Bundestagsmandat nieder", "url": "https://www.mdr.de/nachrichten/deutschland/politik/scheuer-bundestag-mandat-ruecktritt-100.html", "thumbnailUrl": null, "date": "Mon, 01 Apr 2024 19:13:07 +0200", "lat": 52.517, "lon": 13.3326, "intensity": 0.7, "source": "MDR"}, {"title": "Rettungsh\u00fcndin Blair findet vermissten f\u00fcnfj\u00e4hrigen Jungen in S\u00e4chsischer Schweiz", "url": "https://www.mdr.de/nachrichten/sachsen/dresden/dippoldiswalde-sebnitz/rathen-suche-kind-saechsische-schweiz-vermisst-100.html", "thumbnailUrl": null, "date": "Mon, 01 Apr 2024 12:47:10 +0200", "lat": 50.918, "lon": 14.1232, "intensity": 0.8, "source": "MDR"}, {"title": "FDP-Chef Lindner will Reserve der Bundeswehr st\u00e4rken", "url": "https://www.mdr.de/nachrichten/deutschland/politik/reserve-christian-lindner-fdp-bundeswehr-dienspflicht-100.html", "thumbnailUrl": null, "date": "Mon, 01 Apr 2024 18:19:49 +0200", "lat": 52.52, "lon": 13.405, "intensity": 0.6, "source": "MDR"}, {"title": "Wolmirstedt und Breitenstein: Hunderte bei Osterm\u00e4rschen", "url": "https://www.mdr.de/nachrichten/sachsen-anhalt/ostermaersche-krieg-frieden-wolmirstedt-breitenstein-100.html", "thumbnailUrl": null, "date": "Mon, 01 Apr 2024 17:53:43 +0200", "lat": 52.2077, "lon": 11.6293, "intensity": 0.6, "source": "MDR"}, {"title": "Zu Studienzwecken: Fensterbauer Eurolam in Wiegendorf f\u00fchrt 4-Tage-Woche ein", "url": "https://www.mdr.de/nachrichten/thueringen/mitte-thueringen/weimar/eurolam-wiegendorf-vier-tage-woche-100.html", "thumbnailUrl": null, "date": "Mon, 01 Apr 2024 15:17:45 +0200", "lat": 48.0629, "lon": 11.5847, "intensity": 0.5, "source": "MDR"}, {"title": "Friedensglocke auf dem Fichtelberg verstummt", "url": "https://www.mdr.de/nachrichten/sachsen/chemnitz/annaberg-aue-schwarzenberg/oberwiesenthal-fichtelberg-friedensglocke-symbol-100.html", "thumbnailUrl": null, "date": "Mon, 01 Apr 2024 19:16:54 +0200", "lat": 50.4294, "lon": 12.9724, "intensity": 0.8, "source": "MDR"}, {"title": "Tierische Sensation aus der Oberlausitz: Kaninchen mit gr\u00fcnen Augen?!", "url": "https://www.mdr.de/sachsenradio/hasenkaninchen-gruene-augen-100.html", "thumbnailUrl": null, "date": "Mon, 01 Apr 2024 07:00:00 +0200", "lat": 51.2795, "lon": 14.6507, "intensity": 0.2, "source": "MDR"}, {"title": "in Leichter Sprache", "url": "https://www.mdr.de/nachrichten-leicht/index.html", "thumbnailUrl": null, "date": "Tue, 25 Apr 2023 13:00:01 +0200", "lat": null, "lon": null, "intensity": 0, "source": "MDR"}, {"title": "Welt", "url": "https://www.mdr.de/nachrichten/welt/index.html", "thumbnailUrl": null, "date": "Tue, 25 Apr 2023 10:40:57 +0200", "lat": 0, "lon": 0, "intensity": 0, "source": "MDR"}, {"title": "Deutschland", "url": "https://www.mdr.de/nachrichten/deutschland/index.html", "thumbnailUrl": null, "date": "Tue, 25 Apr 2023 10:41:21 +0200", "lat": 0, "lon": 0, "intensity": 0, "source": "MDR"}, {"title": "Osteuropa", "url": "https://www.mdr.de/nachrichten/welt/osteuropa/index.html", "thumbnailUrl": null, "date": "Tue, 25 Apr 2023 13:02:57 +0200", "lat": 45.9432, "lon": 23.8859, "intensity": 0.5, "source": "MDR"}, {"title": "Wetter", "url": "https://www.mdr.de/wetter/index.html", "thumbnailUrl": null, "date": "Tue, 25 Apr 2023 13:03:23 +0200", "lat": null, "lon": null, "intensity": 0, "source": "MDR"}, {"title": "Verkehr", "url": "https://www.mdrjump.de/verkehr/index.html", "thumbnailUrl": null, "date": "Thu, 09 Jun 2022 11:05:09 +0200", "lat": 51.1657, "lon": 11.6229, "intensity": 0.2, "source": "MDR"}, {"title": "So ver\u00e4ndert sich das Klima in Sachsen, Sachsen-Anhalt und Th\u00fcringen", "url": "https://www.mdr.de/nachrichten/deutschland/panorama/wetter-klima-wandel-daten-archiv-region-100.html", "thumbnailUrl": null, "date": "Mon, 04 Mar 2024 10:27:56 +0100", "lat": 51.339695, "lon": 12.496365, "intensity": 0.6, "source": "MDR"}, {"title": "40 Milliarden f\u00fcr den Ausstieg aus der Braunkohle", "url": "https://www.mdr.de/nachrichten/deutschland/wirtschaft/kohlemilliarden/kohle-ausstieg-foerderung-steuergeld-100.html", "thumbnailUrl": null, "date": "Thu, 07 Dec 2023 14:06:43 +0100", "lat": 52.52, "lon": 13.405, "intensity": 0.7, "source": "MDR"}, {"title": "Schaffen wir die Energiewende? Live-Daten zum Ausbau der Windkraft in Deutschland", "url": "https://www.mdr.de/wissen/windkraft-windenergie-ausbau-deutschland-live-daten-aktuell-100.html", "thumbnailUrl": null, "date": "Thu, 16 Mar 2023 10:28:43 +0100", "lat": 51.1657, "lon": 10.4515, "intensity": 0.8, "source": "MDR"}, {"title": "Mensch Nachbar - der Podcast", "url": "https://www.mdr.de/sachsenradio/podcast/mensch-nachbar/mensch-nachbar-audios-100.html", "thumbnailUrl": null, "date": "Wed, 06 Mar 2024 10:49:37 +0100", "lat": 51.9194, "lon": 15.2551, "intensity": 0.3, "source": "MDR"}, {"title": "Regionalliga: Chemie Leipzig bringt gegen Meuselwitz knappen Vorsprung ins Ziel", "url": "https://www.mdr.de/sport/fussball_rl/spielbericht-regionalliga-nordost-bsg-chemie-leipzig-zfc-meuselwitz-100.html", "thumbnailUrl": null, "date": "Mon, 01 Apr 2024 15:08:00 +0200", "lat": 51.3127, "lon": 12.4245, "intensity": 0.6, "source": "MDR"}, {"title": "Regionalliga: Eilenburg verpasst \u00dcberraschung bei Energie Cottbus", "url": "https://www.mdr.de/sport/fussball_rl/spielbericht-regionalliga-nordost-fc-energie-cottbus-fc-eilenburg-100.html", "thumbnailUrl": null, "date": "Mon, 01 Apr 2024 15:29:25 +0200", "lat": 51.7569, "lon": 14.3325, "intensity": 0.7, "source": "MDR"}, {"title": "Volltreffer-Wahl: Lupfer, Blitztor oder Fallr\u00fcckzieher?", "url": "https://www.mdr.de/sport/sport-im-osten/volltreffer-der-woche-auswahl-lok-leipzig-atilgan-chemie-kirstein-chemnitzer-fc-bozic-100.html", "thumbnailUrl": null, "date": "Mon, 01 Apr 2024 10:00:00 +0200", "lat": 51.339695, "lon": 12.374738, "intensity": 0.5, "source": "MDR"}, {"title": "1. April: Warum Sie heute unbedingt noch Ihren Gasz\u00e4hlerstand dokumentieren sollten", "url": "https://www.mdr.de/nachrichten/deutschland/wirtschaft/zaehler-ablesen-gaspreis-steigt-april-mehrwertsteuer-erhoehung-100.html", "thumbnailUrl": null, "date": "Mon, 01 Apr 2024 07:31:21 +0200", "lat": 0, "lon": 0, "intensity": 0.3, "source": "MDR"}, {"title": "Bahn- und Busfahren im Raum Dresden und in Mittelsachsen jetzt teurer", "url": "https://www.mdr.de/nachrichten/sachsen/ticket-preis-erhoehung-bus-bahn-100.html", "thumbnailUrl": null, "date": "Mon, 01 Apr 2024 17:54:28 +0200", "lat": 51.0504, "lon": 13.7373, "intensity": 0.6, "source": "MDR"}, {"title": "Wohin man im Sommer vom Flughafen Leipzig/Halle fliegen kann", "url": "https://www.mdr.de/nachrichten/deutschland/flughafen-leipzig-halle-sommer-flugplan-100.html", "thumbnailUrl": null, "date": "Mon, 01 Apr 2024 13:59:05 +0200", "lat": 51.4325, "lon": 12.2218, "intensity": 0.3, "source": "MDR"}, {"title": "\u00dcberblick: Welche Salatsorten gibt es?", "url": "https://www.mdr.de/mdr-garten/pflanzen/salat-sorten-arten-welche-kopfsalat-pfluecksalat-blattsalat-100.html", "thumbnailUrl": null, "date": "Wed, 27 Mar 2024 11:16:17 +0100", "lat": 0, "lon": 0, "intensity": 0.3, "source": "MDR"}, {"title": "K\u00f6nigspfalz Helfta bei Eisleben wird Freilichtmuseum", "url": "https://www.mdr.de/nachrichten/sachsen-anhalt/halle/mansfeld/helfta-koenigspfalz-freilicht-museum-archaeologie-100.html", "thumbnailUrl": null, "date": "Mon, 01 Apr 2024 16:24:08 +0200", "lat": 51.5272, "lon": 11.5934, "intensity": 0.6, "source": "MDR"}, {"title": "1. Tag der MDR-Theaterchallenge \"30 Tag im Parkett\": The Bach Project am Landestheater Eisenach", "url": "https://www.mdr.de/nachrichten/thueringen/west-thueringen/eisenach/theaterchallenge-bach-project-landestheater-eisenach-100.html", "thumbnailUrl": null, "date": "Mon, 01 Apr 2024 16:40:32 +0200", "lat": 50.975, "lon": 10.3122, "intensity": 0.5, "source": "MDR"}, {"title": "Chemnitz und Zwickau: 4 besondere Konzerte im April 2024", "url": "https://www.mdr.de/kultur/musik/chemnitz-zwickau-konzerte-tipps-april-100.html", "thumbnailUrl": null, "date": "Fri, 29 Mar 2024 04:00:00 +0100", "lat": 50.8278, "lon": 12.9254, "intensity": 0.6, "source": "MDR"}, {"title": "Bahnwandern: Mit dem Ausflugszug von Zittau nach Nordb\u00f6hmen", "url": "https://www.mdr.de/nachrichten/sachsen/bautzen/goerlitz-weisswasser-zittau/bahnwandern-euroregion-neisse-100.html", "thumbnailUrl": null, "date": "Sun, 31 Mar 2024 18:36:03 +0200", "lat": 50.8968, "lon": 14.8167, "intensity": 0.4, "source": "MDR"}, {"title": "Geplante kommerzielle Raumstation Orbital Reef: Technische H\u00fcrden bestanden", "url": "https://www.mdr.de/wissen/astronomie-raumfahrt/news-gepllante-kommerzielle-raumstation-orbital-reef-besteht-wichtige-tests-100.html", "thumbnailUrl": null, "date": "Mon, 01 Apr 2024 15:59:00 +0200", "lat": 0, "lon": 0, "intensity": 0.7, "source": "MDR"}, {"title": "CGM f\u00fcr Menschen ohne Diabetes: Pro und Kontra von Glukose-Monitoring", "url": "https://www.mdr.de/wissen/medizin-gesundheit/glukose-bewusste-ernaehrung-trend-kritik-100.html", "thumbnailUrl": null, "date": "Mon, 01 Apr 2024 10:50:43 +0200", "lat": 0, "lon": 0, "intensity": 0.4, "source": "MDR"}, {"title": "Wie lebensfreundlich ist der W\u00fcstenplanet Dune wirklich?", "url": "https://www.mdr.de/wissen/astronomie-raumfahrt/wie-realistisch-ist-der-wuestenplanet-arrakis-in-dune-wissenschaftlich-untersucht-100.html", "thumbnailUrl": null, "date": "Sun, 31 Mar 2024 06:59:00 +0200", "lat": 0, "lon": 0, "intensity": 0.5, "source": "MDR"}, {"title": "Mit dem Kofferlabor aus Leipzig gegen antibiotikaresistente Keime in Afrika", "url": "https://www.mdr.de/wissen/medizin-gesundheit/kofferlabor-im-kampf-gegen-antibiotikaresitente-bakterien-in-afrika-100.html", "thumbnailUrl": null, "date": "Sat, 30 Mar 2024 15:59:00 +0100", "lat": 51.3434, "lon": 12.3778, "intensity": 0.8, "source": "MDR"}, {"title": "Tod von Schauspieler Chance Perdomo: Trauer nach Motorradunfall, Netflix Star ist tot, mit 27 Jahren gestorben", "url": "https://www.brisant.de/stars/gestorben/chance-perdomo-tot-102.html", "thumbnailUrl": null, "date": "Mon, 01 Apr 2024 11:59:45 +0200", "lat": 0, "lon": 0, "intensity": 0.8, "source": "MDR"}, {"title": "K\u00f6nig Charles - erster Auftritt nach der Krebs Diagnose - ohne Kate und William", "url": "https://www.brisant.de/royals/britisches-koenigshaus/charles-ostern-krebs-kate-100.html", "thumbnailUrl": null, "date": "Mon, 01 Apr 2024 18:50:52 +0200", "lat": 51.483462, "lon": -0.604278, "intensity": 0.8, "source": "MDR"}, {"title": "H\u00f6rt Lizzo auf: Nach Mobbing und Fake News - verk\u00fcndet sie auf Instagram ihr Karriereende?", "url": "https://www.brisant.de/stars/lizzo-instagram-106.html", "thumbnailUrl": null, "date": "Mon, 01 Apr 2024 12:02:32 +0200", "lat": 0, "lon": 0, "intensity": 0.6, "source": "MDR"}, {"title": "Sachsen-Anhalt: Was die Bezahlkarte f\u00fcr Gefl\u00fcchtete bedeutet", "url": "https://www.mdr.de/nachrichten/sachsen-anhalt/gefluechtete-bezahlkarte-herausforderungen-100.html", "thumbnailUrl": null, "date": "Mon, 01 Apr 2024 05:00:00 +0200", "lat": 52.1205, "lon": 11.6276, "intensity": 0.6, "source": "MDR"}, {"title": "Unfall mit sieben Toten bei Bad Langensalza: Stilles Gedenken in M\u00fchlhausen", "url": "https://www.mdr.de/nachrichten/thueringen/nord-thueringen/unstrut-hainich/unfall-bad-langensalza-stilles-gedenken-muehlhausen-100.html", "thumbnailUrl": null, "date": "Mon, 01 Apr 2024 12:06:22 +0200", "lat": 51.2136, "lon": 10.4538, "intensity": 0.8, "source": "MDR"}, {"title": "Ostern in Polen: Wasserschlacht als Balzritual", "url": "https://www.mdr.de/nachrichten/welt/osteuropa/land-leute/ostern-polen-tradition-100.html", "thumbnailUrl": null, "date": "Mon, 01 Apr 2024 05:00:01 +0200", "lat": 51.9194, "lon": 19.1451, "intensity": 0.7, "source": "MDR"}, {"title": "Preview der Dokumentation \"Hirschhausen \u2013 Medizin von morgen\" in Magdeburg", "url": "https://www.mdr.de/nachrichten/mitmachen/medizin-von-morgen-mit-eckart-von-hirschhausen-100.html", "thumbnailUrl": null, "date": "Thu, 28 Mar 2024 12:56:03 +0100", "lat": 52.1205, "lon": 11.6276, "intensity": 0.3, "source": "MDR"}, {"title": "MDR-Fr\u00fchlingserwachen: Alle Termine zu allen Orten", "url": "https://www.mdr.de/nachrichten/mitmachen/fruehlingserwachen/alles-zum-mdr-fruehlingswachen--100.html", "thumbnailUrl": null, "date": "Mon, 25 Mar 2024 15:59:43 +0100", "lat": 50.5821, "lon": 12.6261, "intensity": 0.5, "source": "MDR"}, {"title": "Kurzfilmzeit: MDR engagiert sich auch 2024 beim Filmfest Dresden", "url": "https://www.mdr.de/presse/kurzfilmzeit-filmfest-dresden-100.html", "thumbnailUrl": null, "date": "Tue, 26 Mar 2024 13:32:13 +0100", "lat": 51.050409, "lon": 13.737262, "intensity": 0.2, "source": "MDR"}, {"title": "Neue Baustellen auf A2, A9 und A38 nach Ostern", "url": "https://www.mdr.de/nachrichten/sachsen-anhalt/magdeburg/autobahn-baustellen-bundesstrasse-alleringersleben-gerwisch-barleben-100.html", "thumbnailUrl": null, "date": "Mon, 01 Apr 2024 16:02:18 +0200", "lat": 52.1205, "lon": 11.6276, "intensity": 0.6, "source": "MDR"}, {"title": "\u00c4hnlichkeit mit SS-Runen: Adidas stoppt Verkauf von deutschen EM-Trikots mit der 44", "url": "https://www.mdr.de/nachrichten/deutschland/wirtschaft/adidas-dfb-trikot-runen-waffen-ss-100.html", "thumbnailUrl": null, "date": "Mon, 01 Apr 2024 18:08:53 +0200", "lat": 53.5511, "lon": 9.9876, "intensity": 0.8, "source": "MDR"}, {"title": "\"Cannabis Social Club\" und Lokalpolitiker demonstrieren in Leipzig", "url": "https://www.mdr.de/nachrichten/sachsen/leipzig/cannabis-legalisierung-demo-augustusplatz-100.html", "thumbnailUrl": null, "date": "Mon, 01 Apr 2024 17:52:46 +0200", "lat": 51.3436, "lon": 12.3879, "intensity": 0.6, "source": "MDR"}, {"title": "Wolf l\u00e4uft MDR-Kameramann direkt vor die Linse", "url": "https://www.mdr.de/nachrichten/sachsen/bautzen/bautzen-hoyerswerda-kamenz/wolf-sichtung-niedergurig-100.html", "thumbnailUrl": null, "date": "Mon, 01 Apr 2024 18:57:48 +0200", "lat": 51.1167, "lon": 14.5333, "intensity": 0.8, "source": "MDR"}, {"title": "Waldbaden in Kohren-Sahlis: Zwischen Pilzkraut und Bl\u00fctenduft die Zeit vergessen", "url": "https://www.mdr.de/nachrichten/sachsen/leipzig/borna-geithain/wald-erholung-natur-ruhe-freizeit-100.html", "thumbnailUrl": null, "date": "Mon, 01 Apr 2024 16:49:54 +0200", "lat": 51.060497, "lon": 12.614219, "intensity": 0.7, "source": "MDR"}, {"title": "Ex-Verkehrsminister Scheuer legt Bundestagsmandat nieder", "url": "https://www.mdr.de/nachrichten/deutschland/politik/scheuer-bundestag-mandat-ruecktritt-100.html", "thumbnailUrl": null, "date": "Mon, 01 Apr 2024 19:13:07 +0200", "lat": 52.517, "lon": 13.3326, "intensity": 0.7, "source": "MDR"}, {"title": "Rettungsh\u00fcndin Blair findet vermissten f\u00fcnfj\u00e4hrigen Jungen in S\u00e4chsischer Schweiz", "url": "https://www.mdr.de/nachrichten/sachsen/dresden/dippoldiswalde-sebnitz/rathen-suche-kind-saechsische-schweiz-vermisst-100.html", "thumbnailUrl": null, "date": "Mon, 01 Apr 2024 12:47:10 +0200", "lat": 50.918, "lon": 14.1232, "intensity": 0.8, "source": "MDR"}, {"title": "FDP-Chef Lindner will Reserve der Bundeswehr st\u00e4rken", "url": "https://www.mdr.de/nachrichten/deutschland/politik/reserve-christian-lindner-fdp-bundeswehr-dienspflicht-100.html", "thumbnailUrl": null, "date": "Mon, 01 Apr 2024 18:19:49 +0200", "lat": 52.52, "lon": 13.405, "intensity": 0.6, "source": "MDR"}, {"title": "Wolmirstedt und Breitenstein: Hunderte bei Osterm\u00e4rschen", "url": "https://www.mdr.de/nachrichten/sachsen-anhalt/ostermaersche-krieg-frieden-wolmirstedt-breitenstein-100.html", "thumbnailUrl": null, "date": "Mon, 01 Apr 2024 17:53:43 +0200", "lat": 52.2077, "lon": 11.6293, "intensity": 0.6, "source": "MDR"}, {"title": "Zu Studienzwecken: Fensterbauer Eurolam in Wiegendorf f\u00fchrt 4-Tage-Woche ein", "url": "https://www.mdr.de/nachrichten/thueringen/mitte-thueringen/weimar/eurolam-wiegendorf-vier-tage-woche-100.html", "thumbnailUrl": null, "date": "Mon, 01 Apr 2024 15:17:45 +0200", "lat": 48.0629, "lon": 11.5847, "intensity": 0.5, "source": "MDR"}, {"title": "Friedensglocke auf dem Fichtelberg verstummt", "url": "https://www.mdr.de/nachrichten/sachsen/chemnitz/annaberg-aue-schwarzenberg/oberwiesenthal-fichtelberg-friedensglocke-symbol-100.html", "thumbnailUrl": null, "date": "Mon, 01 Apr 2024 19:16:54 +0200", "lat": 50.4294, "lon": 12.9724, "intensity": 0.8, "source": "MDR"}, {"title": "Tierische Sensation aus der Oberlausitz: Kaninchen mit gr\u00fcnen Augen?!", "url": "https://www.mdr.de/sachsenradio/hasenkaninchen-gruene-augen-100.html", "thumbnailUrl": null, "date": "Mon, 01 Apr 2024 07:00:00 +0200", "lat": 51.2795, "lon": 14.6507, "intensity": 0.2, "source": "MDR"}, {"title": "in Leichter Sprache", "url": "https://www.mdr.de/nachrichten-leicht/index.html", "thumbnailUrl": null, "date": "Tue, 25 Apr 2023 13:00:01 +0200", "lat": null, "lon": null, "intensity": 0, "source": "MDR"}, {"title": "Welt", "url": "https://www.mdr.de/nachrichten/welt/index.html", "thumbnailUrl": null, "date": "Tue, 25 Apr 2023 10:40:57 +0200", "lat": 0, "lon": 0, "intensity": 0, "source": "MDR"}, {"title": "Deutschland", "url": "https://www.mdr.de/nachrichten/deutschland/index.html", "thumbnailUrl": null, "date": "Tue, 25 Apr 2023 10:41:21 +0200", "lat": 0, "lon": 0, "intensity": 0, "source": "MDR"}, {"title": "Osteuropa", "url": "https://www.mdr.de/nachrichten/welt/osteuropa/index.html", "thumbnailUrl": null, "date": "Tue, 25 Apr 2023 13:02:57 +0200", "lat": 45.9432, "lon": 23.8859, "intensity": 0.5, "source": "MDR"}, {"title": "Wetter", "url": "https://www.mdr.de/wetter/index.html", "thumbnailUrl": null, "date": "Tue, 25 Apr 2023 13:03:23 +0200", "lat": null, "lon": null, "intensity": 0, "source": "MDR"}, {"title": "Verkehr", "url": "https://www.mdrjump.de/verkehr/index.html", "thumbnailUrl": null, "date": "Thu, 09 Jun 2022 11:05:09 +0200", "lat": 51.1657, "lon": 11.6229, "intensity": 0.2, "source": "MDR"}, {"title": "So ver\u00e4ndert sich das Klima in Sachsen, Sachsen-Anhalt und Th\u00fcringen", "url": "https://www.mdr.de/nachrichten/deutschland/panorama/wetter-klima-wandel-daten-archiv-region-100.html", "thumbnailUrl": null, "date": "Mon, 04 Mar 2024 10:27:56 +0100", "lat": 51.339695, "lon": 12.496365, "intensity": 0.6, "source": "MDR"}, {"title": "40 Milliarden f\u00fcr den Ausstieg aus der Braunkohle", "url": "https://www.mdr.de/nachrichten/deutschland/wirtschaft/kohlemilliarden/kohle-ausstieg-foerderung-steuergeld-100.html", "thumbnailUrl": null, "date": "Thu, 07 Dec 2023 14:06:43 +0100", "lat": 52.52, "lon": 13.405, "intensity": 0.7, "source": "MDR"}, {"title": "Schaffen wir die Energiewende? Live-Daten zum Ausbau der Windkraft in Deutschland", "url": "https://www.mdr.de/wissen/windkraft-windenergie-ausbau-deutschland-live-daten-aktuell-100.html", "thumbnailUrl": null, "date": "Thu, 16 Mar 2023 10:28:43 +0100", "lat": 51.1657, "lon": 10.4515, "intensity": 0.8, "source": "MDR"}, {"title": "Mensch Nachbar - der Podcast", "url": "https://www.mdr.de/sachsenradio/podcast/mensch-nachbar/mensch-nachbar-audios-100.html", "thumbnailUrl": null, "date": "Wed, 06 Mar 2024 10:49:37 +0100", "lat": 51.9194, "lon": 15.2551, "intensity": 0.3, "source": "MDR"}, {"title": "Regionalliga: Chemie Leipzig bringt gegen Meuselwitz knappen Vorsprung ins Ziel", "url": "https://www.mdr.de/sport/fussball_rl/spielbericht-regionalliga-nordost-bsg-chemie-leipzig-zfc-meuselwitz-100.html", "thumbnailUrl": null, "date": "Mon, 01 Apr 2024 15:08:00 +0200", "lat": 51.3127, "lon": 12.4245, "intensity": 0.6, "source": "MDR"}, {"title": "Regionalliga: Eilenburg verpasst \u00dcberraschung bei Energie Cottbus", "url": "https://www.mdr.de/sport/fussball_rl/spielbericht-regionalliga-nordost-fc-energie-cottbus-fc-eilenburg-100.html", "thumbnailUrl": null, "date": "Mon, 01 Apr 2024 15:29:25 +0200", "lat": 51.7569, "lon": 14.3325, "intensity": 0.7, "source": "MDR"}, {"title": "Volltreffer-Wahl: Lupfer, Blitztor oder Fallr\u00fcckzieher?", "url": "https://www.mdr.de/sport/sport-im-osten/volltreffer-der-woche-auswahl-lok-leipzig-atilgan-chemie-kirstein-chemnitzer-fc-bozic-100.html", "thumbnailUrl": null, "date": "Mon, 01 Apr 2024 10:00:00 +0200", "lat": 51.339695, "lon": 12.374738, "intensity": 0.5, "source": "MDR"}, {"title": "1. April: Warum Sie heute unbedingt noch Ihren Gasz\u00e4hlerstand dokumentieren sollten", "url": "https://www.mdr.de/nachrichten/deutschland/wirtschaft/zaehler-ablesen-gaspreis-steigt-april-mehrwertsteuer-erhoehung-100.html", "thumbnailUrl": null, "date": "Mon, 01 Apr 2024 07:31:21 +0200", "lat": 0, "lon": 0, "intensity": 0.3, "source": "MDR"}, {"title": "Bahn- und Busfahren im Raum Dresden und in Mittelsachsen jetzt teurer", "url": "https://www.mdr.de/nachrichten/sachsen/ticket-preis-erhoehung-bus-bahn-100.html", "thumbnailUrl": null, "date": "Mon, 01 Apr 2024 17:54:28 +0200", "lat": 51.0504, "lon": 13.7373, "intensity": 0.6, "source": "MDR"}, {"title": "Wohin man im Sommer vom Flughafen Leipzig/Halle fliegen kann", "url": "https://www.mdr.de/nachrichten/deutschland/flughafen-leipzig-halle-sommer-flugplan-100.html", "thumbnailUrl": null, "date": "Mon, 01 Apr 2024 13:59:05 +0200", "lat": 51.4325, "lon": 12.2218, "intensity": 0.3, "source": "MDR"}, {"title": "\u00dcberblick: Welche Salatsorten gibt es?", "url": "https://www.mdr.de/mdr-garten/pflanzen/salat-sorten-arten-welche-kopfsalat-pfluecksalat-blattsalat-100.html", "thumbnailUrl": null, "date": "Wed, 27 Mar 2024 11:16:17 +0100", "lat": 0, "lon": 0, "intensity": 0.3, "source": "MDR"}, {"title": "K\u00f6nigspfalz Helfta bei Eisleben wird Freilichtmuseum", "url": "https://www.mdr.de/nachrichten/sachsen-anhalt/halle/mansfeld/helfta-koenigspfalz-freilicht-museum-archaeologie-100.html", "thumbnailUrl": null, "date": "Mon, 01 Apr 2024 16:24:08 +0200", "lat": 51.5272, "lon": 11.5934, "intensity": 0.6, "source": "MDR"}, {"title": "1. Tag der MDR-Theaterchallenge \"30 Tag im Parkett\": The Bach Project am Landestheater Eisenach", "url": "https://www.mdr.de/nachrichten/thueringen/west-thueringen/eisenach/theaterchallenge-bach-project-landestheater-eisenach-100.html", "thumbnailUrl": null, "date": "Mon, 01 Apr 2024 16:40:32 +0200", "lat": 50.975, "lon": 10.3122, "intensity": 0.5, "source": "MDR"}, {"title": "Chemnitz und Zwickau: 4 besondere Konzerte im April 2024", "url": "https://www.mdr.de/kultur/musik/chemnitz-zwickau-konzerte-tipps-april-100.html", "thumbnailUrl": null, "date": "Fri, 29 Mar 2024 04:00:00 +0100", "lat": 50.8278, "lon": 12.9254, "intensity": 0.6, "source": "MDR"}, {"title": "Bahnwandern: Mit dem Ausflugszug von Zittau nach Nordb\u00f6hmen", "url": "https://www.mdr.de/nachrichten/sachsen/bautzen/goerlitz-weisswasser-zittau/bahnwandern-euroregion-neisse-100.html", "thumbnailUrl": null, "date": "Sun, 31 Mar 2024 18:36:03 +0200", "lat": 50.8968, "lon": 14.8167, "intensity": 0.4, "source": "MDR"}, {"title": "Geplante kommerzielle Raumstation Orbital Reef: Technische H\u00fcrden bestanden", "url": "https://www.mdr.de/wissen/astronomie-raumfahrt/news-gepllante-kommerzielle-raumstation-orbital-reef-besteht-wichtige-tests-100.html", "thumbnailUrl": null, "date": "Mon, 01 Apr 2024 15:59:00 +0200", "lat": 0, "lon": 0, "intensity": 0.7, "source": "MDR"}, {"title": "CGM f\u00fcr Menschen ohne Diabetes: Pro und Kontra von Glukose-Monitoring", "url": "https://www.mdr.de/wissen/medizin-gesundheit/glukose-bewusste-ernaehrung-trend-kritik-100.html", "thumbnailUrl": null, "date": "Mon, 01 Apr 2024 10:50:43 +0200", "lat": 0, "lon": 0, "intensity": 0.4, "source": "MDR"}, {"title": "Wie lebensfreundlich ist der W\u00fcstenplanet Dune wirklich?", "url": "https://www.mdr.de/wissen/astronomie-raumfahrt/wie-realistisch-ist-der-wuestenplanet-arrakis-in-dune-wissenschaftlich-untersucht-100.html", "thumbnailUrl": null, "date": "Sun, 31 Mar 2024 06:59:00 +0200", "lat": 0, "lon": 0, "intensity": 0.5, "source": "MDR"}, {"title": "Mit dem Kofferlabor aus Leipzig gegen antibiotikaresistente Keime in Afrika", "url": "https://www.mdr.de/wissen/medizin-gesundheit/kofferlabor-im-kampf-gegen-antibiotikaresitente-bakterien-in-afrika-100.html", "thumbnailUrl": null, "date": "Sat, 30 Mar 2024 15:59:00 +0100", "lat": 51.3434, "lon": 12.3778, "intensity": 0.8, "source": "MDR"}, {"title": "Tod von Schauspieler Chance Perdomo: Trauer nach Motorradunfall, Netflix Star ist tot, mit 27 Jahren gestorben", "url": "https://www.brisant.de/stars/gestorben/chance-perdomo-tot-102.html", "thumbnailUrl": null, "date": "Mon, 01 Apr 2024 11:59:45 +0200", "lat": 0, "lon": 0, "intensity": 0.8, "source": "MDR"}, {"title": "K\u00f6nig Charles - erster Auftritt nach der Krebs Diagnose - ohne Kate und William", "url": "https://www.brisant.de/royals/britisches-koenigshaus/charles-ostern-krebs-kate-100.html", "thumbnailUrl": null, "date": "Mon, 01 Apr 2024 18:50:52 +0200", "lat": 51.483462, "lon": -0.604278, "intensity": 0.8, "source": "MDR"}, {"title": "H\u00f6rt Lizzo auf: Nach Mobbing und Fake News - verk\u00fcndet sie auf Instagram ihr Karriereende?", "url": "https://www.brisant.de/stars/lizzo-instagram-106.html", "thumbnailUrl": null, "date": "Mon, 01 Apr 2024 12:02:32 +0200", "lat": 0, "lon": 0, "intensity": 0.6, "source": "MDR"}, {"title": "Sachsen-Anhalt: Was die Bezahlkarte f\u00fcr Gefl\u00fcchtete bedeutet", "url": "https://www.mdr.de/nachrichten/sachsen-anhalt/gefluechtete-bezahlkarte-herausforderungen-100.html", "thumbnailUrl": null, "date": "Mon, 01 Apr 2024 05:00:00 +0200", "lat": 52.1205, "lon": 11.6276, "intensity": 0.6, "source": "MDR"}, {"title": "Unfall mit sieben Toten bei Bad Langensalza: Stilles Gedenken in M\u00fchlhausen", "url": "https://www.mdr.de/nachrichten/thueringen/nord-thueringen/unstrut-hainich/unfall-bad-langensalza-stilles-gedenken-muehlhausen-100.html", "thumbnailUrl": null, "date": "Mon, 01 Apr 2024 12:06:22 +0200", "lat": 51.2136, "lon": 10.4538, "intensity": 0.8, "source": "MDR"}, {"title": "Ostern in Polen: Wasserschlacht als Balzritual", "url": "https://www.mdr.de/nachrichten/welt/osteuropa/land-leute/ostern-polen-tradition-100.html", "thumbnailUrl": null, "date": "Mon, 01 Apr 2024 05:00:01 +0200", "lat": 51.9194, "lon": 19.1451, "intensity": 0.7, "source": "MDR"},