[{"title": "Middle East Crisis: Netanyahu Calls Strike That Killed Aid Workers \u2018Tragic\u2019 but Unintentional", "url": "https://www.nytimes.com/live/2024/04/02/world/israel-hamas-war-gaza-news", "thumbnailUrl": "https://static01.nyt.com/images/2024/04/02/multimedia/02mideast-crisis-briefing-promo-750-lcpq/02mideast-crisis-briefing-promo-750-lcpq-mediumSquareAt3X.jpg", "date": "Tue, 02 Apr 2024 17:27:49 +0000", "lat": 31.9522, "lon": 34.4719, "intensity": 0.8, "source": "NY Time"}, {"title": "Iran Says the Deadly Israeli Strike in Damascus Will Not Go Unanswered", "url": "https://www.nytimes.com/2024/04/02/world/middleeast/israel-iran-damascus-strike.html", "thumbnailUrl": "https://static01.nyt.com/images/2024/04/01/multimedia/01mideast-crisis-iran-reaction-israel-strike-top-mvhk/01mideast-crisis-iran-reaction-israel-strike-top-mvhk-mediumSquareAt3X.jpg", "date": "Tue, 02 Apr 2024 15:49:27 +0000", "lat": 33.5138, "lon": 36.2765, "intensity": 0.9, "source": "NY Time"}, {"title": "Fire at Masquerade Nightclub in Istanbul Kills 29", "url": "https://www.nytimes.com/2024/04/02/world/europe/istanbul-nightclub-fire.html", "thumbnailUrl": "https://static01.nyt.com/images/2024/04/02/multimedia/02istanbul-fire-gzlj/02istanbul-fire-gzlj-mediumSquareAt3X.jpg", "date": "Tue, 02 Apr 2024 16:40:01 +0000", "lat": 41.008237, "lon": 28.978445, "intensity": 0.8, "source": "NY Time"}, {"title": "Ukraine Drones Hit Oil Refinery and Factory Deep in Russia", "url": "https://www.nytimes.com/2024/04/02/world/europe/russia-ukraine-drone-strike.html", "thumbnailUrl": null, "date": "Tue, 02 Apr 2024 16:13:11 +0000", "lat": 47.4192, "lon": 39.7262, "intensity": 0.7, "source": "NY Time"}, {"title": "A Timeline of Iran and Israel\u2019s Shadow War Across the Middle East", "url": "https://www.nytimes.com/2024/04/02/world/middleeast/iran-israel-attacks-shadow-war.html", "thumbnailUrl": "https://static01.nyt.com/images/2024/04/02/multimedia/02iran-israel-timeline-qzwj/02iran-israel-timeline-qzwj-mediumSquareAt3X.jpg", "date": "Tue, 02 Apr 2024 14:17:17 +0000", "lat": 33.2232, "lon": 36.2384, "intensity": 0.8, "source": "NY Time"}, {"title": "Adidas Stops Customization of Germany Jersey for Fear of Nazi Symbolism", "url": "https://www.nytimes.com/2024/04/02/world/europe/germany-jersey-customize-nazi-symbol.html", "thumbnailUrl": "https://static01.nyt.com/images/2024/04/02/multimedia/02germany-jerseys-qzlc/02germany-jerseys-qzlc-mediumSquareAt3X.jpg", "date": "Tue, 02 Apr 2024 15:43:47 +0000", "lat": 53.5511, "lon": 9.9937, "intensity": 0.8, "source": "NY Time"}, {"title": "Ukraine\u2019s Arms Industry Is Growing, but Is It Growing Fast Enough?", "url": "https://www.nytimes.com/2024/04/02/us/politics/ukraines-war-weapons-industry-russia.html", "thumbnailUrl": "https://static01.nyt.com/images/2024/03/28/multimedia/00ukraine-weaponsindustry-01-vtph/00ukraine-weaponsindustry-01-vtph-mediumSquareAt3X.jpg", "date": "Tue, 02 Apr 2024 14:48:21 +0000", "lat": 50.4501, "lon": 30.5234, "intensity": 0.8, "source": "NY Time"}, {"title": "Finland School Shooting: 12-Year-Old Suspect Detained After 1 Dead and 2 Injured", "url": "https://www.nytimes.com/2024/04/02/world/europe/finland-school-shooting.html", "thumbnailUrl": "https://static01.nyt.com/images/2024/04/02/multimedia/02finland-shooting-cltv/02finland-shooting-cltv-mediumSquareAt3X.jpg", "date": "Tue, 02 Apr 2024 15:33:39 +0000", "lat": 60.1695, "lon": 24.9354, "intensity": 0.8, "source": "NY Time"}, {"title": "5-Star Bird Houses for Picky but Precious Guests: Nesting Swiftlets", "url": "https://www.nytimes.com/2024/04/02/world/asia/indonesia-borneo-birdnest-soup.html", "thumbnailUrl": "https://static01.nyt.com/images/2024/03/20/multimedia/00Indonesia-birdnest-dispatch-01-lkhg/00Indonesia-birdnest-dispatch-01-lkhg-mediumSquareAt3X.jpg", "date": "Tue, 02 Apr 2024 09:01:20 +0000", "lat": 4.497, "lon": 114.7277, "intensity": 0.8, "source": "NY Time"}, {"title": "Israeli Army Withdraws From Major Gaza Hospital, Leaving Behind a Wasteland", "url": "https://www.nytimes.com/2024/04/02/world/middleeast/gaza-al-shifa-hospital.html", "thumbnailUrl": "https://static01.nyt.com/images/2024/04/01/multimedia/01shifa-scene-zvmb-promo/01shifa-scene-zvmb-mediumSquareAt3X.jpg", "date": "Tue, 02 Apr 2024 15:05:16 +0000", "lat": 31.522596, "lon": 34.445259, "intensity": 0.8, "source": "NY Time"}, {"title": "North Korea Tests Ballistic Missile That Could Reach Guam", "url": "https://www.nytimes.com/2024/04/01/world/asia/north-korea-irbm-missile-guam.html", "thumbnailUrl": "https://static01.nyt.com/images/2024/04/02/multimedia/02nkorea-missile-zcwj/02nkorea-missile-zcwj-mediumSquareAt3X.jpg", "date": "Tue, 02 Apr 2024 03:30:53 +0000", "lat": 37.508, "lon": 126.535, "intensity": 0.8, "source": "NY Time"}, {"title": "What Happened When This Italian Province Invested in Babies", "url": "https://www.nytimes.com/2024/04/01/world/europe/italy-babies-family-benefits.html", "thumbnailUrl": "https://static01.nyt.com/images/2024/04/01/multimedia/01italy-babies-01-twjl/01italy-babies-01-twjl-mediumSquareAt3X.jpg", "date": "Mon, 01 Apr 2024 12:36:42 +0000", "lat": 46.498306, "lon": 11.352436, "intensity": 0.8, "source": "NY Time"}, {"title": "American YouTuber Freed After Kidnapping in Haiti", "url": "https://www.nytimes.com/2024/04/01/world/americas/maalouf-release-haiti-kidnap.html", "thumbnailUrl": null, "date": "Mon, 01 Apr 2024 16:12:37 +0000", "lat": 18.576409, "lon": -72.285215, "intensity": 0.8, "source": "NY Time"}, {"title": "Turkey\u2019s Opposition Strikes Elections Blow to Erdogan\u2019s Party", "url": "https://www.nytimes.com/2024/04/01/world/middleeast/turkey-election-results.html", "thumbnailUrl": "https://static01.nyt.com/images/2024/04/01/multimedia/01turkey-election-pwlc/01turkey-election-pwlc-mediumSquareAt3X.jpg", "date": "Mon, 01 Apr 2024 13:43:04 +0000", "lat": 38.9637, "lon": 35.2433, "intensity": 0.8, "source": "NY Time"}, {"title": "Fears Grow That Syria Strikes Could Spur Retaliatory Attacks on Israel and U.S.", "url": "https://www.nytimes.com/2024/04/02/world/middleeast/syria-strikes-iran-israel-us.html", "thumbnailUrl": "https://static01.nyt.com/images/2024/04/02/multimedia/02mideast-crisis-intel-iran-syria-hgvl/02mideast-crisis-intel-iran-syria-hgvl-mediumSquareAt3X.jpg", "date": "Tue, 02 Apr 2024 17:20:32 +0000", "lat": 33.5138, "lon": 36.2021, "intensity": 0.7, "source": "NY Time"}, {"title": "What We Know About the World Central Kitchen Strike Victims in Gaza", "url": "https://www.nytimes.com/2024/04/02/world/middleeast/world-central-kitchen-victims.html", "thumbnailUrl": "https://static01.nyt.com/images/2024/04/02/multimedia/02mideast-crisis-victims-pfmh/02mideast-crisis-victims-pfmh-mediumSquareAt3X.jpg", "date": "Tue, 02 Apr 2024 15:33:48 +0000", "lat": 31.5106, "lon": 34.3958, "intensity": 0.8, "source": "NY Time"}, {"title": "Strike in Damascus Escalates Israel\u2019s Undeclared War With Iran", "url": "https://www.nytimes.com/2024/04/02/world/middleeast/iran-israel-damascus-strike.html", "thumbnailUrl": "https://static01.nyt.com/images/2024/04/02/multimedia/02mideast-crisis-escalation-01-fbwz/02mideast-crisis-escalation-01-fbwz-mediumSquareAt3X.jpg", "date": "Tue, 02 Apr 2024 16:12:10 +0000", "lat": 33.5123, "lon": 36.202631, "intensity": 0.8, "source": "NY Time"}, {"title": "What We Know About the Strike That Killed World Central Kitchen Workers in Gaza", "url": "https://www.nytimes.com/2024/04/02/world/middleeast/world-central-kitchen-workers-strike-gaza.html", "thumbnailUrl": "https://static01.nyt.com/images/2024/04/02/multimedia/02mideast-crisis-WCK-what-we-know-vzfl/02mideast-crisis-WCK-what-we-know-vzfl-mediumSquareAt3X.jpg", "date": "Tue, 02 Apr 2024 17:07:04 +0000", "lat": 31.51548, "lon": 34.4506, "intensity": 0.8, "source": "NY Time"}, {"title": "Gaza Aid Groups Fear for Safety After Strike on World Central Kitchen", "url": "https://www.nytimes.com/2024/04/02/world/middleeast/gaza-aid-groups-strikes.html", "thumbnailUrl": "https://static01.nyt.com/images/2024/04/02/multimedia/02mideast-crisis-aid-groups-lkmw/02mideast-crisis-aid-groups-lkmw-mediumSquareAt3X.jpg", "date": "Tue, 02 Apr 2024 11:00:18 +0000", "lat": 31.5102, "lon": 34.4535, "intensity": 0.8, "source": "NY Time"}, {"title": "Japan\u2019s Emperor and Royal Family Join Instagram", "url": "https://www.nytimes.com/2024/04/02/world/asia/japan-royal-family-instagram.html", "thumbnailUrl": "https://static01.nyt.com/images/2024/04/02/multimedia/02xp-japanroyals-mjfv/02xp-japanroyals-mjfv-mediumSquareAt3X.jpg", "date": "Tue, 02 Apr 2024 09:23:18 +0000", "lat": 35.6895, "lon": 139.6917, "intensity": 0.2, "source": "NY Time"}, {"title": "Jos\u00e9 Andr\u00e9s\u2019s World Central Kitchen Feeds People in Disaster and War Zones", "url": "https://www.nytimes.com/2024/04/02/world/middleeast/what-is-world-central-kitchen.html", "thumbnailUrl": "https://static01.nyt.com/images/2024/04/02/multimedia/02mideast-crisis-wck-background-qhjb/02mideast-crisis-wck-background-qhjb-mediumSquareAt3X.jpg", "date": "Tue, 02 Apr 2024 16:33:17 +0000", "lat": 31.5107, "lon": 34.3446, "intensity": 0.8, "source": "NY Time"}, {"title": "Tuesday Briefing", "url": "https://www.nytimes.com/2024/04/02/briefing/iran-israel-general-ukraine-aid.html", "thumbnailUrl": "https://static01.nyt.com/images/2024/04/02/multimedia/02ambriefing-europe-nl-promo/02ambriefing-europe-nl-strike-thzq-mediumSquareAt3X.jpg", "date": "Tue, 02 Apr 2024 04:25:36 +0000", "lat": 33.5138, "lon": 36.3236, "intensity": 0.8, "source": "NY Time"}, {"title": "Rishi Sunak Backs J.K. Rowling in Criticism of New Scottish Hate Crime Law", "url": "https://www.nytimes.com/2024/04/01/world/europe/scotland-hate-crime-law.html", "thumbnailUrl": "https://static01.nyt.com/images/2024/05/01/arts/01xp-scotland/01xp-scotland-mediumSquareAt3X.jpg", "date": "Tue, 02 Apr 2024 16:05:10 +0000", "lat": 0, "lon": 0, "intensity": 0, "source": "NY Time"}, {"title": "Tuesday Briefing: Iran Said Israel Killed Top Generals", "url": "https://www.nytimes.com/2024/04/01/world/asia/iran-israel-strike-ukraine-asia.html", "thumbnailUrl": "https://static01.nyt.com/images/2024/04/02/multimedia/02ambriefing-nl-qzgl/02ambriefing-nl-qzgl-mediumSquareAt3X-v4.jpg", "date": "Mon, 01 Apr 2024 21:14:54 +0000", "lat": 35.689506, "lon": 51.388973, "intensity": 0.7, "source": "NY Time"}, {"title": "Lou Conter, Last Survivor of the Battleship Arizona, Dies at 102", "url": "https://www.nytimes.com/2024/04/01/us/lou-conter-dead.html", "thumbnailUrl": "https://static01.nyt.com/images/2024/04/02/multimedia/01Conter--tmlg-print1/01Conter--tmlg-mediumSquareAt3X.jpg", "date": "Mon, 01 Apr 2024 21:33:00 +0000", "lat": 21.3441, "lon": -157.9602, "intensity": 0.7, "source": "NY Time"}, {"title": "Israeli Strike in Syria Kills 7, Including 3 Iranian Commanders", "url": "https://www.nytimes.com/2024/04/01/world/middleeast/iran-commanders-killed-syria-israel.html", "thumbnailUrl": "https://static01.nyt.com/images/2024/04/01/multimedia/01mideast-crisis-ledeall-1-gclq/01mideast-crisis-ledeall-1-gclq-mediumSquareAt3X.jpg", "date": "Tue, 02 Apr 2024 02:23:58 +0000", "lat": 33.0156, "lon": 35.2433, "intensity": 0.8, "source": "NY Time"}, {"title": "Netanyahu Says Israel Will Shut Down Al Jazeera in Israel", "url": "https://www.nytimes.com/2024/04/01/world/middleeast/al-jazeera-israel-netanyahu.html", "thumbnailUrl": "https://static01.nyt.com/images/2024/04/01/multimedia/01mideast-crisis-jazeera-ban-pvqf/01mideast-crisis-jazeera-ban-pvqf-mediumSquareAt3X.jpg", "date": "Tue, 02 Apr 2024 15:49:08 +0000", "lat": 31.7683, "lon": 35.2137, "intensity": 0.8, "source": "NY Time"}, {"title": "Netanyahu Faces Growing Pressure From All Sides", "url": "https://www.nytimes.com/2024/04/01/world/middleeast/netanyahu-protest-pressure.html", "thumbnailUrl": "https://static01.nyt.com/images/2024/04/01/multimedia/01mideast-crisis-netanyahu-pressure-qgwp/01mideast-crisis-netanyahu-pressure-qgwp-mediumSquareAt3X.jpg", "date": "Mon, 01 Apr 2024 18:56:59 +0000", "lat": 31.7683, "lon": 35.2134, "intensity": 0.8, "source": "NY Time"}, {"title": "Betty Cole Dukert, Top \u2018Meet the Press\u2019 Producer, Dies at 96", "url": "https://www.nytimes.com/2024/04/01/business/media/betty-cole-dukert-dead.html", "thumbnailUrl": null, "date": "Mon, 01 Apr 2024 20:17:34 +0000", "lat": 0, "lon": 0, "intensity": 0.2, "source": "NY Time"}, {"title": "Outside Israel\u2019s Parliament, Protesters Explain Why Netanyahu Must Go", "url": "https://www.nytimes.com/2024/04/01/world/middleeast/protests-benjamin-netanyahu.html", "thumbnailUrl": "https://static01.nyt.com/images/2024/04/01/multimedia/01mideast-crisis-protest-scene-hltb/01mideast-crisis-protest-scene-hltb-mediumSquareAt3X.jpg", "date": "Mon, 01 Apr 2024 21:22:14 +0000", "lat": 32.070691, "lon": 34.779494, "intensity": 0.8, "source": "NY Time"}, {"title": "Cease-Fire Talks to Confront How Displaced Palestinians Can Return", "url": "https://www.nytimes.com/2024/04/01/world/middleeast/ceasefire-talks-palestinians.html", "thumbnailUrl": "https://static01.nyt.com/images/2024/03/30/multimedia/01mideast-crisis-negotiations/0mideast-crisis-header-swap330-qkbt-mediumSquareAt3X.jpg", "date": "Mon, 01 Apr 2024 14:40:52 +0000", "lat": 31.952162, "lon": 34.470712, "intensity": 0.7, "source": "NY Time"}, {"title": "The Bizarre Chinese Murder Plot Behind Netflix\u2019s \u20183 Body Problem\u2019", "url": "https://www.nytimes.com/2024/04/01/world/asia/china-three-body-problem-murder.html", "thumbnailUrl": "https://static01.nyt.com/images/2024/04/01/multimedia/01china-threebodyproblem-tzjv/01china-threebodyproblem-tzjv-mediumSquareAt3X.jpg", "date": "Mon, 01 Apr 2024 12:22:30 +0000", "lat": 31.2304, "lon": 121.4737, "intensity": 0.8, "source": "NY Time"}, {"title": "Israeli Soldiers Pull Out of Gaza\u2019s Al-Shifa Hospital After 2-Week Battle", "url": "https://www.nytimes.com/2024/04/01/world/middleeast/gaza-al-shifa-hospital.html", "thumbnailUrl": "https://static01.nyt.com/images/2024/04/01/multimedia/01mideast-crisis-shifa-wftz/01mideast-crisis-shifa-wftz-mediumSquareAt3X.jpg", "date": "Mon, 01 Apr 2024 21:56:49 +0000", "lat": 31.5118, "lon": 34.4594, "intensity": 0.8, "source": "NY Time"}, {"title": "\u2018Oppenheimer\u2019 Opens in Japan, Earning $2.5 Million in First Three Days", "url": "https://www.nytimes.com/2024/04/01/world/asia/oppenheimer-opens-japan.html", "thumbnailUrl": "https://static01.nyt.com/images/2024/04/01/multimedia/01japan-oppenheimer-tckw/01japan-oppenheimer-tckw-mediumSquareAt3X.jpg", "date": "Mon, 01 Apr 2024 14:57:48 +0000", "lat": 35.6895, "lon": 139.6917, "intensity": 0.8, "source": "NY Time"}, {"title": "Monday Briefing", "url": "https://www.nytimes.com/2024/04/01/briefing/israel-protest-russia-defector-killing.html", "thumbnailUrl": "https://static01.nyt.com/images/2024/04/01/multimedia/01ambriefing-europe-nl-israel-promo/01ambriefing-europe-nl-israel-cgql-mediumSquareAt3X.jpg", "date": "Mon, 01 Apr 2024 04:01:32 +0000", "lat": 31.7683, "lon": 35.214, "intensity": 0.6, "source": "NY Time"}, {"title": "Centuries of Irish Archives Destroyed in Civil War Are Being Recreated", "url": "https://www.nytimes.com/2024/04/01/world/europe/ireland-history-virtual-records.html", "thumbnailUrl": "https://static01.nyt.com/images/2024/03/21/multimedia/00ireland-archives-01-cpmw/00ireland-archives-01-cpmw-mediumSquareAt3X.jpg", "date": "Mon, 01 Apr 2024 04:01:19 +0000", "lat": 53.3498, "lon": -6.2603, "intensity": 0.8, "source": "NY Time"}, {"title": "Former Taiwan President Ma Ying-jeou to Visit China", "url": "https://www.nytimes.com/2024/03/31/world/asia/taiwan-china-ma-ying-jeou.html", "thumbnailUrl": "https://static01.nyt.com/images/2024/04/01/multimedia/01china-taiwan-clbp/01china-taiwan-clbp-mediumSquareAt3X.jpg", "date": "Mon, 01 Apr 2024 13:49:29 +0000", "lat": 32.057236, "lon": 118.79927, "intensity": 0.8, "source": "NY Time"}, {"title": "Israeli Protests Against Netanyahu Intensify as Cease-Fire Talks Resume", "url": "https://www.nytimes.com/2024/03/31/world/middleeast/netanyahu-israel-protests-cease-fire.html", "thumbnailUrl": "https://static01.nyt.com/images/2024/03/31/multimedia/31mideast-ledeall-vpbm/31mideast-ledeall-vpbm-mediumSquareAt3X.jpg", "date": "Mon, 01 Apr 2024 06:55:34 +0000", "lat": 31.768319, "lon": 35.21371, "intensity": 0.8, "source": "NY Time"}, {"title": "Palestinian Christians Mark Easter in Gaza\u2019s Only Catholic Church", "url": "https://www.nytimes.com/2024/03/31/world/middleeast/palestinians-easter-catholic-church.html", "thumbnailUrl": "https://static01.nyt.com/images/2024/04/08/multimedia/08MIdeast-Easter-zphb/08MIdeast-Easter-zphb-mediumSquareAt3X.jpg", "date": "Mon, 01 Apr 2024 09:02:18 +0000", "lat": 31.5226, "lon": 34.4458, "intensity": 0.8, "source": "NY Time"}, {"title": "Monday Briefing: Israeli Anger at Netanyahu Grows", "url": "https://www.nytimes.com/2024/03/31/briefing/monday-briefing-israeli-anger-at-netanyahu-grows.html", "thumbnailUrl": "https://static01.nyt.com/images/2024/04/01/multimedia/01ambriefing-asia-nl-pqlb-PROMO/01ambriefing-asia-nl-pqlb-PROMO-mediumSquareAt3X-v2.jpg", "date": "Sun, 31 Mar 2024 20:46:08 +0000", "lat": 31.7683, "lon": 35.2137, "intensity": 0.7, "source": "NY Time"}, {"title": "Benjamin Netanyahu Undergoes Hernia Surgery Amid Mounting Pressure", "url": "https://www.nytimes.com/2024/03/31/world/middleeast/netanyahu-hernia-surgery.html", "thumbnailUrl": "https://static01.nyt.com/images/2024/03/31/multimedia/31mideast-crisis-netanyahu-lbgv/31mideast-crisis-netanyahu-lbgv-mediumSquareAt3X.jpg", "date": "Mon, 01 Apr 2024 02:36:27 +0000", "lat": 31.7683, "lon": 35.2137, "intensity": 0.6, "source": "NY Time"}, {"title": "Pope Francis Calls for Gaza Cease-Fire in Easter Message", "url": "https://www.nytimes.com/2024/03/31/world/europe/pope-francis-easter-speech.html", "thumbnailUrl": "https://static01.nyt.com/images/2024/03/31/multimedia/31pope-hvqz/31pope-hvqz-mediumSquareAt3X.jpg", "date": "Sun, 31 Mar 2024 15:39:13 +0000", "lat": 31.8156, "lon": 34.3667, "intensity": 0.7, "source": "NY Time"}, {"title": "Thousands in Israel Rally Against Netanyahu\u2019s Government", "url": "https://www.nytimes.com/2024/03/31/world/middleeast/netanyahu-protest-tel-aviv.html", "thumbnailUrl": "https://static01.nyt.com/images/2024/03/31/multimedia/31mideast-crisis-israel-protests-01-pmgf/31mideast-crisis-israel-protests-01-pmgf-mediumSquareAt3X.jpg", "date": "Sun, 31 Mar 2024 16:16:04 +0000", "lat": 31.7683, "lon": 35.2137, "intensity": 0.9, "source": "NY Time"}, {"title": "King Charles III Attends Easter Service After Cancer Diagnosis", "url": "https://www.nytimes.com/2024/03/31/world/europe/king-charles-easter-cancer.html", "thumbnailUrl": "https://static01.nyt.com/images/2024/03/31/multimedia/31uk-king-tzcj/31uk-king-tzcj-mediumSquareAt3X.jpg", "date": "Sun, 31 Mar 2024 14:47:10 +0000", "lat": 0, "lon": 0, "intensity": 0.6, "source": "NY Time"}, {"title": "In Yemen, Conflict and Hunger Stalk a Lean Ramadan", "url": "https://www.nytimes.com/2024/03/31/world/middleeast/yemen-hunger-houthis.html", "thumbnailUrl": "https://static01.nyt.com/images/2024/03/31/multimedia/31yemen-1-tcjw/31yemen-1-tcjw-mediumSquareAt3X.jpg", "date": "Sun, 31 Mar 2024 20:09:13 +0000", "lat": 15.552727, "lon": 48.516388, "intensity": 0.8, "source": "NY Time"}, {"title": "Can We Engineer Our Way Out of the Climate Crisis?", "url": "https://www.nytimes.com/2024/03/31/climate/climate-change-carbon-capture-ccs.html", "thumbnailUrl": "https://static01.nyt.com/images/2024/03/31/multimedia/00cli-iceland-top-fgvj/00cli-iceland-top-fgvj-mediumSquareAt3X.jpg", "date": "Mon, 01 Apr 2024 22:16:35 +0000", "lat": 0, "lon": 0, "intensity": 0.6, "source": "NY Time"}, {"title": "A Russian Defector\u2019s Killing Raises Specter of Hit Squads", "url": "https://www.nytimes.com/2024/03/31/world/europe/russian-defector-murder-spain.html", "thumbnailUrl": "https://static01.nyt.com/images/2024/03/28/multimedia/00russia-spain-fghv/00russia-spain-fghv-mediumSquareAt3X-v2.jpg", "date": "Sun, 31 Mar 2024 12:37:51 +0000", "lat": 40.4168, "lon": -3.7038, "intensity": 0.8, "source": "NY Time"}, {"title": "Istanbul Mayor Headed for Re-election, in Blow to Erdogan\u2019s Party", "url": "https://www.nytimes.com/2024/03/31/world/middleeast/istanbul-mayor-race-turkey.html", "thumbnailUrl": "https://static01.nyt.com/images/2024/03/31/multimedia/31istanbul-election-mtvh/31istanbul-election-mtvh-mediumSquareAt3X.jpg", "date": "Mon, 01 Apr 2024 03:43:35 +0000", "lat": 41.0082, "lon": 28.9784, "intensity": 0.8, "source": "NY Time"}, {"title": "Angry Farmers Are Reshaping Europe", "url": "https://www.nytimes.com/2024/03/31/world/europe/angry-farmers-are-reshaping-europe.html", "thumbnailUrl": "https://static01.nyt.com/images/2024/03/28/multimedia/28france-farm-01-lvmg-promo/28france-farm-01-lvmg-mediumSquareAt3X.jpg", "date": "Sun, 31 Mar 2024 04:01:39 +0000", "lat": 48.7758, "lon": 9.7416, "intensity": 0.7, "source": "NY Time"}, {"title": "Water Crisis in India\u2019s Silicon Valley", "url": "https://www.nytimes.com/2024/03/31/world/asia/india-bangalore-water.html", "thumbnailUrl": "https://static01.nyt.com/images/2024/03/28/multimedia/00india-water-01-bkmw/00india-water-01-bkmw-mediumSquareAt3X.jpg", "date": "Tue, 02 Apr 2024 04:38:00 +0000", "lat": 12.9716, "lon": 77.5946, "intensity": 0.8, "source": "NY Time"}, {"title": "Police Raid Peruvian President\u2019s Home, Looking for Rolex Watches", "url": "https://www.nytimes.com/2024/03/30/world/americas/boluarte-peru-police-raid-rolex.html", "thumbnailUrl": "https://static01.nyt.com/images/2024/03/30/multimedia/30peru-president-01-gklp/30peru-president-01-gklp-mediumSquareAt3X.jpg", "date": "Sun, 31 Mar 2024 21:37:24 +0000", "lat": -12.0464, "lon": -77.0428, "intensity": 0.8, "source": "NY Time"}, {"title": "Second Boat Carrying Aid to Gaza Departs Cyprus", "url": "https://www.nytimes.com/2024/03/30/world/middleeast/gaza-aid-ship-famine.html", "thumbnailUrl": "https://static01.nyt.com/images/2024/03/30/multimedia/30mideast-crisis-wck-departs-bmcf/30mideast-crisis-wck-departs-bmcf-mediumSquareAt3X.jpg", "date": "Sat, 30 Mar 2024 22:27:43 +0000", "lat": 35.1264, "lon": 33.4299, "intensity": 0.8, "source": "NY Time"}, {"title": "What a New York Times Photographer Saw on a Gaza Airdrop", "url": "https://www.nytimes.com/2024/03/30/world/middleeast/gaza-aid-airdrop.html", "thumbnailUrl": "https://static01.nyt.com/images/2024/03/29/multimedia/29mideast-crisis-jordanian-airdrop-01-jkhp/29mideast-crisis-jordanian-airdrop-01-jkhp-mediumSquareAt3X.jpg", "date": "Sat, 30 Mar 2024 19:59:14 +0000", "lat": 31.5204, "lon": 34.4374, "intensity": 0.8, "source": "NY Time"}, {"title": "In Praise of Tiny Triumphs", "url": "https://www.nytimes.com/2024/03/30/briefing/in-praise-of-tiny-triumphs.html", "thumbnailUrl": null, "date": "Sat, 30 Mar 2024 10:26:40 +0000", "lat": 0, "lon": 0, "intensity": 0.2, "source": "NY Time"}, {"title": "\u2018Punjabi Wave\u2019 Music Hits the Juno Awards Stage", "url": "https://www.nytimes.com/2024/03/30/world/canada/juno-awards-karan-aujla.html", "thumbnailUrl": "https://static01.nyt.com/images/2024/03/30/multimedia/30canadaletter-mcjk/30canadaletter-mcjk-mediumSquareAt3X.jpg", "date": "Sat, 30 Mar 2024 10:00:02 +0000", "lat": null, "lon": null, "intensity": 0.4, "source": "NY Time"}, {"title": "How African Immigrants Have Revived a Remote Corner of Quebec", "url": "https://www.nytimes.com/2024/03/30/world/canada/rouyn-noranda-immigration-africa.html", "thumbnailUrl": "https://static01.nyt.com/images/2024/03/26/world/00Canada-Africa-promo/00Canada-Africa-mediumSquareAt3X.jpg", "date": "Sat, 30 Mar 2024 09:02:52 +0000", "lat": 48.236619, "lon": -79.020372, "intensity": 0.7, "source": "NY Time"}, {"title": "Troop-Starved Ukrainian Brigades Turn to Marketing to Attract Recruits", "url": "https://www.nytimes.com/2024/03/30/world/europe/ukraine-military-recruits.html", "thumbnailUrl": "https://static01.nyt.com/images/2024/03/20/world/00ukraine-recruits-promo/00ukraine-recruits-mediumSquareAt3X.jpg", "date": "Sat, 30 Mar 2024 09:02:09 +0000", "lat": 50.4501, "lon": 30.5234, "intensity": 0.7, "source": "NY Time"}, {"title": "Middle East Crisis: Netanyahu Calls Strike That Killed Aid Workers \u2018Tragic\u2019 but Unintentional", "url": "https://www.nytimes.com/live/2024/04/02/world/israel-hamas-war-gaza-news", "thumbnailUrl": "https://static01.nyt.com/images/2024/04/02/multimedia/02mideast-crisis-briefing-promo-750-lcpq/02mideast-crisis-briefing-promo-750-lcpq-mediumSquareAt3X.jpg", "date": "Tue, 02 Apr 2024 17:59:39 +0000", "lat": 31.9522, "lon": 34.4719, "intensity": 0.8, "source": "NY Time"}, {"title": "Iran Says the Deadly Israeli Strike in Damascus Will Not Go Unanswered", "url": "https://www.nytimes.com/2024/04/02/world/middleeast/israel-iran-damascus-strike.html", "thumbnailUrl": "https://static01.nyt.com/images/2024/04/01/multimedia/01mideast-crisis-iran-reaction-israel-strike-top-mvhk/01mideast-crisis-iran-reaction-israel-strike-top-mvhk-mediumSquareAt3X.jpg", "date": "Tue, 02 Apr 2024 15:49:27 +0000", "lat": 33.5138, "lon": 36.2765, "intensity": 0.9, "source": "NY Time"}, {"title": "Fire at Masquerade Nightclub in Istanbul Kills 29", "url": "https://www.nytimes.com/2024/04/02/world/europe/istanbul-nightclub-fire.html", "thumbnailUrl": "https://static01.nyt.com/images/2024/04/02/multimedia/02istanbul-fire-gzlj/02istanbul-fire-gzlj-mediumSquareAt3X.jpg", "date": "Tue, 02 Apr 2024 16:40:01 +0000", "lat": 41.008237, "lon": 28.978445, "intensity": 0.8, "source": "NY Time"}, {"title": "Ukraine Drones Hit Oil Refinery and Factory Deep in Russia", "url": "https://www.nytimes.com/2024/04/02/world/europe/russia-ukraine-drone-strike.html", "thumbnailUrl": null, "date": "Tue, 02 Apr 2024 16:13:11 +0000", "lat": 47.4192, "lon": 39.7262, "intensity": 0.7, "source": "NY Time"}, {"title": "A Timeline of Iran and Israel\u2019s Shadow War Across the Middle East", "url": "https://www.nytimes.com/2024/04/02/world/middleeast/iran-israel-attacks-shadow-war.html", "thumbnailUrl": "https://static01.nyt.com/images/2024/04/02/multimedia/02iran-israel-timeline-qzwj/02iran-israel-timeline-qzwj-mediumSquareAt3X.jpg", "date": "Tue, 02 Apr 2024 14:17:17 +0000", "lat": 33.2232, "lon": 36.2384, "intensity": 0.8, "source": "NY Time"}, {"title": "Adidas Stops Customization of Germany Jersey for Fear of Nazi Symbolism", "url": "https://www.nytimes.com/2024/04/02/world/europe/germany-jersey-customize-nazi-symbol.html", "thumbnailUrl": "https://static01.nyt.com/images/2024/04/02/multimedia/02germany-jerseys-qzlc/02germany-jerseys-qzlc-mediumSquareAt3X.jpg", "date": "Tue, 02 Apr 2024 15:43:47 +0000", "lat": 53.5511, "lon": 9.9937, "intensity": 0.8, "source": "NY Time"}, {"title": "Ukraine\u2019s Arms Industry Is Growing, but Is It Growing Fast Enough?", "url": "https://www.nytimes.com/2024/04/02/us/politics/ukraines-war-weapons-industry-russia.html", "thumbnailUrl": "https://static01.nyt.com/images/2024/03/28/multimedia/00ukraine-weaponsindustry-01-vtph/00ukraine-weaponsindustry-01-vtph-mediumSquareAt3X.jpg", "date": "Tue, 02 Apr 2024 14:48:21 +0000", "lat": 50.4501, "lon": 30.5234, "intensity": 0.8, "source": "NY Time"}, {"title": "Finland School Shooting: 12-Year-Old Suspect Detained After 1 Dead and 2 Injured", "url": "https://www.nytimes.com/2024/04/02/world/europe/finland-school-shooting.html", "thumbnailUrl": "https://static01.nyt.com/images/2024/04/02/multimedia/02finland-shooting-cltv/02finland-shooting-cltv-mediumSquareAt3X.jpg", "date": "Tue, 02 Apr 2024 15:33:39 +0000", "lat": 60.1695, "lon": 24.9354, "intensity": 0.8, "source": "NY Time"}, {"title": "5-Star Bird Houses for Picky but Precious Guests: Nesting Swiftlets", "url": "https://www.nytimes.com/2024/04/02/world/asia/indonesia-borneo-birdnest-soup.html", "thumbnailUrl": "https://static01.nyt.com/images/2024/03/20/multimedia/00Indonesia-birdnest-dispatch-01-lkhg/00Indonesia-birdnest-dispatch-01-lkhg-mediumSquareAt3X.jpg", "date": "Tue, 02 Apr 2024 09:01:20 +0000", "lat": 4.497, "lon": 114.7277, "intensity": 0.8, "source": "NY Time"}, {"title": "Israeli Army Withdraws From Major Gaza Hospital, Leaving Behind a Wasteland", "url": "https://www.nytimes.com/2024/04/02/world/middleeast/gaza-al-shifa-hospital.html", "thumbnailUrl": "https://static01.nyt.com/images/2024/04/01/multimedia/01shifa-scene-zvmb-promo/01shifa-scene-zvmb-mediumSquareAt3X.jpg", "date": "Tue, 02 Apr 2024 15:05:16 +0000", "lat": 31.522596, "lon": 34.445259, "intensity": 0.8, "source": "NY Time"}, {"title": "North Korea Tests Ballistic Missile That Could Reach Guam", "url": "https://www.nytimes.com/2024/04/01/world/asia/north-korea-irbm-missile-guam.html", "thumbnailUrl": "https://static01.nyt.com/images/2024/04/02/multimedia/02nkorea-missile-zcwj/02nkorea-missile-zcwj-mediumSquareAt3X.jpg", "date": "Tue, 02 Apr 2024 03:30:53 +0000", "lat": 37.508, "lon": 126.535, "intensity": 0.8, "source": "NY Time"}, {"title": "What Happened When This Italian Province Invested in Babies", "url": "https://www.nytimes.com/2024/04/01/world/europe/italy-babies-family-benefits.html", "thumbnailUrl": "https://static01.nyt.com/images/2024/04/01/multimedia/01italy-babies-01-twjl/01italy-babies-01-twjl-mediumSquareAt3X.jpg", "date": "Mon, 01 Apr 2024 12:36:42 +0000", "lat": 46.498306, "lon": 11.352436, "intensity": 0.8, "source": "NY Time"}, {"title": "American YouTuber Freed After Kidnapping in Haiti", "url": "https://www.nytimes.com/2024/04/01/world/americas/maalouf-release-haiti-kidnap.html", "thumbnailUrl": null, "date": "Mon, 01 Apr 2024 16:12:37 +0000", "lat": 18.576409, "lon": -72.285215, "intensity": 0.8, "source": "NY Time"}, {"title": "Turkey\u2019s Opposition Strikes Elections Blow to Erdogan\u2019s Party", "url": "https://www.nytimes.com/2024/04/01/world/middleeast/turkey-election-results.html", "thumbnailUrl": "https://static01.nyt.com/images/2024/04/01/multimedia/01turkey-election-pwlc/01turkey-election-pwlc-mediumSquareAt3X.jpg", "date": "Mon, 01 Apr 2024 13:43:04 +0000", "lat": 38.9637, "lon": 35.2433, "intensity": 0.8, "source": "NY Time"}, {"title": "Rome\u2019s Future Is a Walk Through Its Past", "url": "https://www.nytimes.com/2024/04/02/world/europe/rome-future-past-downtown.html", "thumbnailUrl": "https://static01.nyt.com/images/2024/04/02/world/02rome/02rome-mediumSquareAt3X.jpg", "date": "Tue, 02 Apr 2024 17:50:36 +0000", "lat": 41.9028, "lon": 12.4964, "intensity": 0.7, "source": "NY Time"}, {"title": "Fears Grow That Syria Strikes Could Spur Retaliatory Attacks on Israel and U.S.", "url": "https://www.nytimes.com/2024/04/02/world/middleeast/syria-strikes-iran-israel-us.html", "thumbnailUrl": "https://static01.nyt.com/images/2024/04/02/multimedia/02mideast-crisis-intel-iran-syria-hgvl/02mideast-crisis-intel-iran-syria-hgvl-mediumSquareAt3X.jpg", "date": "Tue, 02 Apr 2024 17:20:32 +0000", "lat": 33.5138, "lon": 36.2021, "intensity": 0.7, "source": "NY Time"}, {"title": "What We Know About the World Central Kitchen Strike Victims in Gaza", "url": "https://www.nytimes.com/2024/04/02/world/middleeast/world-central-kitchen-victims.html", "thumbnailUrl": "https://static01.nyt.com/images/2024/04/02/multimedia/02mideast-crisis-victims-pfmh/02mideast-crisis-victims-pfmh-mediumSquareAt3X.jpg", "date": "Tue, 02 Apr 2024 15:33:48 +0000", "lat": 31.5106, "lon": 34.3958, "intensity": 0.8, "source": "NY Time"}, {"title": "Strike in Damascus Escalates Israel\u2019s Undeclared War With Iran", "url": "https://www.nytimes.com/2024/04/02/world/middleeast/iran-israel-damascus-strike.html", "thumbnailUrl": "https://static01.nyt.com/images/2024/04/02/multimedia/02mideast-crisis-escalation-01-fbwz/02mideast-crisis-escalation-01-fbwz-mediumSquareAt3X.jpg", "date": "Tue, 02 Apr 2024 16:12:10 +0000", "lat": 33.5123, "lon": 36.202631, "intensity": 0.8, "source": "NY Time"}, {"title": "What We Know About the Strike That Killed World Central Kitchen Workers in Gaza", "url": "https://www.nytimes.com/2024/04/02/world/middleeast/world-central-kitchen-workers-strike-gaza.html", "thumbnailUrl": "https://static01.nyt.com/images/2024/04/02/multimedia/02mideast-crisis-WCK-what-we-know-vzfl/02mideast-crisis-WCK-what-we-know-vzfl-mediumSquareAt3X.jpg", "date": "Tue, 02 Apr 2024 17:59:35 +0000", "lat": 31.51548, "lon": 34.4506, "intensity": 0.8, "source": "NY Time"}, {"title": "Gaza Aid Groups Fear for Safety After Strike on World Central Kitchen", "url": "https://www.nytimes.com/2024/04/02/world/middleeast/gaza-aid-groups-strikes.html", "thumbnailUrl": "https://static01.nyt.com/images/2024/04/02/multimedia/02mideast-crisis-aid-groups-lkmw/02mideast-crisis-aid-groups-lkmw-mediumSquareAt3X.jpg", "date": "Tue, 02 Apr 2024 11:00:18 +0000", "lat": 31.5102, "lon": 34.4535, "intensity": 0.8, "source": "NY Time"}, {"title": "Japan\u2019s Emperor and Royal Family Join Instagram", "url": "https://www.nytimes.com/2024/04/02/world/asia/japan-royal-family-instagram.html", "thumbnailUrl": "https://static01.nyt.com/images/2024/04/02/multimedia/02xp-japanroyals-mjfv/02xp-japanroyals-mjfv-mediumSquareAt3X.jpg", "date": "Tue, 02 Apr 2024 09:23:18 +0000", "lat": 35.6895, "lon": 139.6917, "intensity": 0.2, "source": "NY Time"}, {"title": "Jos\u00e9 Andr\u00e9s\u2019s World Central Kitchen Feeds People in Disaster and War Zones", "url": "https://www.nytimes.com/2024/04/02/world/middleeast/what-is-world-central-kitchen.html", "thumbnailUrl": "https://static01.nyt.com/images/2024/04/02/multimedia/02mideast-crisis-wck-background-qhjb/02mideast-crisis-wck-background-qhjb-mediumSquareAt3X.jpg", "date": "Tue, 02 Apr 2024 16:33:17 +0000", "lat": 31.5107, "lon": 34.3446, "intensity": 0.8, "source": "NY Time"}, {"title": "Tuesday Briefing", "url": "https://www.nytimes.com/2024/04/02/briefing/iran-israel-general-ukraine-aid.html", "thumbnailUrl": "https://static01.nyt.com/images/2024/04/02/multimedia/02ambriefing-europe-nl-promo/02ambriefing-europe-nl-strike-thzq-mediumSquareAt3X.jpg", "date": "Tue, 02 Apr 2024 04:25:36 +0000", "lat": 33.5138, "lon": 36.3236, "intensity": 0.8, "source": "NY Time"}, {"title": "Rishi Sunak Backs J.K. Rowling in Criticism of New Scottish Hate Crime Law", "url": "https://www.nytimes.com/2024/04/01/world/europe/scotland-hate-crime-law.html", "thumbnailUrl": "https://static01.nyt.com/images/2024/05/01/arts/01xp-scotland/01xp-scotland-mediumSquareAt3X.jpg", "date": "Tue, 02 Apr 2024 16:05:10 +0000", "lat": 0, "lon": 0, "intensity": 0, "source": "NY Time"}, {"title": "Tuesday Briefing: Iran Said Israel Killed Top Generals", "url": "https://www.nytimes.com/2024/04/01/world/asia/iran-israel-strike-ukraine-asia.html", "thumbnailUrl": "https://static01.nyt.com/images/2024/04/02/multimedia/02ambriefing-nl-qzgl/02ambriefing-nl-qzgl-mediumSquareAt3X-v4.jpg", "date": "Mon, 01 Apr 2024 21:14:54 +0000", "lat": 35.689506, "lon": 51.388973, "intensity": 0.7, "source": "NY Time"}, {"title": "Lou Conter, Last Survivor of the Battleship Arizona, Dies at 102", "url": "https://www.nytimes.com/2024/04/01/us/lou-conter-dead.html", "thumbnailUrl": "https://static01.nyt.com/images/2024/04/02/multimedia/01Conter--tmlg-print1/01Conter--tmlg-mediumSquareAt3X.jpg", "date": "Mon, 01 Apr 2024 21:33:00 +0000", "lat": 21.3441, "lon": -157.9602, "intensity": 0.7, "source": "NY Time"}, {"title": "Israeli Strike in Syria Kills 7, Including 3 Iranian Commanders", "url": "https://www.nytimes.com/2024/04/01/world/middleeast/iran-commanders-killed-syria-israel.html", "thumbnailUrl": "https://static01.nyt.com/images/2024/04/01/multimedia/01mideast-crisis-ledeall-1-gclq/01mideast-crisis-ledeall-1-gclq-mediumSquareAt3X.jpg", "date": "Tue, 02 Apr 2024 02:23:58 +0000", "lat": 33.0156, "lon": 35.2433, "intensity": 0.8, "source": "NY Time"}, {"title": "Netanyahu Says Israel Will Shut Down Al Jazeera in Israel", "url": "https://www.nytimes.com/2024/04/01/world/middleeast/al-jazeera-israel-netanyahu.html", "thumbnailUrl": "https://static01.nyt.com/images/2024/04/01/multimedia/01mideast-crisis-jazeera-ban-pvqf/01mideast-crisis-jazeera-ban-pvqf-mediumSquareAt3X.jpg", "date": "Tue, 02 Apr 2024 15:49:08 +0000", "lat": 31.7683, "lon": 35.2137, "intensity": 0.8, "source": "NY Time"}, {"title": "Netanyahu Faces Growing Pressure From All Sides", "url": "https://www.nytimes.com/2024/04/01/world/middleeast/netanyahu-protest-pressure.html", "thumbnailUrl": "https://static01.nyt.com/images/2024/04/01/multimedia/01mideast-crisis-netanyahu-pressure-qgwp/01mideast-crisis-netanyahu-pressure-qgwp-mediumSquareAt3X.jpg", "date": "Mon, 01 Apr 2024 18:56:59 +0000", "lat": 31.7683, "lon": 35.2134, "intensity": 0.8, "source": "NY Time"}, {"title": "Betty Cole Dukert, Top \u2018Meet the Press\u2019 Producer, Dies at 96", "url": "https://www.nytimes.com/2024/04/01/business/media/betty-cole-dukert-dead.html", "thumbnailUrl": null, "date": "Mon, 01 Apr 2024 20:17:34 +0000", "lat": 0, "lon": 0, "intensity": 0.2, "source": "NY Time"}, {"title": "Outside Israel\u2019s Parliament, Protesters Explain Why Netanyahu Must Go", "url": "https://www.nytimes.com/2024/04/01/world/middleeast/protests-benjamin-netanyahu.html", "thumbnailUrl": "https://static01.nyt.com/images/2024/04/01/multimedia/01mideast-crisis-protest-scene-hltb/01mideast-crisis-protest-scene-hltb-mediumSquareAt3X.jpg", "date": "Mon, 01 Apr 2024 21:22:14 +0000", "lat": 32.070691, "lon": 34.779494, "intensity": 0.8, "source": "NY Time"}, {"title": "Cease-Fire Talks to Confront How Displaced Palestinians Can Return", "url": "https://www.nytimes.com/2024/04/01/world/middleeast/ceasefire-talks-palestinians.html", "thumbnailUrl": "https://static01.nyt.com/images/2024/03/30/multimedia/01mideast-crisis-negotiations/0mideast-crisis-header-swap330-qkbt-mediumSquareAt3X.jpg", "date": "Mon, 01 Apr 2024 14:40:52 +0000", "lat": 31.952162, "lon": 34.470712, "intensity": 0.7, "source": "NY Time"}, {"title": "The Bizarre Chinese Murder Plot Behind Netflix\u2019s \u20183 Body Problem\u2019", "url": "https://www.nytimes.com/2024/04/01/world/asia/china-three-body-problem-murder.html", "thumbnailUrl": "https://static01.nyt.com/images/2024/04/01/multimedia/01china-threebodyproblem-tzjv/01china-threebodyproblem-tzjv-mediumSquareAt3X.jpg", "date": "Mon, 01 Apr 2024 12:22:30 +0000", "lat": 31.2304, "lon": 121.4737, "intensity": 0.8, "source": "NY Time"}, {"title": "Israeli Soldiers Pull Out of Gaza\u2019s Al-Shifa Hospital After 2-Week Battle", "url": "https://www.nytimes.com/2024/04/01/world/middleeast/gaza-al-shifa-hospital.html", "thumbnailUrl": "https://static01.nyt.com/images/2024/04/01/multimedia/01mideast-crisis-shifa-wftz/01mideast-crisis-shifa-wftz-mediumSquareAt3X.jpg", "date": "Mon, 01 Apr 2024 21:56:49 +0000", "lat": 31.5118, "lon": 34.4594, "intensity": 0.8, "source": "NY Time"}, {"title": "\u2018Oppenheimer\u2019 Opens in Japan, Earning $2.5 Million in First Three Days", "url": "https://www.nytimes.com/2024/04/01/world/asia/oppenheimer-opens-japan.html", "thumbnailUrl": "https://static01.nyt.com/images/2024/04/01/multimedia/01japan-oppenheimer-tckw/01japan-oppenheimer-tckw-mediumSquareAt3X.jpg", "date": "Mon, 01 Apr 2024 14:57:48 +0000", "lat": 35.6895, "lon": 139.6917, "intensity": 0.8, "source": "NY Time"}, {"title": "Monday Briefing", "url": "https://www.nytimes.com/2024/04/01/briefing/israel-protest-russia-defector-killing.html", "thumbnailUrl": "https://static01.nyt.com/images/2024/04/01/multimedia/01ambriefing-europe-nl-israel-promo/01ambriefing-europe-nl-israel-cgql-mediumSquareAt3X.jpg", "date": "Mon, 01 Apr 2024 04:01:32 +0000", "lat": 31.7683, "lon": 35.214, "intensity": 0.6, "source": "NY Time"}, {"title": "Centuries of Irish Archives Destroyed in Civil War Are Being Recreated", "url": "https://www.nytimes.com/2024/04/01/world/europe/ireland-history-virtual-records.html", "thumbnailUrl": "https://static01.nyt.com/images/2024/03/21/multimedia/00ireland-archives-01-cpmw/00ireland-archives-01-cpmw-mediumSquareAt3X.jpg", "date": "Mon, 01 Apr 2024 04:01:19 +0000", "lat": 53.3498, "lon": -6.2603, "intensity": 0.8, "source": "NY Time"}, {"title": "Former Taiwan President Ma Ying-jeou to Visit China", "url": "https://www.nytimes.com/2024/03/31/world/asia/taiwan-china-ma-ying-jeou.html", "thumbnailUrl": "https://static01.nyt.com/images/2024/04/01/multimedia/01china-taiwan-clbp/01china-taiwan-clbp-mediumSquareAt3X.jpg", "date": "Mon, 01 Apr 2024 13:49:29 +0000", "lat": 32.057236, "lon": 118.79927, "intensity": 0.8, "source": "NY Time"}, {"title": "Israeli Protests Against Netanyahu Intensify as Cease-Fire Talks Resume", "url": "https://www.nytimes.com/2024/03/31/world/middleeast/netanyahu-israel-protests-cease-fire.html", "thumbnailUrl": "https://static01.nyt.com/images/2024/03/31/multimedia/31mideast-ledeall-vpbm/31mideast-ledeall-vpbm-mediumSquareAt3X.jpg", "date": "Mon, 01 Apr 2024 06:55:34 +0000", "lat": 31.768319, "lon": 35.21371, "intensity": 0.8, "source": "NY Time"}, {"title": "Palestinian Christians Mark Easter in Gaza\u2019s Only Catholic Church", "url": "https://www.nytimes.com/2024/03/31/world/middleeast/palestinians-easter-catholic-church.html", "thumbnailUrl": "https://static01.nyt.com/images/2024/04/08/multimedia/08MIdeast-Easter-zphb/08MIdeast-Easter-zphb-mediumSquareAt3X.jpg", "date": "Mon, 01 Apr 2024 09:02:18 +0000", "lat": 31.5226, "lon": 34.4458, "intensity": 0.8, "source": "NY Time"}, {"title": "Monday Briefing: Israeli Anger at Netanyahu Grows", "url": "https://www.nytimes.com/2024/03/31/briefing/monday-briefing-israeli-anger-at-netanyahu-grows.html", "thumbnailUrl": "https://static01.nyt.com/images/2024/04/01/multimedia/01ambriefing-asia-nl-pqlb-PROMO/01ambriefing-asia-nl-pqlb-PROMO-mediumSquareAt3X-v2.jpg", "date": "Sun, 31 Mar 2024 20:46:08 +0000", "lat": 31.7683, "lon": 35.2137, "intensity": 0.7, "source": "NY Time"}, {"title": "Benjamin Netanyahu Undergoes Hernia Surgery Amid Mounting Pressure", "url": "https://www.nytimes.com/2024/03/31/world/middleeast/netanyahu-hernia-surgery.html", "thumbnailUrl": "https://static01.nyt.com/images/2024/03/31/multimedia/31mideast-crisis-netanyahu-lbgv/31mideast-crisis-netanyahu-lbgv-mediumSquareAt3X.jpg", "date": "Mon, 01 Apr 2024 02:36:27 +0000", "lat": 31.7683, "lon": 35.2137, "intensity": 0.6, "source": "NY Time"}, {"title": "Pope Francis Calls for Gaza Cease-Fire in Easter Message", "url": "https://www.nytimes.com/2024/03/31/world/europe/pope-francis-easter-speech.html", "thumbnailUrl": "https://static01.nyt.com/images/2024/03/31/multimedia/31pope-hvqz/31pope-hvqz-mediumSquareAt3X.jpg", "date": "Sun, 31 Mar 2024 15:39:13 +0000", "lat": 31.8156, "lon": 34.3667, "intensity": 0.7, "source": "NY Time"}, {"title": "Thousands in Israel Rally Against Netanyahu\u2019s Government", "url": "https://www.nytimes.com/2024/03/31/world/middleeast/netanyahu-protest-tel-aviv.html", "thumbnailUrl": "https://static01.nyt.com/images/2024/03/31/multimedia/31mideast-crisis-israel-protests-01-pmgf/31mideast-crisis-israel-protests-01-pmgf-mediumSquareAt3X.jpg", "date": "Sun, 31 Mar 2024 16:16:04 +0000", "lat": 31.7683, "lon": 35.2137, "intensity": 0.9, "source": "NY Time"}, {"title": "King Charles III Attends Easter Service After Cancer Diagnosis", "url": "https://www.nytimes.com/2024/03/31/world/europe/king-charles-easter-cancer.html", "thumbnailUrl": "https://static01.nyt.com/images/2024/03/31/multimedia/31uk-king-tzcj/31uk-king-tzcj-mediumSquareAt3X.jpg", "date": "Sun, 31 Mar 2024 14:47:10 +0000", "lat": 0, "lon": 0, "intensity": 0.6, "source": "NY Time"}, {"title": "In Yemen, Conflict and Hunger Stalk a Lean Ramadan", "url": "https://www.nytimes.com/2024/03/31/world/middleeast/yemen-hunger-houthis.html", "thumbnailUrl": "https://static01.nyt.com/images/2024/03/31/multimedia/31yemen-1-tcjw/31yemen-1-tcjw-mediumSquareAt3X.jpg", "date": "Sun, 31 Mar 2024 20:09:13 +0000", "lat": 15.552727, "lon": 48.516388, "intensity": 0.8, "source": "NY Time"}, {"title": "Can We Engineer Our Way Out of the Climate Crisis?", "url": "https://www.nytimes.com/2024/03/31/climate/climate-change-carbon-capture-ccs.html", "thumbnailUrl": "https://static01.nyt.com/images/2024/03/31/multimedia/00cli-iceland-top-fgvj/00cli-iceland-top-fgvj-mediumSquareAt3X.jpg", "date": "Mon, 01 Apr 2024 22:16:35 +0000", "lat": 0, "lon": 0, "intensity": 0.6, "source": "NY Time"}, {"title": "A Russian Defector\u2019s Killing Raises Specter of Hit Squads", "url": "https://www.nytimes.com/2024/03/31/world/europe/russian-defector-murder-spain.html", "thumbnailUrl": "https://static01.nyt.com/images/2024/03/28/multimedia/00russia-spain-fghv/00russia-spain-fghv-mediumSquareAt3X-v2.jpg", "date": "Sun, 31 Mar 2024 12:37:51 +0000", "lat": 40.4168, "lon": -3.7038, "intensity": 0.8, "source": "NY Time"}, {"title": "Istanbul Mayor Headed for Re-election, in Blow to Erdogan\u2019s Party", "url": "https://www.nytimes.com/2024/03/31/world/middleeast/istanbul-mayor-race-turkey.html", "thumbnailUrl": "https://static01.nyt.com/images/2024/03/31/multimedia/31istanbul-election-mtvh/31istanbul-election-mtvh-mediumSquareAt3X.jpg", "date": "Mon, 01 Apr 2024 03:43:35 +0000", "lat": 41.0082, "lon": 28.9784, "intensity": 0.8, "source": "NY Time"}, {"title": "Angry Farmers Are Reshaping Europe", "url": "https://www.nytimes.com/2024/03/31/world/europe/angry-farmers-are-reshaping-europe.html", "thumbnailUrl": "https://static01.nyt.com/images/2024/03/28/multimedia/28france-farm-01-lvmg-promo/28france-farm-01-lvmg-mediumSquareAt3X.jpg", "date": "Sun, 31 Mar 2024 04:01:39 +0000", "lat": 48.7758, "lon": 9.7416, "intensity": 0.7, "source": "NY Time"}, {"title": "Water Crisis in India\u2019s Silicon Valley", "url": "https://www.nytimes.com/2024/03/31/world/asia/india-bangalore-water.html", "thumbnailUrl": "https://static01.nyt.com/images/2024/03/28/multimedia/00india-water-01-bkmw/00india-water-01-bkmw-mediumSquareAt3X.jpg", "date": "Tue, 02 Apr 2024 04:38:00 +0000", "lat": 12.9716, "lon": 77.5946, "intensity": 0.8, "source": "NY Time"}, {"title": "Police Raid Peruvian President\u2019s Home, Looking for Rolex Watches", "url": "https://www.nytimes.com/2024/03/30/world/americas/boluarte-peru-police-raid-rolex.html", "thumbnailUrl": "https://static01.nyt.com/images/2024/03/30/multimedia/30peru-president-01-gklp/30peru-president-01-gklp-mediumSquareAt3X.jpg", "date": "Sun, 31 Mar 2024 21:37:24 +0000", "lat": -12.0464, "lon": -77.0428, "intensity": 0.8, "source": "NY Time"}, {"title": "Second Boat Carrying Aid to Gaza Departs Cyprus", "url": "https://www.nytimes.com/2024/03/30/world/middleeast/gaza-aid-ship-famine.html", "thumbnailUrl": "https://static01.nyt.com/images/2024/03/30/multimedia/30mideast-crisis-wck-departs-bmcf/30mideast-crisis-wck-departs-bmcf-mediumSquareAt3X.jpg", "date": "Sat, 30 Mar 2024 22:27:43 +0000", "lat": 35.1264, "lon": 33.4299, "intensity": 0.8, "source": "NY Time"}, {"title": "What a New York Times Photographer Saw on a Gaza Airdrop", "url": "https://www.nytimes.com/2024/03/30/world/middleeast/gaza-aid-airdrop.html", "thumbnailUrl": "https://static01.nyt.com/images/2024/03/29/multimedia/29mideast-crisis-jordanian-airdrop-01-jkhp/29mideast-crisis-jordanian-airdrop-01-jkhp-mediumSquareAt3X.jpg", "date": "Sat, 30 Mar 2024 19:59:14 +0000", "lat": 31.5204, "lon": 34.4374, "intensity": 0.8, "source": "NY Time"}, {"title": "In Praise of Tiny Triumphs", "url": "https://www.nytimes.com/2024/03/30/briefing/in-praise-of-tiny-triumphs.html", "thumbnailUrl": null, "date": "Sat, 30 Mar 2024 10:26:40 +0000", "lat": 0, "lon": 0, "intensity": 0.2, "source": "NY Time"}, {"title": "\u2018Punjabi Wave\u2019 Music Hits the Juno Awards Stage", "url": "https://www.nytimes.com/2024/03/30/world/canada/juno-awards-karan-aujla.html", "thumbnailUrl": "https://static01.nyt.com/images/2024/03/30/multimedia/30canadaletter-mcjk/30canadaletter-mcjk-mediumSquareAt3X.jpg", "date": "Sat, 30 Mar 2024 10:00:02 +0000", "lat": null, "lon": null, "intensity": 0.4, "source": "NY Time"}, {"title": "How African Immigrants Have Revived a Remote Corner of Quebec", "url": "https://www.nytimes.com/2024/03/30/world/canada/rouyn-noranda-immigration-africa.html", "thumbnailUrl": "https://static01.nyt.com/images/2024/03/26/world/00Canada-Africa-promo/00Canada-Africa-mediumSquareAt3X.jpg", "date": "Sat, 30 Mar 2024 09:02:52 +0000", "lat": 48.236619, "lon": -79.020372, "intensity": 0.7, "source": "NY Time"}, {"title": "Middle East Crisis: Netanyahu Says Israel \u2018Deeply Regrets\u2019 Strike That Killed 7 Aid Workers", "url": "https://www.nytimes.com/live/2024/04/02/world/israel-hamas-war-gaza-news", "thumbnailUrl": "https://static01.nyt.com/images/2024/04/02/multimedia/02mideast-crisis-briefing-promo-750-lcpq/02mideast-crisis-briefing-promo-750-lcpq-mediumSquareAt3X.jpg", "date": "Tue, 02 Apr 2024 18:59:12 +0000", "lat": 31.9522, "lon": 34.4719, "intensity": 0.8, "source": "NY Time"}, {"title": "Iran Says the Deadly Israeli Strike in Damascus Will Not Go Unanswered", "url": "https://www.nytimes.com/2024/04/02/world/middleeast/israel-iran-damascus-strike.html", "thumbnailUrl": "https://static01.nyt.com/images/2024/04/01/multimedia/01mideast-crisis-iran-reaction-israel-strike-top-mvhk/01mideast-crisis-iran-reaction-israel-strike-top-mvhk-mediumSquareAt3X.jpg", "date": "Tue, 02 Apr 2024 15:49:27 +0000", "lat": 33.5138, "lon": 36.2765, "intensity": 0.9, "source": "NY Time"}, {"title": "Fire at Masquerade Nightclub in Istanbul Kills 29", "url": "https://www.nytimes.com/2024/04/02/world/europe/istanbul-nightclub-fire.html", "thumbnailUrl": "https://static01.nyt.com/images/2024/04/02/multimedia/02istanbul-fire-gzlj/02istanbul-fire-gzlj-mediumSquareAt3X.jpg", "date": "Tue, 02 Apr 2024 18:51:12 +0000", "lat": 41.008237, "lon": 28.978445, "intensity": 0.8, "source": "NY Time"}, {"title": "Ukraine Drones Hit Oil Refinery and Factory Deep in Russia", "url": "https://www.nytimes.com/2024/04/02/world/europe/russia-ukraine-drone-strike.html", "thumbnailUrl": null, "date": "Tue, 02 Apr 2024 16:13:11 +0000", "lat": 47.4192, "lon": 39.7262, "intensity": 0.7, "source": "NY Time"}, {"title": "A Timeline of Iran and Israel\u2019s Shadow War Across the Middle East", "url": "https://www.nytimes.com/2024/04/02/world/middleeast/iran-israel-attacks-shadow-war.html", "thumbnailUrl": "https://static01.nyt.com/images/2024/04/02/multimedia/02iran-israel-timeline-qzwj/02iran-israel-timeline-qzwj-mediumSquareAt3X.jpg", "date": "Tue, 02 Apr 2024 14:17:17 +0000", "lat": 33.2232, "lon": 36.2384, "intensity": 0.8, "source": "NY Time"}, {"title": "Adidas Stops Customization of Germany Jersey for Fear of Nazi Symbolism", "url": "https://www.nytimes.com/2024/04/02/world/europe/germany-jersey-customize-nazi-symbol.html", "thumbnailUrl": "https://static01.nyt.com/images/2024/04/02/multimedia/02germany-jerseys-qzlc/02germany-jerseys-qzlc-mediumSquareAt3X.jpg", "date": "Tue, 02 Apr 2024 15:43:47 +0000", "lat": 53.5511, "lon": 9.9937, "intensity": 0.8, "source": "NY Time"}, {"title": "Ukraine\u2019s Arms Industry Is Growing, but Is It Growing Fast Enough?", "url": "https://www.nytimes.com/2024/04/02/us/politics/ukraines-war-weapons-industry-russia.html", "thumbnailUrl": "https://static01.nyt.com/images/2024/03/28/multimedia/00ukraine-weaponsindustry-01-vtph/00ukraine-weaponsindustry-01-vtph-mediumSquareAt3X.jpg", "date": "Tue, 02 Apr 2024 14:48:22 +0000", "lat": 50.4501, "lon": 30.5234, "intensity": 0.8, "source": "NY Time"}, {"title": "Finland School Shooting: 12-Year-Old Suspect Detained After 1 Dead and 2 Injured", "url": "https://www.nytimes.com/2024/04/02/world/europe/finland-school-shooting.html", "thumbnailUrl": "https://static01.nyt.com/images/2024/04/02/multimedia/02finland-shooting-cltv/02finland-shooting-cltv-mediumSquareAt3X.jpg", "date": "Tue, 02 Apr 2024 15:33:39 +0000", "lat": 60.1695, "lon": 24.9354, "intensity": 0.8, "source": "NY Time"}, {"title": "5-Star Bird Houses for Picky but Precious Guests: Nesting Swiftlets", "url": "https://www.nytimes.com/2024/04/02/world/asia/indonesia-borneo-birdnest-soup.html", "thumbnailUrl": "https://static01.nyt.com/images/2024/03/20/multimedia/00Indonesia-birdnest-dispatch-01-lkhg/00Indonesia-birdnest-dispatch-01-lkhg-mediumSquareAt3X.jpg", "date": "Tue, 02 Apr 2024 09:01:20 +0000", "lat": 4.497, "lon": 114.7277, "intensity": 0.8, "source": "NY Time"}, {"title": "Israeli Army Withdraws From Major Gaza Hospital, Leaving Behind a Wasteland", "url": "https://www.nytimes.com/2024/04/02/world/middleeast/gaza-al-shifa-hospital.html", "thumbnailUrl": "https://static01.nyt.com/images/2024/04/01/multimedia/01shifa-scene-zvmb-promo/01shifa-scene-zvmb-mediumSquareAt3X.jpg", "date": "Tue, 02 Apr 2024 18:46:44 +0000", "lat": 31.522596, "lon": 34.445259, "intensity": 0.8, "source": "NY Time"}, {"title": "North Korea Tests Ballistic Missile That Could Reach Guam", "url": "https://www.nytimes.com/2024/04/01/world/asia/north-korea-irbm-missile-guam.html", "thumbnailUrl": "https://static01.nyt.com/images/2024/04/02/multimedia/02nkorea-missile-zcwj/02nkorea-missile-zcwj-mediumSquareAt3X.jpg", "date": "Tue, 02 Apr 2024 03:30:53 +0000", "lat": 37.508, "lon": 126.535, "intensity": 0.8, "source": "NY Time"}, {"title": "What Happened When This Italian Province Invested in Babies", "url": "https://www.nytimes.com/2024/04/01/world/europe/italy-babies-family-benefits.html", "thumbnailUrl": "https://static01.nyt.com/images/2024/04/01/multimedia/01italy-babies-01-twjl/01italy-babies-01-twjl-mediumSquareAt3X.jpg", "date": "Mon, 01 Apr 2024 12:36:42 +0000", "lat": 46.498306, "lon": 11.352436, "intensity": 0.8, "source": "NY Time"}, {"title": "American YouTuber Freed After Kidnapping in Haiti", "url": "https://www.nytimes.com/2024/04/01/world/americas/maalouf-release-haiti-kidnap.html", "thumbnailUrl": null, "date": "Mon, 01 Apr 2024 16:12:37 +0000", "lat": 18.576409, "lon": -72.285215, "intensity": 0.8, "source": "NY Time"}, {"title": "Turkey\u2019s Opposition Strikes Elections Blow to Erdogan\u2019s Party", "url": "https://www.nytimes.com/2024/04/01/world/middleeast/turkey-election-results.html", "thumbnailUrl": "https://static01.nyt.com/images/2024/04/01/multimedia/01turkey-election-pwlc/01turkey-election-pwlc-mediumSquareAt3X.jpg", "date": "Mon, 01 Apr 2024 13:43:04 +0000", "lat": 38.9637, "lon": 35.2433, "intensity": 0.8, "source": "NY Time"}, {"title": "Africa\u2019s Youngest President Takes Office, Promising \u2018Systemic Change\u2019", "url": "https://www.nytimes.com/2024/04/02/world/africa/senegal-president-inauguration.html", "thumbnailUrl": "https://static01.nyt.com/images/2024/04/02/multimedia/02senegal-1-qgfz/02senegal-1-qgfz-mediumSquareAt3X.jpg", "date": "Tue, 02 Apr 2024 18:53:15 +0000", "lat": 14.6928, "lon": -17.4439, "intensity": 0.8, "source": "NY Time"}, {"title": "Rome\u2019s Future Is a Walk Through Its Past", "url": "https://www.nytimes.com/2024/04/02/world/europe/rome-future-past-downtown.html", "thumbnailUrl": "https://static01.nyt.com/images/2024/04/02/world/02rome/02rome-mediumSquareAt3X.jpg", "date": "Tue, 02 Apr 2024 17:50:37 +0000", "lat": 41.9028, "lon": 12.4964, "intensity": 0.7, "source": "NY Time"}, {"title": "Fears Grow That Syria Strikes Could Spur Retaliatory Attacks on Israel and U.S.", "url": "https://www.nytimes.com/2024/04/02/world/middleeast/syria-strikes-iran-israel-us.html", "thumbnailUrl": "https://static01.nyt.com/images/2024/04/02/multimedia/02mideast-crisis-intel-iran-syria-hgvl/02mideast-crisis-intel-iran-syria-hgvl-mediumSquareAt3X.jpg", "date": "Tue, 02 Apr 2024 17:20:32 +0000", "lat": 33.5138, "lon": 36.2021, "intensity": 0.7, "source": "NY Time"}, {"title": "What We Know About the World Central Kitchen Strike Victims in Gaza", "url": "https://www.nytimes.com/2024/04/02/world/middleeast/world-central-kitchen-victims.html", "thumbnailUrl": "https://static01.nyt.com/images/2024/04/02/multimedia/02mideast-crisis-victims-pfmh/02mideast-crisis-victims-pfmh-mediumSquareAt3X.jpg", "date": "Tue, 02 Apr 2024 15:33:48 +0000", "lat": 31.5106, "lon": 34.3958, "intensity": 0.8, "source": "NY Time"}, {"title": "Strike in Damascus Escalates Israel\u2019s Undeclared War With Iran", "url": "https://www.nytimes.com/2024/04/02/world/middleeast/iran-israel-damascus-strike.html", "thumbnailUrl": "https://static01.nyt.com/images/2024/04/02/multimedia/02mideast-crisis-escalation-01-fbwz/02mideast-crisis-escalation-01-fbwz-mediumSquareAt3X.jpg", "date": "Tue, 02 Apr 2024 16:12:10 +0000", "lat": 33.5123, "lon": 36.202631, "intensity": 0.8, "source": "NY Time"}, {"title": "What We Know About the Strike That Killed World Central Kitchen Workers in Gaza", "url": "https://www.nytimes.com/2024/04/02/world/middleeast/world-central-kitchen-workers-strike-gaza.html", "thumbnailUrl": "https://static01.nyt.com/images/2024/04/02/multimedia/02mideast-crisis-WCK-what-we-know-vzfl/02mideast-crisis-WCK-what-we-know-vzfl-mediumSquareAt3X.jpg", "date": "Tue, 02 Apr 2024 18:47:25 +0000", "lat": 31.51548, "lon": 34.4506, "intensity": 0.8, "source": "NY Time"}, {"title": "Gaza Aid Groups Fear for Safety After Strike on World Central Kitchen", "url": "https://www.nytimes.com/2024/04/02/world/middleeast/gaza-aid-groups-strikes.html", "thumbnailUrl": "https://static01.nyt.com/images/2024/04/02/multimedia/02mideast-crisis-aid-groups-lkmw/02mideast-crisis-aid-groups-lkmw-mediumSquareAt3X.jpg", "date": "Tue, 02 Apr 2024 11:00:18 +0000", "lat": 31.5102, "lon": 34.4535, "intensity": 0.8, "source": "NY Time"}, {"title": "Japan\u2019s Emperor and Royal Family Join Instagram", "url": "https://www.nytimes.com/2024/04/02/world/asia/japan-royal-family-instagram.html", "thumbnailUrl": "https://static01.nyt.com/images/2024/04/02/multimedia/02xp-japanroyals-mjfv/02xp-japanroyals-mjfv-mediumSquareAt3X.jpg", "date": "Tue, 02 Apr 2024 09:23:18 +0000", "lat": 35.6895, "lon": 139.6917, "intensity": 0.2, "source": "NY Time"}, {"title": "Jos\u00e9 Andr\u00e9s\u2019s World Central Kitchen Feeds People in Disaster and War Zones", "url": "https://www.nytimes.com/2024/04/02/world/middleeast/what-is-world-central-kitchen.html", "thumbnailUrl": "https://static01.nyt.com/images/2024/04/02/multimedia/02mideast-crisis-wck-background-qhjb/02mideast-crisis-wck-background-qhjb-mediumSquareAt3X.jpg", "date": "Tue, 02 Apr 2024 16:33:17 +0000", "lat": 31.5107, "lon": 34.3446, "intensity": 0.8, "source": "NY Time"}, {"title": "Tuesday Briefing", "url": "https://www.nytimes.com/2024/04/02/briefing/iran-israel-general-ukraine-aid.html", "thumbnailUrl": "https://static01.nyt.com/images/2024/04/02/multimedia/02ambriefing-europe-nl-promo/02ambriefing-europe-nl-strike-thzq-mediumSquareAt3X.jpg", "date": "Tue, 02 Apr 2024 04:25:36 +0000", "lat": 33.5138, "lon": 36.3236, "intensity": 0.8, "source": "NY Time"}, {"title": "Rishi Sunak Backs J.K. Rowling in Criticism of New Scottish Hate Crime Law", "url": "https://www.nytimes.com/2024/04/01/world/europe/scotland-hate-crime-law.html", "thumbnailUrl": "https://static01.nyt.com/images/2024/05/01/arts/01xp-scotland/01xp-scotland-mediumSquareAt3X.jpg", "date": "Tue, 02 Apr 2024 16:05:10 +0000", "lat": 0, "lon": 0, "intensity": 0, "source": "NY Time"}, {"title": "Tuesday Briefing: Iran Said Israel Killed Top Generals", "url": "https://www.nytimes.com/2024/04/01/world/asia/iran-israel-strike-ukraine-asia.html", "thumbnailUrl": "https://static01.nyt.com/images/2024/04/02/multimedia/02ambriefing-nl-qzgl/02ambriefing-nl-qzgl-mediumSquareAt3X-v4.jpg", "date": "Mon, 01 Apr 2024 21:14:54 +0000", "lat": 35.689506, "lon": 51.388973, "intensity": 0.7, "source": "NY Time"}, {"title": "Lou Conter, Last Survivor of the Battleship Arizona, Dies at 102", "url": "https://www.nytimes.com/2024/04/01/us/lou-conter-dead.html", "thumbnailUrl": "https://static01.nyt.com/images/2024/04/02/multimedia/01Conter--tmlg-print1/01Conter--tmlg-mediumSquareAt3X.jpg", "date": "Mon, 01 Apr 2024 21:33:00 +0000", "lat": 21.3441, "lon": -157.9602, "intensity": 0.7, "source": "NY Time"}, {"title": "Israeli Strike in Syria Kills 7, Including 3 Iranian Commanders", "url": "https://www.nytimes.com/2024/04/01/world/middleeast/iran-commanders-killed-syria-israel.html", "thumbnailUrl": "https://static01.nyt.com/images/2024/04/01/multimedia/01mideast-crisis-ledeall-1-gclq/01mideast-crisis-ledeall-1-gclq-mediumSquareAt3X.jpg", "date": "Tue, 02 Apr 2024 02:23:58 +0000", "lat": 33.0156, "lon": 35.2433, "intensity": 0.8, "source": "NY Time"}, {"title": "Netanyahu Says Israel Will Shut Down Al Jazeera in Israel", "url": "https://www.nytimes.com/2024/04/01/world/middleeast/al-jazeera-israel-netanyahu.html", "thumbnailUrl": "https://static01.nyt.com/images/2024/04/01/multimedia/01mideast-crisis-jazeera-ban-pvqf/01mideast-crisis-jazeera-ban-pvqf-mediumSquareAt3X.jpg", "date": "Tue, 02 Apr 2024 15:49:08 +0000", "lat": 31.7683, "lon": 35.2137, "intensity": 0.8, "source": "NY Time"}, {"title": "Netanyahu Faces Growing Pressure From All Sides", "url": "https://www.nytimes.com/2024/04/01/world/middleeast/netanyahu-protest-pressure.html", "thumbnailUrl": "https://static01.nyt.com/images/2024/04/01/multimedia/01mideast-crisis-netanyahu-pressure-qgwp/01mideast-crisis-netanyahu-pressure-qgwp-mediumSquareAt3X.jpg", "date": "Mon, 01 Apr 2024 18:56:59 +0000", "lat": 31.7683, "lon": 35.2134, "intensity": 0.8, "source": "NY Time"}, {"title": "Betty Cole Dukert, Top \u2018Meet the Press\u2019 Producer, Dies at 96", "url": "https://www.nytimes.com/2024/04/01/business/media/betty-cole-dukert-dead.html", "thumbnailUrl": null, "date": "Mon, 01 Apr 2024 20:17:34 +0000", "lat": 0, "lon": 0, "intensity": 0.2, "source": "NY Time"}, {"title": "Outside Israel\u2019s Parliament, Protesters Explain Why Netanyahu Must Go", "url": "https://www.nytimes.com/2024/04/01/world/middleeast/protests-benjamin-netanyahu.html", "thumbnailUrl": "https://static01.nyt.com/images/2024/04/01/multimedia/01mideast-crisis-protest-scene-hltb/01mideast-crisis-protest-scene-hltb-mediumSquareAt3X.jpg", "date": "Mon, 01 Apr 2024 21:22:14 +0000", "lat": 32.070691, "lon": 34.779494, "intensity": 0.8, "source": "NY Time"}, {"title": "Cease-Fire Talks to Confront How Displaced Palestinians Can Return", "url": "https://www.nytimes.com/2024/04/01/world/middleeast/ceasefire-talks-palestinians.html", "thumbnailUrl": "https://static01.nyt.com/images/2024/03/30/multimedia/01mideast-crisis-negotiations/0mideast-crisis-header-swap330-qkbt-mediumSquareAt3X.jpg", "date": "Mon, 01 Apr 2024 14:40:52 +0000", "lat": 31.952162, "lon": 34.470712, "intensity": 0.7, "source": "NY Time"}, {"title": "The Bizarre Chinese Murder Plot Behind Netflix\u2019s \u20183 Body Problem\u2019", "url": "https://www.nytimes.com/2024/04/01/world/asia/china-three-body-problem-murder.html", "thumbnailUrl": "https://static01.nyt.com/images/2024/04/01/multimedia/01china-threebodyproblem-tzjv/01china-threebodyproblem-tzjv-mediumSquareAt3X.jpg", "date": "Mon, 01 Apr 2024 12:22:30 +0000", "lat": 31.2304, "lon": 121.4737, "intensity": 0.8, "source": "NY Time"}, {"title": "Israeli Soldiers Pull Out of Gaza\u2019s Al-Shifa Hospital After 2-Week Battle", "url": "https://www.nytimes.com/2024/04/01/world/middleeast/gaza-al-shifa-hospital.html", "thumbnailUrl": "https://static01.nyt.com/images/2024/04/01/multimedia/01mideast-crisis-shifa-wftz/01mideast-crisis-shifa-wftz-mediumSquareAt3X.jpg", "date": "Mon, 01 Apr 2024 21:56:49 +0000", "lat": 31.5118, "lon": 34.4594, "intensity": 0.8, "source": "NY Time"}, {"title": "\u2018Oppenheimer\u2019 Opens in Japan, Earning $2.5 Million in First Three Days", "url": "https://www.nytimes.com/2024/04/01/world/asia/oppenheimer-opens-japan.html", "thumbnailUrl": "https://static01.nyt.com/images/2024/04/01/multimedia/01japan-oppenheimer-tckw/01japan-oppenheimer-tckw-mediumSquareAt3X.jpg", "date": "Mon, 01 Apr 2024 14:57:48 +0000", "lat": 35.6895, "lon": 139.6917, "intensity": 0.8, "source": "NY Time"}, {"title": "Monday Briefing", "url": "https://www.nytimes.com/2024/04/01/briefing/israel-protest-russia-defector-killing.html", "thumbnailUrl": "https://static01.nyt.com/images/2024/04/01/multimedia/01ambriefing-europe-nl-israel-promo/01ambriefing-europe-nl-israel-cgql-mediumSquareAt3X.jpg", "date": "Mon, 01 Apr 2024 04:01:32 +0000", "lat": 31.7683, "lon": 35.214, "intensity": 0.6, "source": "NY Time"}, {"title": "Centuries of Irish Archives Destroyed in Civil War Are Being Recreated", "url": "https://www.nytimes.com/2024/04/01/world/europe/ireland-history-virtual-records.html", "thumbnailUrl": "https://static01.nyt.com/images/2024/03/21/multimedia/00ireland-archives-01-cpmw/00ireland-archives-01-cpmw-mediumSquareAt3X.jpg", "date": "Mon, 01 Apr 2024 04:01:19 +0000", "lat": 53.3498, "lon": -6.2603, "intensity": 0.8, "source": "NY Time"}, {"title": "Former Taiwan President Ma Ying-jeou to Visit China", "url": "https://www.nytimes.com/2024/03/31/world/asia/taiwan-china-ma-ying-jeou.html", "thumbnailUrl": "https://static01.nyt.com/images/2024/04/01/multimedia/01china-taiwan-clbp/01china-taiwan-clbp-mediumSquareAt3X.jpg", "date": "Mon, 01 Apr 2024 13:49:29 +0000", "lat": 32.057236, "lon": 118.79927, "intensity": 0.8, "source": "NY Time"}, {"title": "Israeli Protests Against Netanyahu Intensify as Cease-Fire Talks Resume", "url": "https://www.nytimes.com/2024/03/31/world/middleeast/netanyahu-israel-protests-cease-fire.html", "thumbnailUrl": "https://static01.nyt.com/images/2024/03/31/multimedia/31mideast-ledeall-vpbm/31mideast-ledeall-vpbm-mediumSquareAt3X.jpg", "date": "Mon, 01 Apr 2024 06:55:34 +0000", "lat": 31.768319, "lon": 35.21371, "intensity": 0.8, "source": "NY Time"}, {"title": "Palestinian Christians Mark Easter in Gaza\u2019s Only Catholic Church", "url": "https://www.nytimes.com/2024/03/31/world/middleeast/palestinians-easter-catholic-church.html", "thumbnailUrl": "https://static01.nyt.com/images/2024/04/08/multimedia/08MIdeast-Easter-zphb/08MIdeast-Easter-zphb-mediumSquareAt3X.jpg", "date": "Mon, 01 Apr 2024 09:02:18 +0000", "lat": 31.5226, "lon": 34.4458, "intensity": 0.8, "source": "NY Time"}, {"title": "Monday Briefing: Israeli Anger at Netanyahu Grows", "url": "https://www.nytimes.com/2024/03/31/briefing/monday-briefing-israeli-anger-at-netanyahu-grows.html", "thumbnailUrl": "https://static01.nyt.com/images/2024/04/01/multimedia/01ambriefing-asia-nl-pqlb-PROMO/01ambriefing-asia-nl-pqlb-PROMO-mediumSquareAt3X-v2.jpg", "date": "Sun, 31 Mar 2024 20:46:08 +0000", "lat": 31.7683, "lon": 35.2137, "intensity": 0.7, "source": "NY Time"}, {"title": "Benjamin Netanyahu Undergoes Hernia Surgery Amid Mounting Pressure", "url": "https://www.nytimes.com/2024/03/31/world/middleeast/netanyahu-hernia-surgery.html", "thumbnailUrl": "https://static01.nyt.com/images/2024/03/31/multimedia/31mideast-crisis-netanyahu-lbgv/31mideast-crisis-netanyahu-lbgv-mediumSquareAt3X.jpg", "date": "Mon, 01 Apr 2024 02:36:27 +0000", "lat": 31.7683, "lon": 35.2137, "intensity": 0.6, "source": "NY Time"}, {"title": "Pope Francis Calls for Gaza Cease-Fire in Easter Message", "url": "https://www.nytimes.com/2024/03/31/world/europe/pope-francis-easter-speech.html", "thumbnailUrl": "https://static01.nyt.com/images/2024/03/31/multimedia/31pope-hvqz/31pope-hvqz-mediumSquareAt3X.jpg", "date": "Sun, 31 Mar 2024 15:39:13 +0000", "lat": 31.8156, "lon": 34.3667, "intensity": 0.7, "source": "NY Time"}, {"title": "Thousands in Israel Rally Against Netanyahu\u2019s Government", "url": "https://www.nytimes.com/2024/03/31/world/middleeast/netanyahu-protest-tel-aviv.html", "thumbnailUrl": "https://static01.nyt.com/images/2024/03/31/multimedia/31mideast-crisis-israel-protests-01-pmgf/31mideast-crisis-israel-protests-01-pmgf-mediumSquareAt3X.jpg", "date": "Sun, 31 Mar 2024 16:16:04 +0000", "lat": 31.7683, "lon": 35.2137, "intensity": 0.9, "source": "NY Time"}, {"title": "King Charles III Attends Easter Service After Cancer Diagnosis", "url": "https://www.nytimes.com/2024/03/31/world/europe/king-charles-easter-cancer.html", "thumbnailUrl": "https://static01.nyt.com/images/2024/03/31/multimedia/31uk-king-tzcj/31uk-king-tzcj-mediumSquareAt3X.jpg", "date": "Sun, 31 Mar 2024 14:47:10 +0000", "lat": 0, "lon": 0, "intensity": 0.6, "source": "NY Time"}, {"title": "In Yemen, Conflict and Hunger Stalk a Lean Ramadan", "url": "https://www.nytimes.com/2024/03/31/world/middleeast/yemen-hunger-houthis.html", "thumbnailUrl": "https://static01.nyt.com/images/2024/03/31/multimedia/31yemen-1-tcjw/31yemen-1-tcjw-mediumSquareAt3X.jpg", "date": "Sun, 31 Mar 2024 20:09:13 +0000", "lat": 15.552727, "lon": 48.516388, "intensity": 0.8, "source": "NY Time"}, {"title": "Can We Engineer Our Way Out of the Climate Crisis?", "url": "https://www.nytimes.com/2024/03/31/climate/climate-change-carbon-capture-ccs.html", "thumbnailUrl": "https://static01.nyt.com/images/2024/03/31/multimedia/00cli-iceland-top-fgvj/00cli-iceland-top-fgvj-mediumSquareAt3X.jpg", "date": "Mon, 01 Apr 2024 22:16:35 +0000", "lat": 0, "lon": 0, "intensity": 0.6, "source": "NY Time"}, {"title": "A Russian Defector\u2019s Killing Raises Specter of Hit Squads", "url": "https://www.nytimes.com/2024/03/31/world/europe/russian-defector-murder-spain.html", "thumbnailUrl": "https://static01.nyt.com/images/2024/03/28/multimedia/00russia-spain-fghv/00russia-spain-fghv-mediumSquareAt3X-v2.jpg", "date": "Sun, 31 Mar 2024 12:37:51 +0000", "lat": 40.4168, "lon": -3.7038, "intensity": 0.8, "source": "NY Time"}, {"title": "Istanbul Mayor Headed for Re-election, in Blow to Erdogan\u2019s Party", "url": "https://www.nytimes.com/2024/03/31/world/middleeast/istanbul-mayor-race-turkey.html", "thumbnailUrl": "https://static01.nyt.com/images/2024/03/31/multimedia/31istanbul-election-mtvh/31istanbul-election-mtvh-mediumSquareAt3X.jpg", "date": "Mon, 01 Apr 2024 03:43:35 +0000", "lat": 41.0082, "lon": 28.9784, "intensity": 0.8, "source": "NY Time"}, {"title": "Angry Farmers Are Reshaping Europe", "url": "https://www.nytimes.com/2024/03/31/world/europe/angry-farmers-are-reshaping-europe.html", "thumbnailUrl": "https://static01.nyt.com/images/2024/03/28/multimedia/28france-farm-01-lvmg-promo/28france-farm-01-lvmg-mediumSquareAt3X.jpg", "date": "Sun, 31 Mar 2024 04:01:39 +0000", "lat": 48.7758, "lon": 9.7416, "intensity": 0.7, "source": "NY Time"}, {"title": "Water Crisis in India\u2019s Silicon Valley", "url": "https://www.nytimes.com/2024/03/31/world/asia/india-bangalore-water.html", "thumbnailUrl": "https://static01.nyt.com/images/2024/03/28/multimedia/00india-water-01-bkmw/00india-water-01-bkmw-mediumSquareAt3X.jpg", "date": "Tue, 02 Apr 2024 04:38:00 +0000", "lat": 12.9716, "lon": 77.5946, "intensity": 0.8, "source": "NY Time"}, {"title": "Police Raid Peruvian President\u2019s Home, Looking for Rolex Watches", "url": "https://www.nytimes.com/2024/03/30/world/americas/boluarte-peru-police-raid-rolex.html", "thumbnailUrl": "https://static01.nyt.com/images/2024/03/30/multimedia/30peru-president-01-gklp/30peru-president-01-gklp-mediumSquareAt3X.jpg", "date": "Sun, 31 Mar 2024 21:37:24 +0000", "lat": -12.0464, "lon": -77.0428, "intensity": 0.8, "source": "NY Time"}, {"title": "Second Boat Carrying Aid to Gaza Departs Cyprus", "url": "https://www.nytimes.com/2024/03/30/world/middleeast/gaza-aid-ship-famine.html", "thumbnailUrl": "https://static01.nyt.com/images/2024/03/30/multimedia/30mideast-crisis-wck-departs-bmcf/30mideast-crisis-wck-departs-bmcf-mediumSquareAt3X.jpg", "date": "Sat, 30 Mar 2024 22:27:43 +0000", "lat": 35.1264, "lon": 33.4299, "intensity": 0.8, "source": "NY Time"}, {"title": "What a New York Times Photographer Saw on a Gaza Airdrop", "url": "https://www.nytimes.com/2024/03/30/world/middleeast/gaza-aid-airdrop.html", "thumbnailUrl": "https://static01.nyt.com/images/2024/03/29/multimedia/29mideast-crisis-jordanian-airdrop-01-jkhp/29mideast-crisis-jordanian-airdrop-01-jkhp-mediumSquareAt3X.jpg", "date": "Sat, 30 Mar 2024 19:59:14 +0000", "lat": 31.5204, "lon": 34.4374, "intensity": 0.8, "source": "NY Time"}, {"title": "In Praise of Tiny Triumphs", "url": "https://www.nytimes.com/2024/03/30/briefing/in-praise-of-tiny-triumphs.html", "thumbnailUrl": null, "date": "Sat, 30 Mar 2024 10:26:40 +0000", "lat": 0, "lon": 0, "intensity": 0.2, "source": "NY Time"}, {"title": "Middle East Crisis: Netanyahu Says Israel \u2018Deeply Regrets\u2019 Strike That Killed 7 Aid Workers", "url": "https://www.nytimes.com/live/2024/04/02/world/israel-hamas-war-gaza-news", "thumbnailUrl": "https://static01.nyt.com/images/2024/04/02/multimedia/02mideast-crisis-briefing-promo-750-lcpq/02mideast-crisis-briefing-promo-750-lcpq-mediumSquareAt3X.jpg", "date": "Tue, 02 Apr 2024 19:56:11 +0000", "lat": 31.9522, "lon": 34.4719, "intensity": 0.8, "source": "NY Time"}, {"title": "Iran Says the Deadly Israeli Strike in Damascus Will Not Go Unanswered", "url": "https://www.nytimes.com/2024/04/02/world/middleeast/israel-iran-damascus-strike.html", "thumbnailUrl": "https://static01.nyt.com/images/2024/04/01/multimedia/01mideast-crisis-iran-reaction-israel-strike-top-mvhk/01mideast-crisis-iran-reaction-israel-strike-top-mvhk-mediumSquareAt3X.jpg", "date": "Tue, 02 Apr 2024 19:49:30 +0000", "lat": 33.5138, "lon": 36.2765, "intensity": 0.9, "source": "NY Time"}, {"title": "Senegal President Bassirou Diomaye Faye Takes Office and Promises Change", "url": "https://www.nytimes.com/2024/04/02/world/africa/senegal-president-inauguration.html", "thumbnailUrl": "https://static01.nyt.com/images/2024/04/02/multimedia/02senegal-1-qgfz/02senegal-1-qgfz-mediumSquareAt3X.jpg", "date": "Tue, 02 Apr 2024 18:53:16 +0000", "lat": 14.6928, "lon": -17.4439, "intensity": 0.8, "source": "NY Time"}, {"title": "Fire at Masquerade Nightclub in Istanbul Kills 29", "url": "https://www.nytimes.com/2024/04/02/world/europe/istanbul-nightclub-fire.html", "thumbnailUrl": "https://static01.nyt.com/images/2024/04/02/multimedia/02istanbul-fire-gzlj/02istanbul-fire-gzlj-mediumSquareAt3X.jpg", "date": "Tue, 02 Apr 2024 18:51:12 +0000", "lat": 41.008237, "lon": 28.978445, "intensity": 0.8, "source": "NY Time"}, {"title": "Ukraine Drones Hit Oil Refinery and Factory Deep in Russia", "url": "https://www.nytimes.com/2024/04/02/world/europe/russia-ukraine-drone-strike.html", "thumbnailUrl": null, "date": "Tue, 02 Apr 2024 19:59:30 +0000", "lat": 47.4192, "lon": 39.7262, "intensity": 0.7, "source": "NY Time"}, {"title": "A Timeline of Iran and Israel\u2019s Shadow War Across the Middle East", "url": "https://www.nytimes.com/2024/04/02/world/middleeast/iran-israel-attacks-shadow-war.html", "thumbnailUrl": "https://static01.nyt.com/images/2024/04/02/multimedia/02iran-israel-timeline-qzwj/02iran-israel-timeline-qzwj-mediumSquareAt3X.jpg", "date": "Tue, 02 Apr 2024 14:17:17 +0000", "lat": 33.2232, "lon": 36.2384, "intensity": 0.8, "source": "NY Time"}, {"title": "Rome\u2019s Future Is a Walk Through Its Past", "url": "https://www.nytimes.com/2024/04/02/world/europe/rome-future-past-downtown.html", "thumbnailUrl": "https://static01.nyt.com/images/2024/04/02/world/02rome/02rome-mediumSquareAt3X.jpg", "date": "Tue, 02 Apr 2024 17:50:37 +0000", "lat": 41.9028, "lon": 12.4964, "intensity": 0.7, "source": "NY Time"}, {"title": "Adidas Stops Customization of Germany Jersey for Fear of Nazi Symbolism", "url": "https://www.nytimes.com/2024/04/02/world/europe/germany-jersey-customize-nazi-symbol.html", "thumbnailUrl": "https://static01.nyt.com/images/2024/04/02/multimedia/02germany-jerseys-qzlc/02germany-jerseys-qzlc-mediumSquareAt3X.jpg", "date": "Tue, 02 Apr 2024 15:43:47 +0000", "lat": 53.5511, "lon": 9.9937, "intensity": 0.8, "source": "NY Time"}, {"title": "Ukraine\u2019s Arms Industry Is Growing, but Is It Growing Fast Enough?", "url": "https://www.nytimes.com/2024/04/02/us/politics/ukraines-war-weapons-industry-russia.html", "thumbnailUrl": "https://static01.nyt.com/images/2024/03/28/multimedia/00ukraine-weaponsindustry-01-vtph/00ukraine-weaponsindustry-01-vtph-mediumSquareAt3X.jpg", "date": "Tue, 02 Apr 2024 14:48:22 +0000", "lat": 50.4501, "lon": 30.5234, "intensity": 0.8, "source": "NY Time"}, {"title": "Finland School Shooting: 12-Year-Old Suspect Detained After 1 Dead and 2 Injured", "url": "https://www.nytimes.com/2024/04/02/world/europe/finland-school-shooting.html", "thumbnailUrl": "https://static01.nyt.com/images/2024/04/02/multimedia/02finland-shooting-cltv/02finland-shooting-cltv-mediumSquareAt3X.jpg", "date": "Tue, 02 Apr 2024 15:33:39 +0000", "lat": 60.1695, "lon": 24.9354, "intensity": 0.8, "source": "NY Time"}, {"title": "5-Star Bird Houses for Picky but Precious Guests: Nesting Swiftlets", "url": "https://www.nytimes.com/2024/04/02/world/asia/indonesia-borneo-birdnest-soup.html", "thumbnailUrl": "https://static01.nyt.com/images/2024/03/20/multimedia/00Indonesia-birdnest-dispatch-01-lkhg/00Indonesia-birdnest-dispatch-01-lkhg-mediumSquareAt3X.jpg", "date": "Tue, 02 Apr 2024 09:01:20 +0000", "lat": 4.497, "lon": 114.7277, "intensity": 0.8, "source": "NY Time"}, {"title": "Israeli Army Withdraws From Major Gaza Hospital, Leaving Behind a Wasteland", "url": "https://www.nytimes.com/2024/04/02/world/middleeast/gaza-al-shifa-hospital.html", "thumbnailUrl": "https://static01.nyt.com/images/2024/04/01/multimedia/01shifa-scene-zvmb-promo/01shifa-scene-zvmb-mediumSquareAt3X.jpg", "date": "Tue, 02 Apr 2024 18:46:44 +0000", "lat": 31.522596, "lon": 34.445259, "intensity": 0.8, "source": "NY Time"}, {"title": "North Korea Tests Ballistic Missile That Could Reach Guam", "url": "https://www.nytimes.com/2024/04/01/world/asia/north-korea-irbm-missile-guam.html", "thumbnailUrl": "https://static01.nyt.com/images/2024/04/02/multimedia/02nkorea-missile-zcwj/02nkorea-missile-zcwj-mediumSquareAt3X.jpg", "date": "Tue, 02 Apr 2024 03:30:53 +0000", "lat": 37.508, "lon": 126.535, "intensity": 0.8, "source": "NY Time"}, {"title": "American YouTuber Freed After Kidnapping in Haiti", "url": "https://www.nytimes.com/2024/04/01/world/americas/maalouf-release-haiti-kidnap.html", "thumbnailUrl": null, "date": "Mon, 01 Apr 2024 16:12:37 +0000", "lat": 18.576409, "lon": -72.285215, "intensity": 0.8, "source": "NY Time"}, {"title": "Protests Over Gaza Intensify at American Art Museums", "url": "https://www.nytimes.com/2024/04/02/arts/design/israel-gaza-protests-museums.html", "thumbnailUrl": null, "date": "Tue, 02 Apr 2024 19:17:07 +0000", "lat": 37.785836, "lon": -122.402099, "intensity": 0.8, "source": "NY Time"}, {"title": "Fears Grow That Syria Strikes Could Spur Retaliatory Attacks on Israel and U.S.", "url": "https://www.nytimes.com/2024/04/02/world/middleeast/syria-strikes-iran-israel-us.html", "thumbnailUrl": "https://static01.nyt.com/images/2024/04/02/multimedia/02mideast-crisis-intel-iran-syria-hgvl/02mideast-crisis-intel-iran-syria-hgvl-mediumSquareAt3X.jpg", "date": "Tue, 02 Apr 2024 17:20:32 +0000", "lat": 33.5138, "lon": 36.2021, "intensity": 0.7, "source": "NY Time"}, {"title": "What We Know About the World Central Kitchen Strike Victims in Gaza", "url": "https://www.nytimes.com/2024/04/02/world/middleeast/world-central-kitchen-victims.html", "thumbnailUrl": "https://static01.nyt.com/images/2024/04/02/multimedia/02mideast-crisis-victims-pfmh/02mideast-crisis-victims-pfmh-mediumSquareAt3X.jpg", "date": "Tue, 02 Apr 2024 15:33:48 +0000", "lat": 31.5106, "lon": 34.3958, "intensity": 0.8, "source": "NY Time"}, {"title": "Strike in Damascus Escalates Israel\u2019s Undeclared War With Iran", "url": "https://www.nytimes.com/2024/04/02/world/middleeast/iran-israel-damascus-strike.html", "thumbnailUrl": "https://static01.nyt.com/images/2024/04/02/multimedia/02mideast-crisis-escalation-01-fbwz/02mideast-crisis-escalation-01-fbwz-mediumSquareAt3X.jpg", "date": "Tue, 02 Apr 2024 16:12:10 +0000", "lat": 33.5123, "lon": 36.202631, "intensity": 0.8, "source": "NY Time"}, {"title": "What We Know About the Strike That Killed World Central Kitchen Workers in Gaza", "url": "https://www.nytimes.com/2024/04/02/world/middleeast/world-central-kitchen-workers-strike-gaza.html", "thumbnailUrl": "https://static01.nyt.com/images/2024/04/02/multimedia/02mideast-crisis-WCK-what-we-know-vzfl/02mideast-crisis-WCK-what-we-know-vzfl-mediumSquareAt3X.jpg", "date": "Tue, 02 Apr 2024 19:17:10 +0000", "lat": 31.51548, "lon": 34.4506, "intensity": 0.8, "source": "NY Time"}, {"title": "Gaza Aid Groups Fear for Safety After Strike on World Central Kitchen", "url": "https://www.nytimes.com/2024/04/02/world/middleeast/gaza-aid-groups-strikes.html", "thumbnailUrl": "https://static01.nyt.com/images/2024/04/02/multimedia/02mideast-crisis-aid-groups-lkmw/02mideast-crisis-aid-groups-lkmw-mediumSquareAt3X.jpg", "date": "Tue, 02 Apr 2024 11:00:18 +0000", "lat": 31.5102, "lon": 34.4535, "intensity": 0.8, "source": "NY Time"}, {"title": "Japan\u2019s Emperor and Royal Family Join Instagram", "url": "https://www.nytimes.com/2024/04/02/world/asia/japan-royal-family-instagram.html", "thumbnailUrl": "https://static01.nyt.com/images/2024/04/02/multimedia/02xp-japanroyals-mjfv/02xp-japanroyals-mjfv-mediumSquareAt3X.jpg", "date": "Tue, 02 Apr 2024 09:23:18 +0000", "lat": 35.6895, "lon": 139.6917, "intensity": 0.2, "source": "NY Time"}, {"title": "Jos\u00e9 Andr\u00e9s\u2019s World Central Kitchen Feeds People in Disaster and War Zones", "url": "https://www.nytimes.com/2024/04/02/world/middleeast/what-is-world-central-kitchen.html", "thumbnailUrl": "https://static01.nyt.com/images/2024/04/02/multimedia/02mideast-crisis-wck-background-qhjb/02mideast-crisis-wck-background-qhjb-mediumSquareAt3X.jpg", "date": "Tue, 02 Apr 2024 16:33:17 +0000", "lat": 31.5107, "lon": 34.3446, "intensity": 0.8, "source": "NY Time"}, {"title": "Tuesday Briefing", "url": "https://www.nytimes.com/2024/04/02/briefing/iran-israel-general-ukraine-aid.html", "thumbnailUrl": "https://static01.nyt.com/images/2024/04/02/multimedia/02ambriefing-europe-nl-promo/02ambriefing-europe-nl-strike-thzq-mediumSquareAt3X.jpg", "date": "Tue, 02 Apr 2024 04:25:36 +0000", "lat": 33.5138, "lon": 36.3236, "intensity": 0.8, "source": "NY Time"}, {"title": "Rishi Sunak Backs J.K. Rowling in Criticism of New Scottish Hate Crime Law", "url": "https://www.nytimes.com/2024/04/01/world/europe/scotland-hate-crime-law.html", "thumbnailUrl": "https://static01.nyt.com/images/2024/05/01/arts/01xp-scotland/01xp-scotland-mediumSquareAt3X.jpg", "date": "Tue, 02 Apr 2024 16:05:10 +0000", "lat": 0, "lon": 0, "intensity": 0, "source": "NY Time"}, {"title": "Tuesday Briefing: Iran Said Israel Killed Top Generals", "url": "https://www.nytimes.com/2024/04/01/world/asia/iran-israel-strike-ukraine-asia.html", "thumbnailUrl": "https://static01.nyt.com/images/2024/04/02/multimedia/02ambriefing-nl-qzgl/02ambriefing-nl-qzgl-mediumSquareAt3X-v4.jpg", "date": "Mon, 01 Apr 2024 21:14:54 +0000", "lat": 35.689506, "lon": 51.388973, "intensity": 0.7, "source": "NY Time"}, {"title": "Lou Conter, Last Survivor of the Battleship Arizona, Dies at 102", "url": "https://www.nytimes.com/2024/04/01/us/lou-conter-dead.html", "thumbnailUrl": "https://static01.nyt.com/images/2024/04/02/multimedia/01Conter--tmlg-print1/01Conter--tmlg-mediumSquareAt3X.jpg", "date": "Mon, 01 Apr 2024 21:33:00 +0000", "lat": 21.3441, "lon": -157.9602, "intensity": 0.7, "source": "NY Time"}, {"title": "Israeli Strike in Syria Kills 7, Including 3 Iranian Commanders", "url": "https://www.nytimes.com/2024/04/01/world/middleeast/iran-commanders-killed-syria-israel.html", "thumbnailUrl": "https://static01.nyt.com/images/2024/04/01/multimedia/01mideast-crisis-ledeall-1-gclq/01mideast-crisis-ledeall-1-gclq-mediumSquareAt3X.jpg", "date": "Tue, 02 Apr 2024 02:23:58 +0000", "lat": 33.0156, "lon": 35.2433, "intensity": 0.8, "source": "NY Time"}, {"title": "Netanyahu Says Israel Will Shut Down Al Jazeera in Israel", "url": "https://www.nytimes.com/2024/04/01/world/middleeast/al-jazeera-israel-netanyahu.html", "thumbnailUrl": "https://static01.nyt.com/images/2024/04/01/multimedia/01mideast-crisis-jazeera-ban-pvqf/01mideast-crisis-jazeera-ban-pvqf-mediumSquareAt3X.jpg", "date": "Tue, 02 Apr 2024 15:49:08 +0000", "lat": 31.7683, "lon": 35.2137, "intensity": 0.8, "source": "NY Time"}, {"title": "Netanyahu Faces Growing Pressure From All Sides", "url": "https://www.nytimes.com/2024/04/01/world/middleeast/netanyahu-protest-pressure.html", "thumbnailUrl": "https://static01.nyt.com/images/2024/04/01/multimedia/01mideast-crisis-netanyahu-pressure-qgwp/01mideast-crisis-netanyahu-pressure-qgwp-mediumSquareAt3X.jpg", "date": "Mon, 01 Apr 2024 18:56:59 +0000", "lat": 31.7683, "lon": 35.2134, "intensity": 0.8, "source": "NY Time"}, {"title": "Betty Cole Dukert, Top \u2018Meet the Press\u2019 Producer, Dies at 96", "url": "https://www.nytimes.com/2024/04/01/business/media/betty-cole-dukert-dead.html", "thumbnailUrl": null, "date": "Mon, 01 Apr 2024 20:17:34 +0000", "lat": 0, "lon": 0, "intensity": 0.2, "source": "NY Time"}, {"title": "Outside Israel\u2019s Parliament, Protesters Explain Why Netanyahu Must Go", "url": "https://www.nytimes.com/2024/04/01/world/middleeast/protests-benjamin-netanyahu.html", "thumbnailUrl": "https://static01.nyt.com/images/2024/04/01/multimedia/01mideast-crisis-protest-scene-hltb/01mideast-crisis-protest-scene-hltb-mediumSquareAt3X.jpg", "date": "Mon, 01 Apr 2024 21:22:14 +0000", "lat": 32.070691, "lon": 34.779494, "intensity": 0.8, "source": "NY Time"}, {"title": "Turkey\u2019s Opposition Strikes Elections Blow to Erdogan\u2019s Party", "url": "https://www.nytimes.com/2024/04/01/world/middleeast/turkey-election-results.html", "thumbnailUrl": "https://static01.nyt.com/images/2024/04/01/multimedia/01turkey-election-pwlc/01turkey-election-pwlc-mediumSquareAt3X.jpg", "date": "Mon, 01 Apr 2024 13:43:04 +0000", "lat": 38.9637, "lon": 35.2433, "intensity": 0.8, "source": "NY Time"}, {"title": "Cease-Fire Talks to Confront How Displaced Palestinians Can Return", "url": "https://www.nytimes.com/2024/04/01/world/middleeast/ceasefire-talks-palestinians.html", "thumbnailUrl": "https://static01.nyt.com/images/2024/03/30/multimedia/01mideast-crisis-negotiations/0mideast-crisis-header-swap330-qkbt-mediumSquareAt3X.jpg", "date": "Mon, 01 Apr 2024 14:40:52 +0000", "lat": 31.952162, "lon": 34.470712, "intensity": 0.7, "source": "NY Time"}, {"title": "The Bizarre Chinese Murder Plot Behind Netflix\u2019s \u20183 Body Problem\u2019", "url": "https://www.nytimes.com/2024/04/01/world/asia/china-three-body-problem-murder.html", "thumbnailUrl": "https://static01.nyt.com/images/2024/04/01/multimedia/01china-threebodyproblem-tzjv/01china-threebodyproblem-tzjv-mediumSquareAt3X.jpg", "date": "Mon, 01 Apr 2024 12:22:30 +0000", "lat": 31.2304, "lon": 121.4737, "intensity": 0.8, "source": "NY Time"}, {"title": "Israeli Soldiers Pull Out of Gaza\u2019s Al-Shifa Hospital After 2-Week Battle", "url": "https://www.nytimes.com/2024/04/01/world/middleeast/gaza-al-shifa-hospital.html", "thumbnailUrl": "https://static01.nyt.com/images/2024/04/01/multimedia/01mideast-crisis-shifa-wftz/01mideast-crisis-shifa-wftz-mediumSquareAt3X.jpg", "date": "Mon, 01 Apr 2024 21:56:49 +0000", "lat": 31.5118, "lon": 34.4594, "intensity": 0.8, "source": "NY Time"}, {"title": "\u2018Oppenheimer\u2019 Opens in Japan, Earning $2.5 Million in First Three Days", "url": "https://www.nytimes.com/2024/04/01/world/asia/oppenheimer-opens-japan.html", "thumbnailUrl": "https://static01.nyt.com/images/2024/04/01/multimedia/01japan-oppenheimer-tckw/01japan-oppenheimer-tckw-mediumSquareAt3X.jpg", "date": "Mon, 01 Apr 2024 14:57:48 +0000", "lat": 35.6895, "lon": 139.6917, "intensity": 0.8, "source": "NY Time"}, {"title": "Monday Briefing", "url": "https://www.nytimes.com/2024/04/01/briefing/israel-protest-russia-defector-killing.html", "thumbnailUrl": "https://static01.nyt.com/images/2024/04/01/multimedia/01ambriefing-europe-nl-israel-promo/01ambriefing-europe-nl-israel-cgql-mediumSquareAt3X.jpg", "date": "Mon, 01 Apr 2024 04:01:32 +0000", "lat": 31.7683, "lon": 35.214, "intensity": 0.6, "source": "NY Time"}, {"title": "What Happened When This Italian Province Invested in Babies", "url": "https://www.nytimes.com/2024/04/01/world/europe/italy-babies-family-benefits.html", "thumbnailUrl": "https://static01.nyt.com/images/2024/04/01/multimedia/01italy-babies-01-twjl/01italy-babies-01-twjl-mediumSquareAt3X.jpg", "date": "Mon, 01 Apr 2024 12:36:42 +0000", "lat": 46.498306, "lon": 11.352436, "intensity": 0.8, "source": "NY Time"}, {"title": "Centuries of Irish Archives Destroyed in Civil War Are Being Recreated", "url": "https://www.nytimes.com/2024/04/01/world/europe/ireland-history-virtual-records.html", "thumbnailUrl": "https://static01.nyt.com/images/2024/03/21/multimedia/00ireland-archives-01-cpmw/00ireland-archives-01-cpmw-mediumSquareAt3X.jpg", "date": "Mon, 01 Apr 2024 04:01:19 +0000", "lat": 53.3498, "lon": -6.2603, "intensity": 0.8, "source": "NY Time"}, {"title": "Former Taiwan President Ma Ying-jeou to Visit China", "url": "https://www.nytimes.com/2024/03/31/world/asia/taiwan-china-ma-ying-jeou.html", "thumbnailUrl": "https://static01.nyt.com/images/2024/04/01/multimedia/01china-taiwan-clbp/01china-taiwan-clbp-mediumSquareAt3X.jpg", "date": "Mon, 01 Apr 2024 13:49:29 +0000", "lat": 32.057236, "lon": 118.79927, "intensity": 0.8, "source": "NY Time"}, {"title": "Israeli Protests Against Netanyahu Intensify as Cease-Fire Talks Resume", "url": "https://www.nytimes.com/2024/03/31/world/middleeast/netanyahu-israel-protests-cease-fire.html", "thumbnailUrl": "https://static01.nyt.com/images/2024/03/31/multimedia/31mideast-ledeall-vpbm/31mideast-ledeall-vpbm-mediumSquareAt3X.jpg", "date": "Mon, 01 Apr 2024 06:55:34 +0000", "lat": 31.768319, "lon": 35.21371, "intensity": 0.8, "source": "NY Time"}, {"title": "Palestinian Christians Mark Easter in Gaza\u2019s Only Catholic Church", "url": "https://www.nytimes.com/2024/03/31/world/middleeast/palestinians-easter-catholic-church.html", "thumbnailUrl": "https://static01.nyt.com/images/2024/04/08/multimedia/08MIdeast-Easter-zphb/08MIdeast-Easter-zphb-mediumSquareAt3X.jpg", "date": "Mon, 01 Apr 2024 09:02:18 +0000", "lat": 31.5226, "lon": 34.4458, "intensity": 0.8, "source": "NY Time"}, {"title": "Monday Briefing: Israeli Anger at Netanyahu Grows", "url": "https://www.nytimes.com/2024/03/31/briefing/monday-briefing-israeli-anger-at-netanyahu-grows.html", "thumbnailUrl": "https://static01.nyt.com/images/2024/04/01/multimedia/01ambriefing-asia-nl-pqlb-PROMO/01ambriefing-asia-nl-pqlb-PROMO-mediumSquareAt3X-v2.jpg", "date": "Sun, 31 Mar 2024 20:46:08 +0000", "lat": 31.7683, "lon": 35.2137, "intensity": 0.7, "source": "NY Time"}, {"title": "Benjamin Netanyahu Undergoes Hernia Surgery Amid Mounting Pressure", "url": "https://www.nytimes.com/2024/03/31/world/middleeast/netanyahu-hernia-surgery.html", "thumbnailUrl": "https://static01.nyt.com/images/2024/03/31/multimedia/31mideast-crisis-netanyahu-lbgv/31mideast-crisis-netanyahu-lbgv-mediumSquareAt3X.jpg", "date": "Mon, 01 Apr 2024 02:36:27 +0000", "lat": 31.7683, "lon": 35.2137, "intensity": 0.6, "source": "NY Time"}, {"title": "Pope Francis Calls for Gaza Cease-Fire in Easter Message", "url": "https://www.nytimes.com/2024/03/31/world/europe/pope-francis-easter-speech.html", "thumbnailUrl": "https://static01.nyt.com/images/2024/03/31/multimedia/31pope-hvqz/31pope-hvqz-mediumSquareAt3X.jpg", "date": "Sun, 31 Mar 2024 15:39:13 +0000", "lat": 31.8156, "lon": 34.3667, "intensity": 0.7, "source": "NY Time"}, {"title": "Thousands in Israel Rally Against Netanyahu\u2019s Government", "url": "https://www.nytimes.com/2024/03/31/world/middleeast/netanyahu-protest-tel-aviv.html", "thumbnailUrl": "https://static01.nyt.com/images/2024/03/31/multimedia/31mideast-crisis-israel-protests-01-pmgf/31mideast-crisis-israel-protests-01-pmgf-mediumSquareAt3X.jpg", "date": "Sun, 31 Mar 2024 16:16:04 +0000", "lat": 31.7683, "lon": 35.2137, "intensity": 0.9, "source": "NY Time"}, {"title": "King Charles III Attends Easter Service After Cancer Diagnosis", "url": "https://www.nytimes.com/2024/03/31/world/europe/king-charles-easter-cancer.html", "thumbnailUrl": "https://static01.nyt.com/images/2024/03/31/multimedia/31uk-king-tzcj/31uk-king-tzcj-mediumSquareAt3X.jpg", "date": "Sun, 31 Mar 2024 14:47:10 +0000", "lat": 0, "lon": 0, "intensity": 0.6, "source": "NY Time"}, {"title": "In Yemen, Conflict and Hunger Stalk a Lean Ramadan", "url": "https://www.nytimes.com/2024/03/31/world/middleeast/yemen-hunger-houthis.html", "thumbnailUrl": "https://static01.nyt.com/images/2024/03/31/multimedia/31yemen-1-tcjw/31yemen-1-tcjw-mediumSquareAt3X.jpg", "date": "Sun, 31 Mar 2024 20:09:13 +0000", "lat": 15.552727, "lon": 48.516388, "intensity": 0.8, "source": "NY Time"}, {"title": "Can We Engineer Our Way Out of the Climate Crisis?", "url": "https://www.nytimes.com/2024/03/31/climate/climate-change-carbon-capture-ccs.html", "thumbnailUrl": "https://static01.nyt.com/images/2024/03/31/multimedia/00cli-iceland-top-fgvj/00cli-iceland-top-fgvj-mediumSquareAt3X.jpg", "date": "Mon, 01 Apr 2024 22:16:35 +0000", "lat": 0, "lon": 0, "intensity": 0.6, "source": "NY Time"}, {"title": "A Russian Defector\u2019s Killing Raises Specter of Hit Squads", "url": "https://www.nytimes.com/2024/03/31/world/europe/russian-defector-murder-spain.html", "thumbnailUrl": "https://static01.nyt.com/images/2024/03/28/multimedia/00russia-spain-fghv/00russia-spain-fghv-mediumSquareAt3X-v2.jpg", "date": "Sun, 31 Mar 2024 12:37:51 +0000", "lat": 40.4168, "lon": -3.7038, "intensity": 0.8, "source": "NY Time"}, {"title": "Istanbul Mayor Headed for Re-election, in Blow to Erdogan\u2019s Party", "url": "https://www.nytimes.com/2024/03/31/world/middleeast/istanbul-mayor-race-turkey.html", "thumbnailUrl": "https://static01.nyt.com/images/2024/03/31/multimedia/31istanbul-election-mtvh/31istanbul-election-mtvh-mediumSquareAt3X.jpg", "date": "Mon, 01 Apr 2024 03:43:35 +0000", "lat": 41.0082, "lon": 28.9784, "intensity": 0.8, "source": "NY Time"}, {"title": "Angry Farmers Are Reshaping Europe", "url": "https://www.nytimes.com/2024/03/31/world/europe/angry-farmers-are-reshaping-europe.html", "thumbnailUrl": "https://static01.nyt.com/images/2024/03/28/multimedia/28france-farm-01-lvmg-promo/28france-farm-01-lvmg-mediumSquareAt3X.jpg", "date": "Sun, 31 Mar 2024 04:01:39 +0000", "lat": 48.7758, "lon": 9.7416, "intensity": 0.7, "source": "NY Time"}, {"title": "Water Crisis in India\u2019s Silicon Valley", "url": "https://www.nytimes.com/2024/03/31/world/asia/india-bangalore-water.html", "thumbnailUrl": "https://static01.nyt.com/images/2024/03/28/multimedia/00india-water-01-bkmw/00india-water-01-bkmw-mediumSquareAt3X.jpg", "date": "Tue, 02 Apr 2024 04:38:00 +0000", "lat": 12.9716, "lon": 77.5946, "intensity": 0.8, "source": "NY Time"}, {"title": "Police Raid Peruvian President\u2019s Home, Looking for Rolex Watches", "url": "https://www.nytimes.com/2024/03/30/world/americas/boluarte-peru-police-raid-rolex.html", "thumbnailUrl": "https://static01.nyt.com/images/2024/03/30/multimedia/30peru-president-01-gklp/30peru-president-01-gklp-mediumSquareAt3X.jpg", "date": "Sun, 31 Mar 2024 21:37:24 +0000", "lat": -12.0464, "lon": -77.0428, "intensity": 0.8, "source": "NY Time"}, {"title": "Second Boat Carrying Aid to Gaza Departs Cyprus", "url": "https://www.nytimes.com/2024/03/30/world/middleeast/gaza-aid-ship-famine.html", "thumbnailUrl": "https://static01.nyt.com/images/2024/03/30/multimedia/30mideast-crisis-wck-departs-bmcf/30mideast-crisis-wck-departs-bmcf-mediumSquareAt3X.jpg", "date": "Sat, 30 Mar 2024 22:27:43 +0000", "lat": 35.1264, "lon": 33.4299, "intensity": 0.8, "source": "NY Time"}, {"title": "Middle East Crisis: Israeli Strike on Aid Convoy Prompts Condemnation and an Apology From Netanyahu", "url": "https://www.nytimes.com/live/2024/04/02/world/israel-hamas-war-gaza-news", "thumbnailUrl": "https://static01.nyt.com/images/2024/04/02/multimedia/02mideast-crisis-briefing-promo-750-lcpq/02mideast-crisis-briefing-promo-750-lcpq-mediumSquareAt3X.jpg", "date": "Tue, 02 Apr 2024 20:58:59 +0000", "lat": 31.9522, "lon": 34.4719, "intensity": 0.8, "source": "NY Time"}, {"title": "Iran Says the Deadly Israeli Strike in Damascus Will Not Go Unanswered", "url": "https://www.nytimes.com/2024/04/02/world/middleeast/israel-iran-damascus-strike.html", "thumbnailUrl": "https://static01.nyt.com/images/2024/04/01/multimedia/01mideast-crisis-iran-reaction-israel-strike-top-mvhk/01mideast-crisis-iran-reaction-israel-strike-top-mvhk-mediumSquareAt3X.jpg", "date": "Tue, 02 Apr 2024 19:49:30 +0000", "lat": 33.5138, "lon": 36.2765, "intensity": 0.9, "source": "NY Time"}, {"title": "Senegal President Bassirou Diomaye Faye Takes Office and Promises Change", "url": "https://www.nytimes.com/2024/04/02/world/africa/senegal-president-inauguration.html", "thumbnailUrl": "https://static01.nyt.com/images/2024/04/02/multimedia/02senegal-1-qgfz/02senegal-1-qgfz-mediumSquareAt3X.jpg", "date": "Tue, 02 Apr 2024 18:53:16 +0000", "lat": 14.6928, "lon": -17.4439, "intensity": 0.8, "source": "NY Time"}, {"title": "Fire at Masquerade Nightclub in Istanbul Kills 29", "url": "https://www.nytimes.com/2024/04/02/world/europe/istanbul-nightclub-fire.html", "thumbnailUrl": "https://static01.nyt.com/images/2024/04/02/multimedia/02istanbul-fire-gzlj/02istanbul-fire-gzlj-mediumSquareAt3X.jpg", "date": "Tue, 02 Apr 2024 18:51:12 +0000", "lat": 41.008237, "lon": 28.978445, "intensity": 0.8, "source": "NY Time"}, {"title": "Ukraine Drones Hit Oil Refinery and Factory Deep in Russia", "url": "https://www.nytimes.com/2024/04/02/world/europe/russia-ukraine-drone-strike.html", "thumbnailUrl": null, "date": "Tue, 02 Apr 2024 19:59:30 +0000", "lat": 47.4192, "lon": 39.7262, "intensity": 0.7, "source": "NY Time"}, {"title": "A Timeline of Iran and Israel\u2019s Shadow War Across the Middle East", "url": "https://www.nytimes.com/2024/04/02/world/middleeast/iran-israel-attacks-shadow-war.html", "thumbnailUrl": "https://static01.nyt.com/images/2024/04/02/multimedia/02iran-israel-timeline-qzwj/02iran-israel-timeline-qzwj-mediumSquareAt3X.jpg", "date": "Tue, 02 Apr 2024 14:17:17 +0000", "lat": 33.2232, "lon": 36.2384, "intensity": 0.8, "source": "NY Time"}, {"title": "Rome\u2019s Future Is a Walk Through Its Past", "url": "https://www.nytimes.com/2024/04/02/world/europe/rome-future-past-downtown.html", "thumbnailUrl": "https://static01.nyt.com/images/2024/04/02/world/02rome/02rome-mediumSquareAt3X.jpg", "date": "Tue, 02 Apr 2024 17:50:37 +0000", "lat": 41.9028, "lon": 12.4964, "intensity": 0.7, "source": "NY Time"}, {"title": "Adidas Stops Customization of Germany Jersey for Fear of Nazi Symbolism", "url": "https://www.nytimes.com/2024/04/02/world/europe/germany-jersey-customize-nazi-symbol.html", "thumbnailUrl": "https://static01.nyt.com/images/2024/04/02/multimedia/02germany-jerseys-qzlc/02germany-jerseys-qzlc-mediumSquareAt3X.jpg", "date": "Tue, 02 Apr 2024 15:43:47 +0000", "lat": 53.5511, "lon": 9.9937, "intensity": 0.8, "source": "NY Time"}, {"title": "Ukraine\u2019s Arms Industry Is Growing, but Is It Growing Fast Enough?", "url": "https://www.nytimes.com/2024/04/02/us/politics/ukraines-war-weapons-industry-russia.html", "thumbnailUrl": "https://static01.nyt.com/images/2024/03/28/multimedia/00ukraine-weaponsindustry-01-vtph/00ukraine-weaponsindustry-01-vtph-mediumSquareAt3X.jpg", "date": "Tue, 02 Apr 2024 14:48:22 +0000", "lat": 50.4501, "lon": 30.5234, "intensity": 0.8, "source": "NY Time"}, {"title": "Finland School Shooting: 12-Year-Old Suspect Detained After 1 Dead and 2 Injured", "url": "https://www.nytimes.com/2024/04/02/world/europe/finland-school-shooting.html", "thumbnailUrl": "https://static01.nyt.com/images/2024/04/02/multimedia/02finland-shooting-cltv/02finland-shooting-cltv-mediumSquareAt3X.jpg", "date": "Tue, 02 Apr 2024 15:33:39 +0000", "lat": 60.1695, "lon": 24.9354, "intensity": 0.8, "source": "NY Time"},