[{"title": "Parteien in RLP beklagen zunehmende Anfeindungen im Wahlkampf", "url": "https://www.tagesschau.de/inland/regional/rheinlandpfalz/swr-parteien-in-rlp-beklagen-zunehmende-anfeindungen-im-wahlkampf-100.html", "thumbnailUrl": "https://images.tagesschau.de/image/34485cf4-5503-4cf2-b612-5f89cae97901/AAABj1OecK0/AAABjwnlKNc/16x9-512.jpg", "date": "2024-05-08T02:50:00.000+02:00", "lat": 50.3569, "lon": 7.6128, "intensity": 0.3, "source": "Tagesschau"}, {"title": "Staatsschutz ermittelt: Berliner Wirtschaftssenatorin Giffey bei t\u00e4tlichem leicht Angriff verletzt", "url": "https://www.tagesschau.de/inland/regional/berlin/rbb-staatsschutz-ermittelt-berliner-wirtschaftssenatorin-giffey-bei-taetlichem-leicht-angriff-verletzt-100.html", "thumbnailUrl": "https://images.tagesschau.de/image/e4943628-8743-42ea-a2e4-ea000a2601cc/AAABj1WX7o8/AAABjwnlKNc/16x9-512.jpg", "date": "2024-05-08T02:21:43.000+02:00", "lat": 52.520008, "lon": 13.404954, "intensity": 0.7, "source": "Tagesschau"}, {"title": "Giffey bei t\u00e4tlichem Angriff verletzt", "url": "https://www.tagesschau.de/inland/innenpolitik/innenminister-treffen-gewalt-politiker-102.html", "thumbnailUrl": "https://images.tagesschau.de/image/ae6245c2-1b73-4cd0-959e-dc2b80a191b3/AAABj1V2bJE/AAABjwnlKNc/16x9-512.jpg", "date": "2024-05-08T02:15:11.227+02:00", "lat": 52.52, "lon": 13.405, "intensity": 0.8, "source": "Tagesschau"}, {"title": "Angriffe auf Politiker: Kretschmann h\u00e4lt sch\u00e4rfere Strafen f\u00fcr m\u00f6glich", "url": "https://www.tagesschau.de/inland/regional/badenwuerttemberg/swr-auch-angriffe-auf-wahlkaempfer-in-baden-wuerttemberg-strobl-fordert-aktionstag-100.html", "thumbnailUrl": "https://images.tagesschau.de/image/64704fe9-dd08-4c8f-b6c3-20dcb76b08b2/AAABj1NRkHY/AAABjwnlKNc/16x9-512.jpg", "date": "2024-05-08T00:10:00.000+02:00", "lat": 51.0504088, "lon": 13.7372621, "intensity": 0.7, "source": "Tagesschau"}, {"title": "Himmelfahrts-Wochenende: ADAC rechnet heute mit vielen Staus", "url": "https://www.tagesschau.de/inland/regional/niedersachsen/ndr-himmelfahrt-adac-rechnet-mit-vielen-staus-am-mittwoch-100.html", "thumbnailUrl": "https://images.tagesschau.de/image/400203cc-141a-47b4-9175-f7ad8fb15844/AAABj1UV2jk/AAABjwnlKNc/16x9-512.jpg", "date": "2024-05-08T00:01:00.000+02:00", "lat": 52.6367, "lon": 10.3819, "intensity": 0.8, "source": "Tagesschau"}, {"title": "Himmelfahrt: Wie wird das Wetter im Norden am langen Wochenende?", "url": "https://www.tagesschau.de/inland/regional/niedersachsen/ndr-himmelfahrt-wie-wird-das-wetter-im-norden-am-langen-wochenende-100.html", "thumbnailUrl": "https://images.tagesschau.de/image/d0e35913-5042-423e-aac5-54be2287c2a2/AAABj1TvZNU/AAABjwnlKNc/16x9-512.jpg", "date": "2024-05-08T00:01:00.000+02:00", "lat": 52.4, "lon": 9.7, "intensity": 0.4, "source": "Tagesschau"}, {"title": "++ US-Regierung: Milit\u00e4reinsatz in Rafah begrenzt ++", "url": "https://www.tagesschau.de/newsticker/liveblog-nahost-dienstag-134.html", "thumbnailUrl": "https://images.tagesschau.de/image/40e58bed-9a46-424d-85f4-4ebac6ee622e/AAABj1GZLfc/AAABjwnlKNc/16x9-512.jpg", "date": "2024-05-07T23:36:28.078+02:00", "lat": 31.2682, "lon": 34.2549, "intensity": 0.8, "source": "Tagesschau"}, {"title": "Innenminister wollen \u00dcbergriffe h\u00e4rter ahnden", "url": "https://www.tagesschau.de/inland/innenpolitik/innenminister-treffen-gewalt-politiker-100.html", "thumbnailUrl": "https://images.tagesschau.de/image/5d69ab8a-d58a-4d47-a0d5-1c4c35198a72/AAABj1SREZ4/AAABjwnlKNc/16x9-512.jpg", "date": "2024-05-07T23:29:06.785+02:00", "lat": 48.3713, "lon": 9.9937, "intensity": 0.8, "source": "Tagesschau"}, {"title": "Dortmund steht im Finale der Champions League", "url": "https://www.tagesschau.de/sport/cl-dortmund-sieg-paris-100.html", "thumbnailUrl": "https://images.tagesschau.de/image/d27476c3-77c9-4936-b1f1-99f55fea87d5/AAABj1TnEFc/AAABjwnlKNc/16x9-512.jpg", "date": "2024-05-07T23:13:15.982+02:00", "lat": 51.5136, "lon": 7.4686, "intensity": 0.8, "source": "Tagesschau"}, {"title": "Eintracht: +++ Skhiri gibt sich selbstkritisch +++ Eintracht dr\u00fcckt BVB die Daumen +++ Eintracht mit schwachen Leistungen Richtung Europa +++ ", "url": "https://www.tagesschau.de/inland/regional/hessen/hr--eintracht-wohl-mit-chaibi-einig--glasner-fast-nur-kolo-muani-der-tore-erzielt--bericht-eintracht-sagt-aouar-ab-100.html", "thumbnailUrl": "https://images.tagesschau.de/image/878d5bc4-5b32-4687-bdf5-e891fafd73ad/AAABj1Te6EI/AAABjwnlKNc/16x9-512.jpg", "date": "2024-05-07T23:02:31.021+02:00", "lat": 50.110922, "lon": 8.682127, "intensity": 0.6, "source": "Tagesschau"}, {"title": "BVB l\u00e4sst Eintracht Frankfurt von K\u00f6nigsklasse tr\u00e4umen", "url": "https://www.tagesschau.de/inland/regional/hessen/hr-bvb-laesst-eintracht-frankfurt-von-koenigsklasse-traeumen-102.html", "thumbnailUrl": "https://images.tagesschau.de/image/1a229e53-41a3-4fd0-84ce-ea416314c95e/AAABj1TxM5I/AAABjwnlKNc/16x9-512.jpg", "date": "2024-05-07T22:56:16.086+02:00", "lat": 50.1109, "lon": 8.6809, "intensity": 0.7, "source": "Tagesschau"}, {"title": "Wall Street verliert an Schwung", "url": "https://www.tagesschau.de/wirtschaft/finanzen/marktberichte/marktbericht-dax-zinsen-kurse-charttechnik-geldanlage-dow-nikkei-gold-oel-aktien-100.html", "thumbnailUrl": "https://images.tagesschau.de/image/505f6a34-9518-4a59-96f9-acc00940da95/AAABhuHfh8s/AAABjwnlKNc/16x9-512.jpg", "date": "2024-05-07T22:24:03.164+02:00", "lat": 40.7128, "lon": -74.0097, "intensity": 0.6, "source": "Tagesschau"}, {"title": "Pleite am Millerntor gegen Schalke: VfL Osnabr\u00fcck steigt aus 2. Liga ab", "url": "https://www.tagesschau.de/inland/regional/niedersachsen/ndr-abstieg-besiegelt-vfl-osnabrueck-verliert-am-millerntor-gegen-schalke-104.html", "thumbnailUrl": "https://images.tagesschau.de/image/c0fd0d3d-2d77-4fba-b686-c3a0d1aae3a6/AAABj1RkTfM/AAABjwnlKNc/16x9-512.jpg", "date": "2024-05-07T22:00:00.000+02:00", "lat": 52.279, "lon": 8.049, "intensity": 0.8, "source": "Tagesschau"}, {"title": "Teilnehmerrekord bei Schullaufmeisterschaften in Merzig ", "url": "https://www.tagesschau.de/inland/regional/saarland/sr-teilnehmerrekord-bei-schullaufmeisterschaften-in-merzig-100.html", "thumbnailUrl": "https://images.tagesschau.de/image/b18e7fbb-3e39-445b-90fa-f12e2f513c6c/AAABj1Sc8-o/AAABjwnlKNc/16x9-512.jpg", "date": "2024-05-07T21:50:00.000+02:00", "lat": 49.4435, "lon": 6.6371, "intensity": 0.8, "source": "Tagesschau"}, {"title": "Lkw \u00fcberf\u00e4hrt 86-J\u00e4hrigen in Elz: Fu\u00dfg\u00e4nger mit Rollator bei Unfall auf Zebrastreifen get\u00f6tet", "url": "https://www.tagesschau.de/inland/regional/hessen/hr-lkw-ueberfaehrt-86-jaehrigen-in-elz-fussgaenger-mit-rollator-bei-unfall-auf-zebrastreifen-getoetet-100.html", "thumbnailUrl": "https://images.tagesschau.de/image/5f007486-7011-4dfe-b805-4d9ea74be789/AAABj1SR9wY/AAABjwnlKNc/16x9-512.jpg", "date": "2024-05-07T21:39:20.377+02:00", "lat": 50.3167, "lon": 8.0011, "intensity": 0.8, "source": "Tagesschau"}, {"title": "Blauzungenkrankheit: Land Niedersachsen bittet um Wachsamkeit", "url": "https://www.tagesschau.de/inland/regional/niedersachsen/ndr-blauzungenkrankheit-land-niedersachsen-bittet-um-wachsamkeit-100.html", "thumbnailUrl": "https://images.tagesschau.de/image/84ab2e16-de38-4454-83ff-850f220a86eb/AAABj1SHFEM/AAABjwnlKNc/16x9-512.jpg", "date": "2024-05-07T21:25:00.000+02:00", "lat": 52.3732, "lon": 9.6917, "intensity": 0.7, "source": "Tagesschau"}, {"title": "Reise durch die Mediengeschichte: 75 Jahre Hessischer Rundfunk", "url": "https://www.tagesschau.de/inland/regional/hessen/hr-reise-durch-die-mediengeschichte-75-jahre-hessischer-rundfunk-100.html", "thumbnailUrl": "https://images.tagesschau.de/image/5e21293d-ddbf-47c1-b065-ae3bd78f2015/AAABj1SDVBg/AAABjwnlKNc/16x9-512.jpg", "date": "2024-05-07T21:22:53.350+02:00", "lat": 50.5372, "lon": 9.6629, "intensity": 0.3, "source": "Tagesschau"}, {"title": "Probenbeginn in Bad Hersfeld: Festspiele versprechen \"Big Show\" mit einer Gangster-Ballade", "url": "https://www.tagesschau.de/inland/regional/hessen/hr-probenbeginn-in-bad-hersfeld-festspiele-versprechen-big-show-mit-einer-gangster-ballade-100.html", "thumbnailUrl": "https://images.tagesschau.de/image/ba4116d3-d69f-4c06-adb4-e5c1ec3bc4d6/AAABj1R8Efc/AAABjwnlKNc/16x9-512.jpg", "date": "2024-05-07T21:14:24.776+02:00", "lat": 50.8696, "lon": 9.7058, "intensity": 0.7, "source": "Tagesschau"}, {"title": "Weltkunstschau documenta: Verhaltenskodex kommt \u2013 aber nicht f\u00fcr die k\u00fcnstlerische Leitung", "url": "https://www.tagesschau.de/inland/regional/hessen/hr-weltkunstschau-documenta-verhaltenskodex-kommt--aber-nicht-fuer-die-kuenstlerische-leitung-100.html", "thumbnailUrl": "https://images.tagesschau.de/image/15eb192d-8297-4316-97ba-5f8c10fac9ab/AAABj1R8Ado/AAABjwnlKNc/16x9-512.jpg", "date": "2024-05-07T21:12:43.921+02:00", "lat": 51.3107, "lon": 9.6752, "intensity": 0.8, "source": "Tagesschau"}, {"title": "SPD und VdK kritisieren Stellenpool f\u00fcr Menschen mit Schwerbehinderung", "url": "https://www.tagesschau.de/inland/regional/badenwuerttemberg/swr-sdp-und-vdk-kritisieren-stellenpool-fuer-menschen-mit-schwerbehinderung-100.html", "thumbnailUrl": "https://images.tagesschau.de/image/6090fd0d-a837-42b4-ab6d-c10e4941ddf8/AAABj1R9zYE/AAABjwnlKNc/16x9-512.jpg", "date": "2024-05-07T21:11:46.000+02:00", "lat": 48.6616, "lon": 9.9937, "intensity": 0.7, "source": "Tagesschau"}, {"title": "Polizei rechnet mit gr\u00f6\u00dferem Einsatz bei Protesten gegen Tesla in Gr\u00fcnheide", "url": "https://www.tagesschau.de/inland/regional/brandenburg/rbb-gruenheide-polizei-rechnet-mit-groesserem-einsatz-bei-protesten-gegen-tesla-100.html", "thumbnailUrl": "https://images.tagesschau.de/image/a0362b41-7adb-4d0a-9c64-d51deb5dad12/AAABj1PBOEM/AAABjwnlKNc/16x9-512.jpg", "date": "2024-05-07T21:07:00.000+02:00", "lat": 52.3925, "lon": 13.7868, "intensity": 0.8, "source": "Tagesschau"}, {"title": "Live: Paris Saint-Germain gegen Dortmund", "url": "https://www.sportschau.de/live-und-ergebnisse/fussball/uefa-champions-league/ma9671789/paris-saint-germain_borussia-dortmund/liveticker/", "thumbnailUrl": "https://images.tagesschau.de/image/5e211391-faaa-4bb9-8a92-cfd2c053b5f8/AAABjhR4xlg/AAABjwnlKNc/16x9-512.jpg", "date": "2024-05-07T21:06:54.921+02:00", "lat": 48.8566, "lon": 2.3522, "intensity": 0.6, "source": "Tagesschau"}, {"title": "Angriffe auf Wahlk\u00e4mpfer: Innenminister wollen mehr Schutz f\u00fcr politisch engagierte Menschen", "url": "https://www.tagesschau.de/inland/regional/berlin/rbb-nach-angriffen-auf-wahlkaempfer-innenminister-beraten-ueber-mehr-schutz-fuer-politisch-engagierte-menschen-100.html", "thumbnailUrl": "https://images.tagesschau.de/image/1d41fe8b-1b3b-4045-87e1-bb7a69ffc075/AAABj1WX83M/AAABjwnlKNc/16x9-512.jpg", "date": "2024-05-07T20:59:34.000+02:00", "lat": 52.520008, "lon": 13.404954, "intensity": 0.8, "source": "Tagesschau"}, {"title": "Polizei r\u00e4umt Protestcamp an FU Berlin", "url": "https://www.tagesschau.de/inland/regional/berlin/protestcamp-berlin-geraeumt-100.html", "thumbnailUrl": "https://images.tagesschau.de/image/dd6811b7-4fc5-460d-b9f6-1543618df9bf/AAABj1Rgrl8/AAABjwnlKNc/16x9-512.jpg", "date": "2024-05-07T20:43:19.000+02:00", "lat": 52.4535, "lon": 13.2904, "intensity": 0.8, "source": "Tagesschau"}, {"title": "Medizinerinnen und Mediziner kritisieren Lage im Gesundheitswesen ", "url": "https://www.tagesschau.de/inland/regional/rheinlandpfalz/swr-medizinerinnen-und-mediziner-kritisieren-lage-im-gesundheitswesen-102.html", "thumbnailUrl": "https://images.tagesschau.de/image/30106885-fa7d-4c9b-a0e5-62cad39fdd8c/AAABj1Rg2G4/AAABjwnlKNc/16x9-512.jpg", "date": "2024-05-07T20:40:36.000+02:00", "lat": 49.992862, "lon": 8.247252, "intensity": 0.8, "source": "Tagesschau"}, {"title": "Angriffe auf Politiker: Ebling f\u00fcr versch\u00e4rftes Strafrecht", "url": "https://www.tagesschau.de/inland/regional/rheinlandpfalz/swr-angriffe-auf-politiker-ebling-fuer-verschaerftes-strafrecht-102.html", "thumbnailUrl": "https://images.tagesschau.de/image/b4fd30a9-2c73-422e-938e-3bde39035704/AAABj1RgnXA/AAABjwnlKNc/16x9-512.jpg", "date": "2024-05-07T20:38:19.000+02:00", "lat": 49.9929, "lon": 8.2394, "intensity": 0.6, "source": "Tagesschau"}, {"title": "Widerstand gegen geplanten Parkplatz in Billstedt", "url": "https://www.tagesschau.de/inland/regional/hamburg/ndr-widerstand-gegen-geplanten-parkplatz-in-billstedt-100.html", "thumbnailUrl": "https://images.tagesschau.de/image/5cdee512-9e5d-44df-b23e-875178b76b66/AAABj1RXYqo/AAABjwnlKNc/16x9-512.jpg", "date": "2024-05-07T20:34:00.000+02:00", "lat": 53.527, "lon": 10.088, "intensity": 0.6, "source": "Tagesschau"}, {"title": "Hamburger AfD-Fraktion schlie\u00dft Petersen aus", "url": "https://www.tagesschau.de/inland/regional/hamburg/afd-olga-petersen-100.html", "thumbnailUrl": "https://images.tagesschau.de/image/4335dc02-026e-4532-bcf5-1377cc88e829/AAABj1KEgMA/AAABjwnlKNc/16x9-512.jpg", "date": "2024-05-07T20:23:00.000+02:00", "lat": 53.55, "lon": 10.0, "intensity": 0.7, "source": "Tagesschau"}, {"title": "Das Wundern von Bern", "url": "https://www.tagesschau.de/inland/innenpolitik/fc-bundestag-afd-100.html", "thumbnailUrl": "https://images.tagesschau.de/image/02d77ee9-24b1-4ef0-b192-cf08edbfbdbf/AAABj1RDI4Y/AAABjwnlKNc/16x9-512.jpg", "date": "2024-05-07T20:13:57.528+02:00", "lat": 47.3673, "lon": 8.2275, "intensity": 0.5, "source": "Tagesschau"}, {"title": "TikTok klagt gegen US-Gesetz zum Verkauf", "url": "https://www.tagesschau.de/ausland/amerika/usa-tiktok-klage-100.html", "thumbnailUrl": "https://images.tagesschau.de/image/b7f668ff-d4f7-4cec-850a-718f30abd34e/AAABj1QSlOI/AAABjwnlKNc/16x9-512.jpg", "date": "2024-05-07T20:12:22.029+02:00", "lat": 38.9072, "lon": -77.0369, "intensity": 0.8, "source": "Tagesschau"}, {"title": "Spuren in die rechtsextreme Szene", "url": "https://www.tagesschau.de/investigativ/ndr-wdr/dresden-taeter-angriff-auf-spd-politiker-102.html", "thumbnailUrl": "https://images.tagesschau.de/image/a444941a-0250-4535-9b4a-804aa36045cf/AAABj05LHqc/AAABjwnlKNc/16x9-512.jpg", "date": "2024-05-07T20:00:35.235+02:00", "lat": 51.0504088, "lon": 13.7372621, "intensity": 0.8, "source": "Tagesschau"}, {"title": "Wetterlage und Temperaturen", "url": "https://www.tagesschau.de/wetter/europa-welt", "thumbnailUrl": "https://images.tagesschau.de/image/6e7d3b16-79c8-4308-822b-20c3035236b5/AAABj1JrG-Y/AAABjwnlKNc/16x9-512.jpg", "date": "2024-05-07T19:50:39.508+02:00", "lat": 51.1657, "lon": 10.4515, "intensity": 0.3, "source": "Tagesschau"}, {"title": "Aufwendiges Aufr\u00e4umen nach Lkw-Brand auf A7 bei Neum\u00fcnster", "url": "https://www.tagesschau.de/inland/regional/schleswigholstein/ndr-lkw-brand-teilsperrung-auf-der-a7-bei-neumuenster-100.html", "thumbnailUrl": "https://images.tagesschau.de/image/d2b0c385-68af-42da-8c37-03fd47049997/AAABj1QtRqU/AAABjwnlKNc/16x9-512.jpg", "date": "2024-05-07T19:48:00.000+02:00", "lat": 54.07732, "lon": 9.993682, "intensity": 0.7, "source": "Tagesschau"}, {"title": "Messe OMR 2024 in Hamburg: Kardashian bringt Promi-Glanz", "url": "https://www.tagesschau.de/inland/regional/hamburg/ndr-stars-bei-der-digitalmesse-zehntausende-kommen-zur-omr-100.html", "thumbnailUrl": "https://images.tagesschau.de/image/0914de5a-f3fb-4546-b502-bd17de906433/AAABj1Qa_yI/AAABjwnlKNc/16x9-512.jpg", "date": "2024-05-07T19:46:00.000+02:00", "lat": 53.5511, "lon": 9.9937, "intensity": 0.8, "source": "Tagesschau"}, {"title": "Sch\u00fcler in Niedersachsen sollen digitale ID erhalten", "url": "https://www.tagesschau.de/inland/regional/niedersachsen/ndr-schueler-in-niedersachsen-sollen-digitale-id-erhalten-100.html", "thumbnailUrl": "https://images.tagesschau.de/image/66175494-6827-42bc-a2b9-9da64c867453/AAABj1QppYk/AAABjwnlKNc/16x9-512.jpg", "date": "2024-05-07T19:41:00.000+02:00", "lat": 52.6367, "lon": 9.7347, "intensity": 0.7, "source": "Tagesschau"}, {"title": "Neuer Ludwigspark-Rasen wird noch teurer", "url": "https://www.tagesschau.de/inland/regional/saarland/sr-neuer-ludwigspark-rasen-wird-noch-teurer-100.html", "thumbnailUrl": "https://images.tagesschau.de/image/2ce96c4d-d984-42ee-bc6a-962a6343ee91/AAABj1QnuuI/AAABjwnlKNc/16x9-512.jpg", "date": "2024-05-07T19:41:00.000+02:00", "lat": 49.2461, "lon": 6.9974, "intensity": 0.7, "source": "Tagesschau"}, {"title": "Foto-Ausstellung in Darmstadt: Im VW-Bus um die Welt: Das schillernde Leben der Milli Bau", "url": "https://www.tagesschau.de/inland/regional/hessen/hr-foto-ausstellung-in-darmstadt-im-vw-bus-um-die-welt-das-schillernde-leben-der-milli-bau-100.html", "thumbnailUrl": "https://images.tagesschau.de/image/3179d954-6341-4f7e-bad3-85e94dec5c6d/AAABj1QiTvw/AAABjwnlKNc/16x9-512.jpg", "date": "2024-05-07T19:36:26.267+02:00", "lat": 49.8728, "lon": 8.6548, "intensity": 0.7, "source": "Tagesschau"}, {"title": "OVG L\u00fcneburg begr\u00fcndet Urteil zum Wolfsabschuss", "url": "https://www.tagesschau.de/inland/regional/niedersachsen/ndr-ovg-lueneburg-begruendet-urteil-zum-wolfsabschuss-100.html", "thumbnailUrl": "https://images.tagesschau.de/image/29822a40-5134-4600-b2be-2cc495761054/AAABj1Q6HHA/AAABjwnlKNc/16x9-512.jpg", "date": "2024-05-07T19:33:00.000+02:00", "lat": 52.3759, "lon": 10.4166, "intensity": 0.8, "source": "Tagesschau"}, {"title": "Opfer in Spandau war 19-J\u00e4hriger - Polizei geht von zwei T\u00e4tern aus", "url": "https://www.tagesschau.de/inland/regional/berlin/rbb-ermittlungsstand-100.html", "thumbnailUrl": "https://images.tagesschau.de/image/d0aedd9d-5521-4b64-ba9f-3c3f189f026a/AAABj1OehLk/AAABjwnlKNc/16x9-512.jpg", "date": "2024-05-07T19:25:15.000+02:00", "lat": 52.5357, "lon": 13.2026, "intensity": 0.8, "source": "Tagesschau"}, {"title": "Ab Mittwoch streiken die privaten Busfahrer in RLP bis Pfingstsonntag", "url": "https://www.tagesschau.de/inland/regional/rheinlandpfalz/swr-ab-mittwoch-streiken-die-privaten-busfahrer-fuer-eineinhalb-wochen-100.html", "thumbnailUrl": "https://images.tagesschau.de/image/f09cb5b1-f0f4-4511-b55e-4f958abbffe4/AAABj1QTooQ/AAABjwnlKNc/16x9-512.jpg", "date": "2024-05-07T19:20:54.000+02:00", "lat": 50.2034, "lon": 7.2662, "intensity": 0.8, "source": "Tagesschau"}, {"title": "Kostenloses Deutschlandticket f\u00fcr Hamburgs Sch\u00fcler: So l\u00e4uft die Umstellung", "url": "https://www.tagesschau.de/inland/regional/hamburg/ndr-kostenloses-deutschlandticket-fuer-hamburgs-schueler-so-laeuft-die-umstellung-100.html", "thumbnailUrl": "https://images.tagesschau.de/image/77738070-d7b0-4c0b-bda7-bb94616f02d6/AAABj1MnbTA/AAABjwnlKNc/16x9-512.jpg", "date": "2024-05-07T19:20:00.000+02:00", "lat": 53.55, "lon": 10.0, "intensity": 0.7, "source": "Tagesschau"}, {"title": "Alternative zum Abriss: Wie zwei Windr\u00e4der zum Denkmal wurden", "url": "https://www.tagesschau.de/inland/regional/brandenburg/rbb-alternative-zum-abriss-wie-zwei-windraeder-zum-denkmal-wurden-100.html", "thumbnailUrl": "https://images.tagesschau.de/image/4977d066-9918-4119-9b98-104437660a28/AAABj1PMODs/AAABjwnlKNc/16x9-512.jpg", "date": "2024-05-07T19:18:45.000+02:00", "lat": 52.412, "lon": 13.615, "intensity": 0.7, "source": "Tagesschau"}, {"title": "Galeria streicht Karstadt und Kaufhof aus dem Namen", "url": "https://www.tagesschau.de/inland/regional/nordrheinwestfalen/wdr-galeria-streicht-karstadt-und-kaufhof-aus-dem-namen-102.html", "thumbnailUrl": "https://images.tagesschau.de/image/fe3d8fd7-c63d-4bf8-a8dc-32c4a693d77b/AAABj1Qa6pg/AAABjwnlKNc/16x9-512.jpg", "date": "2024-05-07T19:16:00.000+02:00", "lat": 51.4556, "lon": 7.6233, "intensity": 0.7, "source": "Tagesschau"}, {"title": "Korvette \"Karlsruhe\" bei Blohm + Voss in Hamburg getauft", "url": "https://www.tagesschau.de/inland/regional/hamburg/ndr-korvette-karlsruhe-bei-blohm--voss-in-hamburg-getauft-100.html", "thumbnailUrl": "https://images.tagesschau.de/image/a5b93c10-3cf0-4269-bee8-f9cf48a3b941/AAABj1ORo4c/AAABjwnlKNc/16x9-512.jpg", "date": "2024-05-07T19:16:00.000+02:00", "lat": 53.551, "lon": 9.986, "intensity": 0.7, "source": "Tagesschau"}, {"title": "\"Dieses Regime verkrustet immer mehr\"", "url": "https://www.tagesschau.de/ausland/europa/russland-inauguration-putin-100.html", "thumbnailUrl": "https://images.tagesschau.de/image/42a0bc12-0cfd-4d27-aed2-90c935addfd6/AAABj1M4ZG0/AAABjwnlKNc/16x9-512.jpg", "date": "2024-05-07T19:15:47.319+02:00", "lat": 55.7558, "lon": 37.6176, "intensity": 0.6, "source": "Tagesschau"}, {"title": "Mehr F\u00e4lle von Ringelr\u00f6teln in der Region: Was Schwangere jetzt wissen sollten ", "url": "https://www.tagesschau.de/inland/regional/badenwuerttemberg/swr-mehr-faelle-von-ringelroeteln-in-der-region-was-schwangere-jetzt-wissen-sollten-100.html", "thumbnailUrl": "https://images.tagesschau.de/image/72ec5467-e7be-45f5-8523-20bb718cff25/AAABj1Qw6mw/AAABjwnlKNc/16x9-512.jpg", "date": "2024-05-07T19:13:48.000+02:00", "lat": 48.5216, "lon": 9.0363, "intensity": 0.8, "source": "Tagesschau"}, {"title": "Tag der Befreiung: Berliner Polizei verbietet russische Symbole an Sowjetischen Ehrenmalen", "url": "https://www.tagesschau.de/inland/regional/berlin/rbb-tag-der-befreiung-berliner-polizei-verbietet-russische-symbole-an-sowjetischen-ehrenmalen-100.html", "thumbnailUrl": "https://images.tagesschau.de/image/717d64ae-6e9a-487b-b028-3fa65dfd154c/AAABj1QOItY/AAABjwnlKNc/16x9-512.jpg", "date": "2024-05-07T19:12:06.000+02:00", "lat": 52.5166, "lon": 13.3672, "intensity": 0.8, "source": "Tagesschau"}, {"title": "Erneut Bus-Streiks in Rheinland-Pfalz", "url": "https://www.tagesschau.de/inland/regional/saarland/sr-erneut-bus-streiks-in-rheinland-pfalz-100.html", "thumbnailUrl": "https://images.tagesschau.de/image/ad2d8797-9a6e-41bb-9f51-248c99b45cca/AAABj1QImfo/AAABjwnlKNc/16x9-512.jpg", "date": "2024-05-07T19:07:00.000+02:00", "lat": 49.8788, "lon": 7.805, "intensity": 0.8, "source": "Tagesschau"}, {"title": "CDU verabschiedet neues Grundsatzprogramm - Zustimmung aus RLP", "url": "https://www.tagesschau.de/inland/regional/rheinlandpfalz/swr-cdu-diskutiert-ueber-neues-grundsatzprogramm-zustimmung-aus-rlp-102.html", "thumbnailUrl": "https://images.tagesschau.de/image/d84f6417-79fb-42f1-b001-be0d7072d0bf/AAABj1QP9II/AAABjwnlKNc/16x9-512.jpg", "date": "2024-05-07T18:51:35.000+02:00", "lat": 52.520008, "lon": 13.404954, "intensity": 0.7, "source": "Tagesschau"}, {"title": "FSV Frankfurt und Steinbach Haiger dr\u00fccken Waldhof Mannheim die Daumen", "url": "https://www.tagesschau.de/inland/regional/hessen/hr-fsv-frankfurt-und-tsv-steinbach-druecken-waldhof-mannheim-im-abstiegskampf-die-daumen-102.html", "thumbnailUrl": "https://images.tagesschau.de/image/93feddbc-444f-4a3e-8dfa-0dc7508c1850/AAABj1Q2aVQ/AAABjwnlKNc/16x9-512.jpg", "date": "2024-05-07T18:49:11.259+02:00", "lat": 50.106543, "lon": 8.693983, "intensity": 0.5, "source": "Tagesschau"}, {"title": "Brand in \"Movie Star\" in Dillenburg: Einziges Kino im Lahn-Dill-Kreis geschlossen", "url": "https://www.tagesschau.de/inland/regional/hessen/hr-brand-in-movie-star-in-dillenburg-einziges-kino-im-lahn-dill-kreis-geschlossen-100.html", "thumbnailUrl": "https://images.tagesschau.de/image/44ae0a15-56f8-4960-9552-90ca2c23a324/AAABj1P2W6I/AAABjwnlKNc/16x9-512.jpg", "date": "2024-05-07T18:48:09.761+02:00", "lat": 50.7464, "lon": 8.2947, "intensity": 0.8, "source": "Tagesschau"}, {"title": "Streik der Telekom-Besch\u00e4ftigten am Montag und Dienstag", "url": "https://www.tagesschau.de/inland/regional/saarland/sr-verdi-kuendigt-erneute-streiks-bei-der-telekom-an-100.html", "thumbnailUrl": "https://images.tagesschau.de/image/7cc4ba3a-b1cb-453b-a5ae-b6ce915ca11a/AAABj0wx86c/AAABjwnlKNc/16x9-512.jpg", "date": "2024-05-07T18:36:00.000+02:00", "lat": 49.4, "lon": 7.0, "intensity": 0.8, "source": "Tagesschau"}, {"title": "Champions League: THW Kiel im Halbfinale gegen FC Barcelona", "url": "https://www.tagesschau.de/inland/regional/schleswigholstein/ndr-champions-league-thw-kiel-im-halbfinale-gegen-fc-barcelona-102.html", "thumbnailUrl": "https://images.tagesschau.de/image/1348a82f-3a4d-4607-910e-7b7a95bfeea6/AAABj1QBUgk/AAABjwnlKNc/16x9-512.jpg", "date": "2024-05-07T18:34:00.000+02:00", "lat": 54.322708, "lon": 9.959078, "intensity": 0.8, "source": "Tagesschau"}, {"title": "Interview zum Eurovision Song Contest: \"Der ESC ist in jedem Jahr in irgendeiner Form politisch\"", "url": "https://www.tagesschau.de/inland/regional/brandenburg/rbb-interview-zum-eurovision-song-contest-der-esc-ist-in-jedem-jahr-in-irgendeiner-form-politisch-100.html", "thumbnailUrl": "https://images.tagesschau.de/image/d564ce8d-6a9c-4f5a-8e6d-18c71a36e6cb/AAABj1PmB2s/AAABjwnlKNc/16x9-512.jpg", "date": "2024-05-07T18:27:16.000+02:00", "lat": 52.52, "lon": 13.0883, "intensity": 0.6, "source": "Tagesschau"}, {"title": "Beispiel Kastorf: Wie Gemeinden von EU-Geldern profitieren k\u00f6nnen", "url": "https://www.tagesschau.de/inland/regional/schleswigholstein/ndr-beispiel-kastorf-wie-gemeinden-von-eu-geldern-profitieren-koennen-100.html", "thumbnailUrl": "https://images.tagesschau.de/image/68ef17d0-93f2-46d8-8b16-15c78d474a6a/AAABj1PkDNc/AAABjwnlKNc/16x9-512.jpg", "date": "2024-05-07T18:27:00.000+02:00", "lat": 53.6984, "lon": 10.6061, "intensity": 0.8, "source": "Tagesschau"}, {"title": "Evangelische Kirche verliert im Saarland weiterhin Mitglieder", "url": "https://www.tagesschau.de/inland/regional/saarland/sr-evangelische-kirche-verliert-im-saarland-weiterhin-mitglieder-100.html", "thumbnailUrl": "https://images.tagesschau.de/image/8337f75f-8ca2-4fe3-a7e4-b1d5f882cb93/AAABj1PiR1M/AAABjwnlKNc/16x9-512.jpg", "date": "2024-05-07T18:24:00.000+02:00", "lat": 49.3964, "lon": 7.0, "intensity": 0.7, "source": "Tagesschau"}, {"title": "EU unterst\u00fctzt vier Saar-Kommunen bei der Unterbringung Gefl\u00fcchteter", "url": "https://www.tagesschau.de/inland/regional/saarland/sr-eu-unterstuetzt-vier-saar-kommunen-bei-der-unterbringung-gefluechteter-100.html", "thumbnailUrl": "https://images.tagesschau.de/image/46c62fc8-3694-47fe-b999-c061c19426f2/AAABj1PiJpQ/AAABjwnlKNc/16x9-512.jpg", "date": "2024-05-07T18:23:00.000+02:00", "lat": 49.2385, "lon": 6.9968, "intensity": 0.6, "source": "Tagesschau"}, {"title": "Rassismus erh\u00f6ht Armutsrisiko", "url": "https://www.tagesschau.de/inland/gesellschaft/rassismus-armutsrisiko-100.html", "thumbnailUrl": "https://images.tagesschau.de/image/92b0a4a9-4f28-4439-98cf-7e0b24413556/AAABj1Qx0x8/AAABjwnlKNc/16x9-512.jpg", "date": "2024-05-07T18:19:36.159+02:00", "lat": 51.1657, "lon": 10.4515, "intensity": 0.7, "source": "Tagesschau"}, {"title": "Bahn muss Mehrkosten von Stuttgart 21 tragen ", "url": "https://www.tagesschau.de/inland/regional/badenwuerttemberg/stuttgart-21-urteil-mehrkosten-100.html", "thumbnailUrl": "https://images.tagesschau.de/image/3da9ef8b-2674-4cd1-bff7-1c715971f151/AAABjcHNVQY/AAABjwnlKNc/16x9-512.jpg", "date": "2024-05-07T18:14:00.000+02:00", "lat": 48.7758, "lon": 9.1829, "intensity": 0.7, "source": "Tagesschau"}, {"title": "Gedenken Ende Zweiter Weltkrieg: Russlandtreue \"Nachtw\u00f6lfe\"-Gruppe besucht Seelower H\u00f6hen", "url": "https://www.tagesschau.de/inland/regional/brandenburg/rbb-gedenken-ende-zweiter-weltkrieg-russlandtreue-nachtwoelfe-gruppe-besucht-seelower-hoehen-100.html", "thumbnailUrl": "https://images.tagesschau.de/image/6076e1a5-f8d7-4f81-80eb-712aa2c36796/AAABj1PXS8g/AAABjwnlKNc/16x9-512.jpg", "date": "2024-05-07T18:12:19.000+02:00", "lat": 52.4655, "lon": 14.4044, "intensity": 0.6, "source": "Tagesschau"}, {"title": "Gummiring um Schnabel: Storch vor dem Verdursten gerettet", "url": "https://www.tagesschau.de/inland/regional/niedersachsen/ndr-storch-droht-zu-verdursten-plastikring-blockiert-schnabel-100.html", "thumbnailUrl": "https://images.tagesschau.de/image/4e5accb5-a3c4-45d0-b719-c170693ac9a8/AAABj1PP5ek/AAABjwnlKNc/16x9-512.jpg", "date": "2024-05-07T18:06:00.000+02:00", "lat": 52.8558, "lon": 11.1175, "intensity": 0.6, "source": "Tagesschau"}, {"title": "Anfangsverdacht auf Vorteilsnahme: Abwahlverfahren gegen Potsdams Oberb\u00fcrgermeister Schubert wird er\u00f6ffnet", "url": "https://www.tagesschau.de/inland/regional/brandenburg/rbb-anfangsverdacht-auf-vorteilsnahme-abwahlverfahren-gegen-potsdams-oberbuergermeister-schubert-wird-eroeffnet-100.html", "thumbnailUrl": "https://images.tagesschau.de/image/5c1513e8-fc3f-49b9-b039-e2b450256b74/AAABj1POChg/AAABjwnlKNc/16x9-512.jpg", "date": "2024-05-07T18:02:26.000+02:00", "lat": 52.3906, "lon": 13.0645, "intensity": 0.7, "source": "Tagesschau"}, {"title": "Swinney zum neuen Regierungschef gew\u00e4hlt", "url": "https://www.tagesschau.de/ausland/europa/schottland-regierungschef-swinney-100.html", "thumbnailUrl": "https://images.tagesschau.de/image/4738b67d-574d-4959-b019-6c4233c9adac/AAABj1PIhyk/AAABjwnlKNc/16x9-512.jpg", "date": "2024-05-07T18:00:02.200+02:00", "lat": 55.9533, "lon": -3.1883, "intensity": 0.7, "source": "Tagesschau"}, {"title": "Wo die Parteien beim Thema Migration stehen", "url": "https://www.tagesschau.de/europawahl/parteien_und_programme/migration-164.html", "thumbnailUrl": "https://images.tagesschau.de/image/46b1f33b-f2f8-4473-b822-1a682d28bea8/AAABj05lKo4/AAABjwnlKNc/16x9-512.jpg", "date": "2024-05-07T17:52:25.995+02:00", "lat": 51.541939, "lon": 9.993682, "intensity": 0.7, "source": "Tagesschau"}, {"title": "Wie die Parteien zur Klimapolitik stehen", "url": "https://www.tagesschau.de/europawahl/parteien_und_programme/klimapolitik-100.html", "thumbnailUrl": "https://images.tagesschau.de/image/0ed8119a-68ee-4893-9774-4b0f96913b48/AAABj1PBGj4/AAABjwnlKNc/16x9-512.jpg", "date": "2024-05-07T17:51:55.490+02:00", "lat": 51.5413, "lon": 9.9937, "intensity": 0.5, "source": "Tagesschau"}, {"title": "Coronahilfen: Betriebe in Bayern zittern vor Schlussabrechnung", "url": "https://www.tagesschau.de/inland/regional/bayern/br-coronahilfen-betriebe-in-bayern-zittern-vor-schlussabrechnung-102.html", "thumbnailUrl": "https://images.tagesschau.de/image/7a3905b5-6f43-4ddf-b14d-cb736a4f7c40/AAABj1InOfQ/AAABjwnlKNc/16x9-512.jpg", "date": "2024-05-07T17:43:39.492+02:00", "lat": 48.771, "lon": 11.4979, "intensity": 0.8, "source": "Tagesschau"}, {"title": "Oder-Havel-Kanal: Probleme bei Br\u00fcckenabriss in Oderberg legen Schiffsverkehr lahm ", "url": "https://www.tagesschau.de/inland/regional/brandenburg/rbb-oder-havel-kanal-probleme-bei-brueckenabriss-in-oderberg-legen-schiffsverkehr-lahm-100.html", "thumbnailUrl": "https://images.tagesschau.de/image/6a4f3cbd-379c-443a-a7e7-74140f2ca050/AAABj1N0WIA/AAABjwnlKNc/16x9-512.jpg", "date": "2024-05-07T17:42:03.000+02:00", "lat": 52.8, "lon": 14.025, "intensity": 0.8, "source": "Tagesschau"}, {"title": "Drogenkriminalit\u00e4t in H\u00e4fen: Konferenz endet mit \"Hamburger Erkl\u00e4rung\"", "url": "https://www.tagesschau.de/inland/regional/hamburg/ndr-vor-hafen-sicherheitskonferenz-was-kriminalbeamte-fordern-100.html", "thumbnailUrl": "https://images.tagesschau.de/image/2301da3a-1b05-45b8-8706-7745ed8a9587/AAABj1PMWHk/AAABjwnlKNc/16x9-512.jpg", "date": "2024-05-07T17:42:00.000+02:00", "lat": 53.5511, "lon": 9.9937, "intensity": 0.8, "source": "Tagesschau"}, {"title": "Berlin will Religionsunterricht als Wahlpflichtfach bis Ende 2026", "url": "https://www.tagesschau.de/inland/regional/berlin/rbb-gemeinsame-sitzung-von-wegner-und-ekbo-100.html", "thumbnailUrl": "https://images.tagesschau.de/image/0bc5bf18-4768-4c37-a5d7-3b55f5d3a7ed/AAABj1O6HRI/AAABjwnlKNc/16x9-512.jpg", "date": "2024-05-07T17:40:46.000+02:00", "lat": 52.520008, "lon": 13.404954, "intensity": 0.7, "source": "Tagesschau"}, {"title": "Ampel verschiebt Beschluss des Rentenpakets", "url": "https://www.tagesschau.de/inland/innenpolitik/lindner-rentenpaket-ampel-krisengipfel-100.html", "thumbnailUrl": "https://images.tagesschau.de/image/25de6aaf-2fd9-499e-bdaa-be6b1de23416/AAABhyzbRmE/AAABjwnlKNc/16x9-512.jpg", "date": "2024-05-07T17:33:08.735+02:00", "lat": 53.5511, "lon": 9.9937, "intensity": 0.8, "source": "Tagesschau"}, {"title": "Schwester vermeintlich aus Ehre erstochen? Angeklagter schweigt weiter", "url": "https://www.tagesschau.de/inland/regional/bremen/rb-schwester-vermeintlich-aus-ehre-erstochen-angeklagter-schweigt-weiter-100.html", "thumbnailUrl": "https://images.tagesschau.de/image/727bd3fe-9f4b-4e82-aeb8-93728ac04a30/AAABj1OwvZY/AAABjwnlKNc/16x9-512.jpg", "date": "2024-05-07T17:30:00.000+02:00", "lat": 53.0793, "lon": 8.8017, "intensity": 0.9, "source": "Tagesschau"}, {"title": "\"Player of Ibiza\": Mockumentary-Serie auf der Messe OMR in Hamburg", "url": "https://www.tagesschau.de/inland/regional/hamburg/ndr-player-of-ibiza-mockumentary-serie-auf-der-messe-omr-in-hamburg-102.html", "thumbnailUrl": "https://images.tagesschau.de/image/ba9ad7ba-1c5f-495f-afe7-b6813f06a114/AAABj1QbCdA/AAABjwnlKNc/16x9-512.jpg", "date": "2024-05-07T17:17:00.000+02:00", "lat": 53.551086, "lon": 9.993682, "intensity": 0.7, "source": "Tagesschau"}, {"title": "Land\u00e4rztemangel: Team-Praxen als Zukunft der Versorgung auf dem Land?", "url": "https://www.tagesschau.de/inland/regional/mecklenburgvorpommern/ndr-team-praxen-als-zukunft-der-versorgung-auf-dem-land-100.html", "thumbnailUrl": "https://images.tagesschau.de/image/ae58ca71-8f37-45d0-8b69-405ac805c279/AAABj1RggY8/AAABjwnlKNc/16x9-512.jpg", "date": "2024-05-07T17:15:00.000+02:00", "lat": 53.6127, "lon": 13.0, "intensity": 0.7, "source": "Tagesschau"}, {"title": "Engel aus dem Erzgebirge werden Botschafter f\u00fcr Kinderrechte", "url": "https://www.tagesschau.de/inland/regional/sachsen/mdr-engel-aus-dem-erzgebirge-werden-botschafter-fuer-kinderrechte-100.html", "thumbnailUrl": "https://images.tagesschau.de/image/55cfc685-7057-428a-8944-bc19ef108df4/AAABj1T-MbU/AAABjwnlKNc/16x9-512.jpg", "date": "2024-05-07T17:11:25.000+02:00", "lat": 50.7969, "lon": 13.9343, "intensity": 0.6, "source": "Tagesschau"}, {"title": "Union-Pr\u00e4sident Zingler stellt klar: Manager Ruhnert bleibt Klub erhalten", "url": "https://www.tagesschau.de/inland/regional/berlin/rbb-dirk-zingler-manager-ruhnert-bleibt-bei-union-102.html", "thumbnailUrl": "https://images.tagesschau.de/image/1a856698-5f83-4622-a33a-4a96f77464c8/AAABj1ORvF8/AAABjwnlKNc/16x9-512.jpg", "date": "2024-05-07T17:10:14.000+02:00", "lat": 52.520008, "lon": 13.404954, "intensity": 0.7, "source": "Tagesschau"}, {"title": "Blindg\u00e4nger in Osnabr\u00fcck: Bombe erfolgreich entsch\u00e4rft", "url": "https://www.tagesschau.de/inland/regional/niedersachsen/ndr-blindgaenger-in-osnabrueck-2-600-menschen-vor-evakuierung-100.html", "thumbnailUrl": "https://images.tagesschau.de/image/0e684996-6734-4175-b1ec-6ed8c289a85f/AAABj1OY-r8/AAABjwnlKNc/16x9-512.jpg", "date": "2024-05-07T17:06:00.000+02:00", "lat": 52.2799, "lon": 8.0476, "intensity": 0.7, "source": "Tagesschau"}, {"title": "Kultur: +++ Museum Angewandte Kunst macht Sammlung online zug\u00e4nglich +++ Festival in R\u00fcsselsheim lockt mit freiem Eintritt +++ Feiern auf dem Frankfurter Opernplatz +++ ", "url": "https://www.tagesschau.de/inland/regional/hessen/hr--schauspiel-frankfurt-bringt-putin-und-macbeth-zusammen--die-filmfestival-saison-2023-startet--lichter-filmfest-zum-thema-liebe-startet-am-dienstag-100.html", "thumbnailUrl": "https://images.tagesschau.de/image/09ba7d76-1f15-4eab-aa37-6c63838009aa/AAABj1OXQGw/AAABjwnlKNc/16x9-512.jpg", "date": "2024-05-07T17:05:14.356+02:00", "lat": 50.1109, "lon": 8.5683, "intensity": 0.4, "source": "Tagesschau"}, {"title": "Schweinelaster kippt auf Fahrbahn: A1 nach Unfall wieder frei", "url": "https://www.tagesschau.de/inland/regional/niedersachsen/ndr-a1-nach-unfall-gesperrt-schweinelaster-kippt-auf-fahrbahn-100.html", "thumbnailUrl": "https://images.tagesschau.de/image/7f1b0f58-0978-4049-b858-750a3ee9a589/AAABj1OTeM4/AAABjwnlKNc/16x9-512.jpg", "date": "2024-05-07T17:01:00.000+02:00", "lat": 52.3759, "lon": 9.7539, "intensity": 0.8, "source": "Tagesschau"}, {"title": "Mercedes, Bosch und Co. starten Kampagne gegen Extremismus", "url": "https://www.tagesschau.de/inland/regional/badenwuerttemberg/swr-mercedes-bosch-und-co-starten-kampagne-gegen-extremismus-100.html", "thumbnailUrl": "https://images.tagesschau.de/image/dff58bc5-753a-4f66-a67a-53ab72f86664/AAABj1OXI9A/AAABjwnlKNc/16x9-512.jpg", "date": "2024-05-07T17:00:25.000+02:00", "lat": 48.7758, "lon": 9.9937, "intensity": 0.8, "source": "Tagesschau"}, {"title": "Auszeichnung f\u00fcr gr\u00fcne Projekte in MV", "url": "https://www.tagesschau.de/inland/regional/mecklenburgvorpommern/ndr-auszeichnung-fuer-gruene-projekte-in-mv-100.html", "thumbnailUrl": "https://images.tagesschau.de/image/6d7408ad-865f-48d8-815e-eaf74c3ee990/AAABj1PIhzk/AAABjwnlKNc/16x9-512.jpg", "date": "2024-05-07T17:00:00.000+02:00", "lat": 53.55, "lon": 10.0, "intensity": 0.6, "source": "Tagesschau"}, {"title": "U19-Finale im Berlin-Pokal: Duell um die Nachwuchs-Vorherrschaft in der Hauptstadt", "url": "https://www.tagesschau.de/inland/regional/berlin/rbb-u19-finale-im-berlin-pokal-duell-um-die-nachwuchs-vorherrschaft-in-der-hauptstadt-102.html", "thumbnailUrl": "https://images.tagesschau.de/image/aacc156f-51c3-4d87-918e-f4bfa4499087/AAABj1OE1pQ/AAABjwnlKNc/16x9-512.jpg", "date": "2024-05-07T16:54:46.000+02:00", "lat": 52.5256, "lon": 13.3688, "intensity": 0.8, "source": "Tagesschau"}, {"title": "Kasseler Flusslandschaft: Wie Caspar David Friedrich nach 250 Jahren noch verbl\u00fcfft", "url": "https://www.tagesschau.de/inland/regional/hessen/hr-kasseler-flusslandschaft-wie-caspar-david-friedrich-nach-250-jahren-noch-verbluefft-100.html", "thumbnailUrl": "https://images.tagesschau.de/image/938535b4-ead7-48e1-b42b-bd6c4dc7a391/AAABj1OMHNM/AAABjwnlKNc/16x9-512.jpg", "date": "2024-05-07T16:52:31.871+02:00", "lat": 51.31283, "lon": 9.50265, "intensity": 0.6, "source": "Tagesschau"}, {"title": "Beschwerde aus der Justiz: In NRW fehlen mehr als 400 Staatsanw\u00e4lte", "url": "https://www.tagesschau.de/inland/regional/nordrheinwestfalen/wdr-beschwerde-aus-der-justiz-in-nrw-fehlen-mehr-als-400-staatsanwaelte-100.html", "thumbnailUrl": "https://images.tagesschau.de/image/8bb8adec-bc16-48cf-8292-daa57c2de3b3/AAABj1QIsFk/AAABjwnlKNc/16x9-512.jpg", "date": "2024-05-07T16:51:00.000+02:00", "lat": 51.9607, "lon": 7.6261, "intensity": 0.8, "source": "Tagesschau"}, {"title": "\"Hauptsache arbeiten\": Gro\u00dfes Interesse an Jobmesse f\u00fcr Gefl\u00fcchtete in Ludwigshafen", "url": "https://www.tagesschau.de/inland/regional/rheinlandpfalz/swr-hauptsache-arbeiten-grosses-interesse-an-jobmesse-fuer-gefluechtete-in-ludwigshafen-100.html", "thumbnailUrl": "https://images.tagesschau.de/image/3d226167-b566-42ac-898c-a9386963a500/AAABj1Rn2oo/AAABjwnlKNc/16x9-512.jpg", "date": "2024-05-07T16:50:12.000+02:00", "lat": 49.4835, "lon": 8.4468, "intensity": 0.7, "source": "Tagesschau"}, {"title": "Angespannte Haushaltslage: Rock Tech in Guben bekommt keine 200 Millionen Euro vom Bund", "url": "https://www.tagesschau.de/inland/regional/brandenburg/rbb-anegspannte-haushaltslage-rock-tech-in-guben-bekommt-keine-200-millionen-euro-vom-bund-100.html", "thumbnailUrl": "https://images.tagesschau.de/image/dca5287a-c8a9-435f-a121-3e78683aef6c/AAABj1InVfw/AAABjwnlKNc/16x9-512.jpg", "date": "2024-05-07T16:47:00.000+02:00", "lat": 51.94461, "lon": 14.38076, "intensity": 0.7, "source": "Tagesschau"}, {"title": "Ende Zweiter Weltkrieg: Gedenktag mit Weil in Niedersachsen", "url": "https://www.tagesschau.de/inland/regional/niedersachsen/ndr-ende-zweiter-weltkrieg-gedenktag-mit-weil-in-niedersachsen-100.html", "thumbnailUrl": "https://images.tagesschau.de/image/d340a34e-b97f-4fac-b56f-8f8885460db7/AAABj1R96yI/AAABjwnlKNc/16x9-512.jpg", "date": "2024-05-07T16:36:00.000+02:00", "lat": 52.3759, "lon": 9.7386, "intensity": 0.8, "source": "Tagesschau"}, {"title": "Tangentiale Ost: Neues B\u00fcndnis gegen Schnellstra\u00dfe im Osten Berlins gegr\u00fcndet ", "url": "https://www.tagesschau.de/inland/regional/berlin/rbb-tangentiale-ost-neues-buendnis-gegen-schnellstrasse-im-osten-berlins-gegruendet-100.html", "thumbnailUrl": "https://images.tagesschau.de/image/e9f3525a-9aa3-42eb-a801-1c0e63ab5323/AAABj1N4Okk/AAABjwnlKNc/16x9-512.jpg", "date": "2024-05-07T16:28:12.000+02:00", "lat": 52.52, "lon": 13.405, "intensity": 0.7, "source": "Tagesschau"}, {"title": "Bezahlkarte f\u00fcr Gefl\u00fcchtete: Forscher aus OWL finden Sicherheitsl\u00fccken", "url": "https://www.tagesschau.de/inland/regional/nordrheinwestfalen/wdr-bezahlkarte-fuer-gefluechtete-forscher-aus-owl-finden-sicherheitsluecken-102.html", "thumbnailUrl": "https://images.tagesschau.de/image/41d53a0b-fb91-4480-a04d-24b82f5e8b9e/AAABj1OnkD0/AAABjwnlKNc/16x9-512.jpg", "date": "2024-05-07T16:27:00.000+02:00", "lat": 51.6167, "lon": 8.7789, "intensity": 0.7, "source": "Tagesschau"}, {"title": "Brand in G\u00f6ttinger Seniorenheim: Eine Tote, vier Verletzte", "url": "https://www.tagesschau.de/inland/regional/niedersachsen/ndr-frau-stirbt-bei-brand-in-goettinger-seniorenheim-100.html", "thumbnailUrl": "https://images.tagesschau.de/image/9a21ffc1-331d-4b2d-bcc0-6549a412e44d/AAABj1If8DE/AAABjwnlKNc/16x9-512.jpg", "date": "2024-05-07T16:23:00.000+02:00", "lat": 51.5413, "lon": 9.9356, "intensity": 0.8, "source": "Tagesschau"}, {"title": "Wohin mit den Gefl\u00fcchteten? Landkreis Gie\u00dfen baut Holzh\u00e4user gegen Wohnungsmangel", "url": "https://www.tagesschau.de/inland/regional/hessen/hr-wohin-mit-den-gefluechteten-landkreis-giessen-baut-holzhaeuser-gegen-wohnungsmangel-100.html", "thumbnailUrl": "https://images.tagesschau.de/image/5c765bef-1190-46ba-b7e5-a20b32e53e55/AAABj1NrN94/AAABjwnlKNc/16x9-512.jpg", "date": "2024-05-07T16:17:29.537+02:00", "lat": 50.5833, "lon": 8.6667, "intensity": 0.8, "source": "Tagesschau"}, {"title": "Hansa Rostock trennt sich von Sportdirektor Walter", "url": "https://www.tagesschau.de/inland/regional/mecklenburgvorpommern/ndr-hansa-rostock-trennt-sich-von-sportdirektor-walter-102.html", "thumbnailUrl": "https://images.tagesschau.de/image/51f8b401-2cb1-4480-998e-0ecb54244892/AAABj1N9es8/AAABjwnlKNc/16x9-512.jpg", "date": "2024-05-07T16:12:00.000+02:00", "lat": 54.0906, "lon": 12.0992, "intensity": 0.8, "source": "Tagesschau"}, {"title": "Aus Ma\u00dfregelvollzug geflohen: Bundespolizei fasst 47-J\u00e4hrigen", "url": "https://www.tagesschau.de/inland/regional/niedersachsen/ndr-aus-massregelvollzug-geflohen-bundespolizei-fasst-47-jaehrigen-100.html", "thumbnailUrl": "https://images.tagesschau.de/image/719a85a4-cb48-45ff-b009-5667ceb9da81/AAABj1Nn1Sc/AAABjwnlKNc/16x9-512.jpg", "date": "2024-05-07T16:08:00.000+02:00", "lat": 52.3759, "lon": 9.7401, "intensity": 0.8, "source": "Tagesschau"}, {"title": "IAEA erh\u00f6ht Druck auf den Iran", "url": "https://www.tagesschau.de/ausland/asien/iran-atom-grossi-100.html", "thumbnailUrl": "https://images.tagesschau.de/image/a1b1fc77-bb52-4b23-82e3-2d463631d33b/AAABj1MjeQg/AAABjwnlKNc/16x9-512.jpg", "date": "2024-05-07T16:07:47.767+02:00", "lat": 35.689506, "lon": 51.388973, "intensity": 0.8, "source": "Tagesschau"}, {"title": "Baby get\u00f6tet und Partner angegriffen: Acht Jahre Haft", "url": "https://www.tagesschau.de/inland/regional/hamburg/ndr-baby-getoetet-und-partner-angegriffen-acht-jahre-haft-100.html", "thumbnailUrl": "https://images.tagesschau.de/image/cf53fe72-76e7-4acb-91f4-97d2ecadead4/AAABj1Nj4o8/AAABjwnlKNc/16x9-512.jpg", "date": "2024-05-07T16:05:00.000+02:00", "lat": 53.5274, "lon": 10.1051, "intensity": 0.8, "source": "Tagesschau"}, {"title": "Tote Frau in Husum: Sohn in Lyon festgenommen", "url": "https://www.tagesschau.de/inland/regional/schleswigholstein/ndr-tote-frau-in-husum-entdeckt-polizei-geht-von-toetungsdelikt-aus-100.html", "thumbnailUrl": "https://images.tagesschau.de/image/ac794c64-ea20-4021-8cd6-13363262db68/AAABj1Nnvpw/AAABjwnlKNc/16x9-512.jpg", "date": "2024-05-07T16:01:00.000+02:00", "lat": 54.4852, "lon": 9.0568, "intensity": 0.8, "source": "Tagesschau"}, {"title": "Passagiere im Flugzeug der Lufthansa: Anspannung, aber keine Panik", "url": "https://www.tagesschau.de/inland/regional/badenwuerttemberg/swr-passagiere-im-flugzeug-der-lufthansa-anspannung-aber-keine-panik-100.html", "thumbnailUrl": "https://images.tagesschau.de/image/947a9566-d02d-49ce-9b25-dc8a9c3a81a7/AAABj1TvUk4/AAABjwnlKNc/16x9-512.jpg", "date": "2024-05-07T15:54:50.000+02:00", "lat": 48.6896, "lon": 9.1934, "intensity": 0.3, "source": "Tagesschau"}, {"title": "Nach zehn Jahren: Maik Vetter verl\u00e4sst Kickers Offenbach", "url": "https://www.tagesschau.de/inland/regional/hessen/hr-nach-zehn-jahren-maik-vetter-verlaesst-kickers-offenbach-102.html", "thumbnailUrl": "https://images.tagesschau.de/image/13a77132-0334-4d4f-bb64-74d8cbdf6a18/AAABj1NiBxg/AAABjwnlKNc/16x9-512.jpg", "date": "2024-05-07T15:52:44.346+02:00", "lat": 50.101778, "lon": 8.795055, "intensity": 0.3, "source": "Tagesschau"}, {"title": "Entscheidung im Stadtrat: Oide Wiesn ohne Herzkasperlfestzelt ", "url": "https://www.tagesschau.de/inland/regional/bayern/br-entscheidung-im-stadtrat-oide-wiesn-ohne-herzkasperlfestzelt-102.html", "thumbnailUrl": "https://images.tagesschau.de/image/0c5eeb53-3184-4607-8a58-ec12a96cd9b0/AAABj1NRpUo/AAABjwnlKNc/16x9-512.jpg", "date": "2024-05-07T15:49:06.939+02:00", "lat": 48.135125, "lon": 11.581981, "intensity": 0.8, "source": "Tagesschau"}, {"title": "Hamburger Segler Boris Herrmann wird Zweiter bei Transat CIC", "url": "https://www.tagesschau.de/inland/regional/hamburg/ndr-hamburger-segler-boris-herrmann-wird-zweiter-bei-transat-cic-100.html", "thumbnailUrl": "https://images.tagesschau.de/image/dd031c01-0b61-4374-9023-1bd52f0d0769/AAABj0-xMQ0/AAABjwnlKNc/16x9-512.jpg", "date": "2024-05-07T15:48:00.000+02:00", "lat": 40.7127837, "lon": -74.0059413, "intensity": 0.8, "source": "Tagesschau"}, {"title": "Landesregierung legt Europa-Leitbild vor", "url": "https://www.tagesschau.de/inland/regional/saarland/sr-landesregierung-legt-europa-leitbild-vor-100.html", "thumbnailUrl": "https://images.tagesschau.de/image/d415ff24-c7c4-4467-8738-6b30288d8e37/AAABj1NMCBY/AAABjwnlKNc/16x9-512.jpg", "date": "2024-05-07T15:41:00.000+02:00", "lat": 49.3964, "lon": 6.9754, "intensity": 0.5, "source": "Tagesschau"}, {"title": "Marine-Schiff \"Frankfurt am Main\" in Wilhelmshaven ausgelaufen", "url": "https://www.tagesschau.de/inland/regional/niedersachsen/ndr-pistorius-verabschiedet-marine-schiff-heute-in-indopazifik-einsatz-100.html", "thumbnailUrl": "https://images.tagesschau.de/image/ae22f98c-d2f3-4e1a-84b9-42f3f75deb37/AAABj1K7i_o/AAABjwnlKNc/16x9-512.jpg", "date": "2024-05-07T15:41:00.000+02:00", "lat": 53.52334, "lon": 8.16375, "intensity": 0.7, "source": "Tagesschau"}, {"title": "Cannabis-Freigabe: Wer ist f\u00fcr die Kontrollen zust\u00e4ndig?", "url": "https://www.tagesschau.de/inland/regional/niedersachsen/ndr-cannabis-freigabe-wer-ist-fuer-die-kontrollen-zustaendig-100.html", "thumbnailUrl": "https://images.tagesschau.de/image/877809d6-4741-45f1-b4b7-d7ca614b10f2/AAABj1NEy4I/AAABjwnlKNc/16x9-512.jpg", "date": "2024-05-07T15:33:00.000+02:00", "lat": 52.3732, "lon": 9.7457, "intensity": 0.6, "source": "Tagesschau"}, {"title": "47 Hunde auf Gnadenhof in der Eifel beschlagnahmt", "url": "https://www.tagesschau.de/inland/regional/rheinlandpfalz/swr-47-hunde-auf-gnadenhof-in-der-eifel-beschlagnahmt-100.html", "thumbnailUrl": "https://images.tagesschau.de/image/d69b5c39-7d0e-40d6-8611-d46abdcd9eac/AAABj1NnhbY/AAABjwnlKNc/16x9-512.jpg", "date": "2024-05-07T15:32:34.000+02:00", "lat": 50.4734, "lon": 6.8704, "intensity": 0.8, "source": "Tagesschau"}, {"title": "Verd\u00e4chtige stehen wohl AfD und Freien Sachsen nahe", "url": "https://www.tagesschau.de/inland/gesellschaft/dresden-taeter-angriff-auf-spd-politiker-100.html", "thumbnailUrl": "https://images.tagesschau.de/image/3459abd4-f34e-44fa-841d-a801a1d2dd23/AAABj0Q03r8/AAABjwnlKNc/16x9-512.jpg", "date": "2024-05-07T15:29:58.853+02:00", "lat": 51.050409, "lon": 13.737262, "intensity": 0.8, "source": "Tagesschau"}, {"title": "Abschlussbericht im Fall Dillinger: Mehr Missbrauchsf\u00e4lle als gedacht", "url": "https://www.tagesschau.de/inland/regional/saarland/sr-abschlussbericht-im-fall-dillinger-wird-erwartet-100.html", "thumbnailUrl": "https://images.tagesschau.de/image/6c0f853d-211b-4605-ba9a-73ec99159746/AAABj1NC2DA/AAABjwnlKNc/16x9-512.jpg", "date": "2024-05-07T15:28:00.000+02:00", "lat": 49.7564, "lon": 6.6459, "intensity": 0.8, "source": "Tagesschau"}, {"title": "Kulturb\u00fcro Sachsen warnt vor \"Machtoption\" der AfD bei anstehenden Wahlen", "url": "https://www.tagesschau.de/inland/regional/sachsen/mdr-kulturbuero-sachsen-warnt-vor-machtoption-der-afd-bei-anstehenden-wahlen-100.html", "thumbnailUrl": "https://images.tagesschau.de/image/a2ad39ad-f77c-4b4f-8f0e-dab3e0bd4a75/AAABj1T-Qk0/AAABjwnlKNc/16x9-512.jpg", "date": "2024-05-07T15:24:52.000+02:00", "lat": 52.174, "lon": 13.4085, "intensity": 0.8, "source": "Tagesschau"}, {"title": "Get\u00f6tete Frau in G\u00f6ttingen: Ehemann schweigt", "url": "https://www.tagesschau.de/inland/regional/niedersachsen/ndr-goettingen-grone-34-jaehrige-opfer-eines-verbrechens-100.html", "thumbnailUrl": "https://images.tagesschau.de/image/0ae3cda4-60f4-464b-b8b4-72a926433877/AAABj1Ls628/AAABjwnlKNc/16x9-512.jpg", "date": "2024-05-07T15:24:00.000+02:00", "lat": 51.5413, "lon": 9.9326, "intensity": 0.8, "source": "Tagesschau"}, {"title": "SEK-Einsatz in Demen: Abschiebung russischer Familie eskaliert", "url": "https://www.tagesschau.de/inland/regional/mecklenburgvorpommern/ndr-sek-einsatz-in-demen-abschiebung-russischer-familie-eskaliert-100.html", "thumbnailUrl": "https://images.tagesschau.de/image/2c4dfc43-a84d-4e12-9340-017cd1aa5900/AAABj1L19mk/AAABjwnlKNc/16x9-512.jpg", "date": "2024-05-07T15:24:00.000+02:00", "lat": 53.6906, "lon": 11.1771, "intensity": 0.8, "source": "Tagesschau"}, {"title": "Nieders\u00e4chsische AfD bleibt Verdachtsfall", "url": "https://www.tagesschau.de/inland/regional/niedersachsen/ndr-verfassungsschutz-afd-niedersachsen-bleibt-verdachtsobjekt-100.html", "thumbnailUrl": "https://images.tagesschau.de/image/634147fa-3a34-4f4a-a191-c73aba9cb11d/AAABj1M3d8Y/AAABjwnlKNc/16x9-512.jpg", "date": "2024-05-07T15:21:35.505+02:00", "lat": 52.3759, "lon": 10.4515, "intensity": 0.8, "source": "Tagesschau"}, {"title": "Falsche Wege: Wann Wander-Apps gef\u00e4hrlich werden k\u00f6nnen", "url": "https://www.tagesschau.de/inland/regional/bayern/br-falsche-wege-wann-wander-apps-gefaehrlich-werden-koennen-102.html", "thumbnailUrl": "https://images.tagesschau.de/image/978811e8-7e38-407a-bdfb-b21d8460aeda/AAABj1M2D7E/AAABjwnlKNc/16x9-512.jpg", "date": "2024-05-07T15:18:32.504+02:00", "lat": 48.7904, "lon": 11.7401, "intensity": 0.6, "source": "Tagesschau"}, {"title": "Kooperationsvereinbarung: Cottbus und Spremberg beschlie\u00dfen engere wirtschaftliche Zusammenarbeit", "url": "https://www.tagesschau.de/inland/regional/brandenburg/rbb-kooperationsvereinbarung-cottbus-und-spremberg-beschliessen-engere-wirtschaftliche-zusammenarbeit-100.html", "thumbnailUrl": "https://images.tagesschau.de/image/85f26a8a-4cf9-4f53-baa0-dd0529df3751/AAABj1MydWs/AAABjwnlKNc/16x9-512.jpg", "date": "2024-05-07T15:11:37.000+02:00", "lat": 51.7562, "lon": 14.3347, "intensity": 0.7, "source": "Tagesschau"}, {"title": "Dissen (Spree-Nei\u00dfe): Die abenteuerlichen Sturzfl\u00fcge des Schmiedestorchs ", "url": "https://www.tagesschau.de/inland/regional/brandenburg/rbb-dissen-spree-neisse-die-abenteuerlichen-sturzfluege-des-schmiedestorchs-100.html", "thumbnailUrl": "https://images.tagesschau.de/image/f50f442b-9ada-482c-ab3c-029fd4e57e24/AAABj1MtC9k/AAABjwnlKNc/16x9-512.jpg", "date": "2024-05-07T15:07:10.000+02:00", "lat": 51.825, "lon": 14.375, "intensity": 0.5, "source": "Tagesschau"}, {"title": "Lachgas am Snack-Automaten: Verkaufsort sorgt f\u00fcr \u00c4rger", "url": "https://www.tagesschau.de/inland/regional/niedersachsen/ndr-lachgas-am-snack-automaten-verkaufsort-sorgt-fuer-aerger-100.html", "thumbnailUrl": "https://images.tagesschau.de/image/0c028b13-7816-4063-9662-e6722df1db29/AAABj049imM/AAABjwnlKNc/16x9-512.jpg", "date": "2024-05-07T15:03:00.000+02:00", "lat": 52.4775, "lon": 10.5506, "intensity": 0.7, "source": "Tagesschau"}, {"title": "Schiedsrichter in Bebelsheim von Zuschauer angegriffen und verletzt", "url": "https://www.tagesschau.de/inland/regional/saarland/sr-schiedsrichter-in-bebelsheim-von-zuschauer-angegriffen-und-verletzt-102.html", "thumbnailUrl": "https://images.tagesschau.de/image/6310c24f-ac7b-4463-a8cb-5625a81d0001/AAABj1MpNdY/AAABjwnlKNc/16x9-512.jpg", "date": "2024-05-07T14:59:00.000+02:00", "lat": 49.1, "lon": 7.0485, "intensity": 0.8, "source": "Tagesschau"}, {"title": "Betrunken im Urlaubsflieger: Pilot nimmt Passagier nicht mit", "url": "https://www.tagesschau.de/inland/regional/niedersachsen/ndr-betrunken-im-urlaubsflieger-pilot-nimmt-fluggast-nicht-mit-100.html", "thumbnailUrl": "https://images.tagesschau.de/image/3470619c-8800-4ae0-b34b-9fd3d3681a88/AAABj1GRDj8/AAABjwnlKNc/16x9-512.jpg", "date": "2024-05-07T14:53:00.000+02:00", "lat": 52.37, "lon": 9.69, "intensity": 0.7, "source": "Tagesschau"}, {"title": "Darmstadt 98: +++ Hohe Pyro-Geldstrafe f\u00fcr die Lilien +++ SV98 muss f\u00fcr Investoren-Protest zahlen +++ Zukunft von St\u00fcrmer Stojilkovic ungewiss +++", "url": "https://www.tagesschau.de/inland/regional/hessen/hr--tietz-vermisst-fehlende-gier--lilien-fans-liefern-sich-raststaetten-pruegelei--die-niederlage-der-lilien-in-der-video-zusammenfassung-102.html", "thumbnailUrl": "https://images.tagesschau.de/image/40888fc4-3924-4d36-9ede-6b98d482f744/AAABj1MOJPw/AAABjwnlKNc/16x9-512.jpg", "date": "2024-05-07T14:47:34.083+02:00", "lat": 49.8717, "lon": 8.6553, "intensity": 0.5, "source": "Tagesschau"}, {"title": "Darmstadt 98 kassiert Rekordstrafe f\u00fcr Pyro und Schokotaler", "url": "https://www.tagesschau.de/inland/regional/hessen/hr-darmstadt-98-kassiert-rekordstrafe-fuer-pyro-und-schokotaler-102.html", "thumbnailUrl": "https://images.tagesschau.de/image/622a7ad8-56e2-4894-b2e9-31fa0373585e/AAABj1MapaU/AAABjwnlKNc/16x9-512.jpg", "date": "2024-05-07T14:46:35.976+02:00", "lat": 49.8728, "lon": 8.6551, "intensity": 0.7, "source": "Tagesschau"}, {"title": "Versuchte Entf\u00fchrung von Kind in B\u00f6blingen: Beschuldigter bleibt in Psychiatrie", "url": "https://www.tagesschau.de/inland/regional/badenwuerttemberg/swr-versuchte-entfuehrung-von-kind-in-boeblingen-beschuldigter-bleibt-in-psychiatrie-100.html", "thumbnailUrl": "https://images.tagesschau.de/image/9e665823-67c0-4086-abd4-0723406707b8/AAABj1M36XA/AAABjwnlKNc/16x9-512.jpg", "date": "2024-05-07T14:42:27.000+02:00", "lat": 48.6859, "lon": 8.6498, "intensity": 0.8, "source": "Tagesschau"}, {"title": "Brandenburger Landtag: Klinik-Volksinitiative von BVB/Freie W\u00e4hler \u00fcbergibt mehr als 26.000 Unterschriften", "url": "https://www.tagesschau.de/inland/regional/brandenburg/rbb-brandenburger-landtag-klinik-volksinitiative-von-bvbfreie-waehler-uebergibt-mehr-als-26-000-unterschriften-100.html", "thumbnailUrl": "https://images.tagesschau.de/image/81a0ac05-698a-457a-b923-1dd151d5b72f/AAABj1MVHf4/AAABjwnlKNc/16x9-512.jpg", "date": "2024-05-07T14:42:21.000+02:00", "lat": 52.4125, "lon": 13.055, "intensity": 0.7, "source": "Tagesschau"}, {"title": "Verdacht auf Sexualdelikt: Wohnungen in Solingen durchsucht", "url": "https://www.tagesschau.de/inland/regional/nordrheinwestfalen/wdr-verdacht-auf-sexualdelikt-wohnungen-in-solingen-durchsucht-100.html", "thumbnailUrl": "https://images.tagesschau.de/image/33793e24-fe13-411d-aa11-3a7980c6e4be/AAABj1OKQxY/AAABjwnlKNc/16x9-512.jpg", "date": "2024-05-07T14:42:00.000+02:00", "lat": 51.1734, "lon": 7.084, "intensity": 0.8, "source": "Tagesschau"}, {"title": "CDU stimmt f\u00fcr R\u00fcckkehr zur Wehrpflicht", "url": "https://www.tagesschau.de/inland/cdu-wehrpflicht-100.html", "thumbnailUrl": "https://images.tagesschau.de/image/4b589599-459f-4a12-9468-de6103aa1cba/AAABj1L-8ng/AAABjwnlKNc/16x9-512.jpg", "date": "2024-05-07T14:40:24.997+02:00", "lat": 52.3731, "lon": 9.7356, "intensity": 0.8, "source": "Tagesschau"}, {"title": "Lieferboten bedroht: Waffe vorgehalten und Bargeld verlangt", "url": "https://www.tagesschau.de/inland/regional/niedersachsen/ndr-paketboten-bedroht-waffe-vorgehalten-und-bargeld-verlangt-100.html", "thumbnailUrl": "https://images.tagesschau.de/image/a413e3db-fb99-40ac-a071-4df8607d4a89/AAABj1L7irY/AAABjwnlKNc/16x9-512.jpg", "date": "2024-05-07T14:39:00.000+02:00", "lat": 51.5413, "lon": 9.9356, "intensity": 0.8, "source": "Tagesschau"}, {"title": "Unbekannte koppeln in Bahnhof 19 Waggons von G\u00fcterzug ab", "url": "https://www.tagesschau.de/inland/regional/niedersachsen/ndr-unbekannte-koppeln-in-bahnhof-19-waggons-von-gueterzug-ab-100.html", "thumbnailUrl": "https://images.tagesschau.de/image/4ab8f9e0-ec50-4f20-9a0b-7c594137d4c1/AAABj1Hhmpk/AAABjwnlKNc/16x9-512.jpg", "date": "2024-05-07T14:39:00.000+02:00", "lat": 52.3759, "lon": 9.7402, "intensity": 0.8, "source": "Tagesschau"}, {"title": "Milit\u00e4r \u00fcbernimmt Kontrolle in Teilen von Rafah", "url": "https://www.tagesschau.de/ausland/asien/hamas-israel-rafah-geiseln-100.html", "thumbnailUrl": "https://images.tagesschau.de/image/2284541c-fc45-4e71-b2b1-07ae2eab9bbe/AAABj1MtDv4/AAABjwnlKNc/16x9-512.jpg", "date": "2024-05-07T14:35:37.348+02:00", "lat": 31.2824, "lon": 34.2553, "intensity": 0.8, "source": "Tagesschau"}, {"title": "Nach Feuer in Rendsburg: Z\u00fcge rollen wieder \u00fcber Hochbr\u00fccke", "url": "https://www.tagesschau.de/inland/regional/schleswigholstein/ndr-rendsburg-feuer-in-lagerhalle-sorgt-fuer-zugausfaelle-100.html", "thumbnailUrl": "https://images.tagesschau.de/image/d4a99fdf-d7d7-4841-827f-9dffdbf8c825/AAABj0-I9YE/AAABjwnlKNc/16x9-512.jpg", "date": "2024-05-07T14:35:00.000+02:00", "lat": 54.2994, "lon": 9.6667, "intensity": 0.6, "source": "Tagesschau"}, {"title": "Sonderermittler: Bistum und Beh\u00f6rden haben im Fall Dillinger jahrzehntelang versagt", "url": "https://www.tagesschau.de/inland/regional/rheinlandpfalz/swr-missbrauch-behoerden-und-bistum-trier-versagten-im-fall-dillinger-100.html", "thumbnailUrl": "https://images.tagesschau.de/image/3b5d4628-0a90-448c-a28e-dd13510b7f76/AAABj1NrI6U/AAABjwnlKNc/16x9-512.jpg", "date": "2024-05-07T14:30:26.000+02:00", "lat": 49.7493, "lon": 6.6395, "intensity": 0.8, "source": "Tagesschau"}, {"title": "Polizei ermittelt nach Gro\u00dfbrand wegen fahrl\u00e4ssiger Brandstiftung", "url": "https://www.tagesschau.de/inland/regional/berlin/rbb-fabrik-in-berlin-lichterfelde-polizei-ermittelt-nach-grossbrand-wegen-fahrlaessiger-brandstiftung-100.html", "thumbnailUrl": "https://images.tagesschau.de/image/452945e0-649f-4bf7-8240-fd0f00e197b9/AAABj1MBCJI/AAABjwnlKNc/16x9-512.jpg", "date": "2024-05-07T14:28:59.000+02:00", "lat": 52.428859, "lon": 13.304887, "intensity": 0.8, "source": "Tagesschau"}, {"title": "hr f\u00f6rdert Schulhofradio: Radio JFK aus Bad Vilbel bewegt Sch\u00fcler und Lehrer", "url": "https://www.tagesschau.de/inland/regional/hessen/hr-hr-foerdert-schulhofradio-radio-jfk-aus-bad-vilbel-bewegt-schueler-und-lehrer-100.html", "thumbnailUrl": "https://images.tagesschau.de/image/c695af20-52d6-4d53-855f-936657264cd7/AAABj1MGcko/AAABjwnlKNc/16x9-512.jpg", "date": "2024-05-07T14:26:38.959+02:00", "lat": 50.1853, "lon": 8.7321, "intensity": 0.6, "source": "Tagesschau"}, {"title": "\"Koffer-Skelett\" aus Sinn: Ungekl\u00e4rter Mord nach 43 Jahren wieder bei \"Aktenzeichen XY\"", "url": "https://www.tagesschau.de/inland/regional/hessen/hr-koffer-skelett-aus-sinn-ungeklaertes-toetungsdelikt-nach-43-jahren-wieder-thema-bei-aktenzeichen-xy-100.html", "thumbnailUrl": "https://images.tagesschau.de/image/09c339b3-45c9-4779-ad86-3d1c944a631a/AAABj1NBEqc/AAABjwnlKNc/16x9-512.jpg", "date": "2024-05-07T14:24:53.581+02:00", "lat": 50.6985, "lon": 8.0139, "intensity": 0.8, "source": "Tagesschau"}, {"title": "Magdeburg: Polizei ermittelt nach H\u00fcpfburg-Ungl\u00fcck gegen Betreiber", "url": "https://www.tagesschau.de/inland/regional/sachsenanhalt/mdr-magdeburg-huepfburg-in-die-elbe-geweht--mehrere-kinder-verletzt-100.html", "thumbnailUrl": "https://images.tagesschau.de/image/c0617929-2402-4d9b-9b34-e2db56958856/AAABj1K16n8/AAABjwnlKNc/16x9-512.jpg", "date": "2024-05-07T14:20:15.000+02:00", "lat": 52.1205, "lon": 11.6276, "intensity": 0.8, "source": "Tagesschau"}, {"title": "Filter von \"Purize\": In Bayern unbeliebt - in Gro\u00dfr\u00e4schen einer der gr\u00f6\u00dften Gewerbesteuerzahler", "url": "https://www.tagesschau.de/inland/regional/brandenburg/rbb-filter-von-purize-in-bayern-unbeliebt-in-grossraeschen-einer-der-groessten-gewerbesteuerzahler-100.html", "thumbnailUrl": "https://images.tagesschau.de/image/11de87de-90e0-4826-820d-6f6e2ab65632/AAABj1L9Xfw/AAABjwnlKNc/16x9-512.jpg", "date": "2024-05-07T14:14:14.000+02:00", "lat": 51.5333, "lon": 13.9167, "intensity": 0.7, "source": "Tagesschau"}, {"title": "Dramatische Rettung: Hobbyfotograf mit Hubschrauber aus Moor befreit", "url": "https://www.tagesschau.de/inland/regional/mecklenburgvorpommern/ndr-hobbyfotograf-aus-grenztalmoor-gerettet-100.html", "thumbnailUrl": "https://images.tagesschau.de/image/f8875de9-2bd1-43ab-a5fa-7d2065d4aee7/AAABj08w-rk/AAABjwnlKNc/16x9-512.jpg", "date": "2024-05-07T14:14:00.000+02:00", "lat": 54.0645, "lon": 12.8678, "intensity": 0.8, "source": "Tagesschau"}, {"title": "Bestenauslese oder Vetternwirtschaft: Opposition will Untersuchungsausschuss im Fall Limbach", "url": "https://www.tagesschau.de/inland/regional/nordrheinwestfalen/wdr-bestenauslese-oder-vetternwirtschaft-opposition-will-untersuchungsausschuss-im-fall-limbach-100.html", "thumbnailUrl": "https://images.tagesschau.de/image/c65bee85-d85c-4559-82af-19a613f8c471/AAABj1Mu0Fw/AAABjwnlKNc/16x9-512.jpg", "date": "2024-05-07T14:13:00.000+02:00", "lat": 51.9607, "lon": 7.5955, "intensity": 0.7, "source": "Tagesschau"}, {"title": "Wohnungen, Verkehr, Gro\u00dfansiedlungen: Dresden w\u00e4chst - die Herausforderungen auch", "url": "https://www.tagesschau.de/inland/regional/sachsen/mdr-wohnungen-verkehr-grossansiedlungen-dresden-waechst-die-herausforderungen-auch-100.html", "thumbnailUrl": "https://images.tagesschau.de/image/5bbebdc4-5a26-41da-9601-77fe85b99eb2/AAABj1T-BH8/AAABjwnlKNc/16x9-512.jpg", "date": "2024-05-07T14:10:11.000+02:00", "lat": 51.050409, "lon": 13.737262, "intensity": 0.7, "source": "Tagesschau"}, {"title": "Mutma\u00dfliche Linksextremistin in N\u00fcrnberg verhaftet", "url": "https://www.tagesschau.de/inland/nuernberg-verhaftung-100.html", "thumbnailUrl": "https://images.tagesschau.de/image/01e14bf7-b158-4fac-9831-4029b5655fb2/AAABikDMkVs/AAABjwnlKNc/16x9-512.jpg", "date": "2024-05-07T13:56:21.145+02:00", "lat": 49.452, "lon": 11.077, "intensity": 0.7, "source": "Tagesschau"}, {"title": "Putins Herrschaft - die F\u00fcnfte", "url": "https://www.tagesschau.de/ausland/europa/putin-amtszeit-offiziell-102.html", "thumbnailUrl": "https://images.tagesschau.de/image/da7f5641-bd16-41fe-9c71-fd1c2133095e/AAABj1LpTgI/AAABjwnlKNc/16x9-512.jpg", "date": "2024-05-07T13:47:45.563+02:00", "lat": 55.7558, "lon": 37.6176, "intensity": 0.8, "source": "Tagesschau"}, {"title": "Wieder mehr \u00dcbernachtungen auf Saar-Campingpl\u00e4tzen", "url": "https://www.tagesschau.de/inland/regional/saarland/sr-wieder-mehr-uebernachtungen-auf-saar-campingplaetzen-100.html", "thumbnailUrl": "https://images.tagesschau.de/image/33ef63b2-8c11-4d7e-8854-3e6fea016d98/AAABj01_BUQ/AAABjwnlKNc/16x9-512.jpg", "date": "2024-05-07T13:45:00.000+02:00", "lat": 49.3964, "lon": 6.9507, "intensity": 0.7, "source": "Tagesschau"}, {"title": "\u00dcberraschung und herbe Entt\u00e4uschung nach Aus f\u00fcr Weinkellerei Langguth ", "url": "https://www.tagesschau.de/inland/regional/rheinlandpfalz/swr-traben-trarbach-traditions-kellerei-langguth-erben-vor-dem-aus-100.html", "thumbnailUrl": "https://images.tagesschau.de/image/a2716fc8-ea06-4da5-92b6-67af040f97ed/AAABj1ML8Pw/AAABjwnlKNc/16x9-512.jpg", "date": "2024-05-07T13:41:00.000+02:00", "lat": 49.9511, "lon": 7.1164, "intensity": 0.8, "source": "Tagesschau"}, {"title": "Fliegerbomben in Lebacher Kaserne werden Pfingstsonntag entsch\u00e4rft", "url": "https://www.tagesschau.de/inland/regional/saarland/sr-fliegerbomben-in-lebacher-kaserne-werden-pfingstsonntag-entschaerft-100.html", "thumbnailUrl": "https://images.tagesschau.de/image/393ad7a1-1aa8-4ccc-9cbc-4915ba856bba/AAABj1LjoMA/AAABjwnlKNc/16x9-512.jpg", "date": "2024-05-07T13:38:00.000+02:00", "lat": 49.4477, "lon": 6.8994, "intensity": 0.8, "source": "Tagesschau"}, {"title": "Gewaltforscher zu Politiker-Angriffen: \"Opfer kann jeder werden\"", "url": "https://www.tagesschau.de/inland/regional/nordrheinwestfalen/wdr-angriffe-auf-politiker-keine-kurzfristige-loesung-in-sicht-100.html", "thumbnailUrl": "https://images.tagesschau.de/image/b41916ab-7231-4d13-b79b-747f8b0975df/AAABj1OrPFw/AAABjwnlKNc/16x9-512.jpg", "date": "2024-05-07T13:37:00.000+02:00", "lat": 51.9607, "lon": 7.6261, "intensity": 0.7, "source": "Tagesschau"}, {"title": "Statistik zeigt: Menschen in BW k\u00f6nnen sich immer weniger leisten", "url": "https://www.tagesschau.de/inland/regional/badenwuerttemberg/swr-statistik-zeigt-menschen-in-bw-koennen-sich-immer-weniger-leisten-100.html", "thumbnailUrl": "https://images.tagesschau.de/image/9d9ffebb-70f8-48a6-9f33-53a2e28f818c/AAABj1LRaNA/AAABjwnlKNc/16x9-512.jpg", "date": "2024-05-07T13:25:54.000+02:00", "lat": 48.6616, "lon": 9.7729, "intensity": 0.7, "source": "Tagesschau"}, {"title": "Eventim: Hacker wollten Online-Tickets f\u00fcr Taylor Swift stehlen", "url": "https://www.tagesschau.de/inland/regional/nordrheinwestfalen/wdr-eventim-hacker-wollten-online-tickets-fuer-taylor-swift-stehlen-100.html", "thumbnailUrl": "https://images.tagesschau.de/image/95957c93-6601-4a2b-81f4-079bbffa6811/AAABj1Nycw4/AAABjwnlKNc/16x9-512.jpg", "date": "2024-05-07T13:20:00.000+02:00", "lat": 51.8133, "lon": 7.6261, "intensity": 0.8, "source": "Tagesschau"}, {"title": "Anh\u00e4nger von \"Muslim Interaktiv\" planen neue Demo am Sonnabend ", "url": "https://www.tagesschau.de/inland/regional/hamburg/ndr-anhaenger-von-muslim-aktiv-planen-neue-demo-am-sonnabend-100.html", "thumbnailUrl": "https://images.tagesschau.de/image/0ab4ae20-9f3a-4a1e-9794-8945496eff65/AAABj05XIpw/AAABjwnlKNc/16x9-512.jpg", "date": "2024-05-07T13:18:00.000+02:00", "lat": 53.5511, "lon": 9.9937, "intensity": 0.8, "source": "Tagesschau"}, {"title": "Beliebteste Babynamen: Unterschiedliche Spitzenreiter im Norden", "url": "https://www.tagesschau.de/inland/regional/hamburg/ndr-beliebteste-babynamen-unterschiedliche-spitzenreiter-im-norden-100.html", "thumbnailUrl": "https://images.tagesschau.de/image/86763991-0315-432b-9515-6ccb86e8e139/AAABj1MIYus/AAABjwnlKNc/16x9-512.jpg", "date": "2024-05-07T13:12:00.000+02:00", "lat": 53.551086, "lon": 9.993682, "intensity": 0.7, "source": "Tagesschau"}, {"title": "Gegenwind f\u00fcr den Thermomix-Trend", "url": "https://www.tagesschau.de/wirtschaft/unternehmen/vorwerk-thermomix-kobold-bilanz-kuechenmaschine-100.html", "thumbnailUrl": "https://images.tagesschau.de/image/7744e38b-beb6-4b15-b2cd-c6c90cea9bdd/AAABj1KAgsI/AAABjwnlKNc/16x9-512.jpg", "date": "2024-05-07T13:03:15.716+02:00", "lat": 51.699997, "lon": 8.314056, "intensity": 0.7, "source": "Tagesschau"}, {"title": "HSVH steht vor dem Absturz - Bohmann: \"W\u00e4re schade\"", "url": "https://www.tagesschau.de/inland/regional/hamburg/ndr-hsvh-steht-vor-dem-absturz-bohmann-waere-schade-102.html", "thumbnailUrl": "https://images.tagesschau.de/image/aec05f9c-6e18-4fc4-9bc9-c49e74c4e2e9/AAABj1LN1Kk/AAABjwnlKNc/16x9-512.jpg", "date": "2024-05-07T13:01:00.000+02:00", "lat": 53.5511, "lon": 9.9937, "intensity": 0.7, "source": "Tagesschau"}, {"title": "L\u00e4rmschutz-Bauarbeiten am Saarbr\u00fccker Staden starten bald", "url": "https://www.tagesschau.de/inland/regional/saarland/sr-laermschutz-bauarbeiten-am-saarbruecker-staden-starten-bald-100.html", "thumbnailUrl": "https://images.tagesschau.de/image/c309feb7-91dd-48bf-bddc-92300ebec9c0/AAABj1LJ_vc/AAABjwnlKNc/16x9-512.jpg", "date": "2024-05-07T13:01:00.000+02:00", "lat": 49.2323, "lon": 6.9814, "intensity": 0.7, "source": "Tagesschau"}, {"title": "Versteckte Leiche im Hochbeet: Lebenslange Haft f\u00fcr Angeklagte", "url": "https://www.tagesschau.de/inland/regional/badenwuerttemberg/swr-versteckte-leiche-im-hochbeet-lebenslange-haft-fuer-angeklagte-100.html", "thumbnailUrl": "https://images.tagesschau.de/image/3f0278f8-4bb0-43f5-b257-b61c255f8563/AAABj1K3w5E/AAABjwnlKNc/16x9-512.jpg", "date": "2024-05-07T12:58:00.000+02:00", "lat": 47.7751, "lon": 9.4357, "intensity": 0.8, "source": "Tagesschau"}, {"title": "Warum ein Kinobetreiber aus Bad Mergentheim millionenfach Becher sp\u00fclt", "url": "https://www.tagesschau.de/inland/regional/badenwuerttemberg/swr-warum-ein-kinobetreiber-aus-bad-mergentheim-millionenfach-becher-spuelt-100.html", "thumbnailUrl": "https://images.tagesschau.de/image/c7624720-2872-4ebe-a8a6-f90c5a50fb1b/AAABj1K38Os/AAABjwnlKNc/16x9-512.jpg", "date": "2024-05-07T12:55:48.000+02:00", "lat": 49.4774, "lon": 9.7645, "intensity": 0.6, "source": "Tagesschau"}, {"title": "Wie fair sind Fairtrade-Produkte?", "url": "https://www.tagesschau.de/wirtschaft/verbraucher/fairtrade-siegel-einzelhandel-100.html", "thumbnailUrl": "https://images.tagesschau.de/image/e8096041-b965-4a62-bbb7-845eda44c342/AAABj1IjsMU/AAABjwnlKNc/16x9-512.jpg", "date": "2024-05-07T12:53:46.374+02:00", "lat": 51.1657, "lon": 10.4515, "intensity": 0.7, "source": "Tagesschau"}, {"title": "Rind im Bliesgau von Koppel geklaut", "url": "https://www.tagesschau.de/inland/regional/saarland/sr-rind-im-bliesgau-von-koppel-geklaut-100.html", "thumbnailUrl": "https://images.tagesschau.de/image/77712da4-3bf2-4ea6-8816-61ad126d9d6a/AAABj1KuiLE/AAABjwnlKNc/16x9-512.jpg", "date": "2024-05-07T12:45:00.000+02:00", "lat": 49.2506, "lon": 7.116, "intensity": 0.7, "source": "Tagesschau"}, {"title": "Nach Angriffen: Mehr Polizeischutz f\u00fcr Politiker?", "url": "https://www.tagesschau.de/inland/regional/nordrheinwestfalen/wdr-nach-angriffen-reul-will-keinen-grundsaetzlichen-polizeischutz-fuer-politiker-100.html", "thumbnailUrl": "https://images.tagesschau.de/image/afe41fb7-f5fa-43ad-b6e8-9262f05cd48a/AAABj1MPqS8/AAABjwnlKNc/16x9-512.jpg", "date": "2024-05-07T12:43:00.000+02:00", "lat": 51.9607, "lon": 7.6261, "intensity": 0.6, "source": "Tagesschau"}, {"title": "Vandalismus im B\u00fcsenbachtal gef\u00e4hrdet Feenteiche", "url": "https://www.tagesschau.de/inland/regional/niedersachsen/ndr-vandalismus-im-buesenbachtal-gefaehrdet-feenteiche-100.html", "thumbnailUrl": "https://images.tagesschau.de/image/02e93bac-2518-4230-9e12-535fd94ca9d3/AAABj1Kpb5k/AAABjwnlKNc/16x9-512.jpg", "date": "2024-05-07T12:40:00.000+02:00", "lat": 53.3179, "lon": 9.6947, "intensity": 0.7, "source": "Tagesschau"}, {"title": "125 Festnahmen nach Protesten an Amsterdamer Uni", "url": "https://www.tagesschau.de/ausland/europa/niederlande-proteste-pro-palaestina-100.html", "thumbnailUrl": "https://images.tagesschau.de/image/0736ca9c-9dae-49fc-b6e8-d497767c4124/AAABj1KjGk4/AAABjwnlKNc/16x9-512.jpg", "date": "2024-05-07T12:39:45.773+02:00", "lat": 52.355818, "lon": 4.897975, "intensity": 0.8, "source": "Tagesschau"}, {"title": "Silvia Breher erneut in den CDU-Bundesvorstand gew\u00e4hlt", "url": "https://www.tagesschau.de/inland/regional/niedersachsen/ndr-silvia-breher-erneut-in-den-cdu-bundesvorstand-gewaehlt-100.html", "thumbnailUrl": "https://images.tagesschau.de/image/95f2dcb2-669b-4ae4-ae5f-ee5c520507a8/AAABj1KeW5Y/AAABjwnlKNc/16x9-512.jpg", "date": "2024-05-07T12:32:00.000+02:00", "lat": 52.45382, "lon": 9.25921, "intensity": 0.7, "source": "Tagesschau"}, {"title": "Dillingen setzt auf privaten Sicherheitsdienst", "url": "https://www.tagesschau.de/inland/regional/saarland/sr-dillingen-setzt-auf-privaten-sicherheitsdienst-100.html", "thumbnailUrl": "https://images.tagesschau.de/image/313d4bef-80a9-4fe3-9356-21dc7845e34f/AAABj1LPfOs/AAABjwnlKNc/16x9-512.jpg", "date": "2024-05-07T12:30:00.000+02:00", "lat": 49.3488, "lon": 6.7373, "intensity": 0.8, "source": "Tagesschau"}, {"title": "Fall Klaus Br\u00e4unig: Gericht will Verfahren nicht wiederaufnehmen", "url": "https://www.tagesschau.de/inland/regional/rheinlandpfalz/swr-fall-klaus-braeunig-gericht-will-verfahren-nicht-wiederaufnehmen-100.html", "thumbnailUrl": "https://images.tagesschau.de/image/e1a00a3a-e5b1-4f4d-a952-1d3d380fba92/AAABj1KpGEc/AAABjwnlKNc/16x9-512.jpg", "date": "2024-05-07T12:25:14.000+02:00", "lat": 50.6167, "lon": 7.2663, "intensity": 0.8, "source": "Tagesschau"}, {"title": "Angeschossener Mann aus Bad Friedrichshall soll Terrorakt vorbereitet haben", "url": "https://www.tagesschau.de/inland/regional/badenwuerttemberg/swr-angeschossener-mann-aus-bad-friedrichshall-soll-terrorakt-vorbereitet-haben-100.html", "thumbnailUrl": "https://images.tagesschau.de/image/f99c805a-7997-49a2-8e39-4312047519e8/AAABj1Ifxhw/AAABjwnlKNc/16x9-512.jpg", "date": "2024-05-07T12:25:00.000+02:00", "lat": 49.2358, "lon": 9.3325, "intensity": 0.8, "source": "Tagesschau"}, {"title": "Flaschenwurf von A215-Br\u00fccke bei Kiel: Verd\u00e4chtige festgenommen", "url": "https://www.tagesschau.de/inland/regional/schleswigholstein/ndr-flaschenwurf-von-a215-bruecke-bei-kiel-verdaechtige-festgenommen-100.html", "thumbnailUrl": "https://images.tagesschau.de/image/c5ae49b8-e7e4-45bd-b759-af37d810874b/AAABj1KTQBU/AAABjwnlKNc/16x9-512.jpg", "date": "2024-05-07T12:19:00.000+02:00", "lat": 54.3233, "lon": 10.1285, "intensity": 0.8, "source": "Tagesschau"}, {"title": "R\u00fcgen: Millionenschaden nach Brand durch Blitzeinschlag", "url": "https://www.tagesschau.de/inland/regional/mecklenburgvorpommern/ndr-ruegen-millionenschaden-nach-brand-durch-blitzeinschlag-100.html", "thumbnailUrl": "https://images.tagesschau.de/image/adb6de8b-6718-4977-b748-e2afa9dcafa6/AAABj0hCs8M/AAABjwnlKNc/16x9-512.jpg", "date": "2024-05-07T12:09:00.000+02:00", "lat": 54.3781, "lon": 13.6961, "intensity": 0.7, "source": "Tagesschau"}, {"title": "Offenbar Cyberangriff auf britisches Ministerium", "url": "https://www.tagesschau.de/ausland/europa/cyberangriff-grossbritannien-verteidigungsministerium-100.html", "thumbnailUrl": "https://images.tagesschau.de/image/bb0941c1-5f00-41b3-ae1d-b83f4295c1ab/AAABj1Jurb4/AAABjwnlKNc/16x9-512.jpg", "date": "2024-05-07T11:59:38.568+02:00", "lat": 51.5074, "lon": 0.1276, "intensity": 0.7, "source": "Tagesschau"}, {"title": "Julia Kl\u00f6ckner als Schatzmeisterin der Bundes-CDU best\u00e4tigt", "url": "https://www.tagesschau.de/inland/regional/rheinlandpfalz/swr-julia-kloeckner-als-schatzmeisterin-der-bundes-cdu-bestaetigt-100.html", "thumbnailUrl": "https://images.tagesschau.de/image/7103b494-e418-4e9a-95b8-226a6f6cb7ab/AAABj1KwYyk/AAABjwnlKNc/16x9-512.jpg", "date": "2024-05-07T11:56:00.000+02:00", "lat": 50.3569, "lon": 7.6123, "intensity": 0.4, "source": "Tagesschau"}, {"title": "T\u00f6dlicher Unfall auf B45 im Odenwald: Pkw-Fahrer stirbt nach Frontalzusammensto\u00df mit zwei Autos", "url": "https://www.tagesschau.de/inland/regional/hessen/hr-toedlicher-unfall-auf-b45-im-odenwald-mann-stirbt-nach-frontalzusammenstoss-mit-zwei-autos-100.html", "thumbnailUrl": "https://images.tagesschau.de/image/5be7ad9b-db62-44d5-a6ab-991fa2fc037b/AAABj1M5vN8/AAABjwnlKNc/16x9-512.jpg", "date": "2024-05-07T11:48:21.332+02:00", "lat": 49.6861, "lon": 8.8758, "intensity": 0.8, "source": "Tagesschau"}, {"title": "US-Soldat in Russland festgenommen", "url": "https://www.tagesschau.de/ausland/asien/us-soldat-russland-100.html", "thumbnailUrl": "https://images.tagesschau.de/image/8b72e1fe-fd5b-4226-9035-88d8b358e496/AAABhnbcNRw/AAABjwnlKNc/16x9-512.jpg", "date": "2024-05-07T11:28:02.956+02:00", "lat": 55.7558, "lon": 37.6176, "intensity": 0.8, "source": "Tagesschau"}, {"title": "Sch\u00fclerinnen und Sch\u00fcler fordern verg\u00fcnstigtes Deutschlandticket", "url": "https://www.tagesschau.de/inland/regional/niedersachsen/ndr-schuelerinnen-und-schueler-fordern-verguenstigtes-deutschlandticket-100.html", "thumbnailUrl": "https://images.tagesschau.de/image/9c5cd70a-9d06-4272-a5ba-da50fb053efd/AAABj1Qprh4/AAABjwnlKNc/16x9-512.jpg", "date": "2024-05-07T11:27:00.000+02:00", "lat": 52.3759, "lon": 9.9976, "intensity": 0.8, "source": "Tagesschau"}, {"title": "Brand in Hotel in Linz: Polizei geht von Brandstiftung aus", "url": "https://www.tagesschau.de/inland/regional/rheinlandpfalz/swr-brand-in-hotel-in-linz-polizei-geht-von-brandstiftung-aus-100.html", "thumbnailUrl": "https://images.tagesschau.de/image/6d0e2111-63fa-4861-baf3-b2bc4bb120d6/AAABj1LNuzY/AAABjwnlKNc/16x9-512.jpg", "date": "2024-05-07T11:22:00.000+02:00", "lat": 50.5794, "lon": 7.2694, "intensity": 0.8, "source": "Tagesschau"}, {"title": "Es soll um 500 Millionen Euro gehen: Erwin M\u00fcllers Adoptivkinder klagen auf Erbe ", "url": "https://www.tagesschau.de/inland/regional/badenwuerttemberg/swr-erwin-muellers-adoptivkinder-klagen-auf-erbe-100.html", "thumbnailUrl": "https://images.tagesschau.de/image/0240af6d-5b98-4c57-825b-25480cac6b50/AAABj07ga9M/AAABjwnlKNc/16x9-512.jpg", "date": "2024-05-07T11:22:00.000+02:00", "lat": 48.4011, "lon": 10.1228, "intensity": 0.8, "source": "Tagesschau"}, {"title": "Wahl-O-Mat zur Europawahl ist online", "url": "https://www.tagesschau.de/inland/regional/saarland/sr-wahl-o-mat-zur-europawahl-ist-online-100.html", "thumbnailUrl": "https://images.tagesschau.de/image/edfc6538-9bca-42c4-baa3-7dfecd0c992e/AAABj1KNkd0/AAABjwnlKNc/16x9-512.jpg", "date": "2024-05-07T11:17:00.000+02:00", "lat": 49.3964, "lon": 6.9467, "intensity": 0.5, "source": "Tagesschau"}, {"title": "Wahl-O-Mat zur Europawahl 2024 ist online: Jetzt ausprobieren", "url": "https://www.tagesschau.de/inland/regional/hessen/hr-wahl-o-mat-zur-europawahl-2024-ist-online-jetzt-ausprobieren-100.html", "thumbnailUrl": "https://images.tagesschau.de/image/1bda6c9f-802f-4c64-9650-11463dbc0dd7/AAABj1JYkEM/AAABjwnlKNc/16x9-512.jpg", "date": "2024-05-07T11:16:35.797+02:00", "lat": 50.6521, "lon": 9.6752, "intensity": 0.6, "source": "Tagesschau"}, {"title": "Wahl-O-Mat zur Europawahl: Wen soll ich w\u00e4hlen?", "url": "https://www.tagesschau.de/inland/regional/nordrheinwestfalen/wdr-wahl-o-mat-zur-europawahl-wen-soll-ich-waehlen-100.html", "thumbnailUrl": "https://images.tagesschau.de/image/04544e97-b0e5-4627-a3df-e7082506f2f6/AAABj1JYfgo/AAABjwnlKNc/16x9-512.jpg", "date": "2024-05-07T11:15:00.000+02:00", "lat": 51.4332, "lon": 7.6261, "intensity": 0.5, "source": "Tagesschau"}, {"title": "Mercedes C111 als Vorbild: Ellwanger baut einzigartigen Sportwagen nach", "url": "https://www.tagesschau.de/inland/regional/badenwuerttemberg/swr-mercedes-c111-als-vorbild-ellwanger-baut-einzigartigen-sportwagen-nach-100.html", "thumbnailUrl": "https://images.tagesschau.de/image/03f46168-2474-43f4-bf05-78b025671752/AAABj1Jf1Gk/AAABjwnlKNc/16x9-512.jpg", "date": "2024-05-07T11:12:22.000+02:00", "lat": 48.9643, "lon": 9.2572, "intensity": 0.7, "source": "Tagesschau"}, {"title": "Pulitzer-Preise f\u00fcr Gaza-Berichterstattung", "url": "https://www.tagesschau.de/ausland/amerika/pulitzer-preis-new-york-times-krieg-gazastreifen-100.html", "thumbnailUrl": "https://images.tagesschau.de/image/63acbc26-07f6-40d3-ba9f-a687136c6564/AAABj1JK66o/AAABjwnlKNc/16x9-512.jpg", "date": "2024-05-07T11:03:13.115+02:00", "lat": 31.51, "lon": 34.3445, "intensity": 0.8, "source": "Tagesschau"}, {"title": "Warum Kanzler Brandt \u00fcber den DDR-Spion st\u00fcrzte", "url": "https://www.tagesschau.de/wissen/forschung/brandt-guillaume-affaere-100.html", "thumbnailUrl": "https://images.tagesschau.de/image/523c2d5b-d1d6-40d7-846a-1803b2ebd9da/AAABj1Hn6Pc/AAABjwnlKNc/16x9-512.jpg", "date": "2024-05-07T10:59:17.331+02:00", "lat": 52.52, "lon": 13.405, "intensity": 0.8, "source": "Tagesschau"}, {"title": "Flughafen Stuttgart: Flugl\u00e4rmkommission gegen neue Flugroute", "url": "https://www.tagesschau.de/inland/regional/badenwuerttemberg/swr-flughafen-stuttgart-fluglaermkommission-gegen-neue-flugroute-100.html", "thumbnailUrl": "https://images.tagesschau.de/image/e98d0c16-11b4-4c8c-b0df-e4caf1c9a4ba/AAABj1O4EEY/AAABjwnlKNc/16x9-512.jpg", "date": "2024-05-07T10:58:51.000+02:00", "lat": 48.6893, "lon": 9.192, "intensity": 0.7, "source": "Tagesschau"}, {"title": "Berlin bezahlt Millionen f\u00fcr Sicherheit im Freibad", "url": "https://www.tagesschau.de/inland/berlin-freibaeder-100.html", "thumbnailUrl": "https://images.tagesschau.de/image/e76db93c-8cbf-461d-8e45-99414271fd54/AAABj1KHJ-I/AAABjwnlKNc/16x9-512.jpg", "date": "2024-05-07T10:54:09.141+02:00", "lat": 52.520008, "lon": 13.404954, "intensity": 0.7, "source": "Tagesschau"}, {"title": "Kaum Frauen an der Spitze von Familienunternehmen", "url": "https://www.tagesschau.de/wirtschaft/unternehmen/familienunternehmen-frauen-leitung-vorstand-fuehrungspositionen-maenner-100.html", "thumbnailUrl": "https://images.tagesschau.de/image/26ea7002-cd17-48ad-8202-96c6fb2e3f06/AAABj1G41Q8/AAABjwnlKNc/16x9-512.jpg", "date": "2024-05-07T10:53:50.332+02:00", "lat": 51.1657, "lon": 10.4515, "intensity": 0.6, "source": "Tagesschau"}, {"title": "Mann auf offener Stra\u00dfe in Gera angeschossen: Zwei M\u00e4nner im Gef\u00e4ngnis", "url": "https://www.tagesschau.de/inland/regional/thueringen/mdr-auf-offener-strasse-angeschossen-mensch-in-gera-schwer-verletzt-100.html", "thumbnailUrl": "https://images.tagesschau.de/image/1442619f-8c92-4f49-8008-b25993b7835b/AAABj1JTCAU/AAABjwnlKNc/16x9-512.jpg", "date": "2024-05-07T10:49:00.000+02:00", "lat": 50.8816, "lon": 12.0824, "intensity": 0.7, "source": "Tagesschau"}, {"title": "W\u00fcrselner Lehrer unterrichtet im Hitler-Hemd", "url": "https://www.tagesschau.de/inland/regional/nordrheinwestfalen/wdr-wuerselner-lehrer-unterrichtet-im-hitler-hemd-102.html", "thumbnailUrl": "https://images.tagesschau.de/image/ec619043-f154-481f-8ea7-cbd7cd6d3413/AAABj1Lq9Z0/AAABjwnlKNc/16x9-512.jpg", "date": "2024-05-07T10:48:00.000+02:00", "lat": 50.8234, "lon": 6.1136, "intensity": 0.8, "source": "Tagesschau"}, {"title": "Angriffe auf Politiker: Ebling und Dreyer f\u00fcr entschlossenes Vorgehen", "url": "https://www.tagesschau.de/inland/regional/rheinlandpfalz/swr-dreyer-verurteilt-attacke-auf-politiker-als-abscheulich-100.html", "thumbnailUrl": "https://images.tagesschau.de/image/eb323e99-6884-486c-a7a9-bee3f9ec9dea/AAABj1O7tiQ/AAABjwnlKNc/16x9-512.jpg", "date": "2024-05-07T10:46:00.000+02:00", "lat": 50.0153, "lon": 7.2662, "intensity": 0.8, "source": "Tagesschau"}, {"title": "Mietschulden: Zahl der Zwangsr\u00e4umungen in Berlin hat sp\u00fcrbar zugenommen", "url": "https://www.tagesschau.de/inland/regional/berlin/rbb-mietschulden-2-369-berliner-haushalte-wurden-2023-zwangsgeraeumt-100.html", "thumbnailUrl": "https://images.tagesschau.de/image/9fe4ed66-fb15-4219-b16b-09065ea32a75/AAABj1I3jy0/AAABjwnlKNc/16x9-512.jpg", "date": "2024-05-07T10:37:00.000+02:00", "lat": 52.520008, "lon": 13.404954, "intensity": 0.8, "source": "Tagesschau"}, {"title": "Mainz 05 mit Selbstkritik: \"Wir machen den Gegner stark\"", "url": "https://www.tagesschau.de/inland/regional/rheinlandpfalz/swr-mainz-05-mit-selbstkritik-wir-machen-den-gegner-stark-102.html", "thumbnailUrl": "https://images.tagesschau.de/image/ea533b6f-8e4a-4dff-acf2-00286ad143a8/AAABj1Jo-uY/AAABjwnlKNc/16x9-512.jpg", "date": "2024-05-07T10:36:52.000+02:00", "lat": 49.992862, "lon": 8.247252, "intensity": 0.7, "source": "Tagesschau"}, {"title": "Hessen am Morgen: +++ Lufthansa-Maschine wegen Geruch an Bord umgeleitet +++ Allergiker l\u00f6st Alarm in Bank aus +++ Schockanruf: Betr\u00fcger erbeuten 37.000 Euro +++", "url": "https://www.tagesschau.de/inland/regional/hessen/hr-hessen-am-morgen--lufthansa-maschine-nach-frankfurt-wegen-geruchs-an-bord-umgeleitet-100.html", "thumbnailUrl": "https://images.tagesschau.de/image/31de9143-9f81-4d3e-a6d1-056391cc841b/AAABj1KeFJc/AAABjwnlKNc/16x9-512.jpg", "date": "2024-05-07T10:32:50.826+02:00", "lat": 50.1109, "lon": 8.676, "intensity": 0.6, "source": "Tagesschau"}, {"title": "Durchsuchung bei AfD-Politiker Krah in Br\u00fcssel", "url": "https://www.tagesschau.de/investigativ/afd-krah-china-spionage-durchsuchung-100.html", "thumbnailUrl": "https://images.tagesschau.de/image/f1ce307b-d7b6-4998-a5f8-421d1ae6d538/AAABjwsNtZg/AAABjwnlKNc/16x9-512.jpg", "date": "2024-05-07T10:30:57.609+02:00", "lat": 50.8503, "lon": 4.3517, "intensity": 0.8, "source": "Tagesschau"}, {"title": "Mann in Berlin-Spandau erschossen - T\u00e4ter fl\u00fcchtig", "url": "https://www.tagesschau.de/inland/regional/berlin/rbb-eine-person-auf-offener-strasse-in-berlin-spandau-erschossen-100.html", "thumbnailUrl": "https://images.tagesschau.de/image/6d441556-79b2-4115-8d5e-57889be2fb80/AAABj1KKB3Q/AAABjwnlKNc/16x9-512.jpg", "date": "2024-05-07T10:30:07.000+02:00", "lat": 52.537916, "lon": 13.199518, "intensity": 0.8, "source": "Tagesschau"}, {"title": "K-Frage der Union: S\u00f6der sieht Merz in der Favoritenrolle", "url": "https://www.tagesschau.de/inland/regional/bayern/br-k-frage-der-union-soeder-sieht-merz-in-der-favoritenrolle-102.html", "thumbnailUrl": "https://images.tagesschau.de/image/1da495bf-2bfa-40e1-87a7-888901a050e4/AAABj1IlQc4/AAABjwnlKNc/16x9-512.jpg", "date": "2024-05-07T10:20:21.051+02:00", "lat": 48.1351, "lon": 11.582, "intensity": 0.8, "source": "Tagesschau"}, {"title": "Weiter L\u00fccken bei Masernimpfung von Kleinkindern", "url": "https://www.tagesschau.de/inland/regional/hessen/hr-weiter-luecken-bei-masernimpfung-von-kleinkindern-102.html", "thumbnailUrl": "https://images.tagesschau.de/image/ce5c132a-38bd-481e-bb01-e14deaf31408/AAABj1IjdOs/AAABjwnlKNc/16x9-512.jpg", "date": "2024-05-07T10:18:04.766+02:00", "lat": 50.6521, "lon": 9.6752, "intensity": 0.7, "source": "Tagesschau"}, {"title": "Sophia und Leon sind beliebteste Vornamen in Bayern", "url": "https://www.tagesschau.de/inland/regional/bayern/br-sophia-und-leon-sind-beliebteste-vornamen-in-bayern-104.html", "thumbnailUrl": "https://images.tagesschau.de/image/0b8f3452-3b73-49ae-b969-a7e49acec743/AAABj1If0Nc/AAABjwnlKNc/16x9-512.jpg", "date": "2024-05-07T10:14:46.755+02:00", "lat": 48.1351, "lon": 11.582, "intensity": 0.5, "source": "Tagesschau"}, {"title": "Unwetter \u00fcber S\u00fcdbayern: Stra\u00dfen, Keller und Schule \u00fcberflutet", "url": "https://www.tagesschau.de/inland/regional/bayern/br-unwetter-ueber-suedbayern-strassen-keller-und-schule-ueberflutet-102.html", "thumbnailUrl": "https://images.tagesschau.de/image/37906e68-aef5-4119-9375-b5d93d0bbf04/AAABj1Id-gA/AAABjwnlKNc/16x9-512.jpg", "date": "2024-05-07T10:13:38.262+02:00", "lat": 48.1351, "lon": 11.582, "intensity": 0.8, "source": "Tagesschau"}, {"title": "In Marburg sollen 14 neue Windr\u00e4der entstehen", "url": "https://www.tagesschau.de/inland/regional/hessen/hr-in-marburg-sollen-14-neue-windraeder-entstehen-100.html", "thumbnailUrl": "https://images.tagesschau.de/image/f66cef05-dcaa-42a1-872a-55aedc11edef/AAABj1I1sVE/AAABjwnlKNc/16x9-512.jpg", "date": "2024-05-07T10:13:08.679+02:00", "lat": 50.80965, "lon": 8.76604, "intensity": 0.7, "source": "Tagesschau"}, {"title": "A1 bei Kamen bis Mittwochfr\u00fch gesperrt", "url": "https://www.tagesschau.de/inland/regional/nordrheinwestfalen/wdr-a1-zwischen-kamen-und-unna-nach-lkw-unfall-gesperrt-100.html", "thumbnailUrl": "https://images.tagesschau.de/image/448e4dd7-158f-4d49-b701-5e7a6f4a9e1b/AAABj1KaZZI/AAABjwnlKNc/16x9-512.jpg", "date": "2024-05-07T10:11:00.000+02:00", "lat": 51.5892, "lon": 7.6583, "intensity": 0.8, "source": "Tagesschau"}, {"title": "Toter bei Wohnungsbrand in Menden", "url": "https://www.tagesschau.de/inland/regional/nordrheinwestfalen/wdr-toter-bei-wohnungsbrand-in-menden-102.html", "thumbnailUrl": "https://images.tagesschau.de/image/cd5399b1-509c-4f61-8545-175a0102287b/AAABj1KpCq8/AAABjwnlKNc/16x9-512.jpg", "date": "2024-05-07T10:10:00.000+02:00", "lat": 51.4333, "lon": 7.7833, "intensity": 0.8, "source": "Tagesschau"}, {"title": "Das sind die beliebtesten Baby-Vornamen im Saarland", "url": "https://www.tagesschau.de/inland/regional/saarland/sr-das-sind-die-beliebtesten-baby-vornamen-im-saarland-100.html", "thumbnailUrl": "https://images.tagesschau.de/image/8ba014f6-8481-418b-9a4b-6ff68955f044/AAABj1IuWrM/AAABjwnlKNc/16x9-512.jpg", "date": "2024-05-07T10:10:00.000+02:00", "lat": 49.3964, "lon": 7.0, "intensity": 0.5, "source": "Tagesschau"}, {"title": "BW-Newsticker am Morgen: M\u00f6gliche Entscheidung zu Stuttgart 21-Kosten, Flugzeug landet au\u00dferplanm\u00e4\u00dfig, Flugl\u00e4rm-Kommission gegen neue Route", "url": "https://www.tagesschau.de/inland/regional/badenwuerttemberg/swr-bw-newsticker-am-morgen-moegliche-entscheidung-zu-stuttgart-21-kosten-flugzeug-landet-ausserplanmaessig-wechselhaftes-und-waermeres-wetter-100.html", "thumbnailUrl": "https://images.tagesschau.de/image/ff17f5f9-9432-4c68-95a2-98e60363acd7/AAABj1E1Zsk/AAABjwnlKNc/16x9-512.jpg", "date": "2024-05-07T10:06:00.000+02:00", "lat": 48.7758, "lon": 9.1829, "intensity": 0.7, "source": "Tagesschau"}, {"title": "Abschlussbericht Missbrauchsfall Dillinger, Rechte Parolen auf Wahlplakaten, Beliebte Babynamen", "url": "https://www.tagesschau.de/inland/regional/rheinlandpfalz/swr-abschlussbericht-missbrauchsfall-dillinger-innenministerkonferenz-zu-attacken-auf-politiker-weniger-regen-100.html", "thumbnailUrl": "https://images.tagesschau.de/image/d7fba13b-3971-45ef-8ae8-fcec4ad03b86/AAABj1HLlWI/AAABjwnlKNc/16x9-512.jpg", "date": "2024-05-07T10:03:00.000+02:00", "lat": 49.7596, "lon": 6.6431, "intensity": 0.8, "source": "Tagesschau"}, {"title": "SPD-Politiker Schulz fordert ganze H\u00e4rte des Gesetzes", "url": "https://www.tagesschau.de/inland/regional/rheinlandpfalz/swr-spd-politiker-schulz-fordert-ganze-haerte-des-gesetzes-104.html", "thumbnailUrl": "https://images.tagesschau.de/image/a4078f81-483c-40c6-87c2-ed1e143209b7/AAABj1OedfA/AAABjwnlKNc/16x9-512.jpg", "date": "2024-05-07T10:01:13.000+02:00", "lat": 51.0504088, "lon": 13.7372621, "intensity": 0.7, "source": "Tagesschau"}, {"title": "Wahl-O-Mat zur Europawahl 2024 geht online", "url": "https://www.tagesschau.de/inland/regional/brandenburg/rbb-wahl-o-mat-zur-europawahl-2024-geht-online-100.html", "thumbnailUrl": "https://images.tagesschau.de/image/e535e051-729f-4ecb-9740-a9f42a2afee2/AAABj1ILtsA/AAABjwnlKNc/16x9-512.jpg", "date": "2024-05-07T09:50:58.000+02:00", "lat": 52.520008, "lon": 13.404954, "intensity": 0.7, "source": "Tagesschau"}, {"title": "Gep\u00e4ckanlage am Flughafen Hamburg l\u00e4uft wieder ", "url": "https://www.tagesschau.de/inland/regional/hamburg/ndr-gepaeckprobleme-am-hamburger-flughafen-reisende-brauchen-geduld-100.html", "thumbnailUrl": "https://images.tagesschau.de/image/92a13595-0723-42e6-8d97-ed38ee653085/AAABj1IhrIs/AAABjwnlKNc/16x9-512.jpg", "date": "2024-05-07T09:34:00.000+02:00", "lat": 53.6309, "lon": 9.98822, "intensity": 0.6, "source": "Tagesschau"}, {"title": "Hamburger Hafen: Menge an sichergestelltem Kokain verdreifacht", "url": "https://www.tagesschau.de/inland/regional/hamburg/ndr-hamburger-hafen-menge-an-sichergestelltem-kokain-verdreifacht-100.html", "thumbnailUrl": "https://images.tagesschau.de/image/e75c22bf-6d71-43cb-869d-233b26babd4f/AAABj1PMZHk/AAABjwnlKNc/16x9-512.jpg", "date": "2024-05-07T09:33:00.000+02:00", "lat": 53.5511, "lon": 9.9937, "intensity": 0.8, "source": "Tagesschau"}, {"title": "Pistorius: Angriffe auf Politiker gro\u00dfe Gefahr f\u00fcr Demokratie", "url": "https://www.tagesschau.de/inland/regional/hamburg/ndr-pistorius-angriffe-auf-politiker-grosse-gefahr-fuer-demokratie-100.html", "thumbnailUrl": "https://images.tagesschau.de/image/9e5260ef-2227-4fc8-a0cc-a8ae1d3336d8/AAABj1H3g_w/AAABjwnlKNc/16x9-512.jpg", "date": "2024-05-07T09:30:00.000+02:00", "lat": 53.5511, "lon": 9.9937, "intensity": 0.8, "source": "Tagesschau"}, {"title": "Webasto er\u00f6ffnet vollautomatisches Logistikzentrum in Neubrandenburg", "url": "https://www.tagesschau.de/inland/regional/mecklenburgvorpommern/ndr-neues-webasto-zentrum-in-neubrandenburg-maschinen-lagern-autoteile-100.html", "thumbnailUrl": "https://images.tagesschau.de/image/d709b0fd-34ab-41cd-b418-abbc8cd59538/AAABj1JnIe4/AAABjwnlKNc/16x9-512.jpg", "date": "2024-05-07T09:23:00.000+02:00", "lat": 53.557, "lon": 13.263, "intensity": 0.7, "source": "Tagesschau"}, {"title": "Braunschweiger Klinikum stellt Neubau vor: Er\u00f6ffnung im Oktober", "url": "https://www.tagesschau.de/inland/regional/niedersachsen/ndr-braunschweiger-klinikum-stellt-neubau-vor-eroeffnung-im-oktober-100.html", "thumbnailUrl": "https://images.tagesschau.de/image/643ea100-d1d9-4b4d-af7b-a6872c0c85c0/AAABj1JIEfE/AAABjwnlKNc/16x9-512.jpg", "date": "2024-05-07T09:20:00.000+02:00", "lat": 52.2689, "lon": 10.5264, "intensity": 0.4, "source": "Tagesschau"}, {"title": "G\u00fclle-Laster kippt um: Aufwendige Bergung bei Harpstedt", "url": "https://www.tagesschau.de/inland/regional/niedersachsen/ndr-guelle-laster-kippt-um-aufwendige-bergung-bei-harpstedt-100.html", "thumbnailUrl": "https://images.tagesschau.de/image/f2e844e1-02a2-4967-9300-e99604fb5827/AAABj1H1t5g/AAABjwnlKNc/16x9-512.jpg", "date": "2024-05-07T08:47:00.000+02:00", "lat": 52.9501, "lon": 8.5611, "intensity": 0.6, "source": "Tagesschau"}, {"title": "Das sind die beliebtesten Vornamen 2023 in Hessen", "url": "https://www.tagesschau.de/inland/regional/hessen/hr-beliebteste-babynamen-2023-in-hessen-emilia-und-noah-an-der-spitze-100.html", "thumbnailUrl": "https://images.tagesschau.de/image/3a19aaf5-e0ac-474a-9c14-195230ff3d1c/AAABj1Ks4cs/AAABjwnlKNc/16x9-512.jpg", "date": "2024-05-07T08:46:49.234+02:00", "lat": 50.6521, "lon": 9.6606, "intensity": 0.3, "source": "Tagesschau"}, {"title": "Reste von historischer Stadtmauer in Rinteln freigelegt", "url": "https://www.tagesschau.de/inland/regional/niedersachsen/ndr-reste-von-historischer-stadtmauer-in-rinteln-freigelegt-100.html", "thumbnailUrl": "https://images.tagesschau.de/image/1ef63085-58a6-4c11-9e6c-b014cde92091/AAABj1H8_yk/AAABjwnlKNc/16x9-512.jpg", "date": "2024-05-07T08:45:00.000+02:00", "lat": 52.198, "lon": 9.0773, "intensity": 0.8, "source": "Tagesschau"}, {"title": "Ein Jahr Br\u00fcckensprengung - Leben an der Baustelle der neuen Rahmedetalbr\u00fccke", "url": "https://www.tagesschau.de/inland/regional/nordrheinwestfalen/wdr-ein-jahr-brueckensprengung-leben-an-der-baustelle-der-neuen-rahmedetalbruecke-100.html", "thumbnailUrl": "https://images.tagesschau.de/image/58e926b2-911a-4492-aa01-7b24c604a88e/AAABj1Hm-E4/AAABjwnlKNc/16x9-512.jpg", "date": "2024-05-07T08:40:00.000+02:00", "lat": 51.219, "lon": 7.6407, "intensity": 0.7, "source": "Tagesschau"}, {"title": "Konzertkritik | Adrianne Lenker im Admiralspalast: G\u00e4nsehaut-Detektor im roten Bereich", "url": "https://www.tagesschau.de/inland/regional/berlin/rbb-konzertkritik--adrianne-lenker-im-admiralspalast-gaensehaut-detektor-im-roten-bereich-100.html", "thumbnailUrl": "https://images.tagesschau.de/image/2f074a99-84bb-4655-ba56-bf73516f8959/AAABj1HGCl0/AAABjwnlKNc/16x9-512.jpg", "date": "2024-05-07T08:35:36.000+02:00", "lat": 52.5244, "lon": 13.3889, "intensity": 0.8, "source": "Tagesschau"}, {"title": "Schwimmbad Cuppamare in Kuppenheim wird geschlossen ", "url": "https://www.tagesschau.de/inland/regional/badenwuerttemberg/swr-schwimmbad-cuppamare-in-kuppenheim-wird-geschlossen-100.html", "thumbnailUrl": "https://images.tagesschau.de/image/6ed4e5b6-1338-4ed9-b511-f75d8394f849/AAABj1INajc/AAABjwnlKNc/16x9-512.jpg", "date": "2024-05-07T08:33:00.000+02:00", "lat": 48.8833, "lon": 8.2597, "intensity": 0.8, "source": "Tagesschau"}, {"title": "Stuttgart 21: Chronologie der Kostenexplosion", "url": "https://www.tagesschau.de/inland/regional/badenwuerttemberg/swr-stuttgart-21-chronologie-der-kostenexplosion-106.html", "thumbnailUrl": "https://images.tagesschau.de/image/2589018d-307f-4d3e-840a-90f77f033161/AAABj1MOCfs/AAABjwnlKNc/16x9-512.jpg", "date": "2024-05-07T08:20:00.000+02:00", "lat": 48.7758, "lon": 9.1829, "intensity": 0.8, "source": "Tagesschau"}, {"title": "Hannover: Wieder Verkehrsbehinderungen am S\u00fcdschnellweg", "url": "https://www.tagesschau.de/inland/regional/niedersachsen/ndr-hannover-wieder-verkehrsbehinderungen-am-suedschnellweg-100.html", "thumbnailUrl": "https://images.tagesschau.de/image/b050aa8a-12e5-4084-a4ec-f5b70c6a8291/AAABj1G3eVM/AAABjwnlKNc/16x9-512.jpg", "date": "2024-05-07T08:19:00.000+02:00", "lat": 52.37589, "lon": 9.73322, "intensity": 0.6, "source": "Tagesschau"}, {"title": "In diesen Potsdamer Stadtteilen ist es voller geworden", "url": "https://www.tagesschau.de/inland/regional/brandenburg/rbb-einwohnerentwicklung-in-diesen-potsdamer-stadtteilen-ist-es-voller-geworden-100.html", "thumbnailUrl": "https://images.tagesschau.de/image/f3d91632-882a-4c63-a4fb-d4504f89c7de/AAABj1GwD5A/AAABjwnlKNc/16x9-512.jpg", "date": "2024-05-07T08:11:26.000+02:00", "lat": 52.3958, "lon": 13.0645, "intensity": 0.8, "source": "Tagesschau"}, {"title": "Beliebteste Vornamen 2023: Sophia, Emilia, Mateo und Mohammed liegen in der Region ganz vorn", "url": "https://www.tagesschau.de/inland/regional/brandenburg/rbb-beliebteste-vornamen-2023-sophia-emilia-mateo-und-mohammed-liegen-in-der-region-ganz-vorn-100.html", "thumbnailUrl": "https://images.tagesschau.de/image/4a8f745b-2dd7-4538-88f6-58671659ffac/AAABj1GwOjY/AAABjwnlKNc/16x9-512.jpg", "date": "2024-05-07T08:09:57.000+02:00", "lat": 52.520008, "lon": 13.404954, "intensity": 0.7, "source": "Tagesschau"}, {"title": "Hilfe f\u00fcr die Menschen in der Ukraine", "url": "https://www.tagesschau.de/spendenkonten/spendenkonten-133.html", "thumbnailUrl": "https://images.tagesschau.de/image/af005073-bb3d-428a-b6f8-a685c725811f/AAABh4VRChA/AAABjwnlKNc/16x9-512.jpg", "date": "2024-05-07T08:09:30.910+02:00", "lat": 50.4501, "lon": 30.5234, "intensity": 0.8, "source": "Tagesschau"}, {"title": "Fraunhofer IGP Rostock forscht nach neuen Schiffsmotoren", "url": "https://www.tagesschau.de/inland/regional/mecklenburgvorpommern/ndr-einzigartige-chance-neuer-standort-fuer-fraunhofer-igp-in-warnemuende-100.html", "thumbnailUrl": "https://images.tagesschau.de/image/43bbc912-fa2a-4e0b-b574-625e4d6d6c38/AAABj1Jugv0/AAABjwnlKNc/16x9-512.jpg", "date": "2024-05-07T07:55:00.000+02:00", "lat": 54.1831, "lon": 12.0996, "intensity": 0.7, "source": "Tagesschau"}, {"title": "Nach Starkregen in der Nacht: Es bleibt vorerst nass in NRW", "url": "https://www.tagesschau.de/inland/regional/nordrheinwestfalen/wdr-wetter-in-nrw-starkregen-am-abend--etwas-sonne-am-feiertag-100.html", "thumbnailUrl": "https://images.tagesschau.de/image/af2fe1b1-e48b-4205-a7f4-b88cd84287b9/AAABj1HqqmI/AAABjwnlKNc/16x9-512.jpg", "date": "2024-05-07T07:50:00.000+02:00", "lat": 51.4818, "lon": 7.6261, "intensity": 0.8, "source": "Tagesschau"}, {"title": "Viele EU-Vertreter wollen Putins Zeremonie fernbleiben", "url": "https://www.tagesschau.de/ausland/europa/putin-amtszeit-offiziell-100.html", "thumbnailUrl": "https://images.tagesschau.de/image/8fc30568-8139-43c4-85bb-6212f9678daf/AAABj1F-8lE/AAABjwnlKNc/16x9-512.jpg", "date": "2024-05-07T07:32:06.056+02:00", "lat": 55.7558, "lon": 37.6176, "intensity": 0.6, "source": "Tagesschau"}, {"title": "Absurde Saison von Eintracht Frankfurt: Platz sechs und keiner wei\u00df warum", "url": "https://www.tagesschau.de/inland/regional/hessen/hr-platz-sechs-und-keiner-weiss-warum-absurde-saison-von-eintracht-frankfurt-102.html", "thumbnailUrl": "https://images.tagesschau.de/image/fc894d58-ab07-4d90-ae6e-70b48520b018/AAABj1L_G_8/AAABjwnlKNc/16x9-512.jpg", "date": "2024-05-07T07:31:47.687+02:00", "lat": 50.1109, "lon": 8.6815, "intensity": 0.6, "source": "Tagesschau"}, {"title": "Israels Armee r\u00fcckt auf Rafah vor", "url": "https://www.tagesschau.de/ausland/asien/israel-rafah-104.html", "thumbnailUrl": "https://images.tagesschau.de/image/e4eddc93-b62a-425f-ac31-2c2083147a39/AAABj1Fqzjc/AAABjwnlKNc/16x9-512.jpg", "date": "2024-05-07T07:19:38.391+02:00", "lat": 31.266, "lon": 34.267, "intensity": 0.8, "source": "Tagesschau"},