[{"title": "Netanyahu h\u00e4lt an Rafah-Offensive fest", "url": "https://www.tagesschau.de/ausland/netanyahu-rafah-104.html", "thumbnailUrl": "https://images.tagesschau.de/image/48e346bc-88f7-4e0d-b8f6-f0161fb4ba5f/AAABjZmqxxs/AAABjcWesUg/16x9-512.jpg", "date": "2024-04-09T02:15:02.578+02:00", "lat": 31.251814, "lon": 34.259352, "intensity": 0.8, "source": "Tagesschau"}, {"title": "++ Bericht \u00fcber US-Vorschlag f\u00fcr Waffenruhe ++", "url": "https://www.tagesschau.de/newsticker/liveblog-nahost-dienstag-126.html", "thumbnailUrl": "https://images.tagesschau.de/image/e365725b-db56-4c07-9bf6-67c7b59cc4a7/AAABhnRDex8/AAABjcWesUg/16x9-512.jpg", "date": "2024-04-09T02:14:49.911+02:00", "lat": 31.0461, "lon": 35.8434, "intensity": 0.7, "source": "Tagesschau"}, {"title": "Pl\u00f6tzlich wurde es dunkel", "url": "https://www.tagesschau.de/ausland/sonnenfinsternis-nordamerika-100.html", "thumbnailUrl": "https://images.tagesschau.de/image/7cfe18e0-3f1b-4cf6-82a6-76864847c0cf/AAABjr-sjWM/AAABjcWesUg/16x9-512.jpg", "date": "2024-04-09T00:36:41.852+02:00", "lat": 39.0997, "lon": -94.5786, "intensity": 0.8, "source": "Tagesschau"}, {"title": "Carsharing-Anbieter wollen weniger Elektro", "url": "https://www.tagesschau.de/wirtschaft/energie/carsharing-elektroautos-flotten-100.html", "thumbnailUrl": "https://images.tagesschau.de/image/b0a7cca6-78ea-41f9-aef8-fc5d963cbd17/AAABjr5Fh5s/AAABjcWesUg/16x9-512.jpg", "date": "2024-04-08T23:43:21.535+02:00", "lat": 51.1657, "lon": 10.4515, "intensity": 0.6, "source": "Tagesschau"}, {"title": "++ Ukraine: 80 Prozent der W\u00e4rmekraftwerke angegriffen ++", "url": "https://www.tagesschau.de/newsticker/liveblog-ukraine-montag-354.html", "thumbnailUrl": "https://images.tagesschau.de/image/8fbbdef4-e5a6-4ad6-a3ee-f75dce068a7a/AAABjr4lmWQ/AAABjcWesUg/16x9-512.jpg", "date": "2024-04-08T23:35:55.634+02:00", "lat": 50.4501, "lon": 30.5234, "intensity": 0.8, "source": "Tagesschau"}, {"title": "++ Netanyahu: Datum f\u00fcr Rafah-Offensive steht ++", "url": "https://www.tagesschau.de/newsticker/liveblog-nahost-montag-126.html", "thumbnailUrl": "https://images.tagesschau.de/image/4c6fbd19-0822-4def-8b0b-3ff4144926ae/AAABjr6xCk8/AAABjcWesUg/16x9-512.jpg", "date": "2024-04-08T23:35:05.699+02:00", "lat": 31.1329, "lon": 34.3955, "intensity": 0.8, "source": "Tagesschau"}, {"title": "Sechs Menschen bei Zusammensto\u00df von zwei Stra\u00dfenbahnen in Cottbus verletzt", "url": "https://www.tagesschau.de/inland/regional/brandenburg/rbb-fuenf-menschen-bei-zusammenstoss-von-zwei-strassenbahnen-in-cottbus-verletzt-100.html", "thumbnailUrl": "https://images.tagesschau.de/image/8b38fd7e-2eff-45b9-9491-c562997ac4a5/AAABjr-gW3w/AAABjcWesUg/16x9-512.jpg", "date": "2024-04-08T23:30:04.000+02:00", "lat": 51.7562, "lon": 14.3356, "intensity": 0.8, "source": "Tagesschau"}, {"title": "Wall Street nicht mehr so euphorisch", "url": "https://www.tagesschau.de/wirtschaft/finanzen/marktberichte/marktbericht-dax-nach-kursrutsch-dow-gold-oel-ki-tesla-musk-boerse-aktien-100.html", "thumbnailUrl": "https://images.tagesschau.de/image/b1a482d8-473a-46f2-8a99-2226d5063974/AAABirZHhZE/AAABjcWesUg/16x9-512.jpg", "date": "2024-04-08T22:23:53.241+02:00", "lat": 40.7128, "lon": -74.0097, "intensity": 0.7, "source": "Tagesschau"}, {"title": "Wie Krankenh\u00e4user kooperieren, statt sich Konkurrenz zu machen", "url": "https://www.tagesschau.de/inland/regional/niedersachsen/ndr-wie-krankenhaeuser-kooperieren-statt-sich-konkurrenz-zu-machen-100.html", "thumbnailUrl": "https://images.tagesschau.de/image/cadde891-fa95-4433-aca9-0756ab9696ce/AAABjr1TQ6g/AAABjcWesUg/16x9-512.jpg", "date": "2024-04-08T22:00:00.000+02:00", "lat": 52.3759, "lon": 9.732, "intensity": 0.8, "source": "Tagesschau"}, {"title": "Niedersachsen: Abi-Pr\u00fcfungen f\u00fcr rund 33.000 Sch\u00fcler gestartet", "url": "https://www.tagesschau.de/inland/regional/niedersachsen/ndr-niedersachsen-abi-pruefungen-fuer-rund-33-000-schueler-starten-100.html", "thumbnailUrl": "https://images.tagesschau.de/image/e466e529-5bf6-41a1-9b14-7a597561175c/AAABjr0EJSA/AAABjcWesUg/16x9-512.jpg", "date": "2024-04-08T21:49:00.000+02:00", "lat": 52.3759, "lon": 9.6856, "intensity": 0.8, "source": "Tagesschau"}, {"title": "Missbrauch durch Priester als Privatsache? K\u00f6lner Gericht verschiebt Verfahren", "url": "https://www.tagesschau.de/inland/regional/nordrheinwestfalen/wdr-missbrauch-durch-priester-als-privatsache-koelner-gericht-verschiebt-verfahren-100.html", "thumbnailUrl": "https://images.tagesschau.de/image/6881167d-936c-44b1-8f93-a99701da800a/AAABjr_IVEw/AAABjcWesUg/16x9-512.jpg", "date": "2024-04-08T21:41:00.000+02:00", "lat": 50.9384, "lon": 7.0037, "intensity": 0.8, "source": "Tagesschau"}, {"title": "Aktivisten blockieren Mercedes-Werk und legen Bahnverkehr lahm", "url": "https://www.tagesschau.de/inland/regional/niedersachsen/ndr-bahnstrecke-hannover-bremen-gesperrt-personen-auf-gleis-100.html", "thumbnailUrl": "https://images.tagesschau.de/image/df3ca3df-a466-4b9e-8fa8-2187f641c560/AAABjr1jH8I/AAABjcWesUg/16x9-512.jpg", "date": "2024-04-08T21:40:00.000+02:00", "lat": 52.3759, "lon": 9.7376, "intensity": 0.8, "source": "Tagesschau"}, {"title": "Bilanz: Mehr Unf\u00e4lle und mehr Tote auf Niedersachsens Stra\u00dfen", "url": "https://www.tagesschau.de/inland/regional/niedersachsen/ndr-wie-viele-unfaelle-gab-es-in-niedersachsen-land-stellt-zahlen-vor-100.html", "thumbnailUrl": "https://images.tagesschau.de/image/ee96c967-f538-4359-8e04-7d0f2ef4c09e/AAABjrz81oM/AAABjcWesUg/16x9-512.jpg", "date": "2024-04-08T21:30:00.000+02:00", "lat": 52.374, "lon": 9.8167, "intensity": 0.8, "source": "Tagesschau"}, {"title": "Tarifstreit im privaten Busgewerbe: Neue Gespr\u00e4che begonnen", "url": "https://www.tagesschau.de/inland/regional/schleswigholstein/ndr-tarifstreit-im-privaten-busgewerbe-neue-gespraeche-starten-100.html", "thumbnailUrl": "https://images.tagesschau.de/image/020f6d6f-1640-4e67-aab7-8d01b39351d1/AAABjr6jxkM/AAABjcWesUg/16x9-512.jpg", "date": "2024-04-08T21:28:00.000+02:00", "lat": 54.3326, "lon": 9.6961, "intensity": 0.5, "source": "Tagesschau"}, {"title": "TUI: Aktie startet mit Plus an Frankfurter B\u00f6rse", "url": "https://www.tagesschau.de/inland/regional/niedersachsen/ndr-tui-aktie-startet-mit-plus-an-frankfurter-boerse-100.html", "thumbnailUrl": "https://images.tagesschau.de/image/57a096c2-07a4-45a3-a78c-6ea1e3d963ed/AAABjrzAfN4/AAABjcWesUg/16x9-512.jpg", "date": "2024-04-08T21:20:00.000+02:00", "lat": 52.3759, "lon": 9.7533, "intensity": 0.6, "source": "Tagesschau"}, {"title": "Stadt Hannover gibt Kriegsbeute an Griechenland zur\u00fcck", "url": "https://www.tagesschau.de/inland/regional/niedersachsen/ndr-stadt-hannover-gibt-kriegsbeute-an-griechenland-zurueck-100.html", "thumbnailUrl": "https://images.tagesschau.de/image/39970a9a-9eec-46d0-abc5-8bf446894857/AAABjr2J09U/AAABjcWesUg/16x9-512.jpg", "date": "2024-04-08T21:18:00.000+02:00", "lat": 52.37589, "lon": 9.73322, "intensity": 0.7, "source": "Tagesschau"}, {"title": "Badminton-EM in Saarbr\u00fccken mit erstem deutschen Sieg gestartet", "url": "https://www.tagesschau.de/inland/regional/saarland/sr-badminton-em-in-saarbruecken-mit-erstem-deutschen-sieg-gestartet-102.html", "thumbnailUrl": "https://images.tagesschau.de/image/5b9d1cc9-f554-423d-86ed-a838280afaec/AAABjr8Nk3M/AAABjcWesUg/16x9-512.jpg", "date": "2024-04-08T20:50:00.000+02:00", "lat": 49.2354, "lon": 6.9814, "intensity": 0.6, "source": "Tagesschau"}, {"title": "\"Schwierigster Ramadan seit dem Mittelalter\"", "url": "https://www.tagesschau.de/ausland/afrika/aegypten-ramadan-100.html", "thumbnailUrl": "https://images.tagesschau.de/image/680e5d0f-f5e4-4808-af64-6ea8330903c2/AAABjr8H1VU/AAABjcWesUg/16x9-512.jpg", "date": "2024-04-08T20:45:45.712+02:00", "lat": 30.0444, "lon": 31.2357, "intensity": 0.8, "source": "Tagesschau"}, {"title": "110 Millionen Euro: Bauern in Niedersachsen warten auf EU-Gelder", "url": "https://www.tagesschau.de/inland/regional/niedersachsen/ndr-110-millionen-euro-bauern-in-niedersachsen-warten-auf-eu-gelder-100.html", "thumbnailUrl": "https://images.tagesschau.de/image/8c6a4697-a1f6-4eea-82c2-01b1560bbc3f/AAABjr84IDk/AAABjcWesUg/16x9-512.jpg", "date": "2024-04-08T20:35:00.000+02:00", "lat": 52.3759, "lon": 9.6972, "intensity": 0.8, "source": "Tagesschau"}, {"title": "Verwaltungsgericht Potsdam: Einreiseverbot gegen Rechtextremist Sellner gilt vorerst nicht", "url": "https://www.tagesschau.de/inland/regional/brandenburg/rbb-verwaltungsgericht-potsdam-einreiseverbot-gegen-rechtextremist-sellner-gilt-vorerst-nicht-100.html", "thumbnailUrl": "https://images.tagesschau.de/image/1fffc346-ac56-41a0-affd-5e05b7cf0891/AAABjr75ntA/AAABjcWesUg/16x9-512.jpg", "date": "2024-04-08T20:26:21.000+02:00", "lat": 52.3958, "lon": 13.0645, "intensity": 0.7, "source": "Tagesschau"}, {"title": "Ben\u00f6tigt die Papenburger Meyer Werft 550 Millionen Euro?", "url": "https://www.tagesschau.de/inland/regional/niedersachsen/ndr-benoetigt-die-meyer-werft-550-millionen-euro-100.html", "thumbnailUrl": "https://images.tagesschau.de/image/3b4a2003-a99f-4566-9359-ac5c1a2f8621/AAABjr8GtQw/AAABjcWesUg/16x9-512.jpg", "date": "2024-04-08T20:19:00.000+02:00", "lat": 53.0793, "lon": 7.4062, "intensity": 0.8, "source": "Tagesschau"}, {"title": "Corona-Impfstoff-Prozess: Astrazeneca muss Daten offenlegen", "url": "https://www.tagesschau.de/inland/regional/bayern/br-corona-impfstoff-prozess-astrazeneca-muss-daten-offenlegen-102.html", "thumbnailUrl": "https://images.tagesschau.de/image/40a8fd4b-86f4-4e5d-b4d1-fa7e7f048d9c/AAABjr3z6dQ/AAABjcWesUg/16x9-512.jpg", "date": "2024-04-08T20:17:21.875+02:00", "lat": 49.891, "lon": 10.891, "intensity": 0.7, "source": "Tagesschau"}, {"title": "Darmstadt 98: +++ Lilien halten an Lieberknecht fest +++ Fritsch lobt Fernies Netzwerk +++ SVWW best\u00e4tigt Fernie-Wechsel +++ ", "url": "https://www.tagesschau.de/inland/regional/hessen/hr--tietz-vermisst-fehlende-gier--lilien-fans-liefern-sich-raststaetten-pruegelei--die-niederlage-der-lilien-in-der-video-zusammenfassung-102.html", "thumbnailUrl": "https://images.tagesschau.de/image/451eca0d-ac78-4d11-8993-cc46a4a6cd46/AAABjr6-_uc/AAABjcWesUg/16x9-512.jpg", "date": "2024-04-08T20:15:21.946+02:00", "lat": 49.878, "lon": 8.6536, "intensity": 0.6, "source": "Tagesschau"}, {"title": "Expertengremium f\u00fcr Legalisierung von Abtreibungen", "url": "https://www.tagesschau.de/inland/gesellschaft/schwangerschaftsabbruch-abtreibung-kommission-100.html", "thumbnailUrl": "https://images.tagesschau.de/image/c0d98661-2f17-4db0-b3b2-e4f9a708f9ad/AAABhpgtnzo/AAABjcWesUg/16x9-512.jpg", "date": "2024-04-08T20:13:26.580+02:00", "lat": 51.1657, "lon": 10.4515, "intensity": 0.8, "source": "Tagesschau"}, {"title": "Verein in Osdorf unterst\u00fctzt Sinti und Roma in Hamburg", "url": "https://www.tagesschau.de/inland/regional/hamburg/ndr-verein-in-osdorf-unterstuetzt-sinti-und-roma-in-hamburg-100.html", "thumbnailUrl": "https://images.tagesschau.de/image/3a242cba-d3a8-474a-8ad4-6a158887d857/AAABjr5INDg/AAABjcWesUg/16x9-512.jpg", "date": "2024-04-08T19:58:00.000+02:00", "lat": 53.5511, "lon": 9.8952, "intensity": 0.7, "source": "Tagesschau"}, {"title": "Flensburger F\u00f6rde: Buckelwal am Montag erneut gesichtet", "url": "https://www.tagesschau.de/inland/regional/schleswigholstein/ndr-flensburger-foerde-buckelwal-heute-erneut-gesichtet-100.html", "thumbnailUrl": "https://images.tagesschau.de/image/3ee884be-271b-49d5-9b39-e8f4f25a94ed/AAABjr4YtTk/AAABjcWesUg/16x9-512.jpg", "date": "2024-04-08T19:57:00.000+02:00", "lat": 54.9075, "lon": 9.5969, "intensity": 0.7, "source": "Tagesschau"}, {"title": "H\u00e4rtere Strafen f\u00fcr Kinder: Diskussion um Strafm\u00fcndigkeit", "url": "https://www.tagesschau.de/inland/regional/nordrheinwestfalen/wdr-haertere-strafen-fuer-kinder-diskussion-um-strafmuendigkeit-100.html", "thumbnailUrl": "https://images.tagesschau.de/image/67ac7b31-d835-423d-89ba-a76a4439eccc/AAABjr7ucq8/AAABjcWesUg/16x9-512.jpg", "date": "2024-04-08T19:55:00.000+02:00", "lat": 51.8133, "lon": 7.6261, "intensity": 0.8, "source": "Tagesschau"}, {"title": "MPU-Gutachten gef\u00e4lscht? Prozess gegen vier M\u00e4nner gestartet", "url": "https://www.tagesschau.de/inland/regional/niedersachsen/ndr-mpu-gutachten-gefaelscht-prozess-gegen-vier-maenner-gestartet-100.html", "thumbnailUrl": "https://images.tagesschau.de/image/b94f86f8-07df-4bc8-adc9-54381a6fcc92/AAABjr7ecXE/AAABjcWesUg/16x9-512.jpg", "date": "2024-04-08T19:54:00.000+02:00", "lat": 51.5413, "lon": 9.9357, "intensity": 0.7, "source": "Tagesschau"}, {"title": "Fu\u00dfball-EM in Hamburg: Sicherheitskr\u00e4fte bei Jobb\u00f6rse gesucht", "url": "https://www.tagesschau.de/inland/regional/hamburg/ndr-jobboerse-in-hamburg-sicherheitskraefte-fuer-fussball-em-gesucht-100.html", "thumbnailUrl": "https://images.tagesschau.de/image/22cd8a07-3b62-45ae-9e72-c730c251b14f/AAABjr2GD8E/AAABjcWesUg/16x9-512.jpg", "date": "2024-04-08T19:53:00.000+02:00", "lat": 53.551086, "lon": 9.993682, "intensity": 0.7, "source": "Tagesschau"}, {"title": "Zahl ausl\u00e4ndischer Tatverd\u00e4chtiger sorgt f\u00fcr Diskussionen", "url": "https://www.tagesschau.de/inland/regional/hamburg/ndr-anzahl-auslaendischer-tatverdaechtiger-in-hamburg-steigt-100.html", "thumbnailUrl": "https://images.tagesschau.de/image/8688558f-5ca3-41c4-b196-81d1b6e2e3cb/AAABjr2o51Q/AAABjcWesUg/16x9-512.jpg", "date": "2024-04-08T19:48:00.000+02:00", "lat": 53.5511, "lon": 9.9937, "intensity": 0.8, "source": "Tagesschau"}, {"title": "Parkh\u00e4user in Ulm: Kennzeichenerkennung ersetzt bald das Parkticket ", "url": "https://www.tagesschau.de/inland/regional/badenwuerttemberg/swr-parkhaeuser-in-ulm-kennzeichenerkennung-ersetzt-bald-das-parkticket-100.html", "thumbnailUrl": "https://images.tagesschau.de/image/b3e3155a-1290-46b7-a464-3c6a928a5a67/AAABjr7U1y4/AAABjcWesUg/16x9-512.jpg", "date": "2024-04-08T19:44:00.000+02:00", "lat": 48.4011, "lon": 9.9937, "intensity": 0.4, "source": "Tagesschau"}, {"title": "Hertha BSC verl\u00e4ngert mit Manuel Meister als Trainer der Frauen-Mannschaft", "url": "https://www.tagesschau.de/inland/regional/berlin/rbb-hertha-bsc-verlaengert-mit-manuel-meister-als-trainer-der-frauen-mannschaft-100.html", "thumbnailUrl": "https://images.tagesschau.de/image/dc2c4280-581f-4883-a61e-70a36aaca14c/AAABjr7Pr5Q/AAABjcWesUg/16x9-512.jpg", "date": "2024-04-08T19:41:00.000+02:00", "lat": 52.52, "lon": 13.4073, "intensity": 0.3, "source": "Tagesschau"}, {"title": "Yeboah-Prozess: Zeugen beschreiben Ex-Skinheadchef Peter St. als \"manipulativ\"", "url": "https://www.tagesschau.de/inland/regional/saarland/sr-yeboah-prozess-zeugen-beschreiben-ex-skinheadchef-peter-st-als-manipulativ-100.html", "thumbnailUrl": "https://images.tagesschau.de/image/bdfb345c-22be-4dd2-a813-58b97cab871e/AAABjr9uoII/AAABjcWesUg/16x9-512.jpg", "date": "2024-04-08T19:39:00.000+02:00", "lat": 49.3182, "lon": 6.7533, "intensity": 0.8, "source": "Tagesschau"}, {"title": "Geplante Schulgesetz\u00e4nderung in Berlin: Ein Jahr l\u00e4nger Schulpflicht ", "url": "https://www.tagesschau.de/inland/regional/berlin/rbb-neues-11-pflichtschuljahr-fuer-berliner-schueler-ohne-perspektive-soll-schon-ab-sommer-kommen-100.html", "thumbnailUrl": "https://images.tagesschau.de/image/a62aa2f9-cc88-4d97-9c97-cfd877ebe0ec/AAABjr4pOqM/AAABjcWesUg/16x9-512.jpg", "date": "2024-04-08T19:19:58.000+02:00", "lat": 52.52, "lon": 13.405, "intensity": 0.6, "source": "Tagesschau"}, {"title": "Brokstedt-Prozess: Psychiater \u00e4u\u00dfert Verdacht auf Psychose", "url": "https://www.tagesschau.de/inland/regional/schleswigholstein/ndr-brokstedt-prozess-psychiater-aeussert-verdacht-auf-psychose-100.html", "thumbnailUrl": "https://images.tagesschau.de/image/1dc060d5-1162-43a2-b824-6e472d8e711d/AAABjr7C0_Y/AAABjcWesUg/16x9-512.jpg", "date": "2024-04-08T19:08:00.000+02:00", "lat": 54.0355, "lon": 9.6821, "intensity": 0.8, "source": "Tagesschau"}, {"title": "Schkeuditzer Schule mit Zoo in der Top 20: Gro\u00dfe Aufregung wegen Jury-Besuch", "url": "https://www.tagesschau.de/inland/regional/sachsen/mdr-schkeuditzer-schule-mit-zoo-in-der-top-20-grosse-aufregung-wegen-jury-besuch-100.html", "thumbnailUrl": "https://images.tagesschau.de/image/b4931e3b-cec3-4cd4-a000-105e8a8cef23/AAABjsBQTts/AAABjcWesUg/16x9-512.jpg", "date": "2024-04-08T18:57:31.000+02:00", "lat": 51.3872, "lon": 12.2159, "intensity": 0.6, "source": "Tagesschau"}, {"title": "Uckermark: Rechtsextreme und Demokraten schreiben gemeinsamen offenen Brief an Bundeskanzler", "url": "https://www.tagesschau.de/inland/regional/brandenburg/rbb-uckermark-rechtsextreme-und-demokraten-schreiben-gemeinsamen-offenen-brief-an-bundeskanzler-100.html", "thumbnailUrl": "https://images.tagesschau.de/image/2c312c5d-6870-4485-9fe2-47838de999fc/AAABjr6q41s/AAABjcWesUg/16x9-512.jpg", "date": "2024-04-08T18:57:27.000+02:00", "lat": 53.1771, "lon": 13.7383, "intensity": 0.6, "source": "Tagesschau"}, {"title": "Merziger muss unter anderem wegen Hass-Postings im Internet in die Psychiatrie ", "url": "https://www.tagesschau.de/inland/regional/saarland/sr-prozess-wegen-hasspostings-im-internet-startet-100.html", "thumbnailUrl": "https://images.tagesschau.de/image/5ca58990-d183-46fc-ac9f-d5b8dcee02ac/AAABjr6lNvI/AAABjcWesUg/16x9-512.jpg", "date": "2024-04-08T18:54:00.000+02:00", "lat": 49.34, "lon": 6.6363, "intensity": 0.8, "source": "Tagesschau"}, {"title": "Prozess wegen \"Panama Papers\"-Skandal gestartet", "url": "https://www.tagesschau.de/wirtschaft/panama-papers-prozess-100.html", "thumbnailUrl": "https://images.tagesschau.de/image/20456489-7cde-4372-ba63-048145e61a77/AAABjr58m7k/AAABjcWesUg/16x9-512.jpg", "date": "2024-04-08T18:52:37.244+02:00", "lat": 9.132, "lon": -79.5182, "intensity": 0.8, "source": "Tagesschau"}, {"title": "Umstrittener neuer Weg: Warum der BFC Dynamo seine Fans jetzt an Pyro-Strafen beteiligt", "url": "https://www.tagesschau.de/inland/regional/berlin/rbb-umstrittener-neuer-weg-warum-der-bfc-dynamo-seine-fans-jetzt-an-pyro-strafen-beteiligt-100.html", "thumbnailUrl": "https://images.tagesschau.de/image/936f80b7-c150-453a-88e1-7bd8a20d279a/AAABjr6gExo/AAABjcWesUg/16x9-512.jpg", "date": "2024-04-08T18:39:57.000+02:00", "lat": 52.52, "lon": 13.4354, "intensity": 0.7, "source": "Tagesschau"}, {"title": "\"Mars-Mission\" f\u00fcr vogtl\u00e4ndische Analog-Astronautin erfolgreich beendet", "url": "https://www.tagesschau.de/inland/regional/sachsen/mdr-mars-mission-fuer-vogtlaendische-analog-astronautin-erfolgreich-beendet-100.html", "thumbnailUrl": "https://images.tagesschau.de/image/8d1a3763-9c21-4ad7-9dfb-f11fdc219871/AAABjsBQG2I/AAABjcWesUg/16x9-512.jpg", "date": "2024-04-08T18:38:39.000+02:00", "lat": 40.7696, "lon": 44.5652, "intensity": 0.7, "source": "Tagesschau"}, {"title": "Zw\u00f6lf Schulen in Bochum bekommen wieder Mittagessen", "url": "https://www.tagesschau.de/inland/regional/nordrheinwestfalen/wdr-zwoelf-schulen-in-bochum-bekommen-wieder-mittagessen-100.html", "thumbnailUrl": "https://images.tagesschau.de/image/51438640-2e70-4fdf-8277-a847ce3c1915/AAABjr7ICCc/AAABjcWesUg/16x9-512.jpg", "date": "2024-04-08T18:32:08.000+02:00", "lat": 51.481845, "lon": 7.216236, "intensity": 0.6, "source": "Tagesschau"}, {"title": "\"Hochaggressive Stimmung\" bei Polizeieinsatz in Oldenburg ", "url": "https://www.tagesschau.de/inland/regional/niedersachsen/ndr-selten-erlebt-mehrere-polizisten-in-oldenburg-angegriffen-100.html", "thumbnailUrl": "https://images.tagesschau.de/image/13640ee7-8888-4ff3-8ae8-7ae4e019b4d9/AAABjr6N0lM/AAABjcWesUg/16x9-512.jpg", "date": "2024-04-08T18:29:00.000+02:00", "lat": 53.1435, "lon": 8.2154, "intensity": 0.7, "source": "Tagesschau"}, {"title": "R\u00fccksicht auf Kinder im Stra\u00dfenverkehr: Hamburgweite Aktion gestartet", "url": "https://www.tagesschau.de/inland/regional/hamburg/ndr-ruecksicht-auf-kinder-im-strassenverkehr-hamburgweite-aktion-gestartet-100.html", "thumbnailUrl": "https://images.tagesschau.de/image/a57b348c-5ba6-445b-806a-dd015e457f54/AAABjr37RMk/AAABjcWesUg/16x9-512.jpg", "date": "2024-04-08T18:29:00.000+02:00", "lat": 53.5511, "lon": 9.9937, "intensity": 0.6, "source": "Tagesschau"}, {"title": "Polizeischuss auf Obdachlosen: \"Was, wenn das auch mir passiert?\"", "url": "https://www.tagesschau.de/inland/regional/nordrheinwestfalen/wdr-polizeischuss-auf-obdachlosen-was-wenn-das-auch-mir-passiert-100.html", "thumbnailUrl": "https://images.tagesschau.de/image/f72afd92-53aa-47ac-801c-e7b52d16d8aa/AAABjr8jjWE/AAABjcWesUg/16x9-512.jpg", "date": "2024-04-08T18:26:00.000+02:00", "lat": 51.5136, "lon": 7.4637, "intensity": 0.8, "source": "Tagesschau"}, {"title": "Feuer in Ottweiler war offenbar Brandstiftung \u2013 Polizei sucht Zeugen", "url": "https://www.tagesschau.de/inland/regional/saarland/sr-feuerwehreinsatz-auf-ehemaligem-giessereigelaende-in-ottweiler-dauert-an-100.html", "thumbnailUrl": "https://images.tagesschau.de/image/a8811a32-0c7f-4868-87f4-30168ede2210/AAABjr6EQUM/AAABjcWesUg/16x9-512.jpg", "date": "2024-04-08T18:16:00.000+02:00", "lat": 49.3661, "lon": 7.1682, "intensity": 0.7, "source": "Tagesschau"}, {"title": "Pflegeheime in Frankfurt lehnen Modellversuch f\u00fcr Vier-Tage-Woche ab", "url": "https://www.tagesschau.de/inland/regional/hessen/hr-pflegeheime-in-frankfurt-lehnen-modellversuch-fuer-vier-tage-woche-ab-100.html", "thumbnailUrl": "https://images.tagesschau.de/image/3031aa88-eafc-4284-8e0d-7f1daedd5fe9/AAABjr5-88w/AAABjcWesUg/16x9-512.jpg", "date": "2024-04-08T18:12:23.483+02:00", "lat": 50.1109, "lon": 8.6821, "intensity": 0.7, "source": "Tagesschau"}, {"title": "1.000 Erstsemester starten Studium an der Uni K\u00f6ln", "url": "https://www.tagesschau.de/inland/regional/nordrheinwestfalen/wdr-1-000-erstsemester-starten-studium-an-der-uni-koeln-100.html", "thumbnailUrl": "https://images.tagesschau.de/image/8ef20e29-8a2c-4b1c-b3ad-e60b81c1df2f/AAABjr7PUe8/AAABjcWesUg/16x9-512.jpg", "date": "2024-04-08T18:12:00.000+02:00", "lat": 50.9288, "lon": 6.9343, "intensity": 0.8, "source": "Tagesschau"}, {"title": "Viele Lehrkr\u00e4fte in BW geben der Landesregierung schlechte Noten", "url": "https://www.tagesschau.de/inland/regional/badenwuerttemberg/swr-viele-lehrkraefte-in-bw-geben-der-landesregierung-schlechte-noten-100.html", "thumbnailUrl": "https://images.tagesschau.de/image/b2bd09ee-96ff-45b6-9848-33c413dc0c92/AAABjr6cEHo/AAABjcWesUg/16x9-512.jpg", "date": "2024-04-08T18:11:22.000+02:00", "lat": 48.7823, "lon": 9.0024, "intensity": 0.7, "source": "Tagesschau"}, {"title": "Z\u00fcndf\u00e4higer Sprengsatz gefunden: Verd\u00e4chtiger in U-Haft", "url": "https://www.tagesschau.de/inland/regional/sachsenanhalt/mdr-polizeieinsatz-in-halle-verdacht-auf-bau-einer-bombe-100.html", "thumbnailUrl": "https://images.tagesschau.de/image/3f87823f-6f9d-4246-8e99-813faa48244e/AAABjrh7Ons/AAABjcWesUg/16x9-512.jpg", "date": "2024-04-08T18:09:54.000+02:00", "lat": 51.482504, "lon": 11.968802, "intensity": 0.8, "source": "Tagesschau"}, {"title": "Eintracht: +++ Kr\u00f6sche: Fluch der guten Tat +++ Highlight-Video vom Bremen-Spiel +++ Kr\u00f6sche st\u00e4rkt Toppm\u00f6ller den R\u00fccken +++", "url": "https://www.tagesschau.de/inland/regional/hessen/hr--eintracht-wohl-mit-chaibi-einig--glasner-fast-nur-kolo-muani-der-tore-erzielt--bericht-eintracht-sagt-aouar-ab-100.html", "thumbnailUrl": "https://images.tagesschau.de/image/1926ce57-048e-4586-9248-a6dac6b82496/AAABjr53mI0/AAABjcWesUg/16x9-512.jpg", "date": "2024-04-08T18:06:36.738+02:00", "lat": 50.110922, "lon": 8.682127, "intensity": 0.6, "source": "Tagesschau"}, {"title": "Gewaltkriminalit\u00e4t in Baden-W\u00fcrttemberg steigt auf Zehnjahreshoch", "url": "https://www.tagesschau.de/inland/regional/badenwuerttemberg/swr-gewaltkriminalitaet-in-baden-wuerttemberg-steigt-auf-zehnjahreshoch-100.html", "thumbnailUrl": "https://images.tagesschau.de/image/a232394b-b1d8-478c-a652-46ce70e8bb02/AAABjr7LrTQ/AAABjcWesUg/16x9-512.jpg", "date": "2024-04-08T18:03:00.000+02:00", "lat": 48.6616, "lon": 9.0353, "intensity": 0.8, "source": "Tagesschau"}, {"title": "Baustelle an B405 in Saarlouis wird wieder aufgenommen", "url": "https://www.tagesschau.de/inland/regional/saarland/sr-baustelle-an-b-405-in-saarlouis-wird-wieder-aufgenommen-100.html", "thumbnailUrl": "https://images.tagesschau.de/image/d1982727-6265-48c8-826f-ad2cbc8a0918/AAABjrd-OaI/AAABjcWesUg/16x9-512.jpg", "date": "2024-04-08T18:00:00.000+02:00", "lat": 49.3101, "lon": 6.7519, "intensity": 0.6, "source": "Tagesschau"}, {"title": "Ausf\u00e4lle bei M\u00fcllabfuhr in mehreren Saar-Kommunen ", "url": "https://www.tagesschau.de/inland/regional/saarland/sr-ausfaelle-bei-muellabfuhr-in-mehreren-saar-kommunen-100.html", "thumbnailUrl": "https://images.tagesschau.de/image/917451e5-71b4-4621-a231-f7fe60779680/AAABjr57F_0/AAABjcWesUg/16x9-512.jpg", "date": "2024-04-08T17:57:00.000+02:00", "lat": 49.3964, "lon": 7.0233, "intensity": 0.6, "source": "Tagesschau"}, {"title": "Bus prallt gegen Baum: Sieben Menschen in Rostrup verletzt", "url": "https://www.tagesschau.de/inland/regional/niedersachsen/ndr-bus-prallt-gegen-baum-sieben-menschen-in-rostrup-verletzt-100.html", "thumbnailUrl": "https://images.tagesschau.de/image/8aee214f-5858-4a0a-9ef5-cd83dc9993f4/AAABjr8yqIA/AAABjcWesUg/16x9-512.jpg", "date": "2024-04-08T17:41:00.000+02:00", "lat": 53.2277, "lon": 8.1144, "intensity": 0.7, "source": "Tagesschau"}, {"title": "Spatenstich f\u00fcr neues Pharma-Werk von Lilly in Alzey", "url": "https://www.tagesschau.de/inland/regional/rheinlandpfalz/swr-spatenstich-fuer-neues-pharma-werk-von-lilly-in-alzey-100.html", "thumbnailUrl": "https://images.tagesschau.de/image/5474f102-b7ca-41ba-8fb1-c2b0f2585131/AAABjr5yAhk/AAABjcWesUg/16x9-512.jpg", "date": "2024-04-08T17:36:00.000+02:00", "lat": 49.7471, "lon": 8.1218, "intensity": 0.9, "source": "Tagesschau"}, {"title": "L\u00fcbeck: Radfahrer f\u00e4hrt im Rausch gegen Streifenwagen", "url": "https://www.tagesschau.de/inland/regional/schleswigholstein/ndr-luebeck-radfahrer-faehrt-im-rausch-gegen-streifenwagen-100.html", "thumbnailUrl": "https://images.tagesschau.de/image/22d00e2d-a5bc-496a-a8ca-59185248c115/AAABjr6h4mk/AAABjcWesUg/16x9-512.jpg", "date": "2024-04-08T17:35:00.000+02:00", "lat": 53.8659, "lon": 10.6866, "intensity": 0.6, "source": "Tagesschau"}, {"title": "Flohm\u00e4rkte in SH: Hier k\u00f6nnen sie Schn\u00e4ppchen finden", "url": "https://www.tagesschau.de/inland/regional/schleswigholstein/ndr-flohmaerkte-in-sh-hier-koennen-sie-schnaeppchen-finden-100.html", "thumbnailUrl": "https://images.tagesschau.de/image/4f22ed7b-aa8e-42b9-b5ac-6e9ca7cd7fc9/AAABjr5VECs/AAABjcWesUg/16x9-512.jpg", "date": "2024-04-07T07:38:00.000+02:00", "lat": 54.3233, "lon": 10.1276, "intensity": 0.4, "source": "Tagesschau"}, {"title": "Wallensen: Drei Tote bei Unfall nahe des Humboldtsees", "url": "https://www.tagesschau.de/inland/regional/niedersachsen/ndr-wallensen-drei-tote-bei-unfall-nahe-des-humboldtsees-100.html", "thumbnailUrl": "https://images.tagesschau.de/image/27e4891e-fddc-4ed3-b66b-04b81931343f/AAABjrwZ6wA/AAABjcWesUg/16x9-512.jpg", "date": "2024-04-08T17:27:00.000+02:00", "lat": 52.2293, "lon": 9.5565, "intensity": 0.8, "source": "Tagesschau"}, {"title": "Immer mehr Beschwerden von Bankkunden", "url": "https://www.tagesschau.de/wirtschaft/verbraucher/bankkunden-bankkonto-karte-bafin-101.html", "thumbnailUrl": "https://images.tagesschau.de/image/30e764c1-ce72-47ac-aa7d-215b6d7e3084/AAABhnkA2qE/AAABjcWesUg/16x9-512.jpg", "date": "2024-04-08T17:17:02.513+02:00", "lat": 48.7758, "lon": 9.1989, "intensity": 0.6, "source": "Tagesschau"}, {"title": "Toter an Magdeburger Stra\u00dfenbahnhaltestelle: Verd\u00e4chtiger ermittelt", "url": "https://www.tagesschau.de/inland/regional/sachsenanhalt/mdr-an-haltestelle-der-strassenbahn-mann-nach-streit-in-magdeburg-gestorben-100.html", "thumbnailUrl": "https://images.tagesschau.de/image/bcfaeb59-0e42-4d6e-885b-92d27beea313/AAABjr4A2Qw/AAABjcWesUg/16x9-512.jpg", "date": "2024-04-08T17:15:52.000+02:00", "lat": 52.1205, "lon": 11.6276, "intensity": 0.8, "source": "Tagesschau"}, {"title": "W\u00e4rme mit Tiefgang - NRW will Geothermie f\u00f6rdern", "url": "https://www.tagesschau.de/inland/regional/nordrheinwestfalen/wdr-waerme-mit-tiefgang-nrw-will-geothermie-foerdern-100.html", "thumbnailUrl": "https://images.tagesschau.de/image/a845b1ab-9bbd-46d6-aaf8-f47612d7fa4f/AAABjr6z2Lc/AAABjcWesUg/16x9-512.jpg", "date": "2024-04-08T17:14:00.000+02:00", "lat": 51.9607, "lon": 7.6286, "intensity": 0.8, "source": "Tagesschau"}, {"title": "Paraglider versch\u00e4tzt sich bei Landung in Ensdorf und endet in Baum", "url": "https://www.tagesschau.de/inland/regional/saarland/sr-paraglider-verschaetzt-sich-bei-landung-in-ensdorf-und-endet-in-baum-100.html", "thumbnailUrl": "https://images.tagesschau.de/image/c987a233-c258-4242-8102-c03b87cd4de1/AAABjr5Lg-w/AAABjcWesUg/16x9-512.jpg", "date": "2024-04-08T17:13:00.000+02:00", "lat": 49.3006, "lon": 6.9328, "intensity": 0.6, "source": "Tagesschau"}, {"title": "Kultur: +++ Mehr Zeichner in Frankfurter Caricatura +++ Impro-Statisten am Staatstheater Kassel gesucht +++ ", "url": "https://www.tagesschau.de/inland/regional/hessen/hr--schauspiel-frankfurt-bringt-putin-und-macbeth-zusammen--die-filmfestival-saison-2023-startet--lichter-filmfest-zum-thema-liebe-startet-am-dienstag-100.html", "thumbnailUrl": "https://images.tagesschau.de/image/109b4672-d97e-4b9b-bf90-26a165a4bfb6/AAABjr5Cq8I/AAABjcWesUg/16x9-512.jpg", "date": "2024-04-08T17:10:18.173+02:00", "lat": 51.31, "lon": 9.692, "intensity": 0.2, "source": "Tagesschau"}, {"title": "Viele Berliner Lokale halten sich nicht an Mehrwegpflicht", "url": "https://www.tagesschau.de/inland/regional/berlin/rbb-viele-berliner-lokale-halten-sich-nicht-an-mehrwegpflicht-100.html", "thumbnailUrl": "https://images.tagesschau.de/image/aba818b0-780a-4f47-acd0-1c6854bec999/AAABjr5C5qQ/AAABjcWesUg/16x9-512.jpg", "date": "2024-04-08T17:09:21.000+02:00", "lat": 52.520008, "lon": 13.404954, "intensity": 0.7, "source": "Tagesschau"}, {"title": "Amtsgericht Neubrandenburg: Clan-Chef Remmo in Privatinsolvenz", "url": "https://www.tagesschau.de/inland/regional/mecklenburgvorpommern/ndr-amtsgericht-neubrandenburg-clan-chef-remmo-in-privatinsolvenz-100.html", "thumbnailUrl": "https://images.tagesschau.de/image/eb9bff64-0dcc-4367-b23f-a5031fa13576/AAABjr5REiw/AAABjcWesUg/16x9-512.jpg", "date": "2024-04-08T17:06:00.000+02:00", "lat": 53.56213, "lon": 13.26094, "intensity": 0.5, "source": "Tagesschau"}, {"title": "Zerst\u00f6rtes Biotop bei Hermeskeil: Wie das Wasser in den \"Bibersee\" zur\u00fcckkommt", "url": "https://www.tagesschau.de/inland/regional/rheinlandpfalz/swr-biotop-bei-hermeskeil-zerstoert-das-sagen-die-verantwortlichen-100.html", "thumbnailUrl": "https://images.tagesschau.de/image/1ff53233-c4c0-4418-802a-30e5beb09ec8/AAABjr5JzUo/AAABjcWesUg/16x9-512.jpg", "date": "2024-04-08T17:06:00.000+02:00", "lat": 49.6498, "lon": 6.9447, "intensity": 0.6, "source": "Tagesschau"}, {"title": "Unfall auf der A33: Ein Toter und zwei Schwerverletzte", "url": "https://www.tagesschau.de/inland/regional/nordrheinwestfalen/wdr-a33-nach-schwerem-verkehrsunfall-gesperrt-100.html", "thumbnailUrl": "https://images.tagesschau.de/image/bfbbcd08-2cbd-4f3a-9bb9-1239de0c70c1/AAABjrnq46c/AAABjcWesUg/16x9-512.jpg", "date": "2024-04-08T17:04:13.000+02:00", "lat": 51.7432, "lon": 8.7469, "intensity": 0.8, "source": "Tagesschau"}, {"title": "Schule testet Gleitzeit: Wie das funktionieren soll", "url": "https://www.tagesschau.de/inland/regional/nordrheinwestfalen/wdr-schule-testet-gleitzeit-wie-das-funktionieren-soll-100.html", "thumbnailUrl": "https://images.tagesschau.de/image/b858a118-8bd8-4cfe-9dee-bc569a9c6373/AAABjr8pCgs/AAABjcWesUg/16x9-512.jpg", "date": "2024-04-08T17:02:00.000+02:00", "lat": 48.6617, "lon": 9.7356, "intensity": 0.7, "source": "Tagesschau"}, {"title": "Wie Medizintechnik der Zukunft aussieht: Beispiele aus Tuttlingen", "url": "https://www.tagesschau.de/inland/regional/badenwuerttemberg/swr-wie-medizintechnik-der-zukunft-aussieht-beispiele-aus-tuttlingen-100.html", "thumbnailUrl": "https://images.tagesschau.de/image/e61f76fe-0e3f-4f7a-bb19-9d4ed71401e5/AAABjr5PNq0/AAABjcWesUg/16x9-512.jpg", "date": "2024-04-08T16:51:00.000+02:00", "lat": 48.0659, "lon": 8.8183, "intensity": 0.7, "source": "Tagesschau"}, {"title": "Blaues Wunder: Radweg-Versuch der Stadt sorgt f\u00fcr Stau und Kritik", "url": "https://www.tagesschau.de/inland/regional/sachsen/mdr-blaues-wunder-radweg-versuch-der-stadt-sorgt-fuer-stau-und-kritik-100.html", "thumbnailUrl": "https://images.tagesschau.de/image/bd64af73-2f4e-46e7-b4e7-c8d6f177b921/AAABjsBQkHw/AAABjcWesUg/16x9-512.jpg", "date": "2024-04-08T16:38:43.000+02:00", "lat": 51.0586, "lon": 13.7455, "intensity": 0.8, "source": "Tagesschau"}, {"title": "Prozessauftakt im Fall um zerst\u00fcckelte Leiche in Greifswald", "url": "https://www.tagesschau.de/inland/regional/mecklenburgvorpommern/ndr-prozessauftakt-im-fall-um-zerstueckelte-leiche-in-greifswald-100.html", "thumbnailUrl": "https://images.tagesschau.de/image/a218280a-0a14-4e6c-acff-da5f2ec5d05d/AAABjryV7EU/AAABjcWesUg/16x9-512.jpg", "date": "2024-04-08T16:31:00.000+02:00", "lat": 54.0954, "lon": 13.3833, "intensity": 0.8, "source": "Tagesschau"}, {"title": "Mehr Kundenbeschwerden bei der BaFin", "url": "https://www.tagesschau.de/wirtschaft/verbraucher/bafin-beschwerden-verbraucher-100.html", "thumbnailUrl": "https://images.tagesschau.de/image/396abee3-46be-4a62-a9c0-73cf70a5f4e8/AAABil_Zj5w/AAABjcWesUg/16x9-512.jpg", "date": "2024-04-08T16:28:43.561+02:00", "lat": 52.5166, "lon": 13.3777, "intensity": 0.6, "source": "Tagesschau"}, {"title": "SVE-Kapit\u00e4n Conrad beendet im Sommer seine Karriere ", "url": "https://www.tagesschau.de/inland/regional/saarland/sr-sve-kapitaen-conrad-beendet-im-sommer-seine-karriere-102.html", "thumbnailUrl": "https://images.tagesschau.de/image/1c0c0c04-293b-44b1-a890-8816eabd2d24/AAABjr4fpYo/AAABjcWesUg/16x9-512.jpg", "date": "2024-04-08T16:28:00.000+02:00", "lat": 49.318, "lon": 7.063, "intensity": 0.6, "source": "Tagesschau"}, {"title": "Erste Batteriez\u00fcge fahren durch die Ortenau", "url": "https://www.tagesschau.de/inland/regional/badenwuerttemberg/swr-erste-batteriezuege-fahren-durch-die-ortenau-100.html", "thumbnailUrl": "https://images.tagesschau.de/image/13f86ae4-92e4-42df-944a-5192d07881dd/AAABjr5CXAc/AAABjcWesUg/16x9-512.jpg", "date": "2024-04-08T16:26:12.000+02:00", "lat": 48.4865, "lon": 7.8567, "intensity": 0.7, "source": "Tagesschau"}, {"title": "Wasserschaden am Berliner Ensemble wird mindestens eine Million Euro kosten", "url": "https://www.tagesschau.de/inland/regional/berlin/rbb-wasserschaden-am-berliner-ensemble-wird-mehr-als-eine-million-euro-kosten-100.html", "thumbnailUrl": "https://images.tagesschau.de/image/06920e9c-9060-4f9d-920c-50db216dca1a/AAABjr4EeHE/AAABjcWesUg/16x9-512.jpg", "date": "2024-04-08T16:25:43.000+02:00", "lat": 52.52001, "lon": 13.38886, "intensity": 0.8, "source": "Tagesschau"}, {"title": "Unfall auf \"Four\"-Baustelle in Frankfurt: Ein Toter und ein Verletzter", "url": "https://www.tagesschau.de/inland/regional/hessen/hr-unfall-auf-four-baustelle-in-frankfurt-ein-toter-und-ein-verletzter-100.html", "thumbnailUrl": "https://images.tagesschau.de/image/fefbcf2b-319e-48e1-a6d9-c7f974d26bdf/AAABjr4YcI0/AAABjcWesUg/16x9-512.jpg", "date": "2024-04-08T16:22:40.165+02:00", "lat": 50.1109, "lon": 8.6821, "intensity": 0.8, "source": "Tagesschau"}, {"title": "Eckart von Hirschhausen \u00fcber die Abnehmspritze", "url": "https://www.tagesschau.de/inland/regional/saarland/sr-eckart-von-hirschhausen-ueber-die-abnehmspritze-100.html", "thumbnailUrl": "https://images.tagesschau.de/image/def7bb15-0980-4603-a2c2-1d7be4e70357/AAABjr4YRC0/AAABjcWesUg/16x9-512.jpg", "date": "2024-04-08T16:22:11.738+02:00", "lat": 49.3964, "lon": 7.0, "intensity": 0.8, "source": "Tagesschau"}, {"title": "Urteil: Altenpfleger muss lebenslang wegen Mordes in Haft ", "url": "https://www.tagesschau.de/inland/regional/niedersachsen/ndr-urteil-altenpfleger-muss-lebenslang-wegen-mordes-in-haft-100.html", "thumbnailUrl": "https://images.tagesschau.de/image/64075c89-4b50-460c-84bb-fb3730c93e46/AAABjr4Rbm4/AAABjcWesUg/16x9-512.jpg", "date": "2024-04-08T16:14:00.000+02:00", "lat": 53.0793, "lon": 8.8017, "intensity": 1, "source": "Tagesschau"}, {"title": "Junge stirbt nach Unfall mit Pferd in Bad Wurzach", "url": "https://www.tagesschau.de/inland/regional/badenwuerttemberg/swr-junge-stirbt-nach-unfall-mit-pferd-in-bad-wurzach-100.html", "thumbnailUrl": "https://images.tagesschau.de/image/d48d3204-ef64-421c-90d9-224db0a05634/AAABjr5CgXQ/AAABjcWesUg/16x9-512.jpg", "date": "2024-04-08T16:00:29.000+02:00", "lat": 47.925, "lon": 9.8833, "intensity": 0.8, "source": "Tagesschau"}, {"title": "Landesbank Saar erwirtschaftete 57 Millionen Euro Gewinn ", "url": "https://www.tagesschau.de/inland/regional/saarland/sr-landesbank-saar-erwirtschaftete-57-millionen-euro-gewinn-100.html", "thumbnailUrl": "https://images.tagesschau.de/image/07c444eb-429d-41f5-ba8b-b05003992322/AAABjr4NPCE/AAABjcWesUg/16x9-512.jpg", "date": "2024-04-08T16:00:00.000+02:00", "lat": 49.25, "lon": 7.0, "intensity": 0.4, "source": "Tagesschau"}, {"title": "Berlin-Mitte: Angeh\u00f6rige der Hamas-Geiseln bitten mit Flugblatt-Aktion um Hilfe", "url": "https://www.tagesschau.de/inland/regional/berlin/rbb-berlin-mitte-angehoerige-der-hamas-geiseln-bitten-mit-flugblatt-aktion-um-hilfe-100.html", "thumbnailUrl": "https://images.tagesschau.de/image/c21a05a1-94b8-4fb6-b59e-a03ee953b726/AAABjr4WuZY/AAABjcWesUg/16x9-512.jpg", "date": "2024-04-08T15:59:09.000+02:00", "lat": 52.520008, "lon": 13.404954, "intensity": 0.7, "source": "Tagesschau"}, {"title": "Sexuelle N\u00f6tigung: Freispruch f\u00fcr rangh\u00f6chsten BW-Polizisten best\u00e4tigt", "url": "https://www.tagesschau.de/inland/regional/badenwuerttemberg/swr-sexuelle-noetigung-freispruch-fuer-ranghoechsten-bw-polizisten-wohl-rechtskraeftig-100.html", "thumbnailUrl": "https://images.tagesschau.de/image/8e6d33df-5888-4397-8c3d-a23f940bed1c/AAABjrdXySM/AAABjcWesUg/16x9-512.jpg", "date": "2024-04-08T15:59:00.000+02:00", "lat": 48.6616, "lon": 9.9937, "intensity": 0.8, "source": "Tagesschau"}, {"title": "Zu hohe Abgas-Werte: Monstertruck-Show in Hamburg abgesagt", "url": "https://www.tagesschau.de/inland/regional/hamburg/ndr-zu-hohe-abgas-werte-monstertruck-show-in-hamburg-abgesagt-100.html", "thumbnailUrl": "https://images.tagesschau.de/image/d487f448-c9d9-4c65-8c11-99bf6c768e87/AAABjrdjAlY/AAABjcWesUg/16x9-512.jpg", "date": "2024-04-08T15:58:00.000+02:00", "lat": 53.5586, "lon": 10.0046, "intensity": 0.7, "source": "Tagesschau"}, {"title": "SV Darmstadt 98 plant auch bei Abstieg mit Lieberknecht", "url": "https://www.tagesschau.de/inland/regional/hessen/hr-sv-darmstadt-98-plant-auch-bei-abstieg-mit-lieberknecht-102.html", "thumbnailUrl": "https://images.tagesschau.de/image/2fb16d4d-1b82-4ef7-b649-5d3d19cbbb55/AAABjr3-wq8/AAABjcWesUg/16x9-512.jpg", "date": "2024-04-08T15:51:38.778+02:00", "lat": 49.8788, "lon": 8.6494, "intensity": 0.4, "source": "Tagesschau"}, {"title": "Messerangriff in einem Zug bei Lahnstein", "url": "https://www.tagesschau.de/inland/regional/rheinlandpfalz/swr-messerangriff-in-einem-zug-bei-lahnstein-100.html", "thumbnailUrl": "https://images.tagesschau.de/image/a6f7d2d7-019c-4410-acdf-b40f6d1fe92b/AAABjr4zy1M/AAABjcWesUg/16x9-512.jpg", "date": "2024-04-08T15:41:49.000+02:00", "lat": 50.3017, "lon": 7.6132, "intensity": 0.8, "source": "Tagesschau"}, {"title": "Wertvolle Grabm\u00e4ler: Diebe nehmen Friedh\u00f6fe ins Visier", "url": "https://www.tagesschau.de/inland/regional/bayern/br-wertvolle-grabmaeler-diebe-nehmen-friedhoefe-ins-visier-102.html", "thumbnailUrl": "https://images.tagesschau.de/image/a100541b-0bb2-4e81-8dea-25c6d842027b/AAABjr3yFFQ/AAABjcWesUg/16x9-512.jpg", "date": "2024-04-08T15:41:38.789+02:00", "lat": 48.7705, "lon": 11.4979, "intensity": 0.8, "source": "Tagesschau"}, {"title": "Staatsschutz ermittelt nach Brandanschlag auf Kita in Bad Salzuflen", "url": "https://www.tagesschau.de/inland/regional/nordrheinwestfalen/wdr-staatsschutz-ermittelt-nach-brandanschlag-auf-kita-in-bad-salzuflen-100.html", "thumbnailUrl": "https://images.tagesschau.de/image/5e158be9-6eb1-415e-899d-2cfe041f8a9c/AAABjr4LYqk/AAABjcWesUg/16x9-512.jpg", "date": "2024-04-08T15:36:00.000+02:00", "lat": 52.086, "lon": 8.7486, "intensity": 0.8, "source": "Tagesschau"}, {"title": "\"Ampel der Zukunft\" geht in Essenbach in Betrieb", "url": "https://www.tagesschau.de/inland/regional/bayern/br-ampel-der-zukunft-geht-in-essenbach-in-betrieb-102.html", "thumbnailUrl": "https://images.tagesschau.de/image/b9af2215-ba71-4fe0-8de0-d8e60f1cf96c/AAABjr3qwGs/AAABjcWesUg/16x9-512.jpg", "date": "2024-04-08T15:32:11.684+02:00", "lat": 48.6109, "lon": 12.1847, "intensity": 0.7, "source": "Tagesschau"}, {"title": "Cottbus: Energieversorger vermutet Kurzschluss als Stromausfall-Ursache", "url": "https://www.tagesschau.de/inland/regional/brandenburg/rbb-cottbus-stromausfall-ursache-laut-energieversorger-moeglicherweise-kurzschluss-100.html", "thumbnailUrl": "https://images.tagesschau.de/image/e7a7f122-2765-41ac-844a-c6848b469ba4/AAABjr2jP7I/AAABjcWesUg/16x9-512.jpg", "date": "2024-04-08T15:31:25.000+02:00", "lat": 51.7562, "lon": 14.3351, "intensity": 0.4, "source": "Tagesschau"}, {"title": "Zu schnell: Taube im Tiefflug geblitzt", "url": "https://www.tagesschau.de/inland/regional/nordrheinwestfalen/wdr-zu-schnell-taube-im-tiefflug-geblitzt-100.html", "thumbnailUrl": "https://images.tagesschau.de/image/e3348cc5-674d-4877-a93f-33cba24a29a0/AAABjr4AbZ0/AAABjcWesUg/16x9-512.jpg", "date": "2024-04-08T15:24:00.000+02:00", "lat": 51.3671, "lon": 7.4586, "intensity": 0.6, "source": "Tagesschau"}, {"title": "Erfolgreiche Schlichtung f\u00fcr Luftsicherheit - keine Streiks an Flugh\u00e4fen", "url": "https://www.tagesschau.de/inland/regional/hessen/hr-erfolgreiche-schlichtung-fuer-luftsicherheit-keine-streiks-100.html", "thumbnailUrl": "https://images.tagesschau.de/image/4efeeb32-5855-4cfb-b139-27cb788d136a/AAABjr3fuDg/AAABjcWesUg/16x9-512.jpg", "date": "2024-04-08T15:21:25.138+02:00", "lat": 50.1109, "lon": 8.6753, "intensity": 0.7, "source": "Tagesschau"}, {"title": "Ex-Regierender M\u00fcller lehnt allumfassende Entschuldigung f\u00fcr Corona-Politik ab", "url": "https://www.tagesschau.de/inland/regional/berlin/rbb-ex-regierender-mueller-lehnt-allumfassende-entschuldigung-fuer-corona-politik-ab-100.html", "thumbnailUrl": "https://images.tagesschau.de/image/09dc5a8a-bdfa-4eae-a437-a9173f753b21/AAABjr3o-rM/AAABjcWesUg/16x9-512.jpg", "date": "2024-04-08T15:13:56.000+02:00", "lat": 52.52, "lon": 13.405, "intensity": 0.6, "source": "Tagesschau"}, {"title": "Grundsteinlegung f\u00fcr neue Feuerwache an der A7 in Schnelsen", "url": "https://www.tagesschau.de/inland/regional/hamburg/ndr-grundsteinlegung-fuer-neue-feuerwache-an-der-a7-in-schnelsen-100.html", "thumbnailUrl": "https://images.tagesschau.de/image/a8b4e5e0-36b5-43fc-9546-3126dfad0563/AAABjr3sq7Y/AAABjcWesUg/16x9-512.jpg", "date": "2024-04-08T15:13:00.000+02:00", "lat": 53.6074, "lon": 9.9213, "intensity": 0.5, "source": "Tagesschau"}, {"title": "Frau bei Angriff in Ginsheim-Gustavsburg schwer verletzt - Ermittlungen wegen versuchter T\u00f6tung", "url": "https://www.tagesschau.de/inland/regional/hessen/hr-flucht-vor-polizei-25-jaehriger-springt-nach-angriff-auf-frau-in-den-main-100.html", "thumbnailUrl": "https://images.tagesschau.de/image/0971f5e8-25f0-4511-b5ec-162b91f834a5/AAABjr3YUB0/AAABjcWesUg/16x9-512.jpg", "date": "2024-04-08T15:09:33.933+02:00", "lat": 49.9879, "lon": 8.4128, "intensity": 0.8, "source": "Tagesschau"}, {"title": "Internetanbieter erh\u00f6hen viele Tarife", "url": "https://www.tagesschau.de/wirtschaft/digitales/internettarife-verteuerung-anbieter-telekommunikation-100.html", "thumbnailUrl": "https://images.tagesschau.de/image/8299d2cc-eb78-4dc4-998b-16dbab7be81a/AAABjaHheAM/AAABjcWesUg/16x9-512.jpg", "date": "2024-04-08T15:08:21.684+02:00", "lat": 51.1657, "lon": 10.4515, "intensity": 0.7, "source": "Tagesschau"}, {"title": "Defekte Trafostationen: Stromausfall in Cottbus gr\u00f6\u00dftenteils behoben", "url": "https://www.tagesschau.de/inland/regional/brandenburg/rbb-defekte-trafostationen-stromausfall-in-cottbus-groesstenteils-behoben-100.html", "thumbnailUrl": "https://images.tagesschau.de/image/816ff92c-b4dc-47d8-a70a-ff87bd5d2528/AAABjr3R6Gw/AAABjcWesUg/16x9-512.jpg", "date": "2024-04-08T15:05:20.000+02:00", "lat": 51.7562, "lon": 14.3356, "intensity": 0.8, "source": "Tagesschau"}, {"title": "Br\u00fcckensanierung wird teurer als gedacht", "url": "https://www.tagesschau.de/wirtschaft/bruecken-modernisierung-kosten-100.html", "thumbnailUrl": "https://images.tagesschau.de/image/1d0a4c1d-94da-47c6-9d15-8fd25300ceaa/AAABjr3AZLU/AAABjcWesUg/16x9-512.jpg", "date": "2024-04-08T15:05:14.633+02:00", "lat": 51.1657, "lon": 10.4515, "intensity": 0.8, "source": "Tagesschau"}, {"title": "\"Da ist eine Kuh im Laden!\": Rind verirrt sich in Drolshagen", "url": "https://www.tagesschau.de/inland/regional/nordrheinwestfalen/wdr-da-ist-eine-kuh-im-laden-rind-verirrt-sich-in-drolshagen-100.html", "thumbnailUrl": "https://images.tagesschau.de/image/6acc30ff-ed89-430b-976f-4b1b9b999549/AAABjr4PEQU/AAABjcWesUg/16x9-512.jpg", "date": "2024-04-08T14:58:00.000+02:00", "lat": 51.1045, "lon": 7.7329, "intensity": 0.5, "source": "Tagesschau"}, {"title": "Hund frisst mit N\u00e4geln pr\u00e4parierten K\u00f6der und muss operiert werden", "url": "https://www.tagesschau.de/inland/regional/niedersachsen/ndr-hund-frisst-mit-naegeln-praeparierten-koeder-und-muss-operiert-werden-100.html", "thumbnailUrl": "https://images.tagesschau.de/image/7c77d820-ce4f-4aa5-b5d2-fc91071ec052/AAABjr3J7_w/AAABjcWesUg/16x9-512.jpg", "date": "2024-04-08T14:57:00.000+02:00", "lat": 52.3759, "lon": 9.7416, "intensity": 0.8, "source": "Tagesschau"}, {"title": "Streckenf\u00fchrung f\u00fcr Ortsumfahrung Halberstadt beschlossen", "url": "https://www.tagesschau.de/inland/regional/sachsenanhalt/mdr-streckenfuehrung-fuer-ortsumfahrung-halberstadt-beschlossen-100.html", "thumbnailUrl": "https://images.tagesschau.de/image/e13ddb89-7dc3-4ccb-8f42-2aea011f3183/AAABjr1AxNk/AAABjcWesUg/16x9-512.jpg", "date": "2024-04-08T14:52:55.000+02:00", "lat": 51.8961, "lon": 11.0512, "intensity": 0.7, "source": "Tagesschau"}, {"title": "Berlin-K\u00f6penick: Modellprojekt soll Rettungsstellen entlasten", "url": "https://www.tagesschau.de/inland/regional/berlin/rbb-berlin-koepenick-modellprojekt-soll-rettungsstellen-entlasten-100.html", "thumbnailUrl": "https://images.tagesschau.de/image/c3ef379b-b8ce-4d0e-a46e-69bb39b21416/AAABjr3IBDI/AAABjcWesUg/16x9-512.jpg", "date": "2024-04-08T14:50:39.000+02:00", "lat": 52.4444, "lon": 13.5774, "intensity": 0.4, "source": "Tagesschau"}, {"title": "Mehrere Leichtverletzte bei Massenkarambolage auf der A620 ", "url": "https://www.tagesschau.de/inland/regional/saarland/sr-mehrere-leichtverletzte-bei-massenkarambolage-auf-der-a620-100.html", "thumbnailUrl": "https://images.tagesschau.de/image/7ec4b1c5-ae2a-4895-a2ef-c183a95ea74f/AAABjr5Lhjk/AAABjcWesUg/16x9-512.jpg", "date": "2024-04-08T14:50:00.000+02:00", "lat": 49.2323, "lon": 6.9607, "intensity": 0.7, "source": "Tagesschau"}, {"title": "Bislang elf Angriffe auf Handelsschiffe abgewehrt", "url": "https://www.tagesschau.de/ausland/asien/jemen-eu-angriff-100.html", "thumbnailUrl": "https://images.tagesschau.de/image/86937ff8-9baa-431c-a44e-a7bd686cd811/AAABjr2_Qgw/AAABjcWesUg/16x9-512.jpg", "date": "2024-04-08T14:46:52.199+02:00", "lat": 15.339, "lon": 42.5903, "intensity": 0.8, "source": "Tagesschau"}, {"title": "Lilly sorgt f\u00fcr gute Stimmung in Alzey", "url": "https://www.tagesschau.de/wirtschaft/unternehmen/lilly-alzey-spatenstich-100.html", "thumbnailUrl": "https://images.tagesschau.de/image/100123d0-df94-46aa-8560-acf615b85744/AAABjr5b9jU/AAABjcWesUg/16x9-512.jpg", "date": "2024-04-08T14:46:00.094+02:00", "lat": 49.7494, "lon": 8.1153, "intensity": 0.7, "source": "Tagesschau"}, {"title": "Kampf gegen Schrottfahrr\u00e4der", "url": "https://www.tagesschau.de/inland/regional/nordrheinwestfalen/wdr-kampf-gegen-schrottfahrraeder-104.html", "thumbnailUrl": "https://images.tagesschau.de/image/bef63315-97d2-41cc-b552-c3a7e8dbc175/AAABjr3O_dE/AAABjcWesUg/16x9-512.jpg", "date": "2024-04-08T14:44:00.000+02:00", "lat": 50.9375, "lon": 6.9603, "intensity": 0.6, "source": "Tagesschau"}, {"title": "Tod nach Zahn-OP: Mutter des Verstorbenen sagt im Prozess aus", "url": "https://www.tagesschau.de/inland/regional/hamburg/ndr-tod-nach-zahn-op-mutter-des-verstorbenen-sagt-im-prozess-aus-100.html", "thumbnailUrl": "https://images.tagesschau.de/image/45aacb40-3c6b-42af-9b5a-d53efac60b01/AAABjr2-z9o/AAABjcWesUg/16x9-512.jpg", "date": "2024-04-08T14:41:00.000+02:00", "lat": 53.5511, "lon": 9.9937, "intensity": 0.8, "source": "Tagesschau"}, {"title": "F\u00fcnf Projekte sollen Innenst\u00e4dte im Saarland wiederbeleben", "url": "https://www.tagesschau.de/inland/regional/saarland/sr-fuenf-projekte-sollen-innenstaedte-im-saarland-wiederbeleben-100.html", "thumbnailUrl": "https://images.tagesschau.de/image/54abc52e-e810-4935-a379-b460e9222b64/AAABjr28qww/AAABjcWesUg/16x9-512.jpg", "date": "2024-04-08T14:39:00.000+02:00", "lat": 49.3455, "lon": 7.1752, "intensity": 0.6, "source": "Tagesschau"}, {"title": "Stacheldraht-Fallen auf Mountainbike-Trail in Lautertal", "url": "https://www.tagesschau.de/inland/regional/hessen/hr-stacheldraht-fallen-auf-mountainbike-trail-in-lautertal-100.html", "thumbnailUrl": "https://images.tagesschau.de/image/e776aa2e-2634-4477-a7da-e262a2e70959/AAABjr2v-3c/AAABjcWesUg/16x9-512.jpg", "date": "2024-04-08T14:30:00.711+02:00", "lat": 49.6961, "lon": 8.7181, "intensity": 0.8, "source": "Tagesschau"}, {"title": "Rostock: Prozessstart gegen Ex-Polizisten wegen Kinderpornografie", "url": "https://www.tagesschau.de/inland/regional/mecklenburgvorpommern/ndr-rostock-prozessauftakt-wegen-kinderpornografie-100.html", "thumbnailUrl": "https://images.tagesschau.de/image/ac7a5c6f-c786-4ab6-bf86-52f8a7e8af04/AAABjr3jJz4/AAABjcWesUg/16x9-512.jpg", "date": "2024-04-08T14:26:00.000+02:00", "lat": 54.0924, "lon": 12.1405, "intensity": 0.8, "source": "Tagesschau"}, {"title": "Millionen-Investition: Neuer Hotelkomplex im Tropical Islands Urlaubsresort er\u00f6ffnet ", "url": "https://www.tagesschau.de/inland/regional/brandenburg/rbb-millionen-investition-neuer-hotelkomplex-im-tropical-islands-urlaubsresort-eroeffnet-100.html", "thumbnailUrl": "https://images.tagesschau.de/image/82a17d19-3526-4b4c-ade4-6fea8eb9af2e/AAABjr2uT0A/AAABjcWesUg/16x9-512.jpg", "date": "2024-04-08T14:25:34.000+02:00", "lat": 52.1226, "lon": 13.7427, "intensity": 0.8, "source": "Tagesschau"}, {"title": "Wassertourismus im Oderland: Kanu-Verleiher und Natursch\u00fctzer streiten um Paddel-Route durch Biosph\u00e4renreservat", "url": "https://www.tagesschau.de/inland/regional/brandenburg/rbb-wassertourismus-im-oderland-kanu-verleiher-und-naturschuetzer-streiten-um-paddel-route-durch-biosphaerenreservat-100.html", "thumbnailUrl": "https://images.tagesschau.de/image/17a6bcd2-f32a-4f02-8f14-ed67e2528f88/AAABjr2ubMY/AAABjcWesUg/16x9-512.jpg", "date": "2024-04-08T14:23:47.000+02:00", "lat": 52.8132, "lon": 14.0493, "intensity": 0.6, "source": "Tagesschau"}, {"title": "Neues Zentrum f\u00fcr Telemedizin am Elbe-Klinikum in Stade", "url": "https://www.tagesschau.de/inland/regional/niedersachsen/ndr-neues-zentrum-fuer-telemedizin-am-elbe-klinikum-in-stade-100.html", "thumbnailUrl": "https://images.tagesschau.de/image/ab0ed007-ae93-46cb-beb2-d0e592e280e4/AAABjr2qzXU/AAABjcWesUg/16x9-512.jpg", "date": "2024-04-08T14:22:00.000+02:00", "lat": 53.5956, "lon": 9.4781, "intensity": 0.7, "source": "Tagesschau"}, {"title": "EM-Countdown: Viel Fu\u00dfball-Prominenz in D\u00fcsseldorf zu Gast", "url": "https://www.tagesschau.de/inland/regional/nordrheinwestfalen/wdr-em-countdown-viel-fussball-prominenz-in-duesseldorf-zu-gast-100.html", "thumbnailUrl": "https://images.tagesschau.de/image/e0c9b901-2cce-4660-af9b-dd17c59157c6/AAABjr2oiRs/AAABjcWesUg/16x9-512.jpg", "date": "2024-04-08T14:18:00.000+02:00", "lat": 51.2277, "lon": 6.7735, "intensity": 0.7, "source": "Tagesschau"}, {"title": "ZUE-Bewohner aus Soest wegen Vergewaltigung vor Gericht", "url": "https://www.tagesschau.de/inland/regional/nordrheinwestfalen/wdr-zue-bewohner-aus-soest-wegen-vergewaltigung-vor-gericht-104.html", "thumbnailUrl": "https://images.tagesschau.de/image/acffff3e-5771-4d12-8585-1cfa66cdc93b/AAABjr3PGVo/AAABjcWesUg/16x9-512.jpg", "date": "2024-04-08T14:16:00.000+02:00", "lat": 51.571, "lon": 8.0732, "intensity": 0.8, "source": "Tagesschau"}, {"title": "Vorfahrt genommen: F\u00fcnfj\u00e4hrige Radfahrerin von Auto erfasst", "url": "https://www.tagesschau.de/inland/regional/niedersachsen/ndr-vorfahrt-genommen-fuenfjaehrige-radfahrerin-von-auto-erfasst-100.html", "thumbnailUrl": "https://images.tagesschau.de/image/f9927396-7cda-456f-9f87-aa73601c8622/AAABjr2lUkA/AAABjcWesUg/16x9-512.jpg", "date": "2024-04-08T14:13:00.000+02:00", "lat": 52.3637, "lon": 10.4234, "intensity": 0.8, "source": "Tagesschau"}, {"title": "Unterrichtsausfall: Jede f\u00fcnfte Schulstunde nicht wie geplant", "url": "https://www.tagesschau.de/inland/regional/nordrheinwestfalen/wdr-unterrichtsausfall-jede-fuenfte-schulstunde-nicht-wie-geplant-100.html", "thumbnailUrl": "https://images.tagesschau.de/image/df7515aa-f17b-4b08-86be-adef8598649d/AAABjr2on4w/AAABjcWesUg/16x9-512.jpg", "date": "2024-04-08T14:13:00.000+02:00", "lat": 51.8133, "lon": 7.6261, "intensity": 0.8, "source": "Tagesschau"}, {"title": "Niedersachsenderby: Polizei erwartet Krawalle und erl\u00e4sst Verbote", "url": "https://www.tagesschau.de/inland/regional/niedersachsen/ndr-niedersachsenderby-polizei-erwartet-krawalle-und-erlaesst-verbote-100.html", "thumbnailUrl": "https://images.tagesschau.de/image/9c9973a1-a37a-46cd-9aee-de0e6b5227a6/AAABjr2fzSU/AAABjcWesUg/16x9-512.jpg", "date": "2024-04-08T14:10:00.000+02:00", "lat": 52.3759, "lon": 10.5277, "intensity": 0.6, "source": "Tagesschau"}, {"title": "Geldautomatensprengung in Schwaigern: Fahndung l\u00e4uft", "url": "https://www.tagesschau.de/inland/regional/badenwuerttemberg/swr-geldautomatensprengung-in-schwaigern-fahndung-laeuft-100.html", "thumbnailUrl": "https://images.tagesschau.de/image/76566b8d-f75f-4849-8ead-2344e461a1ca/AAABjr1ocd0/AAABjcWesUg/16x9-512.jpg", "date": "2024-04-08T13:39:00.000+02:00", "lat": 49.1525, "lon": 9.0416, "intensity": 0.8, "source": "Tagesschau"}, {"title": "Kanzler Olaf Scholz ist jetzt auch bei TikTok", "url": "https://www.tagesschau.de/inland/regional/nordrheinwestfalen/wdr-kanzler-olaf-scholz-ist-jetzt-auch-bei-tiktok-100.html", "thumbnailUrl": "https://images.tagesschau.de/image/1b0571c4-178d-461f-aa1f-60463e0233db/AAABjr38wjY/AAABjcWesUg/16x9-512.jpg", "date": "2024-04-08T13:38:00.000+02:00", "lat": 51.8133, "lon": 7.6261, "intensity": 0.4, "source": "Tagesschau"}, {"title": "Mutma\u00dfliche Drogendealer bei Razzien in Friesland festgenommen", "url": "https://www.tagesschau.de/inland/regional/niedersachsen/ndr-mutmassliche-drogendealer-bei-razzien-in-friesland-festgenommen-100.html", "thumbnailUrl": "https://images.tagesschau.de/image/1940cecd-5be1-4549-9e56-6e5f4e5b7a80/AAABjr2Ciko/AAABjcWesUg/16x9-512.jpg", "date": "2024-04-08T13:38:00.000+02:00", "lat": 53.5818, "lon": 7.9954, "intensity": 0.8, "source": "Tagesschau"}, {"title": "Speyer: 16-J\u00e4hrige stirbt nach Unfall mit Motorrad", "url": "https://www.tagesschau.de/inland/regional/rheinlandpfalz/swr-speyer-17-jaehrige-stirbt-nach-unfall-mit-motorrad-100.html", "thumbnailUrl": "https://images.tagesschau.de/image/2fb98917-200f-4eda-b447-a950f34367ce/AAABjr0-VQs/AAABjcWesUg/16x9-512.jpg", "date": "2024-04-08T13:29:00.000+02:00", "lat": 49.3174, "lon": 8.4205, "intensity": 0.8, "source": "Tagesschau"}, {"title": "Darauf sollten Motorradfahrer in der neuen Saison achten", "url": "https://www.tagesschau.de/inland/regional/saarland/sr-darauf-sollten-motorradfahrer-achten-100.html", "thumbnailUrl": "https://images.tagesschau.de/image/479a4a12-5000-43d7-8ef8-f80603c3b436/AAABjr16yEY/AAABjcWesUg/16x9-512.jpg", "date": "2024-04-08T13:28:00.000+02:00", "lat": 49.3964, "lon": 6.9108, "intensity": 0.6, "source": "Tagesschau"}, {"title": "Mehr Fahrg\u00e4ste in Bussen und Bahnen", "url": "https://www.tagesschau.de/wirtschaft/verbraucher/fahrgastzahlen-statistisches-bundesamt-100.html", "thumbnailUrl": "https://images.tagesschau.de/image/0d9d6673-8e2c-45b8-a6dc-d75f51d78469/AAABjrycN2s/AAABjcWesUg/16x9-512.jpg", "date": "2024-04-08T13:22:41.638+02:00", "lat": 51.083419, "lon": 10.423446, "intensity": 0.6, "source": "Tagesschau"}, {"title": "Bremer Altenpfleger zu lebenslanger Haft verurteilt", "url": "https://www.tagesschau.de/inland/regional/bremen/rb-altenpfleger-im-mordprozess-zu-lebenslanger-haft-verurteilt-100.html", "thumbnailUrl": "https://images.tagesschau.de/image/7b2ea836-96ee-403c-ad69-1fe253db7f8c/AAABjr8Co4g/AAABjcWesUg/16x9-512.jpg", "date": "2024-04-08T13:22:00.000+02:00", "lat": 53.079296, "lon": 8.801693, "intensity": 0.8, "source": "Tagesschau"}, {"title": "Fr\u00fchjahrs-Deichschau an der Westk\u00fcste gestartet", "url": "https://www.tagesschau.de/inland/regional/schleswigholstein/ndr-fruehjahrs-deichschau-an-der-westkueste-gestartet-100.html", "thumbnailUrl": "https://images.tagesschau.de/image/ec9efa47-0003-4edb-83d6-84540a3f6f73/AAABjr2Ncoo/AAABjcWesUg/16x9-512.jpg", "date": "2024-04-08T13:21:00.000+02:00", "lat": 54.1309, "lon": 9.732, "intensity": 0.6, "source": "Tagesschau"}, {"title": "Mehr als 10.000 Wohnh\u00e4user \u00fcberschwemmt", "url": "https://www.tagesschau.de/ausland/europa/russland-wohnhaeuser-ueberschwemmt-100.html", "thumbnailUrl": "https://images.tagesschau.de/image/cc8bada9-60f0-425a-a058-dedbaabf34b4/AAABjr1Q6ek/AAABjcWesUg/16x9-512.jpg", "date": "2024-04-08T13:16:29.260+02:00", "lat": 55.7558, "lon": 37.6176, "intensity": 0.8, "source": "Tagesschau"}, {"title": "IS-Prozess in Koblenz: 44-j\u00e4hriger Syrer steht vor Gericht", "url": "https://www.tagesschau.de/inland/regional/rheinlandpfalz/swr-is-prozess-in-koblenz-44-jaehriger-syrer-steht-vor-gericht-100.html", "thumbnailUrl": "https://images.tagesschau.de/image/c268dde2-0a08-460c-9a2b-30082d1f2006/AAABjrzbe1w/AAABjcWesUg/16x9-512.jpg", "date": "2024-04-08T13:16:00.000+02:00", "lat": 50.3569, "lon": 7.5955, "intensity": 0.8, "source": "Tagesschau"}, {"title": "Werteunion gr\u00fcndet Th\u00fcringer Landesverband - Maa\u00dfen wird nicht Spitzenkandidat", "url": "https://www.tagesschau.de/inland/regional/thueringen/mdr-werteunion-gruendet-thueringer-landesverband-maassen-wird-nicht-spitzenkandidat-100.html", "thumbnailUrl": "https://images.tagesschau.de/image/4991cb33-f517-4ac1-8597-f48f59347810/AAABjsBOWGY/AAABjcWesUg/16x9-512.jpg", "date": "2024-04-08T13:10:47.000+02:00", "lat": 51.011, "lon": 10.8453, "intensity": 0.3, "source": "Tagesschau"}, {"title": "Obdachloser get\u00f6tet: 13-j\u00e4hriger Tatverd\u00e4chtiger in geschlossener Einrichtung", "url": "https://www.tagesschau.de/inland/regional/nordrheinwestfalen/wdr-obdachloser-getoetet-13-jaehriger-tatverdaechtiger-in-geschlossener-einrichtung-100.html", "thumbnailUrl": "https://images.tagesschau.de/image/2eb72780-c6a1-4abd-8834-8e58a5b206e4/AAABjr5YYSU/AAABjcWesUg/16x9-512.jpg", "date": "2024-04-08T13:07:00.000+02:00", "lat": 51.5074, "lon": 7.3395, "intensity": 0.7, "source": "Tagesschau"}, {"title": "Lawrow zu Gespr\u00e4chen in Peking", "url": "https://www.tagesschau.de/ausland/asien/lawrow-besuch-china-100.html", "thumbnailUrl": "https://images.tagesschau.de/image/cd99d5d3-28e7-4eac-8e74-1d629e3ceb2b/AAABjr1KNBw/AAABjcWesUg/16x9-512.jpg", "date": "2024-04-08T12:56:29.666+02:00", "lat": 39.9042, "lon": 116.4074, "intensity": 0.7, "source": "Tagesschau"}, {"title": "Mit Tempo 230 in 100er-Zone: Polizei stoppt Auto mit Anh\u00e4nger", "url": "https://www.tagesschau.de/inland/regional/niedersachsen/ndr-mit-tempo-230-in-100er-zone-polizei-stoppt-auto-mit-anhaenger-100.html", "thumbnailUrl": "https://images.tagesschau.de/image/af4cb637-c8b7-4c64-b54b-d5da4cdd5e66/AAABjr1Ybr4/AAABjcWesUg/16x9-512.jpg", "date": "2024-04-08T12:52:00.000+02:00", "lat": 52.1836, "lon": 8.3425, "intensity": 0.8, "source": "Tagesschau"}, {"title": "Klasen tritt f\u00fcr Linke zu Wahl des Regionalverbandsdirektors an", "url": "https://www.tagesschau.de/inland/regional/saarland/sr-klasen-tritt-fuer-linke-zu-wahl-des-regionalverbandsdirektors-an-100.html", "thumbnailUrl": "https://images.tagesschau.de/image/bcf424db-1fa0-445a-8fc7-7c676c09281e/AAABjr1USz4/AAABjcWesUg/16x9-512.jpg", "date": "2024-04-08T12:48:00.000+02:00", "lat": 49.2402, "lon": 6.9964, "intensity": 0.6, "source": "Tagesschau"}, {"title": "Zehnj\u00e4hriger auf Landstra\u00dfe in Achim von Auto erfasst", "url": "https://www.tagesschau.de/inland/regional/niedersachsen/ndr-zehnjaehriger-auf-landstrasse-in-achim-von-auto-erfasst-100.html", "thumbnailUrl": "https://images.tagesschau.de/image/22d00e2d-a5bc-496a-a8ca-59185248c115/AAABjr6h4mk/AAABjcWesUg/16x9-512.jpg", "date": "2024-04-08T12:36:00.000+02:00", "lat": 53.0136, "lon": 9.054, "intensity": 0.8, "source": "Tagesschau"}, {"title": "Mehr als 90 Tote bei Schiffsungl\u00fcck", "url": "https://www.tagesschau.de/ausland/afrika/mosambik-schiffsunglueck-fischerboot-100.html", "thumbnailUrl": "https://images.tagesschau.de/image/6f33c26b-e4f9-442e-abc7-e993167774b3/AAABjr2_00I/AAABjcWesUg/16x9-512.jpg", "date": "2024-04-08T12:35:02.035+02:00", "lat": -23.5505, "lon": 40.3333, "intensity": 0.9, "source": "Tagesschau"}, {"title": "Holstein Kiel: Das Selbstverst\u00e4ndnis eines Spitzenteams", "url": "https://www.tagesschau.de/inland/regional/schleswigholstein/ndr-holstein-kiel-das-selbstverstaendnis-eines-spitzenteams-102.html", "thumbnailUrl": "https://images.tagesschau.de/image/a1e61cbc-fa8b-4db2-a376-18bce3519c08/AAABjrgEKiY/AAABjcWesUg/16x9-512.jpg", "date": "2024-04-08T12:31:00.000+02:00", "lat": 54.3233, "lon": 9.9636, "intensity": 0.8, "source": "Tagesschau"}, {"title": "Ein Balanceakt, der immer schwieriger wird", "url": "https://www.tagesschau.de/inland/innenpolitik/nahost-politik-100.html", "thumbnailUrl": "https://images.tagesschau.de/image/7112ad7a-db96-429b-bb76-83c9e03a6f43/AAABjr3A0Jw/AAABjcWesUg/16x9-512.jpg", "date": "2024-04-08T12:29:35.605+02:00", "lat": 31.5, "lon": 34.483333, "intensity": 0.7, "source": "Tagesschau"}, {"title": "Seelsorge f\u00fcr Sterbende: Ex-Richterin wegen Rechtsbeugung in Gera angeklagt ", "url": "https://www.tagesschau.de/inland/regional/thueringen/mdr-seelsorge-fuer-sterbende-ex-richterin-wegen-rechtsbeugung-in-gera-angeklagt-100.html", "thumbnailUrl": "https://images.tagesschau.de/image/7c793b3b-0717-4e93-9f5a-250041c502ea/AAABjsBOJRA/AAABjcWesUg/16x9-512.jpg", "date": "2024-04-08T12:24:21.000+02:00", "lat": 50.880148, "lon": 11.078626, "intensity": 0.8, "source": "Tagesschau"}, {"title": "Tod am Gleis in Ludwigshafen: Ermittlungen werden voraussichtlich eingestellt", "url": "https://www.tagesschau.de/inland/regional/rheinlandpfalz/swr-tod-am-gleis-in-ludwigshafen-ermittlungen-werden-voraussichtlich-eingestellt-100.html", "thumbnailUrl": "https://images.tagesschau.de/image/8f3661d8-1e6b-4cbd-ba65-f2f49f7dab75/AAABjr1FsFE/AAABjcWesUg/16x9-512.jpg", "date": "2024-04-08T12:23:33.000+02:00", "lat": 49.481966, "lon": 8.44205, "intensity": 0.7, "source": "Tagesschau"}, {"title": "Hilfe f\u00fcr Gaza: Transportmaschine in Wunstorf gestartet", "url": "https://www.tagesschau.de/inland/regional/niedersachsen/ndr-hilfsfluege-fuer-gaza-bundeswehr-setzt-jetzt-airbus-a400m-ein-100.html", "thumbnailUrl": "https://images.tagesschau.de/image/54427eaa-42cb-4fd6-8947-a9e21d315ad8/AAABjr07G9M/AAABjcWesUg/16x9-512.jpg", "date": "2024-04-08T12:18:00.000+02:00", "lat": 52.4604, "lon": 9.5625, "intensity": 0.8, "source": "Tagesschau"}, {"title": "Weitere Wohnungen in Frankfurt-Sindlingen wegen Einsturzgefahr evakuiert", "url": "https://www.tagesschau.de/inland/regional/hessen/hr-weitere-wohnungen-in-frankfurt-sindlingen-werden-evakuiert-100.html", "thumbnailUrl": "https://images.tagesschau.de/image/fb0de7ea-62ec-4a8e-a564-1c15c5699f32/AAABjr2qhQU/AAABjcWesUg/16x9-512.jpg", "date": "2024-04-08T12:15:50.611+02:00", "lat": 50.0971, "lon": 8.5227, "intensity": 0.8, "source": "Tagesschau"}, {"title": "Regal im Cabrio: Polizei stoppt Fahrerin auf A7", "url": "https://www.tagesschau.de/inland/regional/schleswigholstein/ndr-regal-im-cabrio-100.html", "thumbnailUrl": "https://images.tagesschau.de/image/418089df-52de-4992-91cb-18304809e74e/AAABjr1WgCc/AAABjcWesUg/16x9-512.jpg", "date": "2024-04-08T12:15:00.000+02:00", "lat": 53.6954, "lon": 9.4376, "intensity": 0.7, "source": "Tagesschau"}, {"title": "Mainzer Feuerwehr rettet Kind von Spielplatz-Rutsche", "url": "https://www.tagesschau.de/inland/regional/rheinlandpfalz/swr-mainzer-feuerwehr-rettet-kind-von-spielplatz-rutsche-100.html", "thumbnailUrl": "https://images.tagesschau.de/image/c5988b4a-b177-4227-907c-6621cfd82e3c/AAABjrzxhRQ/AAABjcWesUg/16x9-512.jpg", "date": "2024-04-08T11:56:00.000+02:00", "lat": 49.9929, "lon": 8.2439, "intensity": 0.8, "source": "Tagesschau"}, {"title": "MV stoppt Abordnung von Lehrern ins Aus- und Fortbildungsinstitut", "url": "https://www.tagesschau.de/inland/regional/mecklenburgvorpommern/ndr-mv-stoppt-lehrer-abordnung-ins-aus-und-fortbildungsinstitut-100.html", "thumbnailUrl": "https://images.tagesschau.de/image/1cb2bd2b-5828-4b2a-a9b4-f4aee9bc65a3/AAABjr5wI2c/AAABjcWesUg/16x9-512.jpg", "date": "2024-04-08T11:55:00.000+02:00", "lat": 53.61265, "lon": 13.199222, "intensity": 0.6, "source": "Tagesschau"}, {"title": "Berlin: Verkehrsverst\u00f6\u00dfe von Diplomaten um zehn Prozent gestiegen", "url": "https://www.tagesschau.de/inland/regional/berlin/rbb-berlin-verkehrsverstoesse-von-diplomaten-um-zehn-prozent-gestiegen-100.html", "thumbnailUrl": "https://images.tagesschau.de/image/aacf44ce-dd7b-4f09-9575-a131c8a21416/AAABjr0fj88/AAABjcWesUg/16x9-512.jpg", "date": "2024-04-08T11:44:29.000+02:00", "lat": 52.520008, "lon": 13.404954, "intensity": 0.7, "source": "Tagesschau"}, {"title": "Prozess um Missbrauch von Edenkoben: Urteil wohl erst Ende April", "url": "https://www.tagesschau.de/inland/regional/rheinlandpfalz/swr-prozess-um-missbrauch-von-edenkoben-urteil-wohl-diese-woche-100.html", "thumbnailUrl": "https://images.tagesschau.de/image/c85fbd55-8790-4952-b393-16d33232d1e7/AAABjr0hEsg/AAABjcWesUg/16x9-512.jpg", "date": "2024-04-08T11:42:00.000+02:00", "lat": 49.2925, "lon": 8.1192, "intensity": 0.5, "source": "Tagesschau"}, {"title": "Ausstellung \"Mut-Bauern\" zeigt Landwirtschaft im Wandel", "url": "https://www.tagesschau.de/inland/regional/niedersachsen/ndr-ausstellung-mut-bauern-zeigt-landwirtschaft-im-wandel-100.html", "thumbnailUrl": "https://images.tagesschau.de/image/8aade1a3-e15c-491b-86d3-561164596cf5/AAABjr84QH8/AAABjcWesUg/16x9-512.jpg", "date": "2024-04-08T11:40:00.000+02:00", "lat": 52.9527, "lon": 9.8275, "intensity": 0.6, "source": "Tagesschau"}, {"title": "Vor Handball-Halbfinale: F\u00fcnf Mutmacher f\u00fcr Au\u00dfenseiter MT Melsungen", "url": "https://www.tagesschau.de/inland/regional/hessen/hr-vor-handball-halbfinale-fuenf-mutmacher-fuer-aussenseiter-mt-melsungen-102.html", "thumbnailUrl": "https://images.tagesschau.de/image/3dbb512d-0c51-4546-8f50-fce87859d597/AAABjr0Z4ys/AAABjcWesUg/16x9-512.jpg", "date": "2024-04-08T11:37:55.848+02:00", "lat": 51.3127, "lon": 9.4992, "intensity": 0.7, "source": "Tagesschau"}, {"title": "\"Herausragendes Ereignis\", das L\u00fccken rei\u00dft", "url": "https://www.tagesschau.de/inland/bundeswehr-litauen-116.html", "thumbnailUrl": "https://images.tagesschau.de/image/60e27c41-fc4c-42ba-89d6-50c8e2f202c8/AAABjr04B7o/AAABjcWesUg/16x9-512.jpg", "date": "2024-04-08T11:36:59.217+02:00", "lat": 55.1694, "lon": 23.8813, "intensity": 0.8, "source": "Tagesschau"}, {"title": "Wetterlage und Temperaturen", "url": "https://www.tagesschau.de/wetter/europa-welt", "thumbnailUrl": "https://images.tagesschau.de/image/6e7d3b16-79c8-4308-822b-20c3035236b5/AAABjr0F54A/AAABjcWesUg/16x9-512.jpg", "date": "2024-04-08T11:31:23.112+02:00", "lat": 51.1657, "lon": 10.4515, "intensity": 0.3, "source": "Tagesschau"}, {"title": "VfL Wolfsburg im Abstiegskampf - Schneller Realit\u00e4tscheck f\u00fcr Hasenh\u00fcttl", "url": "https://www.tagesschau.de/inland/regional/niedersachsen/ndr-vfl-wolfsburg-im-abstiegskampf-schneller-realitaetscheck-fuer-hasenhuettl-102.html", "thumbnailUrl": "https://images.tagesschau.de/image/03c6147f-4e32-4668-9188-bd9baa5638d7/AAABjr2NkCU/AAABjcWesUg/16x9-512.jpg", "date": "2024-04-08T11:29:00.000+02:00", "lat": 52.4125, "lon": 10.7063, "intensity": 0.8, "source": "Tagesschau"}, {"title": "Handball: F\u00fcchse Berlin verpflichten \u00d6sterreicher Lukas Herburger f\u00fcr kommende Saison", "url": "https://www.tagesschau.de/inland/regional/berlin/rbb-handball-fuechse-berlin-verpflichten-oesterreicher-lukas-herburger-fuer-kommende-saison-102.html", "thumbnailUrl": "https://images.tagesschau.de/image/8afd1c42-24d3-44b1-b8fd-3c2b9c1c86e3/AAABjr0JqW0/AAABjcWesUg/16x9-512.jpg", "date": "2024-04-08T11:19:15.000+02:00", "lat": 52.52, "lon": 13.3903, "intensity": 0.6, "source": "Tagesschau"}, {"title": "Sterbehilfe geleistet: Berliner Arzt zu drei Jahren Gef\u00e4ngnis verurteilt", "url": "https://www.tagesschau.de/inland/regional/berlin/rbb-toedliche-infusion-urteil-im-prozess-um-sterbehilfe-erwartet-100.html", "thumbnailUrl": "https://images.tagesschau.de/image/2ec8635f-ca24-49b4-97d5-e552b1141e6a/AAABjr0AbHs/AAABjcWesUg/16x9-512.jpg", "date": "2024-04-08T11:14:00.000+02:00", "lat": 52.520008, "lon": 13.404954, "intensity": 0.8, "source": "Tagesschau"}, {"title": "Radfahrer bei Zusammensto\u00df mit Wildtier im Taunus lebensgef\u00e4hrlich verletzt", "url": "https://www.tagesschau.de/inland/regional/hessen/hr-radfahrer-bei-zusammenstoss-mit-wildtier-im-taunus-lebensgefaehrlich-verletzt-100.html", "thumbnailUrl": "https://images.tagesschau.de/image/afc4bc26-336c-4125-bec4-1c8bf086286e/AAABjrzt6fs/AAABjcWesUg/16x9-512.jpg", "date": "2024-04-08T10:56:59.114+02:00", "lat": 50.202, "lon": 8.379, "intensity": 0.8, "source": "Tagesschau"}, {"title": "Ein Deutscher will B\u00fcrgermeister in Florenz werden", "url": "https://www.tagesschau.de/ausland/europa/deutscher-buergermeister-florenz-100.html", "thumbnailUrl": "https://images.tagesschau.de/image/03900be1-fa14-4e55-9dd0-75e7e1f591ac/AAABjrzTtpc/AAABjcWesUg/16x9-512.jpg", "date": "2024-04-08T10:53:38.073+02:00", "lat": 43.769, "lon": 11.255, "intensity": 0.5, "source": "Tagesschau"}, {"title": "Immer mehr Straft\u00e4ter kommen in Hamburger Ma\u00dfregelvollzug", "url": "https://www.tagesschau.de/inland/regional/hamburg/ndr-immer-mehr-straftaeter-kommen-in-hamburger-massregelvollzug-100.html", "thumbnailUrl": "https://images.tagesschau.de/image/99414499-69ba-40ed-92ad-f035228ae3bb/AAABjrv26ks/AAABjcWesUg/16x9-512.jpg", "date": "2024-04-08T10:53:00.000+02:00", "lat": 53.55, "lon": 10.0, "intensity": 0.8, "source": "Tagesschau"}, {"title": "Bonn: M\u00f6glicher Bombenfund im Westen der Stadt", "url": "https://www.tagesschau.de/inland/regional/nordrheinwestfalen/wdr-bonn-moeglicher-bombenfund-im-westen-der-stadt-100.html", "thumbnailUrl": "https://images.tagesschau.de/image/825cc267-628f-4166-b3e2-670b3a24e74c/AAABjr2uBEo/AAABjcWesUg/16x9-512.jpg", "date": "2024-04-08T10:46:00.000+02:00", "lat": 50.7374, "lon": 7.0982, "intensity": 0.8, "source": "Tagesschau"}, {"title": "Internationaler Roma-Tag: Flagge der Roma wird an Berliner Rath\u00e4usern gehisst", "url": "https://www.tagesschau.de/inland/regional/berlin/rbb-internationaler-roma-tag-flagge-der-roma-wird-an-berliner-rathaeusern-gehisst-100.html", "thumbnailUrl": "https://images.tagesschau.de/image/9d0bc7a3-f15e-4463-90ad-c03e6a628568/AAABjrzffXI/AAABjcWesUg/16x9-512.jpg", "date": "2024-04-08T10:40:12.000+02:00", "lat": 52.520008, "lon": 13.404954, "intensity": 0.5, "source": "Tagesschau"}, {"title": "Sommer-Flugbetrieb scheint gesichert", "url": "https://www.tagesschau.de/wirtschaft/arbeitsmarkt/luftsicherheit-tarifstreit-schlichtung-100.html", "thumbnailUrl": "https://images.tagesschau.de/image/96b19bb5-a0fd-4341-af39-569bd2fd8bbc/AAABjhJL1Gk/AAABjcWesUg/16x9-512.jpg", "date": "2024-04-08T10:34:36.546+02:00", "lat": 53.5594, "lon": 10.0028, "intensity": 0.4, "source": "Tagesschau"}, {"title": "G\u00fcnstiger Bauen in Hamburg: SAGA entwickelt Effizienzhaus", "url": "https://www.tagesschau.de/inland/regional/hamburg/ndr-guenstiger-bauen-in-hamburg-saga-entwickelt-effizienzhaus-100.html", "thumbnailUrl": "https://images.tagesschau.de/image/973c1560-ad81-4827-ab2b-de2bfa95998d/AAABjrvtuTU/AAABjcWesUg/16x9-512.jpg", "date": "2024-04-08T10:28:00.000+02:00", "lat": 53.5511, "lon": 9.9937, "intensity": 0.7, "source": "Tagesschau"}, {"title": "Offiziell! Paul Fernie wird neuer Sportchef von  Darmstadt 98", "url": "https://www.tagesschau.de/inland/regional/hessen/hr-paul-fernie-wird-neuer-sportchef-von-darmstadt-98-102.html", "thumbnailUrl": "https://images.tagesschau.de/image/af1752f0-0063-4f0f-9a14-e6d7976b1977/AAABjrzSd04/AAABjcWesUg/16x9-512.jpg", "date": "2024-04-08T10:27:02.926+02:00", "lat": 49.8728, "lon": 8.6525, "intensity": 0.6, "source": "Tagesschau"}, {"title": "Zoll findet Koffer mit gef\u00e4lschten Luxuswaren in Hannover", "url": "https://www.tagesschau.de/inland/regional/niedersachsen/ndr-zoll-findet-koffer-mit-gefaelschten-luxuswaren-in-hannover-100.html", "thumbnailUrl": "https://images.tagesschau.de/image/f8f976f2-8bcf-40bd-a6ce-e1e698f67b4d/AAABjrzUl3M/AAABjcWesUg/16x9-512.jpg", "date": "2024-04-08T10:27:00.000+02:00", "lat": 52.3759, "lon": 9.7332, "intensity": 0.6, "source": "Tagesschau"}, {"title": "Infektionen bei Gefl\u00fcchteten: Impfaktion wegen Masern-F\u00e4llen im Ankunftszentrum Tegel ausgeweitet", "url": "https://www.tagesschau.de/inland/regional/berlin/rbb-infektionen-bei-gefluechteten-impfaktion-wegen-masern-faellen-im-ankunftszentrum-tegel-ausgeweitet-100.html", "thumbnailUrl": "https://images.tagesschau.de/image/85e13a61-550b-456a-80e5-75cc145f091d/AAABjrzSr0k/AAABjcWesUg/16x9-512.jpg", "date": "2024-04-08T10:22:59.000+02:00", "lat": 52.5597, "lon": 13.2877, "intensity": 0.7, "source": "Tagesschau"}, {"title": "Netzbetreiber informiert \u00fcber geplante Trasse f\u00fcr Offshore-Strom", "url": "https://www.tagesschau.de/inland/regional/niedersachsen/ndr-netzbetreiber-informiert-ueber-geplante-trasse-fuer-offshore-strom-100.html", "thumbnailUrl": "https://images.tagesschau.de/image/46707ca4-6e3d-4498-9d05-780bbc0b09ea/AAABjrzNRWs/AAABjcWesUg/16x9-512.jpg", "date": "2024-04-08T10:20:00.000+02:00", "lat": 52.520008, "lon": 8.479423, "intensity": 0.8, "source": "Tagesschau"}, {"title": "Gr\u00fcner Zoo Wuppertal: Schneeleopard an Virus gestorben", "url": "https://www.tagesschau.de/inland/regional/nordrheinwestfalen/wdr-gruener-zoo-wuppertal-schneeleopard-an-virus-gestorben-100.html", "thumbnailUrl": "https://images.tagesschau.de/image/8117e456-e6f0-4224-a0a3-cc6c6bd966b5/AAABjr1Ubts/AAABjcWesUg/16x9-512.jpg", "date": "2024-04-08T10:17:00.000+02:00", "lat": 51.270363, "lon": 7.162325, "intensity": 0.8, "source": "Tagesschau"}, {"title": "Unkontrollierte Explosion: Mehrere Verletzte bei Feuerwerk", "url": "https://www.tagesschau.de/inland/regional/niedersachsen/ndr-unkontrollierte-explosion-mehrere-verletzte-nach-feuerwerk-100.html", "thumbnailUrl": "https://images.tagesschau.de/image/44c7734b-b6c5-48cf-b3e2-77abbdfdfb45/AAABjr0JyLs/AAABjcWesUg/16x9-512.jpg", "date": "2024-04-08T10:16:00.000+02:00", "lat": 52.37589, "lon": 9.73322, "intensity": 0.8, "source": "Tagesschau"}, {"title": "Grippesaison in Baden-W\u00fcrttemberg geht zu Ende", "url": "https://www.tagesschau.de/inland/regional/badenwuerttemberg/swr-grippesaison-in-baden-wuerttemberg-geht-zu-ende-100.html", "thumbnailUrl": "https://images.tagesschau.de/image/de77023b-ff0b-4adf-8e65-f0d5170b708b/AAABjrzHXBk/AAABjcWesUg/16x9-512.jpg", "date": "2024-04-08T10:12:43.000+02:00", "lat": 48.7758, "lon": 9.2086, "intensity": 0.3, "source": "Tagesschau"}, {"title": "T\u00f6dliche Messerstiche in Fredenbeck: 41-J\u00e4hriger in U-Haft", "url": "https://www.tagesschau.de/inland/regional/niedersachsen/ndr-45-jaehrigen-in-wohnung-erstochen-verdaechtiger-stellt-sich-100.html", "thumbnailUrl": "https://images.tagesschau.de/image/1638c2e0-f114-49e5-91d1-15b9447c9efe/AAABjrzF-mg/AAABjcWesUg/16x9-512.jpg", "date": "2024-04-08T10:10:00.000+02:00", "lat": 53.5695, "lon": 9.3599, "intensity": 0.8, "source": "Tagesschau"}, {"title": "Vorerst keine Streiks mehr - Gewerkschaft und Arbeitgeber schlichten Tarifstreit", "url": "https://www.tagesschau.de/inland/regional/berlin/rbb-vorerst-keine-streiks-gewerkschaft-und-arbeitgeber-schlichten-tarifstreit-fuer-luftsicherheit-100.html", "thumbnailUrl": "https://images.tagesschau.de/image/ead56fa7-0a34-4d53-881f-76ea5fe2499b/AAABjrzEFA4/AAABjcWesUg/16x9-512.jpg", "date": "2024-04-08T10:08:00.000+02:00", "lat": 52.520008, "lon": 13.404954, "intensity": 0.7, "source": "Tagesschau"}, {"title": "Entsetzen nach Anschlag auf Synagoge in Oldenburg", "url": "https://www.tagesschau.de/inland/regional/niedersachsen/brandsatz-synagoge-oldenburg-100.html", "thumbnailUrl": "https://images.tagesschau.de/image/0ae3fc6f-87ef-4d25-a179-ae3ba87437fe/AAABjrzCXDs/AAABjcWesUg/16x9-512.jpg", "date": "2024-04-08T10:08:00.000+02:00", "lat": 53.1415, "lon": 8.2154, "intensity": 0.8, "source": "Tagesschau"}, {"title": "Hessen am Morgen: +++ T\u00f6dlicher Arbeitsunfall auf Frankfurter Hochhaus-Baustelle +++ Schlichtung bei Luftsicherheit erfolgreich +++ Spargelsaison beginnt +++", "url": "https://www.tagesschau.de/inland/regional/hessen/hr-hessen-am-morgen--motorrad-verunglueckt-in-enger-kurve-zwei-schwerverletzte-100.html", "thumbnailUrl": "https://images.tagesschau.de/image/2e5f0da4-2a2f-41be-bde6-2b49dfc95fdf/AAABjrz4_Cc/AAABjcWesUg/16x9-512.jpg", "date": "2024-04-08T10:01:54.409+02:00", "lat": 50.110924, "lon": 8.675277, "intensity": 0.8, "source": "Tagesschau"}, {"title": "BW-Newsticker am Morgen: SAP will Stellen mit Freiwilligenprogramm abbauen, Wanderer aus Stuttgart t\u00f6dlich verungl\u00fcckt", "url": "https://www.tagesschau.de/inland/regional/badenwuerttemberg/swr-bw-newsticker-am-morgen-initiative-zieht-gender-klage-zurueck-schaeuble-memoiren-erscheinen-100.html", "thumbnailUrl": "https://images.tagesschau.de/image/25d9ba75-9a19-403a-ae20-b66d6ab0cc02/AAABjryqELk/AAABjcWesUg/16x9-512.jpg", "date": "2024-04-08T10:00:00.000+02:00", "lat": 48.7758, "lon": 9.1833, "intensity": 0.7, "source": "Tagesschau"}, {"title": "Chemieunfall in Ladenburg: Mehrere Menschen verletzt", "url": "https://www.tagesschau.de/inland/regional/badenwuerttemberg/swr-chemieunfall-in-ladenburg-mehrere-menschen-verletzt-100.html", "thumbnailUrl": "https://images.tagesschau.de/image/ce443074-d259-4932-a02e-e41b89eff0dd/AAABjr45MT0/AAABjcWesUg/16x9-512.jpg", "date": "2024-04-08T09:58:00.000+02:00", "lat": 49.4709, "lon": 8.5852, "intensity": 0.7, "source": "Tagesschau"}, {"title": "Bundeswehr-Vorkommando bricht nach Litauen auf", "url": "https://www.tagesschau.de/inland/regional/brandenburg/rbb-abflug-vom-ber-bundeswehr-vorkommando-bricht-nach-litauen-auf-100.html", "thumbnailUrl": "https://images.tagesschau.de/image/996668ee-3fff-411e-a5c8-71166dee3346/AAABjrywFqA/AAABjcWesUg/16x9-512.jpg", "date": "2024-04-08T09:47:54.000+02:00", "lat": 52.5244, "lon": 13.5034, "intensity": 0.7, "source": "Tagesschau"}, {"title": "Preisschilder in Modehaus ausgetauscht: Ehepaar vor Gericht", "url": "https://www.tagesschau.de/inland/regional/niedersachsen/ndr-preisschilder-in-modehaus-ausgetauscht-ehepaar-vor-gericht-100.html", "thumbnailUrl": "https://images.tagesschau.de/image/653f004b-9624-4044-b44d-bef816c49437/AAABjrytB9U/AAABjcWesUg/16x9-512.jpg", "date": "2024-04-08T09:46:00.000+02:00", "lat": 52.2799, "lon": 8.0476, "intensity": 0.6, "source": "Tagesschau"}, {"title": "Fregatte \"Hessen\" wehrt Angriff auf ziviles Frachtschiff ab", "url": "https://www.tagesschau.de/inland/regional/niedersachsen/ndr-fregatte-hessen-wehrt-angriff-auf-ziviles-frachtschiff-ab-100.html", "thumbnailUrl": "https://images.tagesschau.de/image/137c7859-0d4d-4b35-ba1e-a02bcf85d5f9/AAABjre3WqQ/AAABjcWesUg/16x9-512.jpg", "date": "2024-04-08T09:42:00.000+02:00", "lat": 53.5227, "lon": 8.245, "intensity": 0.8, "source": "Tagesschau"}, {"title": "Mehrere Motorradunf\u00e4lle am ersten warmen Wochenende - ein Toter", "url": "https://www.tagesschau.de/inland/regional/niedersachsen/ndr-drei-motorradfahrer-stuerzen-43-jaehrige-verletzt-sich-schwer-100.html", "thumbnailUrl": "https://images.tagesschau.de/image/feb4314b-cfcd-4456-84cf-0af356792c93/AAABjrgNaPQ/AAABjcWesUg/16x9-512.jpg", "date": "2024-04-08T09:42:00.000+02:00", "lat": 52.3732, "lon": 9.7356, "intensity": 0.8, "source": "Tagesschau"}, {"title": "Schwertransport-Konvoi mit sechs Silos erreicht Ziel im Emsland", "url": "https://www.tagesschau.de/inland/regional/niedersachsen/ndr-schwertransport-im-emsland-bahnhof-leschede-gesperrt-100.html", "thumbnailUrl": "https://images.tagesschau.de/image/b1e3116f-07e8-4e29-87fd-3ddf007722bc/AAABjrym1oE/AAABjcWesUg/16x9-512.jpg", "date": "2024-04-08T09:37:00.000+02:00", "lat": 52.2811, "lon": 7.3296, "intensity": 0.7, "source": "Tagesschau"}, {"title": "Deutsche Produktion h\u00f6her als erwartet", "url": "https://www.tagesschau.de/wirtschaft/konjunktur/produktion-handelsbilanz-februar-100.html", "thumbnailUrl": "https://images.tagesschau.de/image/92397bee-c4aa-49bf-bf35-23bc6eab6760/AAABjrxv6_Q/AAABjcWesUg/16x9-512.jpg", "date": "2024-04-08T09:28:03.753+02:00", "lat": 51.4508, "lon": 9.9937, "intensity": 0.7, "source": "Tagesschau"}, {"title": "Wuppertal: Fahrg\u00e4ste sa\u00dfen stundenlang in Zug fest", "url": "https://www.tagesschau.de/inland/regional/nordrheinwestfalen/wdr-zugunfall-in-wuppertal-fahrgaeste-sassen-stundenlang-fest-100.html", "thumbnailUrl": "https://images.tagesschau.de/image/07b8a922-3616-4109-8e7b-74e5bfcc2ea8/AAABjrzbbcM/AAABjcWesUg/16x9-512.jpg", "date": "2024-04-08T09:21:00.000+02:00", "lat": 51.2562, "lon": 7.1778, "intensity": 0.6, "source": "Tagesschau"}, {"title": "Polizeieinsatz auf Avus: Vollsperrung verursacht langen R\u00fcckstau auf A115", "url": "https://www.tagesschau.de/inland/regional/berlin/rbb-polizeieinsatz-auf-avus-100.html", "thumbnailUrl": "https://images.tagesschau.de/image/7fdcbd2d-8b03-4b3d-9bf4-a53400d2436b/AAABjrySgYE/AAABjcWesUg/16x9-512.jpg", "date": "2024-04-08T09:13:52.000+02:00", "lat": 52.5006, "lon": 13.2404, "intensity": 0.8, "source": "Tagesschau"}, {"title": "Glas-Ausstellung in Wadgassen erneut verl\u00e4ngert", "url": "https://www.tagesschau.de/inland/regional/saarland/sr-glas-ausstellung-in-wadgassen-erneut-verlaengert-100.html", "thumbnailUrl": "https://images.tagesschau.de/image/33eab759-3e4b-413a-8733-e3a38c1cb890/AAABjryOmwE/AAABjcWesUg/16x9-512.jpg", "date": "2024-04-08T09:00:00.000+02:00", "lat": 49.2847, "lon": 6.8711, "intensity": 0.4, "source": "Tagesschau"}, {"title": "China erschwert Arbeit von Journalisten weiter", "url": "https://www.tagesschau.de/ausland/asien/china-presse-journalisten-100.html", "thumbnailUrl": "https://images.tagesschau.de/image/2acc9970-0cd3-43b1-8f5e-83fbf7e8dcc4/AAABjrx-zjQ/AAABjcWesUg/16x9-512.jpg", "date": "2024-04-08T08:56:51.032+02:00", "lat": 35.86166, "lon": 104.195397, "intensity": 0.7, "source": "Tagesschau"}, {"title": "Wanderer aus Stuttgart in \u00d6sterreich t\u00f6dlich verungl\u00fcckt", "url": "https://www.tagesschau.de/inland/regional/badenwuerttemberg/swr-wanderer-aus-stuttgart-in-oesterreich-toedlich-verunglueckt-100.html", "thumbnailUrl": "https://images.tagesschau.de/image/e9f1f586-02a8-432e-b544-4bc1d3688307/AAABjrymb80/AAABjcWesUg/16x9-512.jpg", "date": "2024-04-08T08:52:00.000+02:00", "lat": 48.7758, "lon": 9.1829, "intensity": 0.7, "source": "Tagesschau"}, {"title": "E-Scooter: Warum in Z\u00fcgen erlaubt und in der U-Bahn nicht?", "url": "https://www.tagesschau.de/inland/regional/bayern/br-e-scooter-warum-in-zuegen-erlaubt-und-in-der-u-bahn-nicht-102.html", "thumbnailUrl": "https://images.tagesschau.de/image/0a40b673-9bf3-47ac-be90-8b357c437330/AAABjrx3CDw/AAABjcWesUg/16x9-512.jpg", "date": "2024-04-08T08:46:58.220+02:00", "lat": 48.135, "lon": 11.58, "intensity": 0.7, "source": "Tagesschau"}, {"title": "Suche nach Immobilien: Der Berliner K\u00e4ltehilfe gehen die Unterk\u00fcnfte aus", "url": "https://www.tagesschau.de/inland/regional/berlin/rbb-suche-nach-immobilien-der-berliner-kaeltehilfe-gehen-die-unterkuenfte-aus-100.html", "thumbnailUrl": "https://images.tagesschau.de/image/e126c825-1977-4142-a975-9933c9af4329/AAABjrx4_Ew/AAABjcWesUg/16x9-512.jpg", "date": "2024-04-08T08:46:46.000+02:00", "lat": 52.520008, "lon": 13.404954, "intensity": 0.7, "source": "Tagesschau"}, {"title": "Stadt Essen sucht dringend Pflegeeltern", "url": "https://www.tagesschau.de/inland/regional/nordrheinwestfalen/wdr-stadt-essen-sucht-dringend-pflegeeltern-100.html", "thumbnailUrl": "https://images.tagesschau.de/image/18ac34c4-1871-4468-9d73-ecd34e87b5ab/AAABjrz25OU/AAABjcWesUg/16x9-512.jpg", "date": "2024-04-08T08:35:00.000+02:00", "lat": 51.4556, "lon": 7.0116, "intensity": 0.8, "source": "Tagesschau"}, {"title": "Feuer in Wohnhaus: Polizei Wolfsburg vermutet Brandstiftung", "url": "https://www.tagesschau.de/inland/regional/niedersachsen/ndr-feuer-in-wohnhaus-polizei-wolfsburg-vermutet-brandstiftung-100.html", "thumbnailUrl": "https://images.tagesschau.de/image/b3256ef1-46be-4997-85e3-ba89be6d0381/AAABjrxsO_s/AAABjcWesUg/16x9-512.jpg", "date": "2024-04-08T08:33:00.000+02:00", "lat": 52.4226, "lon": 10.75, "intensity": 0.8, "source": "Tagesschau"}, {"title": "Auto erfasst Einj\u00e4hrigen in Berlin-Marzahn", "url": "https://www.tagesschau.de/inland/regional/berlin/rbb-auto-erfasst-einjaehrigen-in-berlin-marzahn-100.html", "thumbnailUrl": "https://images.tagesschau.de/image/4bc56258-fc18-46ca-9f7f-c53cdfa45118/AAABjrxjIUw/AAABjcWesUg/16x9-512.jpg", "date": "2024-04-08T08:22:35.000+02:00", "lat": 52.5225, "lon": 13.5667, "intensity": 0.7, "source": "Tagesschau"}, {"title": "K\u00fcnstler David Weiss: \"Vielleicht bin ich einfach immer so dieses Dazwischen\"", "url": "https://www.tagesschau.de/inland/regional/hessen/hr-kuenstler-david-weiss-vielleicht-bin-ich-einfach-immer-so-dieses-dazwischen-100.html", "thumbnailUrl": "https://images.tagesschau.de/image/ed7a6c3a-5d94-4d9e-bf2c-c51f49dd7c8a/AAABjrxfFiU/AAABjcWesUg/16x9-512.jpg", "date": "2024-04-08T08:21:27.602+02:00", "lat": 50.6435, "lon": 9.6753, "intensity": 0.3, "source": "Tagesschau"}, {"title": "Memoiren von Sch\u00e4uble ver\u00f6ffentlicht: \"Er wollte ein Verm\u00e4chtnis hinterlassen\"", "url": "https://www.tagesschau.de/inland/regional/badenwuerttemberg/swr-memoiren-von-schaeuble-veroeffentlicht-er-wollte-ein-vermaechtnis-hinterlassen-100.html", "thumbnailUrl": "https://images.tagesschau.de/image/8d86c980-c2e8-4197-84e4-8fb6181b117c/AAABjr0CFH0/AAABjcWesUg/16x9-512.jpg", "date": "2024-04-08T08:19:33.000+02:00", "lat": 48.6616, "lon": 9.9976, "intensity": 0.6, "source": "Tagesschau"}, {"title": "Abstiegsangst beim FCK? Friedhelm Funkel verspr\u00fcht Mut und Optimismus", "url": "https://www.tagesschau.de/inland/regional/rheinlandpfalz/swr-abstiegsangst-beim-fck-friedhelm-funkel-versprueht-mut-und-optimismus-102.html", "thumbnailUrl": "https://images.tagesschau.de/image/8c058043-d5b5-4475-b73c-ea736daccb53/AAABjrxxSfw/AAABjcWesUg/16x9-512.jpg", "date": "2024-04-08T08:19:26.000+02:00", "lat": 49.4431, "lon": 7.7555, "intensity": 0.7, "source": "Tagesschau"}, {"title": "\"Wenn der US-Kongress nicht hilft, wird die Ukraine verlieren\"", "url": "https://www.tagesschau.de/ausland/europa/krieg-ukraine-niederlage-selenskyj-100.html", "thumbnailUrl": "https://images.tagesschau.de/image/18cff2d2-b577-4419-a4b4-520ef5fe9cb0/AAABjkPNdyw/AAABjcWesUg/16x9-512.jpg", "date": "2024-04-08T08:05:23.044+02:00", "lat": 50.4501, "lon": 30.5234, "intensity": 0.8, "source": "Tagesschau"}, {"title": "1.000 Menschen demonstrieren in Trier gegen Rechtsextremismus", "url": "https://www.tagesschau.de/inland/regional/rheinlandpfalz/swr-1-000-menschen-demonstrieren-in-trier-gegen-rechtsextremismus-100.html", "thumbnailUrl": "https://images.tagesschau.de/image/0a5295c9-3a96-4fc7-8c39-d499af7262c6/AAABjriUo-0/AAABjcWesUg/16x9-512.jpg", "date": "2024-04-08T07:58:00.000+02:00", "lat": 49.7493, "lon": 6.6451, "intensity": 0.8, "source": "Tagesschau"}, {"title": "Zehntausende erinnern an Schicksal der Geiseln", "url": "https://www.tagesschau.de/ausland/asien/jerusalem-protest-geiseln-100.html", "thumbnailUrl": "https://images.tagesschau.de/image/0ab6618d-f785-427a-938d-bb5d43295998/AAABjrxCjlI/AAABjcWesUg/16x9-512.jpg", "date": "2024-04-08T07:51:02.558+02:00", "lat": 31.2169, "lon": 34.3953, "intensity": 0.8, "source": "Tagesschau"}, {"title": "Erbschaftssteuer: Pro-Kopf-Aufkommen in Hamburg am h\u00f6chsten", "url": "https://www.tagesschau.de/inland/regional/hamburg/ndr-erbschaftssteuer-pro-kopf-aufkommen-in-hamburg-am-hoechsten-100.html", "thumbnailUrl": "https://images.tagesschau.de/image/c3505f0e-830d-4f59-92f8-e81ec46d573f/AAABjrgWdhA/AAABjcWesUg/16x9-512.jpg", "date": "2024-04-08T07:26:00.000+02:00", "lat": 53.5511, "lon": 9.9937, "intensity": 0.8, "source": "Tagesschau"}, {"title": "Stellenabbau bei SAP - laut Betriebsrat freiwillige Abfindungen geplant", "url": "https://www.tagesschau.de/inland/regional/badenwuerttemberg/swr-stellenabbau-bei-sap-betriebsrat-freiwillige-abfindungen-geplant-100.html", "thumbnailUrl": "https://images.tagesschau.de/image/a5fab17a-c9a1-4731-a763-f6a7ac37c74a/AAABjr1Sd2s/AAABjcWesUg/16x9-512.jpg", "date": "2024-04-08T07:25:00.000+02:00", "lat": 48.7374, "lon": 9.9937, "intensity": 0.8, "source": "Tagesschau"}, {"title": "Eintracht stolpert Richtung Europacup \u2013 Jobgarantie f\u00fcr Toppm\u00f6ller", "url": "https://www.tagesschau.de/inland/regional/hessen/hr-eintracht-stolpert-richtung-europacup--jobgarantie-fuer-toppmoeller-102.html", "thumbnailUrl": "https://images.tagesschau.de/image/8fde8592-6253-447f-a49b-7ab5ef9f3b8c/AAABjrwxUiw/AAABjcWesUg/16x9-512.jpg", "date": "2024-04-08T07:24:16.341+02:00", "lat": 50.1109, "lon": 8.6821, "intensity": 0.6, "source": "Tagesschau"}, {"title": "Stress f\u00fcr Pendler auf A24 und RE6-Strecke wegen Bauarbeiten", "url": "https://www.tagesschau.de/inland/regional/brandenburg/rbb-stress-fuer-pendler-auf-a24-und-re6-strecke-wegen-bauarbeiten-100.html", "thumbnailUrl": "https://images.tagesschau.de/image/6127d6c9-9f72-4636-907a-229e17be0d07/AAABjrwr4xU/AAABjcWesUg/16x9-512.jpg", "date": "2024-04-08T07:22:00.000+02:00", "lat": 52.3416, "lon": 12.5551, "intensity": 0.7, "source": "Tagesschau"}, {"title": "Unfall auf der B312 bei Aichtal: Auto prallt gegen Br\u00fcckenpfeiler", "url": "https://www.tagesschau.de/inland/regional/badenwuerttemberg/swr-unfall-auf-der-b312-bei-aichtal-auto-prallt-gegen-brueckenpfeiler-100.html", "thumbnailUrl": "https://images.tagesschau.de/image/02dfe88e-17ab-4a84-a436-f4e51b8153ec/AAABjryfKcs/AAABjcWesUg/16x9-512.jpg", "date": "2024-04-08T07:19:05.000+02:00", "lat": 48.5817, "lon": 9.1783, "intensity": 0.7, "source": "Tagesschau"}, {"title": "\"Lilly hat einen elementaren Anteil am Aufschwung von Bad Homburg\"", "url": "https://www.tagesschau.de/inland/regional/rheinlandpfalz/swr-lilly-hat-einen-elementaren-anteil-am-aufschwung-von-bad-homburg-100.html", "thumbnailUrl": "https://images.tagesschau.de/image/a22359b8-2b41-4bfa-8e3a-6c4c87d24707/AAABjryHVUE/AAABjcWesUg/16x9-512.jpg", "date": "2024-04-08T07:16:02.000+02:00", "lat": 49.7518, "lon": 8.1208, "intensity": 0.7, "source": "Tagesschau"}, {"title": "Prozess um t\u00f6dlichen Sprung auf Kopf gestartet \u2013 Angeklagter schweigt", "url": "https://www.tagesschau.de/inland/regional/bremen/rb-prozess-um-toedliche-spruenge-auf-den-kopf-in-bremen-startet-100.html", "thumbnailUrl": "https://images.tagesschau.de/image/bec3e754-224e-4ef3-8df5-4a10e7c41c8f/AAABjrz-VtU/AAABjcWesUg/16x9-512.jpg", "date": "2024-04-08T06:55:00.000+02:00", "lat": 53.0793, "lon": 8.8017, "intensity": 0.8, "source": "Tagesschau"}, {"title": "Start des Karlspreis-Programms in Aachen: Dialogrunde \u00fcber Antisemitismus", "url": "https://www.tagesschau.de/inland/regional/nordrheinwestfalen/wdr-start-des-karlspreis-programms-in-aachen-dialogrunde-ueber-antisemitismus-102.html", "thumbnailUrl": "https://images.tagesschau.de/image/df73ba43-26a0-4d6d-8a5c-e9f68fecc1de/AAABjrx_4CM/AAABjcWesUg/16x9-512.jpg", "date": "2024-04-08T06:48:00.000+02:00", "lat": 50.7753, "lon": 6.0835, "intensity": 0.8, "source": "Tagesschau"}, {"title": "Bekommt die Werra eine Welle? Surferspot am Nadelwehr geplant", "url": "https://www.tagesschau.de/inland/regional/niedersachsen/ndr-bekommt-die-werra-eine-welle-surferspot-am-nadelwehr-geplant-100.html", "thumbnailUrl": "https://images.tagesschau.de/image/7de54cb8-7e8c-4a02-bbcd-6ff4138649d9/AAABjrj_G9Q/AAABjcWesUg/16x9-512.jpg", "date": "2024-04-08T06:44:00.000+02:00", "lat": 51.53544, "lon": 9.73322, "intensity": 0.6, "source": "Tagesschau"}, {"title": "A7 am Hamburger Elbtunnel: Autobahn ist wieder frei", "url": "https://www.tagesschau.de/inland/regional/hamburg/ndr-a7-in-hamburg-vollsperrung-des-elbtunnels-am-wochenende-100.html", "thumbnailUrl": "https://images.tagesschau.de/image/d3a2f535-dfd4-472e-a2cb-f3a86a0b592c/AAABjrwHXVQ/AAABjcWesUg/16x9-512.jpg", "date": "2024-04-08T06:44:00.000+02:00", "lat": 53.5511, "lon": 9.9526, "intensity": 0.7, "source": "Tagesschau"}, {"title": " TUI kommt zur\u00fcck an die Frankfurter B\u00f6rse", "url": "https://www.tagesschau.de/wirtschaft/unternehmen/tui-boersennotierung-frankfurt-100.html", "thumbnailUrl": "https://images.tagesschau.de/image/6ef2ca2a-17b6-41f9-96c1-bc1ac2083d5c/AAABjq3cJ_E/AAABjcWesUg/16x9-512.jpg", "date": "2024-04-08T06:33:10.617+02:00", "lat": 50.1109, "lon": 8.6553, "intensity": 0.7, "source": "Tagesschau"}, {"title": "Schausteller z\u00e4hlen 500.000 Besucher auf der Bremer Osterwiese", "url": "https://www.tagesschau.de/inland/regional/bremen/rb-schausteller-zaehlen-500-000-besucher-auf-der-bremer-osterwiese-100.html", "thumbnailUrl": "https://images.tagesschau.de/image/eaf7bad0-ddb2-4e74-9b2e-cc5f394ad79c/AAABjrzOssw/AAABjcWesUg/16x9-512.jpg", "date": "2024-04-08T06:27:00.000+02:00", "lat": 53.0793, "lon": 8.8017, "intensity": 0.8, "source": "Tagesschau"}, {"title": "Strafzettel aus der Schweiz: Vollstreckung ab Mai auch in Baden-W\u00fcrttemberg", "url": "https://www.tagesschau.de/inland/regional/badenwuerttemberg/swr-strafzettel-aus-der-schweiz-vollstreckung-ab-mai-auch-in-baden-wuerttemberg-100.html", "thumbnailUrl": "https://images.tagesschau.de/image/d3766c37-f5f8-4dcc-bee4-aecde8b97cb4/AAABjr2uFyM/AAABjcWesUg/16x9-512.jpg", "date": "2024-04-08T06:23:39.000+02:00", "lat": 48.7795, "lon": 9.18951, "intensity": 0.7, "source": "Tagesschau"}, {"title": "Badminton-Elite trifft sich ab heute zu EM in Saarbr\u00fccken", "url": "https://www.tagesschau.de/inland/regional/saarland/sr-badminton-em-startet-am-montag-in-saarbruecken-102.html", "thumbnailUrl": "https://images.tagesschau.de/image/c73983cb-1faf-4517-a66d-631b5c43676d/AAABjr8NlVE/AAABjcWesUg/16x9-512.jpg", "date": "2024-04-08T06:20:00.000+02:00", "lat": 49.2331, "lon": 6.9825, "intensity": 0.7, "source": "Tagesschau"}, {"title": "Usedom: Bauarbeiten im S\u00fcden der Insel behindern Verkehr", "url": "https://www.tagesschau.de/inland/regional/mecklenburgvorpommern/ndr-usedom-bauarbeiten-im-sueden-der-insel-behindern-verkehr-100.html", "thumbnailUrl": "https://images.tagesschau.de/image/cd5f984f-8c14-45a3-a78a-ffe4c85a00a0/AAABjrhokOs/AAABjcWesUg/16x9-512.jpg", "date": "2024-04-08T06:06:00.000+02:00", "lat": 53.969, "lon": 14.0736, "intensity": 0.5, "source": "Tagesschau"}, {"title": "Bahnstrecken nach Gro\u00dfbaustelle rund um Duisburg wieder frei", "url": "https://www.tagesschau.de/inland/regional/nordrheinwestfalen/wdr-bahnstrecken-nach-grossbaustelle-rund-um-duisburg-wieder-frei-100.html", "thumbnailUrl": "https://images.tagesschau.de/image/df8bb893-bd98-4743-b5e7-7982f5d25c14/AAABjr0fOTY/AAABjcWesUg/16x9-512.jpg", "date": "2024-04-08T06:00:00.000+02:00", "lat": 51.4344, "lon": 6.7745, "intensity": 0.3, "source": "Tagesschau"}, {"title": "Klimaexperten fordern von Landesregierung Einsatz f\u00fcr umstrittene CO2-Speichertechnik", "url": "https://www.tagesschau.de/inland/regional/badenwuerttemberg/swr-klimaexperten-fordern-von-landesregierung-einsatz-fuer-umstrittene-co2-speichertechnik-100.html", "thumbnailUrl": "https://images.tagesschau.de/image/edd2359c-f845-4f1e-8315-cae5a3b09191/AAABjrwKwQE/AAABjcWesUg/16x9-512.jpg", "date": "2024-04-08T05:25:13.000+02:00", "lat": 48.6617, "lon": 9.8425, "intensity": 0.7, "source": "Tagesschau"}, {"title": "Die Zeitenwende-Brigade", "url": "https://www.tagesschau.de/inland/innenpolitik/nato-bundeswehr-litauen-soldaten-100.html", "thumbnailUrl": "https://images.tagesschau.de/image/5cb8cff2-7b5d-4d60-addb-88253de8b157/AAABjrxbnUM/AAABjcWesUg/16x9-512.jpg", "date": "2024-04-08T04:06:46.793+02:00", "lat": 54.6872, "lon": 25.2797, "intensity": 0.8, "source": "Tagesschau"}, {"title": "Wie kann das Verfassungsgericht gesch\u00fctzt werden?", "url": "https://www.tagesschau.de/inland/innenpolitik/schutz-bundesverfassungsgericht-102.html", "thumbnailUrl": "https://images.tagesschau.de/image/1fe2d803-9939-4fd4-916a-aab295c69408/AAABjrfzm7c/AAABjcWesUg/16x9-512.jpg", "date": "2024-04-08T04:06:34.359+02:00", "lat": 48.7823, "lon": 9.9952, "intensity": 0.5, "source": "Tagesschau"}, {"title": "Regierungskoalition vorn - PiS aber st\u00e4rkste Kraft", "url": "https://www.tagesschau.de/ausland/europa/polen-regionalwahlen-106.html", "thumbnailUrl": "https://images.tagesschau.de/image/6254686d-e34c-48ea-a934-73dea6a4d09d/AAABjrtkVCg/AAABjcWesUg/16x9-512.jpg", "date": "2024-04-08T03:55:16.772+02:00", "lat": 51.9194, "lon": 19.1451, "intensity": 0.7, "source": "Tagesschau"}, {"title": "\"Ich sp\u00fcre jeden Tag die Grenzen, an die wir sto\u00dfen\"", "url": "https://www.tagesschau.de/inland/innenpolitik/lindner-caren-miosga-100.html", "thumbnailUrl": "https://images.tagesschau.de/image/84beef6b-e892-41e8-a437-f284e148ed21/AAABjrwX-hE/AAABjcWesUg/16x9-512.jpg", "date": "2024-04-08T00:55:13.935+02:00", "lat": 52.520008, "lon": 13.404954, "intensity": 0.5, "source": "Tagesschau"}, {"title": "Totale Sonnenfinsternis begeistert Millionen Menschen in Nordamerika", "url": "https://www.br.de/nachrichten/meldungen/index.html#n1", "thumbnailUrl": null, "date": "2024-04-09T01:50:24+02:00", "lat": 30.0444, "lon": 31.2357, "intensity": 0.8, "source": "Bayrischer Rundfunk"}, {"title": "EU-Einigung auf Agrar-Importregeln f\u00fcr die Ukraine", "url": "https://www.br.de/nachrichten/meldungen/index.html#n2", "thumbnailUrl": null, "date": "2024-04-09T01:50:24+02:00", "lat": 33.5138, "lon": 36.2021, "intensity": 0.8, "source": "Bayrischer Rundfunk"}, {"title": "Frankreich, \u00c4gypten und Jordanien appellieren an Israel f\u00fcr Waffenruhe in Gaza", "url": "https://www.br.de/nachrichten/meldungen/index.html#n3", "thumbnailUrl": null, "date": "2024-04-09T01:50:24+02:00", "lat": 39.9334, "lon": 32.8597, "intensity": 0.8, "source": "Bayrischer Rundfunk"}, {"title": "Kanzler Scholz hofft nach Lilly auf weitere Gro\u00dfinvestitionen im Pharmabereich", "url": "https://www.br.de/nachrichten/meldungen/index.html#n4", "thumbnailUrl": null, "date": "2024-04-09T01:50:24+02:00", "lat": 52.520008, "lon": 13.404954, "intensity": 0.7, "source": "Bayrischer Rundfunk"}, {"title": "Gewerkschaften kritisieren FDP-Vorsto\u00df zu \u00dcberstunden", "url": "https://www.br.de/nachrichten/meldungen/index.html#n5", "thumbnailUrl": null, "date": "2024-04-09T01:50:24+02:00", "lat": 52.520008, "lon": 13.404954, "intensity": 0.6, "source": "Bayrischer Rundfunk"},