[{"title": "BW-Newsticker am Morgen: Halmich-Comeback im Box-Ring gegen Stefan Raab? Verkaufsstopp von DFB-Trikot wegen Nazi-Symbolik, Details zu t\u00f6dlichem Autounfall bei VS", "url": "https://www.tagesschau.de/inland/regional/badenwuerttemberg/swr-bw-newsticker-am-morgen-halmich-comeback-im-box-ring-gegen-stefan-raab-schnitzeljagd-legt-skigebiet-lahm-100.html", "thumbnailUrl": "https://images.tagesschau.de/image/d774ac47-3bb4-44cf-8197-679f7e8e06e1/AAABjp0SW1M/AAABjcWesUg/16x9-512.jpg", "date": "2024-04-02T08:59:00.000+02:00", "lat": 48.7858, "lon": 9.9937, "intensity": 0.7, "source": "Tagesschau"}, {"title": "Unfall auf A30: Kleinwagen schleudert in Leitplanke", "url": "https://www.tagesschau.de/inland/regional/niedersachsen/ndr-unfall-auf-a30-kleinwagen-schleudert-in-leitplanke-100.html", "thumbnailUrl": "https://images.tagesschau.de/image/ae074b8e-f3c7-4dc2-bb41-936e6128a166/AAABjp2aLok/AAABjcWesUg/16x9-512.jpg", "date": "2024-04-02T08:55:00.000+02:00", "lat": 52.279, "lon": 8.0419, "intensity": 0.6, "source": "Tagesschau"}, {"title": "++ USA: Israel will Bedenken \"ber\u00fccksichtigen\" ++", "url": "https://www.tagesschau.de/newsticker/liveblog-nahost-dienstag-124.html", "thumbnailUrl": "https://images.tagesschau.de/image/7262eed0-99bd-4d9d-898e-fd814a7e56e7/AAABjRhaPSA/AAABjcWesUg/16x9-512.jpg", "date": "2024-04-02T08:52:33.624+02:00", "lat": 31.4611, "lon": 35.0036, "intensity": 0.7, "source": "Tagesschau"}, {"title": "Luftangriff t\u00f6tet Mitarbeiter von Hilfsorganisation", "url": "https://www.tagesschau.de/ausland/asien/nahost-isreal-luftangriff-hilfsorganisation-100.html", "thumbnailUrl": "https://images.tagesschau.de/image/41451e04-9c88-4998-9401-205cb03cca2a/AAABjp0PR6w/AAABjcWesUg/16x9-512.jpg", "date": "2024-04-02T08:48:16.355+02:00", "lat": 31.5204, "lon": 34.3447, "intensity": 0.9, "source": "Tagesschau"}, {"title": "Kein Kiffen in vielen Kneipen, FCK spielt um Pokalfinale, Gro\u00dfauftrag f\u00fcr Cloudanbieter aus RLP", "url": "https://www.tagesschau.de/inland/regional/rheinlandpfalz/swr-fck-im-dfb-pokal-dreyer-reist-nach-ruanda-ankiffen-in-mainz-100.html", "thumbnailUrl": "https://images.tagesschau.de/image/8e7bbe2d-6644-40d0-b5dd-fe099f80df71/AAABjp1FoL4/AAABjcWesUg/16x9-512.jpg", "date": "2024-04-02T08:44:00.000+02:00", "lat": 49.9929, "lon": 7.2662, "intensity": 0.5, "source": "Tagesschau"}, {"title": "++ Belarus startet \u00dcbungsman\u00f6ver an EU-Grenze ++", "url": "https://www.tagesschau.de/newsticker/liveblog-ukraine-dienstag-336.html", "thumbnailUrl": "https://images.tagesschau.de/image/5b073b67-29bf-4703-b6b1-71469e4c25bb/AAABizMn-kk/AAABjcWesUg/16x9-512.jpg", "date": "2024-04-02T08:37:56.633+02:00", "lat": 53.7098, "lon": 27.9534, "intensity": 0.8, "source": "Tagesschau"}, {"title": "Berlin: Autofahrer st\u00f6\u00dft mit Motorradfahrer in Kreuzberg zusammen", "url": "https://www.tagesschau.de/inland/regional/berlin/rbb-berlin-autofahrer-stoesst-mit-motorradfahrer-in-kreuzberg-zusammen-100.html", "thumbnailUrl": "https://images.tagesschau.de/image/6e793ff6-98d7-477d-b3d4-52dd427654b3/AAABjp2EIs0/AAABjcWesUg/16x9-512.jpg", "date": "2024-04-02T08:32:30.000+02:00", "lat": 52.52, "lon": 13.4105, "intensity": 0.7, "source": "Tagesschau"}, {"title": "Filmemacherin Annekatrin Hendel: \"F\u00fcr mich ist Union Berlin ein Betrieb und keine Familie, wie oft gesagt wird\"", "url": "https://www.tagesschau.de/inland/regional/berlin/rbb-filmemacherin-annekatrin-hendel-fuer-mich-ist-union-berlin-ein-betrieb-und-keine-familie-wie-oft-gesagt-wird-102.html", "thumbnailUrl": "https://images.tagesschau.de/image/07e5ea3c-63a7-49de-a0b5-64e5a5ade4f9/AAABjp2AlGU/AAABjcWesUg/16x9-512.jpg", "date": "2024-04-02T08:28:55.000+02:00", "lat": 52.52, "lon": 13.4754, "intensity": 0.9, "source": "Tagesschau"}, {"title": "Hessen am Morgen: +++ Lagerhalle in Lich in Flammen +++ Polizei stoppt Auto mit 39 M\u00e4ngeln +++ CDU bei Google zwangsgegendert +++", "url": "https://www.tagesschau.de/inland/regional/hessen/hr-hessen-am-morgen--lagerhalle-in-lich-in-flammen-100.html", "thumbnailUrl": "https://images.tagesschau.de/image/a4ff5d2b-9ff3-42e8-9ddd-9c0d40f743a1/AAABjpz4yX8/AAABjcWesUg/16x9-512.jpg", "date": "2024-04-02T08:14:12.390+02:00", "lat": 50.5358, "lon": 8.8197, "intensity": 0.7, "source": "Tagesschau"}, {"title": "Unfall bei Villingen-Schwenningen: Zwei Autofahrer tot", "url": "https://www.tagesschau.de/inland/regional/badenwuerttemberg/swr-unfall-bei-villingen-schwenningen-zwei-autofahrer-tot-100.html", "thumbnailUrl": "https://images.tagesschau.de/image/041a152c-8579-45c8-a645-0f376e7a25ac/AAABjp2WKZI/AAABjcWesUg/16x9-512.jpg", "date": "2024-04-02T08:12:00.000+02:00", "lat": 48.0602, "lon": 8.4626, "intensity": 0.8, "source": "Tagesschau"}, {"title": "Hilfe f\u00fcr die Menschen in der Ukraine", "url": "https://www.tagesschau.de/spendenkonten/spendenkonten-133.html", "thumbnailUrl": "https://images.tagesschau.de/image/af005073-bb3d-428a-b6f8-a685c725811f/AAABh4VRChA/AAABjcWesUg/16x9-512.jpg", "date": "2024-04-02T08:07:12.688+02:00", "lat": 50.4501, "lon": 30.5234, "intensity": 0.7, "source": "Tagesschau"}, {"title": "iRobot Factory: Wie Sch\u00fcler spielerisch programmieren lernen", "url": "https://www.tagesschau.de/inland/regional/niedersachsen/ndr-irobot-factory-wie-schueler-spielerisch-programmieren-lernen-100.html", "thumbnailUrl": "https://images.tagesschau.de/image/ec5ceb90-dd44-4f18-8eef-fb905f599082/AAABjp1nEIs/AAABjcWesUg/16x9-512.jpg", "date": "2024-04-02T07:59:00.000+02:00", "lat": 52.3759, "lon": 10.4667, "intensity": 0.6, "source": "Tagesschau"}, {"title": "Gro\u00dfer Stern, Markgrafendamm, RE1: Baustellen f\u00fchren zu Verkehrseinschr\u00e4nkungen auf Stra\u00dfe und Schiene", "url": "https://www.tagesschau.de/inland/regional/brandenburg/rbb-grosser-stern-markgrafendamm-re1-baustellen-fuehren-zu-verkehrseinschraenkungen-auf-strasse-und-schiene-100.html", "thumbnailUrl": "https://images.tagesschau.de/image/995d9549-e87f-4442-bb6c-bad4dedfce9f/AAABjp1m9VI/AAABjcWesUg/16x9-512.jpg", "date": "2024-04-02T07:57:41.000+02:00", "lat": 52.5141, "lon": 13.3623, "intensity": 0.6, "source": "Tagesschau"}, {"title": "Russischer Frachter mit Uran an Bord in Rostock festgehalten", "url": "https://www.tagesschau.de/inland/regional/mecklenburgvorpommern/ndr-russischer-frachter-mit-uran-an-bord-in-rostock-festgehalten-100.html", "thumbnailUrl": "https://images.tagesschau.de/image/8c237333-dc83-4bea-9a9f-2e616fe43150/AAABjp1mjxY/AAABjcWesUg/16x9-512.jpg", "date": "2024-04-02T07:45:00.000+02:00", "lat": 54.0924, "lon": 12.1148, "intensity": 0.8, "source": "Tagesschau"}, {"title": "Kurze Verschnaufpause f\u00fcr den DAX?", "url": "https://www.tagesschau.de/wirtschaft/finanzen/marktberichte/marktbericht-dow-dax-geldanlage-boerse-aktien-100.html", "thumbnailUrl": "https://images.tagesschau.de/image/8a4b21e7-4a87-4900-a139-058fa1b1e6b9/AAABjdZS924/AAABjcWesUg/16x9-512.jpg", "date": "2024-04-02T07:39:51.527+02:00", "lat": 51.4728, "lon": 9.9937, "intensity": 0.6, "source": "Tagesschau"}, {"title": "Hilfe f\u00fcr zwei R\u00e4der gefragt - Fahrradwerkst\u00e4tten am Limit", "url": "https://www.tagesschau.de/inland/regional/schleswigholstein/ndr-hilfe-fuer-zwei-raeder-gefragt-fahrradwerkstaetten-am-limit-100.html", "thumbnailUrl": "https://images.tagesschau.de/image/cfd0ffbd-7f0e-41eb-b4c4-39cf40b92268/AAABjpzATE8/AAABjcWesUg/16x9-512.jpg", "date": "2024-04-02T07:35:00.000+02:00", "lat": 54.526, "lon": 9.985, "intensity": 0.7, "source": "Tagesschau"}, {"title": "Saarl\u00e4nder leiden besonders h\u00e4ufig unter chronischen Schmerzen", "url": "https://www.tagesschau.de/inland/regional/saarland/sr-saarlaender-leiden-besonders-haeufig-unter-chronischen-schmerzen-100.html", "thumbnailUrl": "https://images.tagesschau.de/image/72e1460c-9683-4682-a13e-6518be279821/AAABjp2JRjs/AAABjcWesUg/16x9-512.jpg", "date": "2024-04-02T07:24:00.000+02:00", "lat": 49.3964, "lon": 7.0, "intensity": 0.8, "source": "Tagesschau"}, {"title": "Nordkorea testet offenbar Mittelstreckenrakete", "url": "https://www.tagesschau.de/ausland/asien/nordkorea-raketentest-332.html", "thumbnailUrl": "https://images.tagesschau.de/image/91e4c98d-b7f2-4eb7-8a5b-915af0544729/AAABjp03h_c/AAABjcWesUg/16x9-512.jpg", "date": "2024-04-02T07:10:46.530+02:00", "lat": 39.0392, "lon": 125.7625, "intensity": 0.8, "source": "Tagesschau"}, {"title": "Aus rbbKultur wird radio3 - \"Die Klassik bleibt journalistisches Thema\"", "url": "https://www.tagesschau.de/inland/regional/berlin/rbb-aus-rbbkultur-wird-radio3-die-klassik-bleibt-journalistisches-thema-100.html", "thumbnailUrl": "https://images.tagesschau.de/image/32ba47e3-369c-4197-bfc6-4ea0436147c1/AAABjp0xjAs/AAABjcWesUg/16x9-512.jpg", "date": "2024-04-02T06:59:39.000+02:00", "lat": 52.520008, "lon": 13.404954, "intensity": 0.6, "source": "Tagesschau"}, {"title": "Schleuse Banzkow: Schweriner Seen wieder f\u00fcr Boote erreichbar", "url": "https://www.tagesschau.de/inland/regional/mecklenburgvorpommern/ndr-schleuse-banzkow-schweriner-seen-wieder-fuer-boote-erreichbar-100.html", "thumbnailUrl": "https://images.tagesschau.de/image/b4c873b0-0514-4a72-8bc5-ac8a2c63806f/AAABjpf1Edo/AAABjcWesUg/16x9-512.jpg", "date": "2024-04-02T06:55:00.000+02:00", "lat": 53.6269, "lon": 11.4501, "intensity": 0.6, "source": "Tagesschau"}, {"title": "Spannung vor dem DFB-Pokal-Halbfinale 1. FC Saarbr\u00fccken gegen 1. FC Kaiserslautern", "url": "https://www.tagesschau.de/inland/regional/saarland/sr-countdown-zum-pokalhalbfinale-1-fc-saarbruecken-gegen-1-fc-kaiserlautern-100.html", "thumbnailUrl": "https://images.tagesschau.de/image/8f0d814d-b0c3-4e93-8b8a-6dcd285c1fe3/AAABjp2dY7o/AAABjcWesUg/16x9-512.jpg", "date": "2024-04-02T06:48:00.000+02:00", "lat": 49.35, "lon": 7.0, "intensity": 0.8, "source": "Tagesschau"}, {"title": "Senioren hinter Gittern: So leben \u00fcber 60-J\u00e4hrige in Berlin Haft", "url": "https://www.tagesschau.de/inland/regional/brandenburg/rbb-senioren-hinter-gittern-so-leben-ueber-60-jaehrige-in-berlin-haft-100.html", "thumbnailUrl": "https://images.tagesschau.de/image/2c04c053-2648-475d-ae2b-00e306084c3d/AAABjp0k2a8/AAABjcWesUg/16x9-512.jpg", "date": "2024-04-02T06:45:41.000+02:00", "lat": 52.520008, "lon": 13.404954, "intensity": 0.7, "source": "Tagesschau"}, {"title": "Femizid: Selbsthilfegruppe f\u00fcr Angeh\u00f6rige in Ludwigshafen gegr\u00fcndet", "url": "https://www.tagesschau.de/inland/regional/rheinlandpfalz/swr-femizid-selbsthilfegruppe-fuer-angehoerige-in-ludwigshafen-gegruendet-102.html", "thumbnailUrl": "https://images.tagesschau.de/image/628b704a-28f8-464d-9175-3027a26c155f/AAABjp11Ob4/AAABjcWesUg/16x9-512.jpg", "date": "2024-04-02T06:45:03.000+02:00", "lat": 49.4844443, "lon": 8.4407293, "intensity": 0.8, "source": "Tagesschau"}, {"title": "Alkoholverbot am Hamburger Hauptbahnhof wird heute wirksam", "url": "https://www.tagesschau.de/inland/regional/hamburg/ndr-alkoholverbot-am-hamburger-hauptbahnhof-tritt-am-dienstag-in-kraft-100.html", "thumbnailUrl": "https://images.tagesschau.de/image/bdfdee54-9063-47c5-b8f0-dc4bd5349b67/AAABjp0xuDA/AAABjcWesUg/16x9-512.jpg", "date": "2024-04-02T06:33:00.000+02:00", "lat": 53.5526, "lon": 9.9937, "intensity": 0.8, "source": "Tagesschau"}, {"title": "Neue K\u00f6hlbrandbr\u00fccke soll bis zu 5,3 Milliarden Euro kosten", "url": "https://www.tagesschau.de/inland/regional/hamburg/ndr-koehlbrandbruecke-leonhard-will-neue-plaene-praesentieren-100.html", "thumbnailUrl": "https://images.tagesschau.de/image/acaf40ed-50c3-402c-b0e9-4304cfe7e813/AAABjp0jC34/AAABjcWesUg/16x9-512.jpg", "date": "2024-04-02T06:27:00.000+02:00", "lat": 53.5461, "lon": 9.9869, "intensity": 0.7, "source": "Tagesschau"}, {"title": "Das sind die Stra\u00dfensperrungen zum DFB-Pokal-Spiel", "url": "https://www.tagesschau.de/inland/regional/saarland/sr-das-sind-die-strassensperrungen-zum-dfb-pokal-spiel-100.html", "thumbnailUrl": "https://images.tagesschau.de/image/ada4a336-6a7c-4144-91a9-e902a40657ee/AAABjp0OkoE/AAABjcWesUg/16x9-512.jpg", "date": "2024-04-02T06:25:00.000+02:00", "lat": 49.233, "lon": 7.009, "intensity": 0.8, "source": "Tagesschau"}, {"title": "Saisonstart in MV: Tourismusbranche zufrieden mit dem Ostergesch\u00e4ft", "url": "https://www.tagesschau.de/inland/regional/mecklenburgvorpommern/ndr-saisonstart-in-mv-tourismusbranche-zufrieden-mit-dem-ostergeschaeft-100.html", "thumbnailUrl": "https://images.tagesschau.de/image/cef98533-7c61-43f7-8fd8-763616c96cd6/AAABjppL1bs/AAABjcWesUg/16x9-512.jpg", "date": "2024-04-02T06:14:00.000+02:00", "lat": 53.6127, "lon": 12.5655, "intensity": 0.8, "source": "Tagesschau"}, {"title": "Winternotprogramm in Hamburg endet", "url": "https://www.tagesschau.de/inland/regional/hamburg/ndr-winternotprogramm-in-hamburg-endet-100.html", "thumbnailUrl": "https://images.tagesschau.de/image/75e15eb4-66c6-4b53-81fa-97b653447ff4/AAABjp0qXL4/AAABjcWesUg/16x9-512.jpg", "date": "2024-04-02T06:09:00.000+02:00", "lat": 53.55, "lon": 10.0, "intensity": 0.8, "source": "Tagesschau"}, {"title": "B\u00e4cker aus Serrig: \"Kleine B\u00e4ckereien auf dem Land werden verschwinden\" ", "url": "https://www.tagesschau.de/inland/regional/rheinlandpfalz/swr-baecker-aus-serrig-kleine-baeckereien-auf-dem-land-werden-verschwinden-102.html", "thumbnailUrl": "https://images.tagesschau.de/image/9b14f521-c2db-498e-ae01-eb3e9afd31e6/AAABjp1M31M/AAABjcWesUg/16x9-512.jpg", "date": "2024-04-02T06:07:16.000+02:00", "lat": 49.7566, "lon": 6.7987, "intensity": 0.7, "source": "Tagesschau"}, {"title": "St\u00e4rkere Stimme f\u00fcr Kinder und Jugendliche in MVs Politik", "url": "https://www.tagesschau.de/inland/regional/mecklenburgvorpommern/ndr-staerkere-stimme-fuer-kinder-und-jugendliche-in-mvs-politik-100.html", "thumbnailUrl": "https://images.tagesschau.de/image/b189e7ad-bab5-42c3-8230-62b05796b98c/AAABjp0ZsA4/AAABjcWesUg/16x9-512.jpg", "date": "2024-04-02T06:06:00.000+02:00", "lat": 53.6127, "lon": 13.2394, "intensity": 0.6, "source": "Tagesschau"}, {"title": "Falsch bef\u00fcllte Biotonnen in Aachen werden nicht mehr geleert", "url": "https://www.tagesschau.de/inland/regional/nordrheinwestfalen/wdr-falsch-befuellte-biotonnen-in-aachen-werden-nicht-mehr-geleert-102.html", "thumbnailUrl": "https://images.tagesschau.de/image/872e514e-85f8-40ef-9c0a-41f4452ac3cd/AAABjp0LB7Y/AAABjcWesUg/16x9-512.jpg", "date": "2024-04-02T06:00:00.000+02:00", "lat": 50.7753, "lon": 6.083, "intensity": 0.6, "source": "Tagesschau"}, {"title": "Campino h\u00e4lt erste Vorlesung als Gastprofessor in D\u00fcsseldorf", "url": "https://www.tagesschau.de/inland/regional/nordrheinwestfalen/wdr-campino-haelt-erste-vorlesung-als-gastprofessor-in-duesseldorf-100.html", "thumbnailUrl": "https://images.tagesschau.de/image/e9da32b1-57ce-4195-82e2-fdc58304969f/AAABjp0K79g/AAABjcWesUg/16x9-512.jpg", "date": "2024-04-02T06:00:00.000+02:00", "lat": 51.2277, "lon": 6.7715, "intensity": 0.7, "source": "Tagesschau"}, {"title": "Israel will Sender Al Jazeera abschalten", "url": "https://www.tagesschau.de/ausland/asien/israel-gesetz-al-jazeera-100.html", "thumbnailUrl": "https://images.tagesschau.de/image/303acc43-d709-47c7-8c87-d18683f43c91/AAABjXlxmsc/AAABjcWesUg/16x9-512.jpg", "date": "2024-04-02T05:06:35.955+02:00", "lat": 31.7683, "lon": 35.2137, "intensity": 0.8, "source": "Tagesschau"}, {"title": "\"Team nebenan\": 1.000 Euro f\u00fcr eine Idee", "url": "https://www.tagesschau.de/inland/regional/hamburg/ndr-team-nebenan-1-000-euro-fuer-eine-idee-100.html", "thumbnailUrl": "https://images.tagesschau.de/image/3f02b3f4-0eb7-4235-9427-2fc3ac61bd1c/AAABjpzANPE/AAABjcWesUg/16x9-512.jpg", "date": "2024-04-02T05:00:00.000+02:00", "lat": 53.5511, "lon": 9.9937, "intensity": 0.8, "source": "Tagesschau"}, {"title": "Signalrakete gez\u00fcndet: Segelboot ger\u00e4t auf dem Bodensee in Not", "url": "https://www.tagesschau.de/inland/regional/badenwuerttemberg/swr-signalrakete-gezuendet-segelboot-geraet-auf-dem-bodensee-in-seenot-100.html", "thumbnailUrl": "https://images.tagesschau.de/image/7eb4256f-6d49-4847-a77e-9963fc05acf7/AAABjpYtHhw/AAABjcWesUg/16x9-512.jpg", "date": "2024-04-02T03:42:00.000+02:00", "lat": 47.6244, "lon": 9.5901, "intensity": 0.7, "source": "Tagesschau"}, {"title": "\"Russland zur Verantwortung ziehen\"", "url": "https://www.tagesschau.de/ausland/europa/ukraine-konferenz-den-haag-100.html", "thumbnailUrl": "https://images.tagesschau.de/image/eb3d950f-4829-486b-b1a2-199386a98828/AAABjpsu1T0/AAABjcWesUg/16x9-512.jpg", "date": "2024-04-02T03:31:09.152+02:00", "lat": 50.4501, "lon": 30.5234, "intensity": 0.6, "source": "Tagesschau"}, {"title": "Drei Tote nach Lawine bei Zermatt", "url": "https://www.tagesschau.de/ausland/europa/zermatt-lawine-100.html", "thumbnailUrl": "https://images.tagesschau.de/image/694c65f7-1b97-44b0-ab95-bc14122e246d/AAABjpxg7Bc/AAABjcWesUg/16x9-512.jpg", "date": "2024-04-02T03:25:32.693+02:00", "lat": 46.0207, "lon": 7.7439, "intensity": 0.9, "source": "Tagesschau"}, {"title": "Sorge vor Eskalation nach Angriff auf iranische Botschaft", "url": "https://www.tagesschau.de/ausland/asien/damaskus-explosion-iran-botschaft-102.html", "thumbnailUrl": "https://images.tagesschau.de/image/1886863b-49f1-47ca-8a35-18432ba8a835/AAABjpvNylw/AAABjcWesUg/16x9-512.jpg", "date": "2024-04-02T00:45:47.888+02:00", "lat": 33.5138, "lon": 36.3033, "intensity": 0.8, "source": "Tagesschau"}, {"title": "Cannabis-Bef\u00fcrworter in Mainz feiern Teillegalisierung", "url": "https://www.tagesschau.de/inland/regional/rheinlandpfalz/swr-cannabis-befuerworter-in-mainz-feiern-teillegalisierung-102.html", "thumbnailUrl": "https://images.tagesschau.de/image/b2ff0170-2d7b-45c2-b143-46654ca26461/AAABjp0dULA/AAABjcWesUg/16x9-512.jpg", "date": "2024-04-02T00:06:41.000+02:00", "lat": 50.002541, "lon": 8.247252, "intensity": 0.8, "source": "Tagesschau"}, {"title": "60 Jahre Kampfschwimmer: Die Bundeswehr-Elite in Eckernf\u00f6rde", "url": "https://www.tagesschau.de/inland/regional/schleswigholstein/ndr-60-jahre-kampfschwimmer-die-bundeswehr-elite-in-eckernfoerde-100.html", "thumbnailUrl": "https://images.tagesschau.de/image/8fc59b10-318e-4564-8a39-b12f6b72fc0f/AAABjpuxQdE/AAABjcWesUg/16x9-512.jpg", "date": "2024-04-02T00:04:00.000+02:00", "lat": 54.4773, "lon": 9.8347, "intensity": 0.8, "source": "Tagesschau"}, {"title": "Abbau von \"Section Control\": B6 Richtung Laatzen gesperrt", "url": "https://www.tagesschau.de/inland/regional/niedersachsen/ndr-abbau-von-section-control-b6-richtung-laatzen-gesperrt-100.html", "thumbnailUrl": "https://images.tagesschau.de/image/068a752d-4e67-4798-843d-08c0267b36cf/AAABjput-6M/AAABjcWesUg/16x9-512.jpg", "date": "2024-04-02T00:00:00.000+02:00", "lat": 52.3015, "lon": 9.822, "intensity": 0.7, "source": "Tagesschau"}, {"title": "Bei Luftangriff im Gazastreifen sterben Mitarbeiter einer Hilfsorganisation", "url": "https://www.br.de/nachrichten/meldungen/index.html#n1", "thumbnailUrl": null, "date": "2024-04-02T08:45:06+02:00", "lat": 30.0444, "lon": 31.2357, "intensity": 0.8, "source": "Bayrischer Rundfunk"}, {"title": "Al-Dschasira darf wohl bald nicht mehr aus Israel senden", "url": "https://www.br.de/nachrichten/meldungen/index.html#n2", "thumbnailUrl": null, "date": "2024-04-02T08:45:06+02:00", "lat": 33.5138, "lon": 36.2021, "intensity": 0.8, "source": "Bayrischer Rundfunk"}, {"title": "Internationale Konferenz zu Kriegsverbrechen in der Ukraine", "url": "https://www.br.de/nachrichten/meldungen/index.html#n3", "thumbnailUrl": null, "date": "2024-04-02T08:45:06+02:00", "lat": 39.9334, "lon": 32.8597, "intensity": 0.8, "source": "Bayrischer Rundfunk"}, {"title": "Trump zahlt in Betrugsverfahren 175 Millionen Dollar Kaution", "url": "https://www.br.de/nachrichten/meldungen/index.html#n4", "thumbnailUrl": null, "date": "2024-04-02T08:45:06+02:00", "lat": 52.520008, "lon": 13.404954, "intensity": 0.7, "source": "Bayrischer Rundfunk"}, {"title": "Wissing spricht sich erneut gegen Tempolimit auf Autobahnen aus", "url": "https://www.br.de/nachrichten/meldungen/index.html#n5", "thumbnailUrl": null, "date": "2024-04-02T08:45:06+02:00", "lat": 52.520008, "lon": 13.404954, "intensity": 0.6, "source": "Bayrischer Rundfunk"}, {"title": "Diskussion \u00fcber Reform der Schuldenbremse geht weiter", "url": "https://www.br.de/nachrichten/meldungen/index.html#n6", "thumbnailUrl": null, "date": "2024-04-02T08:45:06+02:00", "lat": 48.135125, "lon": 11.581981, "intensity": 0.6, "source": "Bayrischer Rundfunk"}, {"title": "Buschmann fordert Kennzeichnungspflicht f\u00fcr KI-Bildmaterial", "url": "https://www.br.de/nachrichten/meldungen/index.html#n7", "thumbnailUrl": null, "date": "2024-04-02T08:45:06+02:00", "lat": 50.110922, "lon": 8.682127, "intensity": 0.8, "source": "Bayrischer Rundfunk"}, {"title": "Jugendliche haben keine Lust mehr auf Komasaufen", "url": "https://www.br.de/nachrichten/meldungen/index.html#n8", "thumbnailUrl": null, "date": "2024-04-02T08:45:06+02:00", "lat": 47.8684, "lon": 12.6394, "intensity": 0.8, "source": "Bayrischer Rundfunk"}, {"title": "Bei Lawinenungl\u00fcck in Zermatt kommen drei Menschen ums Leben", "url": "https://www.br.de/nachrichten/meldungen/index.html#n9", "thumbnailUrl": null, "date": "2024-04-02T08:45:06+02:00", "lat": 48.5844, "lon": 13.6722, "intensity": 0.8, "source": "Bayrischer Rundfunk"}, {"title": "In M\u00fcnchen sind E-Roller in U-Bahnen, Tram und Bussen seit heute verboten", "url": "https://www.br.de/nachrichten/meldungen/index.html#n10", "thumbnailUrl": null, "date": "2024-04-02T08:45:06+02:00", "lat": 53.5396, "lon": 8.5761, "intensity": 0.4, "source": "Bayrischer Rundfunk"}, {"title": "Das Wetter in Bayern: Sonne, Wolken und Schauer. H\u00f6chstwerte 10 bis 14 Grad", "url": "https://www.br.de/nachrichten/meldungen/index.html#n11", "thumbnailUrl": null, "date": "2024-04-02T08:45:06+02:00", "lat": 48.1351, "lon": 11.582, "intensity": 0.3, "source": "Bayrischer Rundfunk"}, {"title": "Berlin: Autofahrer st\u00f6\u00dft mit Motorradfahrer in Kreuzberg zusammen", "url": "https://www.rbb24.de/panorama/beitrag/2024/04/motorradfahrer-berlin-kreuzberg-auto-zusammengestossen-prinzenstrasse.html", "thumbnailUrl": null, "date": "Tue, 02 Apr 2024 08:32:30 +0200", "lat": 52.4931, "lon": 13.3986, "intensity": 0.6, "source": "RBB"}, {"title": "Berlin: Autofahrer st\u00f6\u00dft mit Motorradfahrer in Kreuzberg zusammen", "url": "https://www.rbb24.de/panorama/beitrag/2024/04/motorradfahrer-berlin-kreuzberg-auto-zusammengestossen-prinzenstrasse.html", "thumbnailUrl": null, "date": "Tue, 02 Apr 2024 08:32:30 +0200", "lat": 52.4946, "lon": 13.3986, "intensity": 0.6, "source": "RBB"}, {"title": "Baustellen f\u00fchren zu Verkehrseinschr\u00e4nkungen auf Stra\u00dfe und Schiene", "url": "https://www.rbb24.de/panorama/beitrag/2024/04/berlin-brandenburg-verkehr-einschraenkungen-grosser-stern-ampelanlage-kraneinsatz-tiefbauarbeiten-re1-bahn-a100.html", "thumbnailUrl": null, "date": "Tue, 02 Apr 2024 07:57:00 +0200", "lat": 52.517, "lon": 13.3696, "intensity": 0.6, "source": "RBB"}, {"title": "Aus rbbKultur wird radio3 - \"Die Klassik bleibt journalistisches Thema\"", "url": "https://www.rbb24.de/kultur/beitrag/2024/04/rbbkultur-radio3-interview-dorothee-hackenberg.html", "thumbnailUrl": null, "date": "Tue, 02 Apr 2024 06:59:39 +0200", "lat": 52.519171, "lon": 13.391133, "intensity": 0.3, "source": "RBB"}, {"title": "Gro\u00dfer Stern in Berlin-Tiergarten f\u00fcr vier Tage gesperrt", "url": "https://www.rbb24.de/panorama/beitrag/2024/03/berlin-tiergarten-grosser-stern-sperrung-neue-ampeln.html", "thumbnailUrl": null, "date": "Tue, 02 Apr 2024 06:52:56 +0200", "lat": 52.5146, "lon": 13.3503, "intensity": 0.6, "source": "RBB"}, {"title": "Senioren hinter Gittern: So leben \u00fcber 60-J\u00e4hrige in Berlin Haft", "url": "https://www.rbb24.de/panorama/beitrag/2024/04/senioren-aeltere-menschen-im-gefaengnis-haft-berlin.html", "thumbnailUrl": null, "date": "Tue, 02 Apr 2024 06:45:00 +0200", "lat": 52.52, "lon": 13.4073, "intensity": 0.7, "source": "RBB"}, {"title": "Kapelle im Turm der Garnisonkirche eingeweiht  - Proteste vor der T\u00fcr", "url": "https://www.rbb24.de/panorama/beitrag/2024/03/brandenburg-garnisonkirche-potsdam-turm-garnisonkirchturm-kapelle.html", "thumbnailUrl": null, "date": "Mon, 01 Apr 2024 20:52:10 +0200", "lat": 52.390569, "lon": 13.064472, "intensity": 0.6, "source": "RBB"}, {"title": "3:1 gegen Straubing: Effiziente Eisb\u00e4ren starten mit Sieg in die Halbfinal-Serie der DEL", "url": "https://www.rbb24.de/sport/beitrag/2024/04/del-eishockey-playoffs-halbfinale-eisbaeren-berlin-straubing-tigers-spiel-1-spielbericht.html", "thumbnailUrl": null, "date": "Mon, 01 Apr 2024 20:05:56 +0200", "lat": 52.520008, "lon": 13.413215, "intensity": 0.8, "source": "RBB"}, {"title": "Regionalliga Nordost: Energie Cottbus r\u00fcckt durch knappen Sieg gegen Eilenburg auf Platz zwei vor", "url": "https://www.rbb24.de/sport/beitrag/2024/04/fussball-regionalliga-nordost-energie-cottbus-eilenburg-spielbericht.html", "thumbnailUrl": null, "date": "Mon, 01 Apr 2024 15:20:00 +0200", "lat": 51.7515, "lon": 14.3251, "intensity": 0.6, "source": "RBB"}, {"title": "Landkreis Spree-Nei\u00dfe: Vier Menschen bei Verkehrsunfall in Kolkwitz schwer verletzt", "url": "https://www.rbb24.de/panorama/beitrag/2024/03/brandenburg-kolkwitz-verkehrsunfall-verletzte.html", "thumbnailUrl": null, "date": "Mon, 01 Apr 2024 14:53:24 +0200", "lat": 51.722, "lon": 14.308, "intensity": 0.8, "source": "RBB"}, {"title": "Berlin-Nikolassee: Zwei Schwerverletzte nach mutma\u00dflichem illegalen Rennen", "url": "https://www.rbb24.de/panorama/beitrag/2024/04/illegales-rennen-unfall-zehlendorf.html", "thumbnailUrl": null, "date": "Mon, 01 Apr 2024 13:47:00 +0200", "lat": 52.431, "lon": 13.2377, "intensity": 0.8, "source": "RBB"}, {"title": "Kind mit Spielzeugwaffe auf A11 l\u00f6st Polizeieinsatz aus", "url": "https://www.rbb24.de/panorama/beitrag/2024/04/polizeieinsatz-kind-spielzeugwaffe-autobahn-11-prenzlau.html", "thumbnailUrl": null, "date": "Mon, 01 Apr 2024 12:39:31 +0200", "lat": 52.518, "lon": 11.632, "intensity": 0.6, "source": "RBB"}, {"title": "Hunderte feiern Cannabis-Legalisierung in Berlin", "url": "https://www.rbb24.de/panorama/beitrag/2024/04/cannabis-legalisierung-feier.html", "thumbnailUrl": null, "date": "Mon, 01 Apr 2024 12:31:00 +0200", "lat": 52.5166, "lon": 13.3777, "intensity": 0.7, "source": "RBB"}, {"title": "Waldbrandgefahr im Brandenburger S\u00fcden steigt leicht", "url": "https://www.rbb24.de/panorama/beitrag/2024/04/suedbrandenburg-waldbrandgefahr-steigt-leicht.html", "thumbnailUrl": null, "date": "Mon, 01 Apr 2024 12:20:00 +0200", "lat": 52.5016, "lon": 13.3326, "intensity": 0.4, "source": "RBB"}, {"title": "Nofretete-B\u00fcste vor 100 Jahren erstmals \u00f6ffentlich ausgestellt", "url": "https://www.rbb24.de/kultur/beitrag/2024/04/berlin-nofretete-bueste-erste-ausstellung-vor-100-jahren.html", "thumbnailUrl": null, "date": "Mon, 01 Apr 2024 11:28:00 +0200", "lat": 52.52, "lon": 13.397, "intensity": 0.8, "source": "RBB"}, {"title": "Invasive Art: Imkerverband will Ausbreitung der Asiatischen Hornisse in Berlin verhindern", "url": "https://www.rbb24.de/panorama/beitrag/2024/04/berlin-imkerverband-schulungen-asiatische-hornisse.html", "thumbnailUrl": null, "date": "Mon, 01 Apr 2024 09:13:21 +0200", "lat": 52.520008, "lon": 13.404954, "intensity": 0.6, "source": "RBB"}, {"title": "Berliner Psychiater warnt: Cannabiskonsum kann vor allem bei jungen M\u00e4nnern zu Psychosen f\u00fchren", "url": "https://www.rbb24.de/panorama/beitrag/2024/04/cannabis-konsum-jugendliche-maenner-psychosen-psychiatrie-berlin.html", "thumbnailUrl": null, "date": "Mon, 01 Apr 2024 08:20:00 +0200", "lat": 52.52, "lon": 13.4229, "intensity": 0.7, "source": "RBB"}, {"title": "Video: Hertha und N\u00fcrnberg trennen sich nach furiosem Spiel mit 3:3", "url": "https://www.rbb24.de/sport/beitrag/av7/video-fussball-berlin-hertha-bsc-zweite-bundesliga-1-fc-nuernberg.html", "thumbnailUrl": null, "date": "Mon, 01 Apr 2024 00:00:00 +0200", "lat": 52.52, "lon": 13.5007, "intensity": 0.8, "source": "RBB"}, {"title": "Video: Union Berlin entf\u00fchrt einen Punkt aus Frankfurt", "url": "https://www.rbb24.de/sport/beitrag/av7/video-fussball-berlin-1-fc-union-bundesliga-eintracht-frankfurt.html", "thumbnailUrl": null, "date": "Mon, 01 Apr 2024 00:00:00 +0200", "lat": 52.457778, "lon": 13.494167, "intensity": 0.7, "source": "RBB"}, {"title": "Video | Spreewald: Sorbische Ostern", "url": "https://www.rbb24.de/panorama/beitrag/av7/video-sorbisch-ostern-ostersingen-tradition.html", "thumbnailUrl": null, "date": "Sun, 31 Mar 2024 21:40:56 +0200", "lat": 51.8667, "lon": 14.0833, "intensity": 0.2, "source": "RBB"}, {"title": "Erzbischof Koch zu Synodalem Weg: Katholische Kirche verliert Glaubw\u00fcrdigkeit wegen fehlender Gleichberechtigung", "url": "https://www.rbb24.de/panorama/beitrag/2024/03/katholische-kirche-frauen-synodaler-weg-erzbischof-heiner-koch.html", "thumbnailUrl": null, "date": "Sun, 31 Mar 2024 21:09:00 +0200", "lat": 51.225, "lon": 9.976, "intensity": 0.7, "source": "RBB"}, {"title": "Saisonstart auf Galopprennbahn: Mr. Hollywood bezwingt in Hoppegarten Derbysieger Fantastic Moon", "url": "https://www.rbb24.de/sport/beitrag/2024/03/saisonauftakt-hoppegarten-galopprennbahn-mr-hollywood-andrasch-starke.html", "thumbnailUrl": null, "date": "Sun, 31 Mar 2024 18:32:00 +0200", "lat": 52.5123, "lon": 13.6355, "intensity": 0.4, "source": "RBB"}, {"title": "85:65 gegen Hamburg: Alba Berlin gelingt achter Liga-Sieg in Serie - Schneider stellt BBL-Rekord auf", "url": "https://www.rbb24.de/sport/beitrag/2024/03/basketball-bundesliga-alba-berlin-hamburg-towers-spielbericht.html", "thumbnailUrl": null, "date": "Sun, 31 Mar 2024 17:53:00 +0200", "lat": 52.5065, "lon": 13.4633, "intensity": 0.7, "source": "RBB"}, {"title": "2. Fu\u00dfball-Bundesliga: Turbine klettert durch Sieg in Frankfurt auf Platz zwei", "url": "https://www.rbb24.de/sport/beitrag/2024/03/fussball-brandenburg-turbine-zweite-bundesliga-eintracht-frankfurt.html", "thumbnailUrl": null, "date": "Sun, 31 Mar 2024 16:30:00 +0200", "lat": 50.1109, "lon": 8.6821, "intensity": 0.6, "source": "RBB"}, {"title": "Regionalliga Nordost: Viktoria Berlin holt trotz vieler Chancen nur einen Punkt gegen Babelsberg", "url": "https://www.rbb24.de/sport/beitrag/2024/03/fussball-regionalliga-nordost-viktoria-berlin-babelsberg-03-spielbericht.html", "thumbnailUrl": null, "date": "Sun, 31 Mar 2024 16:01:45 +0200", "lat": 52.376, "lon": 13.0511, "intensity": 0.6, "source": "RBB"}, {"title": "Zwei Bl\u00f6cke im Kohlekraftwerk J\u00e4nschwalde vom Netz genommen", "url": "https://www.rbb24.de/wirtschaft/beitrag/2024/03/zwei-bloecke-kohlekraftwerk-jaenschwalde-vom-netz-genommen-spree-neisse-brandenburg.html", "thumbnailUrl": null, "date": "Sun, 31 Mar 2024 14:29:00 +0200", "lat": 51.8149, "lon": 14.26172, "intensity": 0.8, "source": "RBB"}, {"title": "Bundesverteidigungsministerium: Bundeswehr stellte 2023 weniger Soldaten in Berlin und Brandenburg ein", "url": "https://www.rbb24.de/panorama/beitrag/2024/03/bundeswehr-berlin-brandenburg-weniger-soldatinnen-soldaten-eingestellt.html", "thumbnailUrl": null, "date": "Sun, 31 Mar 2024 13:43:00 +0200", "lat": 52.520008, "lon": 13.404954, "intensity": 0.4, "source": "RBB"}, {"title": "Hallen-Weltcup in Frankreich: Potsdamer Triathletin Lindemann gelingt Sieg beim Jahresauftakt", "url": "https://www.rbb24.de/sport/beitrag/2024/03/triathlon-laura-lindemann-potsdam-sieg-hallen-weltcup-frankreich.html", "thumbnailUrl": null, "date": "Sun, 31 Mar 2024 10:43:51 +0200", "lat": 48.8566, "lon": 2.3522, "intensity": 0.7, "source": "RBB"}, {"title": "Letzter DDR-Bildungsminister Hans Joachim Meyer gestorben", "url": "https://www.rbb24.de/panorama/beitrag/2024/03/ddr-bildungsminister-hans-joachim-meyer.html", "thumbnailUrl": null, "date": "Sat, 30 Mar 2024 20:26:00 +0100", "lat": 52.520008, "lon": 13.404954, "intensity": 0.6, "source": "RBB"}, {"title": "Nach 3:1-Sieg in L\u00fcneburg: BR Volleys stehen kurz vor dreizehntem Final-Einzug in Folge", "url": "https://www.rbb24.de/sport/beitrag/2024/03/volleyball-vbl-playoffs-halbfinale-br-volleys-lueneburg-spiel-2-spielbericht.html", "thumbnailUrl": null, "date": "Sat, 30 Mar 2024 20:22:13 +0100", "lat": 53.2402, "lon": 10.4367, "intensity": 0.8, "source": "RBB"}, {"title": "Was das neue Cannabisgesetz im Alltag bedeutet", "url": "https://www.rbb24.de/politik/beitrag/2024/02/bundestag-neues-cannabis-gesetz-legalisierung-fragen-antworten.html", "thumbnailUrl": null, "date": "Sat, 30 Mar 2024 17:24:11 +0100", "lat": 53.5511, "lon": 9.9937, "intensity": 0.7, "source": "RBB"}, {"title": "Regionalliga Nordost: Hertha BSC II und Lok Leipzig teilen sich die Punkte,  Altglienicke schl\u00e4gt BAK", "url": "https://www.rbb24.de/sport/beitrag/2024/03/fussball-regionalliga-nordost-hertha-bsc-berlin-u23-lok-leipzig.html", "thumbnailUrl": null, "date": "Sat, 30 Mar 2024 15:12:13 +0100", "lat": 52.5109, "lon": 13.4345, "intensity": 0.5, "source": "RBB"}, {"title": "Gesundbrunnen: Drei E-Scooter-Fahrer pr\u00fcgeln auf Ehepaar ein", "url": "https://www.rbb24.de/panorama/beitrag/2024/03/berlin-gesundbrunne-e-scooter-fahrer-pruegel-ehepaar-polizei.html", "thumbnailUrl": null, "date": "Sat, 30 Mar 2024 12:44:00 +0100", "lat": 52.5489, "lon": 13.3897, "intensity": 0.7, "source": "RBB"}, {"title": "Autofahrer auf der Flucht verursacht Unfall in Angerm\u00fcnde - drei Schwerverletzte", "url": "https://www.rbb24.de/panorama/beitrag/2024/03/unfall-verkehr-angermuende-uckermark-flucht.html", "thumbnailUrl": null, "date": "Sat, 30 Mar 2024 11:47:00 +0100", "lat": 53.0333, "lon": 14.0024, "intensity": 0.8, "source": "RBB"}, {"title": "Bischof St\u00e4blein: Evangelische Kirche bei Aufarbeitung von Missbrauchsf\u00e4llen zu sp\u00e4t", "url": "https://www.rbb24.de/panorama/beitrag/2024/03/berlin-brandenburg-ekbo-bischof-staeblein-missbrauch-aufarbeitung.html", "thumbnailUrl": null, "date": "Sat, 30 Mar 2024 11:19:00 +0100", "lat": 52.520008, "lon": 13.404954, "intensity": 0.6, "source": "RBB"}, {"title": "Brandenburg: Landtagspr\u00e4sidentin Liedtke gegen Ausgrenzung der AfD", "url": "https://www.rbb24.de/politik/beitrag/2024/03/brandenburg-landtag-praesidentin-liedtke-gegen-afd-ausgrenzung.html", "thumbnailUrl": null, "date": "Sat, 30 Mar 2024 09:13:00 +0100", "lat": 52.4125, "lon": 13.0038, "intensity": 0.3, "source": "RBB"}, {"title": "Suche nach weiteren Ex-RAF-Mitgliedern: Ermittler bereiten sich auf l\u00e4ngere Fahndung nach Ex-Terroristen vor", "url": "https://www.rbb24.de/panorama/beitrag/2024/03/berlin-niedersachsen-raf-ermittler-polizei-laengere-suche-nach-ex-raf-terroristen.html", "thumbnailUrl": null, "date": "Sat, 30 Mar 2024 09:02:00 +0100", "lat": 53.551, "lon": 9.982, "intensity": 0.7, "source": "RBB"}, {"title": "Video | Baustopp: Wie es um das Bauprojekt \"Upside Berlin\" steht", "url": "https://www.rbb24.de/panorama/beitrag/av7/video-baustopp-hochhaeuser-friedrichshain-berlin.html", "thumbnailUrl": null, "date": "Fri, 29 Mar 2024 21:13:11 +0100", "lat": 52.466, "lon": 13.739, "intensity": 0.8, "source": "RBB"}, {"title": "Video | Lost Place Fotografie: Auf den Spuren der Tuberkuloseklinik Kolkwitz", "url": "https://www.rbb24.de/panorama/beitrag/av7/video-lost-place-fotografie-kunst-verborgen.html", "thumbnailUrl": null, "date": "Fri, 29 Mar 2024 20:57:05 +0100", "lat": 51.751525, "lon": 14.323335, "intensity": 0.7, "source": "RBB"}, {"title": "Basketball-Euroleague: Alba geht bei Fenerbahce mit 68:103 unter", "url": "https://www.rbb24.de/sport/beitrag/2024/03/basketball-euroleague-fenerbahce-istanbul-alba-berlin.html", "thumbnailUrl": null, "date": "Fri, 29 Mar 2024 20:52:43 +0100", "lat": 41.0839, "lon": 28.9861, "intensity": 0.7, "source": "RBB"}, {"title": "Video | Frankfurt-Oder: Experimentelles Ballett im Kleist Forum", "url": "https://www.rbb24.de/kultur/beitrag/av7/video-kleist-ballett-tanz-kultur-kunst.html", "thumbnailUrl": null, "date": "Fri, 29 Mar 2024 20:50:15 +0100", "lat": 52.3412, "lon": 14.5471, "intensity": 0.4, "source": "RBB"}, {"title": "Video | Teltow-Fl\u00e4ming: Wie die Evangelische Kirche mit sexualisierter Gewalt umgeht", "url": "https://www.rbb24.de/panorama/beitrag/av7/video-sexualisiert-gewalt-evangelisch-kirche-konfirmanten.html", "thumbnailUrl": null, "date": "Fri, 29 Mar 2024 20:41:17 +0100", "lat": 52.3321, "lon": 13.2457, "intensity": 0.6, "source": "RBB"}, {"title": "Video | Senftenberg: \"Santa Barbara\" wieder auf dem Senftenberger See unterwegs", "url": "https://www.rbb24.de/panorama/beitrag/av7/video-solar-senftenberg-gaeste-restaurant-fruehling.html", "thumbnailUrl": null, "date": "Fri, 29 Mar 2024 20:39:28 +0100", "lat": 51.5259, "lon": 13.9706, "intensity": 0.3, "source": "RBB"}, {"title": "Video | L\u00fcbben: Ferienhaussiedlung vor dem Aus", "url": "https://www.rbb24.de/panorama/beitrag/av7/video-ferienhaus-siedlung-luebben-weigern-sich-auszug.html", "thumbnailUrl": null, "date": "Fri, 29 Mar 2024 20:27:01 +0100", "lat": 51.9346, "lon": 13.8613, "intensity": 0.8, "source": "RBB"}, {"title": "Historiker Sebastian Conrad: \"Nofretete wird unabh\u00e4ngig davon erkannt, ob man das Original je gesehen hat\"", "url": "https://www.rbb24.de/kultur/beitrag/2024/02/interview-nofretete-sebastian-conrad-ausstellung-aegypten-berlin.html", "thumbnailUrl": null, "date": "Sun, 04 Feb 2024 12:16:00 +0100", "lat": 52.520008, "lon": 13.396128, "intensity": 0.6, "source": "RBB"}, {"title": "Alkoholverbot am Hamburger Hauptbahnhof wird heute wirksam", "url": "https://www.ndr.de/nachrichten/hamburg/Alkoholverbot-am-Hamburger-Hauptbahnhof-wird-heute-wirksam,hauptbahnhof686.html", "thumbnailUrl": "https://www.ndr.de/nachrichten/hamburg/hauptbahnhof688_v-contentwidescreen.jpg", "date": "2024-04-02T08:41:33.860+02:00", "lat": 53.5526, "lon": 9.9937, "intensity": 0.8, "source": "NDR"}, {"title": "Prora-Zentrum auf R\u00fcgen meldet Insolvenz an", "url": "https://www.ndr.de/nachrichten/mecklenburg-vorpommern/Prora-Zentrum-auf-Ruegen-meldet-Insolvenz-an,prora416.html", "thumbnailUrl": "https://www.ndr.de/kultur/prora410_v-contentwidescreen.jpg", "date": "2024-04-02T07:44:03.611+02:00", "lat": 54.3991, "lon": 13.6074, "intensity": 0.8, "source": "NDR"}, {"title": "Russischer Frachter mit Uran an Bord in Rostock festgehalten", "url": "https://www.ndr.de/nachrichten/mecklenburg-vorpommern/Russischer-Frachter-mit-Uran-an-Bord-in-Rostock-festgehalten,frachtschiff128.html", "thumbnailUrl": "https://www.ndr.de/nachrichten/schleswig-holstein/zoll1050_v-contentwidescreen.jpg", "date": "2024-04-02T08:53:27.772+02:00", "lat": 54.083, "lon": 12.099, "intensity": 0.8, "source": "NDR"}, {"title": "Hilfe f\u00fcr zwei R\u00e4der gefragt - Fahrradwerkst\u00e4tten am Limit", "url": "https://www.ndr.de/nachrichten/schleswig-holstein/schleswig-holstein_magazin/Hilfe-fuer-zwei-Raeder-gefragt-Fahrradwerkstaetten-am-Limit,fahrradwerkstatt134.html", "thumbnailUrl": "https://www.ndr.de/nachrichten/schleswig-holstein/fahrradwerkstatt136_v-contentwidescreen.jpg", "date": "2024-04-02T08:58:21.323+02:00", "lat": 54.3233, "lon": 10.1301, "intensity": 0.6, "source": "NDR"}, {"title": "\"Das Schweigen des Wassers\": Raffinierter Ost-West-Krimi", "url": "https://www.ndr.de/kultur/buch/tipps/Das-Schweigen-des-Wassers-Raffinierter-Ost-West-Krimi,taegder104.html", "thumbnailUrl": "https://www.ndr.de/kultur/buch/tipps/covertaegder100_v-contentwidescreen.jpg", "date": "2024-04-02T06:00:00.195+02:00", "lat": 53.6127, "lon": 12.5665, "intensity": 0.7, "source": "NDR"}, {"title": "Winternotprogramm in Hamburg endet", "url": "https://www.ndr.de/nachrichten/hamburg/Winternotprogramm-in-Hamburg-endet,winternotprogramm276.html", "thumbnailUrl": "https://www.ndr.de/nachrichten/hamburg/winternotprogramm266_v-contentwidescreen.jpg", "date": "2024-04-02T06:58:55.587+02:00", "lat": 53.551085, "lon": 9.993682, "intensity": 0.8, "source": "NDR"}, {"title": "St\u00e4rkere Stimme f\u00fcr Kinder und Jugendliche in MVs Politik", "url": "https://www.ndr.de/nachrichten/mecklenburg-vorpommern/Staerkere-Stimme-fuer-Kinder-und-Jugendliche-in-MVs-Politik,jugendundpolitik100.html", "thumbnailUrl": "https://www.ndr.de/nachrichten/niedersachsen/jugendparlament130_v-contentwidescreen.jpg", "date": "2024-04-02T07:18:46.142+02:00", "lat": 54.0924, "lon": 12.1378, "intensity": 0.7, "source": "NDR"}, {"title": "Abbau von \"Section Control\": B6 Richtung Laatzen gesperrt", "url": "https://www.ndr.de/nachrichten/niedersachsen/hannover_weser-leinegebiet/Abbau-von-Section-Control-B6-Richtung-Laatzen-gesperrt,sectioncontrol150.html", "thumbnailUrl": "https://www.ndr.de/nachrichten/niedersachsen/hannover_weser-leinegebiet/sectioncontrol110_v-contentwidescreen.jpg", "date": "2024-04-02T06:43:23.787+02:00", "lat": 52.3418, "lon": 9.7909, "intensity": 0.6, "source": "NDR"}, {"title": "Neue K\u00f6hlbrandbr\u00fccke soll bis zu 5,3 Milliarden Euro kosten", "url": "https://www.ndr.de/nachrichten/hamburg/Neue-Koehlbrandbruecke-soll-bis-zu-53-Milliarden-Euro-kosten,koehlbrandbruecke384.html", "thumbnailUrl": "https://www.ndr.de/nachrichten/hamburg/koehlbrandbruecke386_v-contentwidescreen.jpg", "date": "2024-04-02T07:51:47.570+02:00", "lat": 53.5317, "lon": 9.9522, "intensity": 0.8, "source": "NDR"}, {"title": "Saisonstart in MV: Tourismusbranche zufrieden mit dem Ostergesch\u00e4ft", "url": "https://www.ndr.de/nachrichten/mecklenburg-vorpommern/Saisonstart-in-MV-Tourismusbranche-zufrieden-mit-dem-Ostergeschaeft,saisonstart164.html", "thumbnailUrl": "https://www.ndr.de/ostern1418_v-contentwidescreen.jpg", "date": "2024-04-02T06:39:12.008+02:00", "lat": 53.612, "lon": 12.623, "intensity": 0.7, "source": "NDR"}, {"title": "Cannabis-Legalisierung: Erstes \u00f6ffentliches Kiffen in Hannover", "url": "https://www.ndr.de/fernsehen/sendungen/hallo_niedersachsen/Cannabis-Legalisierung-Erstes-oeffentliches-Kiffen-in-Hannover,hallonds86652.html", "thumbnailUrl": "https://www.ndr.de/fernsehen/screenshot1725246_v-contentwidescreen.jpg", "date": "2024-04-02T06:31:06.111+02:00", "lat": 52.37589, "lon": 9.73322, "intensity": 0.7, "source": "NDR"}, {"title": "Hamburger Ostermarsch: Kritik am Regierungskurs", "url": "https://www.ndr.de/fernsehen/sendungen/hamburg_journal/Hamburger-Ostermarsch-Kritik-am-Regierungskurs,hamj145650.html", "thumbnailUrl": "https://www.ndr.de/fernsehen/screenshot1725468_v-contentwidescreen.jpg", "date": "2024-04-01T20:46:50.979+02:00", "lat": 53.5511, "lon": 9.9937, "intensity": 0.7, "source": "NDR"}, {"title": "In Banzkow wird wieder geschleust", "url": "https://www.ndr.de/fernsehen/sendungen/nordmagazin/In-Banzkow-wird-wieder-geschleust,nordmagazin116850.html", "thumbnailUrl": "https://www.ndr.de/fernsehen/screenshot1725408_v-contentwidescreen.jpg", "date": "2024-04-01T21:39:21.862+02:00", "lat": 53.4856, "lon": 11.4581, "intensity": 0.6, "source": "NDR"}, {"title": "Forscher in Niedersachsen testen: Wie stabil sind Windr\u00e4der?", "url": "https://www.ndr.de/fernsehen/sendungen/hallo_niedersachsen/Forscher-in-Niedersachsen-testen-Wie-stabil-sind-Windraeder,hallonds86660.html", "thumbnailUrl": "https://www.ndr.de/fernsehen/screenshot1725346_v-contentwidescreen.jpg", "date": "2024-04-02T06:17:21.791+02:00", "lat": 52.3759, "lon": 9.7301, "intensity": 0.8, "source": "NDR"}, {"title": "Kommentar zur Wahl in der T\u00fcrkei: Erdogan kassiert Denkzettel", "url": "https://www.ndr.de/nachrichten/info/Kommentar-zur-Wahl-in-der-Tuerkei-Erdogan-kassiert-Denkzettel,audio1605194.html", "thumbnailUrl": "https://www.ndr.de/nachrichten/info/erdogan498_v-contentwidescreen.jpg", "date": "2024-04-01T16:52:21.439+02:00", "lat": 38.9637, "lon": 35.2433, "intensity": 0.9, "source": "NDR"}, {"title": "Soziologin: Aufregung um Elterngeld-\u00c4nderungen \u00fcbertrieben", "url": "https://www.ndr.de/nachrichten/info/Soziologin-Aufregung-um-Elterngeld-Aenderungen-uebertrieben,audio1605156.html", "thumbnailUrl": "https://www.ndr.de/kultur/sendungen/ard_radiofestival/juttaallmendinger100_v-contentwidescreen.jpg", "date": "2024-04-01T16:28:38.763+02:00", "lat": 51.1657, "lon": 10.4515, "intensity": 0.3, "source": "NDR"}, {"title": "Heute mitdiskutieren: Warum tun wir uns mit der EU so schwer?", "url": "https://www.ndr.de/nachrichten/info/epg/Zweckehe-statt-Liebe-warum-tun-wir-uns-mit-der-EU-so-schwer-,sendung1433278.html", "thumbnailUrl": "https://www.ndr.de/ndr1niedersachsen/europafahne100_v-contentwidescreen.jpg", "date": "2024-04-02T00:00:00.161+02:00", "lat": 51.5413, "lon": 9.9937, "intensity": 0.3, "source": "NDR"}, {"title": "\"W\u00fcnsch Dir Deinen NDR\" - Jetzt f\u00fcr die Publikumsaktion bewerben!", "url": "https://www.ndr.de/wuensch_dir_deinen_ndr/index.html", "thumbnailUrl": "https://www.ndr.de/der_ndr/wunschprogramm131_v-contentwidescreen.jpg", "date": "2024-03-26T07:59:24.876+01:00", "lat": 53.551086, "lon": 9.993682, "intensity": 0.2, "source": "NDR"}, {"title": "Relaunch der vier NDR L\u00e4nder-Apps: Nachrichten aus Ihrer Region!", "url": "https://www.ndr.de/Relaunch-der-vier-NDR-Laender-Apps-Nachrichten-aus-Ihrer-Region,laenderapprelaunch100.html", "thumbnailUrl": "https://www.ndr.de/laenderapprelaunch102_v-contentwidescreen.jpg", "date": "2024-03-19T09:22:34.719+01:00", "lat": 53.8659, "lon": 9.8606, "intensity": 0.4, "source": "NDR"}, {"title": "Gaspreis Dashboard", "url": "https://www.ndr.de/home/gaspreis176.html", "thumbnailUrl": null, "date": "2023-04-06T14:49:06.409+02:00", "lat": 51.3426, "lon": 9.9976, "intensity": 0.7, "source": "NDR"}, {"title": "NDR Radioprogramme", "url": "https://www.ndr.de/radio/radiologobox100.html", "thumbnailUrl": null, "date": "2020-12-01T14:04:26.700+01:00", "lat": 53.5511, "lon": 9.9937, "intensity": 0.3, "source": "NDR"}, {"title": "Krieg und Terror - Die Lage im Nahen Osten und in der Ukraine", "url": "https://www.ndr.de/nachrichten/info/podcast5342.html", "thumbnailUrl": "https://www.ndr.de/nachrichten/info/podcastbild412_v-contentwidescreen.jpg", "date": "2024-04-02T07:18:14.196+02:00", "lat": 46.79651, "lon": 30.739834, "intensity": 0.8, "source": "NDR"}, {"title": "Die Ern\u00e4hrungs-Docs - Essen als Medizin", "url": "https://www.ndr.de/fernsehen/sendungen/die-ernaehrungsdocs/audio-podcast/index.html", "thumbnailUrl": "https://www.ndr.de/fernsehen/sendungen/die-ernaehrungsdocs/podcastbild338_v-contentwidescreen.jpg", "date": "2024-03-27T08:00:08.131+01:00", "lat": 53.5511, "lon": 9.9876, "intensity": 0.3, "source": "NDR"}, {"title": "Unsere Comedy \"Die Kur-Oase\"!", "url": "https://www.ndr.de/ndr2/podcasts/podcast5816.html", "thumbnailUrl": "https://www.ndr.de/ndr2/podcasts/podcast5812_v-contentwidescreen.jpg", "date": "2024-04-02T07:15:31.455+02:00", "lat": 54.9069, "lon": 8.7386, "intensity": 0.2, "source": "NDR"}, {"title": "Organisiertes Verbrechen - Recherchen im Verborgenen", "url": "https://www.ndr.de/nachrichten/info/podcast4992.html", "thumbnailUrl": "https://www.ndr.de/nachrichten/info/podcastbildov100_v-contentwidescreen.jpg", "date": "2024-03-01T06:00:27.490+01:00", "lat": 45.9432, "lon": 24.9668, "intensity": 0.8, "source": "NDR"}, {"title": "eat.READ.sleep. B\u00fccher f\u00fcr dich", "url": "https://www.ndr.de/kultur/sendungen/eat_read_sleep/index.html", "thumbnailUrl": "https://www.ndr.de/mediathek/podcastbild434_v-contentwidescreen.jpg", "date": "2024-03-29T06:00:20.892+01:00", "lat": 53.5511, "lon": 9.9937, "intensity": 0.2, "source": "NDR"}, {"title": "Killed in Action: Afghanistan - Mission ohne Ziel", "url": "https://www.ndr.de/nachrichten/info/sendungen/podcast4574.html", "thumbnailUrl": "https://www.ndr.de/nachrichten/info/podcasts/podcastbild478_v-contentwidescreen.jpg", "date": "2024-02-16T17:44:01.214+01:00", "lat": 33.9391, "lon": 66.2385, "intensity": 0.8, "source": "NDR"}, {"title": "Streitkr\u00e4fte und Strategien", "url": "https://www.ndr.de/nachrichten/info/podcast2998.html", "thumbnailUrl": "https://www.ndr.de/mediathek/mediathekbild566_v-contentwidescreen.jpg", "date": "2024-03-26T17:22:43.541+01:00", "lat": 53.5511, "lon": 9.9937, "intensity": 0.8, "source": "NDR"}, {"title": "Standpunkte", "url": "https://www.ndr.de/nachrichten/info/podcast4700.html", "thumbnailUrl": "https://www.ndr.de/mediathek/podcast5332_v-contentwidescreen.jpg", "date": "2024-04-02T00:04:17.037+02:00", "lat": 53.5511, "lon": 9.9937, "intensity": 0.5, "source": "NDR"}, {"title": "Mein Einsatz - der Feuerwehr-Podcast von NDR Niedersachsen", "url": "https://www.ndr.de/ndr1niedersachsen/podcast5774.html", "thumbnailUrl": "https://www.ndr.de/ndr1niedersachsen/podcasts/podcastbild364_v-contentwidescreen.jpg", "date": "2024-03-28T04:00:07.923+01:00", "lat": 52.3759, "lon": 9.7345, "intensity": 0.7, "source": "NDR"}, {"title": "\"Feel Hamburg\" - alle Folgen", "url": "https://www.ndr.de/903/podcasts/podcast5108.html", "thumbnailUrl": "https://www.ndr.de/mediathek/mediathekbild514_v-contentwidescreen.jpg", "date": "2024-03-28T13:59:51.353+01:00", "lat": 53.55, "lon": 10.0, "intensity": 0.4, "source": "NDR"}, {"title": "Intensiv-Station - Satire von NDR Info", "url": "https://www.ndr.de/nachrichten/info/podcast4274.html", "thumbnailUrl": "https://www.ndr.de/nachrichten/info/programm/intensivstation3272_v-contentwidescreen.jpg", "date": "2024-03-25T22:56:23.803+01:00", "lat": 54.3706, "lon": 10.5038, "intensity": 0.8, "source": "NDR"}, {"title": "Amerika, wir m\u00fcssen reden!", "url": "https://www.ndr.de/nachrichten/info/podcast4932.html", "thumbnailUrl": "https://www.ndr.de/nachrichten/info/podcastbild488_v-contentwidescreen.jpg", "date": "2024-03-15T17:30:07.058+01:00", "lat": 39.78373, "lon": -100.445882, "intensity": 0.7, "source": "NDR"}, {"title": "Das Westfalenstadion: Gr\u00f6\u00dfte Fu\u00dfball-Kultst\u00e4tte wird 50", "url": "https://www1.wdr.de/nachrichten/westfalenstadion-dortmund-fuenfzig-jahre-100.html", "thumbnailUrl": null, "date": "2024-04-02T06:16:34Z", "lat": 51.4926, "lon": 7.4513, "intensity": 0.8, "source": "WDR"}, {"title": "Campino h\u00e4lt erste Vorlesung als Gastprofessor in D\u00fcsseldorf", "url": "https://www1.wdr.de/nachrichten/rheinland/duesseldorf-campino-gastprofessor-vorlesung-100.html", "thumbnailUrl": null, "date": "2024-04-02T05:30:56Z", "lat": 51.2277, "lon": 6.7924, "intensity": 0.5, "source": "WDR"}, {"title": "Falsch bef\u00fcllte Biotonnen in Aachen werden nicht mehr geleert", "url": "https://www1.wdr.de/nachrichten/rheinland/aachen-falsch-befuellte-biotonnen-100.html", "thumbnailUrl": null, "date": "2024-04-02T05:06:08Z", "lat": 50.77535, "lon": 6.08342, "intensity": 0.6, "source": "WDR"}, {"title": "Fast jedem Vierten fehlt das Geld f\u00fcr eine Woche Urlaub", "url": "https://www1.wdr.de/nachrichten/armut-deutschland-urlaub-eine-woche-100.html", "thumbnailUrl": null, "date": "2024-04-01T18:14:15Z", "lat": 51.1657, "lon": 10.4515, "intensity": 0.8, "source": "WDR"}, {"title": "Gegen Israel und NATO: Botschaften bei Osterm\u00e4rschen sorgen f\u00fcr Kritik", "url": "https://www1.wdr.de/nachrichten/ostermaersche-nrw-ueberblick-100.html", "thumbnailUrl": null, "date": "2024-04-01T16:35:14Z", "lat": 51.4556, "lon": 7.5976, "intensity": 0.6, "source": "WDR"}, {"title": "RWE nimmt Braunkohle-Bl\u00f6cke vom Netz", "url": "https://www1.wdr.de/nachrichten/rwe-braunkohle-stilllegung-100.html", "thumbnailUrl": null, "date": "2024-04-01T12:24:24Z", "lat": 51.4332, "lon": 6.9255, "intensity": 0.7, "source": "WDR"}, {"title": "Vier Verletzte nach Kollision auf B 258 bei Roetgen - Vollsperrung aufgehoben", "url": "https://www1.wdr.de/nachrichten/rheinland/unfall-himmelsleiter-b258-100.html", "thumbnailUrl": null, "date": "2024-04-01T16:42:03Z", "lat": 50.6396, "lon": 6.2457, "intensity": 0.8, "source": "WDR"}, {"title": "Brandstiftung in Solingen: Mehr als 700 Menschen bei Trauermarsch", "url": "https://www1.wdr.de/nachrichten/rheinland/brandstiftung-solingen-welches-motiv-100.html", "thumbnailUrl": null, "date": "2024-03-30T19:11:16Z", "lat": 51.1657, "lon": 7.0783, "intensity": 0.8, "source": "WDR"}, {"title": "Krieg gegen die Ukraine: Ukraine-Liveblog: ++ Selenskyj will Drohnen-Produktion hochfahren ++", "url": "https://www.tagesschau.de/newsticker/liveblog-ukraine-montag-352.html", "thumbnailUrl": null, "date": "2024-04-01T20:24:02Z", "lat": 50.4501, "lon": 30.5234, "intensity": 0.8, "source": "WDR"}, {"title": "Wegen Blockade von US-Hilfen: Selenskyj bef\u00fcrchtet R\u00fcckzug der Streitkr\u00e4fte wegen blockierter Hilfen", "url": "https://www.tagesschau.de/ausland/europa/ukraine-selenskyj-hilfen-usa-100.html", "thumbnailUrl": null, "date": "2024-03-30T15:06:03Z", "lat": 50.4501, "lon": 30.5234, "intensity": 0.8, "source": "WDR"}, {"title": "Ukraine gedenkt der Irpin-Opfer: Suche nach Erinnerungskultur zum Jahrestag der Irpin-Befreiung", "url": "https://www.tagesschau.de/ausland/europa/irpin-bruecke-ukraine-100.html", "thumbnailUrl": null, "date": "2024-03-29T21:36:02Z", "lat": 50.531783, "lon": 30.22409, "intensity": 0.8, "source": "WDR"}, {"title": "Ukraine: Zwischen Krieg und Normalit\u00e4t", "url": "https://www1.wdr.de/mediathek/audio/wdr5/wdr5-mittagsecho/audio-ukraine-zwischen-krieg-und-normalitaet-100.html", "thumbnailUrl": null, "date": "2024-03-27T13:17:56Z", "lat": 50.4501, "lon": 30.5234, "intensity": 0.7, "source": "WDR"}, {"title": "WDR aktuell Whatsapp-Kanal abonnieren - so geht's", "url": "https://www1.wdr.de/nachrichten/wdr-aktuell-whatsapp-kanal-100.html", "thumbnailUrl": null, "date": "2023-12-22T20:22:52Z", "lat": 51.4818, "lon": 7.6261, "intensity": 0.1, "source": "WDR"}, {"title": "Nahost-Krieg: Nahost-Liveblog: ++ USA: Israel will Bedenken \"ber\u00fccksichtigen\" ++", "url": "https://www.tagesschau.de/newsticker/liveblog-nahost-dienstag-124.html", "thumbnailUrl": null, "date": "2024-04-02T03:57:02Z", "lat": 31.7683, "lon": 35.2125, "intensity": 0.7, "source": "WDR"}, {"title": "Gazastreifen: Mitarbeiter von Hilfsorganisation im Gazastreifen get\u00f6tet", "url": "https://www.tagesschau.de/ausland/asien/nahost-isreal-luftangriff-hilfsorganisation-100.html", "thumbnailUrl": null, "date": "2024-04-02T06:51:01Z", "lat": 31.5107, "lon": 34.3956, "intensity": 0.8, "source": "WDR"}, {"title": "Israel: Zehntausende protestieren erneut gegen Netanyahu-Regierung", "url": "https://www.tagesschau.de/ausland/israel-lage-netanyahu-100.html", "thumbnailUrl": null, "date": "2024-04-01T06:54:03Z", "lat": 31.0461, "lon": 35.8436, "intensity": 0.8, "source": "WDR"}, {"title": "Israel: Israel: Wehrpflicht-Ausnahme f\u00fcr Ultraorthodoxe l\u00e4uft aus", "url": "https://www.tagesschau.de/ausland/israel-wehrpflicht-ultraorthodoxe-102.html", "thumbnailUrl": null, "date": "2024-03-31T22:18:02Z", "lat": 31.7683, "lon": 35.2137, "intensity": 0.8, "source": "WDR"}, {"title": "Die wichtigsten Fakten \u00fcber den Gazastreifen", "url": "https://www1.wdr.de/nachrichten/gaza-gazastreifen-israel-hintergrund-100.html", "thumbnailUrl": null, "date": "2023-10-11T15:33:25Z", "lat": 31.5107, "lon": 34.3445, "intensity": 0.8, "source": "WDR"}, {"title": "Schwerer Unfall in Hagen: Linienbus kracht frontal in ein Auto", "url": "https://www1.wdr.de/nachrichten/unfall-hagen-linienbus-100.html", "thumbnailUrl": null, "date": "2024-03-31T14:43:23Z", "lat": 51.3607, "lon": 7.4717, "intensity": 0.8, "source": "WDR"}, {"title": "Gewitter am Ostersonntag \u00fcber NRW: Blitzeinschlag in Krefeld", "url": "https://www1.wdr.de/nachrichten/nrw-gewitter-ostersonntag-100.html", "thumbnailUrl": null, "date": "2024-04-01T09:29:40Z", "lat": 51.3387, "lon": 6.5657, "intensity": 0.7, "source": "WDR"}, {"title": "Rosa Spektakel - in Bonn bl\u00fchen die Kirschb\u00e4ume", "url": "https://www1.wdr.de/nachrichten/rheinland/kirschbluete-bonn-106.html", "thumbnailUrl": null, "date": "2024-03-30T19:11:07Z", "lat": 50.7374, "lon": 7.0982, "intensity": 0.2, "source": "WDR"}, {"title": "Im siebten Stock: Brand in Hochhaus in Krefeld", "url": "https://www1.wdr.de/nachrichten/rheinland/brand-hochhaus-krefeld-100.html", "thumbnailUrl": null, "date": "2024-03-30T20:16:34Z", "lat": 51.3388, "lon": 6.5761, "intensity": 0.8, "source": "WDR"}, {"title": "Autoposer-Treffen am \"Car-Freitag\" in NRW und den Niederlanden", "url": "https://www1.wdr.de/nachrichten/autoposer-treffen-nrw-100.html", "thumbnailUrl": null, "date": "2024-03-30T11:46:45Z", "lat": 51.6784, "lon": 6.155, "intensity": 0.7, "source": "WDR"}, {"title": "Verbote am Karfreitag: Das sind die Regeln in NRW", "url": "https://www1.wdr.de/nachrichten/landespolitik/tanzverbot-ostern-keine-aenderungen-100.html", "thumbnailUrl": null, "date": "2024-03-30T05:17:01Z", "lat": 51.9607, "lon": 7.5964, "intensity": 0.4, "source": "WDR"}, {"title": "Organspende: Laumann f\u00fcr Widerspruchsl\u00f6sung", "url": "https://www1.wdr.de/nachrichten/landespolitik/organspende-laumann-widerspruchsloesung-100.html", "thumbnailUrl": null, "date": "2024-03-28T19:23:22Z", "lat": 51.9607, "lon": 7.6261, "intensity": 0.8, "source": "WDR"}, {"title": "Warum viele Kinder in NRW nicht schwimmen k\u00f6nnen", "url": "https://www1.wdr.de/nachrichten/viele-kinder-koennen-nicht-schwimmen-100.html", "thumbnailUrl": null, "date": "2024-03-27T19:11:15Z", "lat": 51.4818, "lon": 7.6124, "intensity": 0.8, "source": "WDR"}, {"title": "Verfassungsbeschwerde: OVG wohl noch lange ohne neuen Chef", "url": "https://www1.wdr.de/nachrichten/landespolitik/besetzung-limbach-ovg-verfassungsbeschwerde-100.html", "thumbnailUrl": null, "date": "2024-03-27T13:49:43Z", "lat": 51.4818, "lon": 7.1443, "intensity": 0.6, "source": "WDR"}, {"title": "\"Viel gr\u00f6\u00dfere Fortschritte\" - Schwimmen lernen in den Ferien", "url": "https://www1.wdr.de/nachrichten/westfalen-lippe/schwimmen-kinder-ferienkurse-100.html", "thumbnailUrl": null, "date": "2024-03-27T19:41:53Z", "lat": 51.9607, "lon": 7.6261, "intensity": 0.4, "source": "WDR"}, {"title": "H\u00fcpfburg in Krefeld von Windsto\u00df erfasst - vier Kinder verletzt", "url": "https://www1.wdr.de/nachrichten/rheinland/huepfburg-krefeld-unfall-100.html", "thumbnailUrl": null, "date": "2024-03-31T19:04:37Z", "lat": 51.3331, "lon": 6.5629, "intensity": 0.7, "source": "WDR"}, {"title": "Karfreitags-Prozession - Der Kreuzweg f\u00fchrt durch Wuppertal", "url": "https://www1.wdr.de/nachrichten/wolfram-lumpe-kreuzweg-wuppertal-100.html", "thumbnailUrl": null, "date": "2024-03-30T05:17:09Z", "lat": 51.2647, "lon": 7.17, "intensity": 0.6, "source": "WDR"}, {"title": "Festnahme nach Messerangriff in Wuppertaler Einkaufszentrum", "url": "https://www1.wdr.de/nachrichten/wuppertal-messerattacke-einkaufszentrum-100.html", "thumbnailUrl": null, "date": "2024-03-30T10:35:36Z", "lat": 51.2647, "lon": 7.1797, "intensity": 0.8, "source": "WDR"}, {"title": "T\u00f6dlicher Unfall in Essener Kletterhalle", "url": "https://www1.wdr.de/nachrichten/ruhrgebiet/unfall-kletterhalle-essen-102.html", "thumbnailUrl": null, "date": "2024-03-30T19:10:49Z", "lat": 51.4556, "lon": 7.0123, "intensity": 0.8, "source": "WDR"}, {"title": "Schw\u00e4cheanfall: Reisebus mit Sch\u00fclern bei Werl verungl\u00fcckt", "url": "https://www1.wdr.de/nachrichten/westfalen-lippe/busunfall-autobahn-unna-werl-100.html", "thumbnailUrl": null, "date": "2024-03-29T18:28:55Z", "lat": 51.5441, "lon": 7.8847, "intensity": 0.8, "source": "WDR"}, {"title": "Gedenken an Naziopfer in Dortmund", "url": "https://www1.wdr.de/nachrichten/ruhrgebiet/gedenkstunde-bittermark-dortmund-100.html", "thumbnailUrl": null, "date": "2024-03-30T08:18:20Z", "lat": 51.482901, "lon": 7.499172, "intensity": 0.8, "source": "WDR"}, {"title": "Osterr\u00e4derlauf in L\u00fcgde: Uralter Brauch am Ostersonntag", "url": "https://www1.wdr.de/nachrichten/westfalen-lippe/osterraeder-lauf-luegde-100.html", "thumbnailUrl": null, "date": "2024-04-02T05:40:30Z", "lat": 51.9774, "lon": 9.2522, "intensity": 0.7, "source": "WDR"}, {"title": "Lodernde Tradition: So spektakul\u00e4r war der Osterr\u00e4derlauf in L\u00fcgde", "url": "https://www1.wdr.de/nachrichten/westfalen-lippe/fotos-osterraeder-luegde-100.html", "thumbnailUrl": null, "date": "2024-04-01T04:49:25Z", "lat": 51.9776, "lon": 9.1177, "intensity": 0.8, "source": "WDR"}, {"title": "Besitz von Kinderpornografie: Priester aus Recklinghausen angeklagt", "url": "https://www1.wdr.de/nachrichten/ruhrgebiet/priester-recklinghausen-anklage-kinderpornografie-100.html", "thumbnailUrl": null, "date": "2024-03-28T18:14:47Z", "lat": 51.6142, "lon": 7.2016, "intensity": 0.9, "source": "WDR"}, {"title": "Die App WDR aktuell begleitet Sie durch den Tag", "url": "https://www1.wdr.de/nachrichten/wdr-aktuell-app-stores-100.html", "thumbnailUrl": null, "date": "2023-10-30T11:49:53Z", "lat": 51.4508, "lon": 7.6261, "intensity": 0.3, "source": "WDR"}, {"title": "WDR Newsroom: Informationen f\u00fcr den Westen rund um die Uhr auf allen Kan\u00e4len", "url": "https://www1.wdr.de/nachrichten/newsroom-information-nrw-westen-100.html", "thumbnailUrl": null, "date": "2021-04-14T22:00:15Z", "lat": 51.4556, "lon": 7.0116, "intensity": 0.1, "source": "WDR"}, {"title": "Das Leitungsteam des Newsrooms im WDR (Programmbereich Aktuelles)", "url": "https://www1.wdr.de/nachrichten/newsroom-leitung-team-programmbereich-aktuelles-100.html", "thumbnailUrl": null, "date": "2024-03-08T15:34:21Z", "lat": 51.460021, "lon": 7.014026, "intensity": 0.3, "source": "WDR"}, {"title": "Wasserstoff-Kraftwerk Leipzig \u2013 Vorbild f\u00fcr klimaneutrale Energieversorgung in Europa?", "url": "https://www.mdr.de/nachrichten/sachsen/leipzig/wasserstoff-kraftwerk-leipzig-kohleausstieg-100.html", "thumbnailUrl": null, "date": "Tue, 02 Apr 2024 05:00:04 +0200", "lat": 51.3397, "lon": 12.3787, "intensity": 0.8, "source": "MDR"}, {"title": "Warum Superm\u00e4rkte ihre Kassen mit Alkohol, S\u00fc\u00dfem und Tabak best\u00fccken d\u00fcrfen", "url": "https://www.mdr.de/nachrichten/deutschland/gesellschaft/supermarkt-kasse-alkohol-zigaretten-suessigkeiten-warum-erlaubt-100.html", "thumbnailUrl": null, "date": "Tue, 02 Apr 2024 07:24:39 +0200", "lat": 53.5511, "lon": 9.9937, "intensity": 0.8, "source": "MDR"}, {"title": "Gurtpflicht bei Busreisen schwer durchsetzbar", "url": "https://www.mdr.de/nachrichten/deutschland/panorama/bus-anschnallpflicht-durchsetzung-100.html", "thumbnailUrl": null, "date": "Tue, 02 Apr 2024 07:04:17 +0200", "lat": 51.5421, "lon": 9.9937, "intensity": 0.6, "source": "MDR"}, {"title": "Wolf l\u00e4uft vor MDR-Kameramann direkt \u00fcber die Stra\u00dfe", "url": "https://www.mdr.de/nachrichten/sachsen/bautzen/bautzen-hoyerswerda-kamenz/wolf-video-sprung-zaun-niedergurig-100.html", "thumbnailUrl": null, "date": "Mon, 01 Apr 2024 21:38:03 +0200", "lat": 51.1667, "lon": 14.3667, "intensity": 0.7, "source": "MDR"}, {"title": "Ex-Mitarbeiter von Baufirma zu rechtem Gedankengut: \"Die Situation hat mich wirklich schockiert\"", "url": "https://www.mdr.de/nachrichten/sachsen/bautzen/bautzen-hoyerswerda-kamenz/hentschke-bau-rechtsstreit-rechte-strukturen-100.html", "thumbnailUrl": null, "date": "Tue, 02 Apr 2024 06:00:00 +0200", "lat": 51.3397, "lon": 12.3713, "intensity": 0.6, "source": "MDR"}, {"title": "Diese Th\u00fcringer Kreise starten Bezahlkarte f\u00fcr Fl\u00fcchtlinge", "url": "https://www.mdr.de/nachrichten/thueringen/bezahlkarte-fluechtlinge-kreise-start-100.html", "thumbnailUrl": null, "date": "Tue, 02 Apr 2024 08:11:49 +0200", "lat": 50.892, "lon": 11.582, "intensity": 0.4, "source": "MDR"}, {"title": "Ukraine-News: S\u00fcdkorea verh\u00e4ngt Sanktionen gegen Russland", "url": "https://www.mdr.de/nachrichten/welt/osteuropa/politik/ukraine-krieg-suedkorea-sanktionen-russland100.html", "thumbnailUrl": null, "date": "Tue, 02 Apr 2024 08:50:04 +0200", "lat": 48.3794, "lon": 31.1656, "intensity": 0.8, "source": "MDR"}, {"title": "Zugverkehr zwischen Leipzig und D\u00f6beln nach Ostern eingeschr\u00e4nkt", "url": "https://www.mdr.de/nachrichten/sachsen/leipzig/leipzig-leipzig-land/fahrplanabweichungen-ersatzverkehr-zugausfall-doebeln-grimma-100.html", "thumbnailUrl": null, "date": "Tue, 02 Apr 2024 05:00:05 +0200", "lat": 51.3397, "lon": 12.3762, "intensity": 0.6, "source": "MDR"}, {"title": "Zwei Schwerverletzte nach Unfall auf der A38 bei Nordhausen", "url": "https://www.mdr.de/nachrichten/thueringen/nord-thueringen/nordhausen/unfall-autobahn-verkehr-verletzte-100.html", "thumbnailUrl": null, "date": "Mon, 01 Apr 2024 20:01:38 +0200", "lat": 51.5087, "lon": 10.7886, "intensity": 0.8, "source": "MDR"}, {"title": "Sperrung aufgehoben: A17 zwischen Bahretal und Bad Gottleuba wieder frei", "url": "https://www.mdr.de/nachrichten/sachsen/dresden/freital-pirna/unfall-autobahn-sperrung-stau-bahretal-100.html", "thumbnailUrl": null, "date": "Tue, 02 Apr 2024 08:29:44 +0200", "lat": 50.8744, "lon": 13.9142, "intensity": 0.6, "source": "MDR"}, {"title": "Rettungsh\u00fcndin Blair findet vermissten f\u00fcnfj\u00e4hrigen Jungen in S\u00e4chsischer Schweiz", "url": "https://www.mdr.de/nachrichten/sachsen/dresden/dippoldiswalde-sebnitz/rathen-suche-kind-saechsische-schweiz-vermisst-100.html", "thumbnailUrl": null, "date": "Mon, 01 Apr 2024 12:47:10 +0200", "lat": 50.918, "lon": 14.1232, "intensity": 0.8, "source": "MDR"}, {"title": "Osteuropa", "url": "https://www.mdr.de/nachrichten/welt/osteuropa/index.html", "thumbnailUrl": null, "date": "Tue, 25 Apr 2023 13:02:57 +0200", "lat": 45.9432, "lon": 23.8859, "intensity": 0.5, "source": "MDR"}, {"title": "Verkehr", "url": "https://www.mdrjump.de/verkehr/index.html", "thumbnailUrl": null, "date": "Thu, 09 Jun 2022 11:05:09 +0200", "lat": 51.1657, "lon": 11.6229, "intensity": 0.2, "source": "MDR"}, {"title": "So ver\u00e4ndert sich das Klima in Sachsen, Sachsen-Anhalt und Th\u00fcringen", "url": "https://www.mdr.de/nachrichten/deutschland/panorama/wetter-klima-wandel-daten-archiv-region-100.html", "thumbnailUrl": null, "date": "Mon, 04 Mar 2024 10:27:56 +0100", "lat": 51.339695, "lon": 12.496365, "intensity": 0.6, "source": "MDR"}, {"title": "40 Milliarden f\u00fcr den Ausstieg aus der Braunkohle", "url": "https://www.mdr.de/nachrichten/deutschland/wirtschaft/kohlemilliarden/kohle-ausstieg-foerderung-steuergeld-100.html", "thumbnailUrl": null, "date": "Thu, 07 Dec 2023 14:06:43 +0100", "lat": 52.52, "lon": 13.405, "intensity": 0.7, "source": "MDR"}, {"title": "Schaffen wir die Energiewende? Live-Daten zum Ausbau der Windkraft in Deutschland", "url": "https://www.mdr.de/wissen/windkraft-windenergie-ausbau-deutschland-live-daten-aktuell-100.html", "thumbnailUrl": null, "date": "Thu, 16 Mar 2023 10:28:43 +0100", "lat": 51.1657, "lon": 10.4515, "intensity": 0.8, "source": "MDR"}, {"title": "Mensch Nachbar - der Podcast", "url": "https://www.mdr.de/sachsenradio/podcast/mensch-nachbar/mensch-nachbar-audios-100.html", "thumbnailUrl": null, "date": "Wed, 06 Mar 2024 10:49:37 +0100", "lat": 51.9194, "lon": 15.2551, "intensity": 0.3, "source": "MDR"}, {"title": "Regionalliga: Chemie Leipzig bringt gegen Meuselwitz knappen Vorsprung ins Ziel", "url": "https://www.mdr.de/sport/fussball_rl/spielbericht-regionalliga-nordost-bsg-chemie-leipzig-zfc-meuselwitz-100.html", "thumbnailUrl": null, "date": "Mon, 01 Apr 2024 15:08:00 +0200", "lat": 51.3127, "lon": 12.4245, "intensity": 0.6, "source": "MDR"}, {"title": "Regionalliga: Eilenburg verpasst \u00dcberraschung bei Energie Cottbus", "url": "https://www.mdr.de/sport/fussball_rl/spielbericht-regionalliga-nordost-fc-energie-cottbus-fc-eilenburg-100.html", "thumbnailUrl": null, "date": "Mon, 01 Apr 2024 15:29:25 +0200", "lat": 51.7569, "lon": 14.3325, "intensity": 0.7, "source": "MDR"}, {"title": "Volltreffer-Wahl: Lupfer, Blitztor oder Fallr\u00fcckzieher?", "url": "https://www.mdr.de/sport/sport-im-osten/volltreffer-der-woche-auswahl-lok-leipzig-atilgan-chemie-kirstein-chemnitzer-fc-bozic-100.html", "thumbnailUrl": null, "date": "Mon, 01 Apr 2024 10:00:00 +0200", "lat": 51.339695, "lon": 12.374738, "intensity": 0.5, "source": "MDR"}, {"title": "Bahn- und Busfahren im Raum Dresden und in Mittelsachsen jetzt teurer", "url": "https://www.mdr.de/nachrichten/sachsen/ticket-preis-erhoehung-bus-bahn-100.html", "thumbnailUrl": null, "date": "Mon, 01 Apr 2024 17:54:28 +0200", "lat": 51.0504, "lon": 13.7373, "intensity": 0.6, "source": "MDR"}, {"title": "Wohin man im Sommer vom Flughafen Leipzig/Halle fliegen kann", "url": "https://www.mdr.de/nachrichten/deutschland/flughafen-leipzig-halle-sommer-flugplan-100.html", "thumbnailUrl": null, "date": "Mon, 01 Apr 2024 13:59:05 +0200", "lat": 51.4325, "lon": 12.2218, "intensity": 0.3, "source": "MDR"}, {"title": "K\u00f6nigspfalz Helfta bei Eisleben wird Freilichtmuseum", "url": "https://www.mdr.de/nachrichten/sachsen-anhalt/halle/mansfeld/helfta-koenigspfalz-freilicht-museum-archaeologie-100.html", "thumbnailUrl": null, "date": "Mon, 01 Apr 2024 16:24:08 +0200", "lat": 51.5272, "lon": 11.5934, "intensity": 0.6, "source": "MDR"}, {"title": "Magdeburg: 3 wundervolle Konzerte im April 2024", "url": "https://www.mdr.de/kultur/musik/magdeburg-konzerte-april-tipps-100.html", "thumbnailUrl": null, "date": "Sun, 31 Mar 2024 04:00:00 +0200", "lat": 52.1205, "lon": 11.6276, "intensity": 0.5, "source": "MDR"}, {"title": "1. Tag der MDR-Theaterchallenge \"30 Tag im Parkett\": The Bach Project am Landestheater Eisenach", "url": "https://www.mdr.de/nachrichten/thueringen/west-thueringen/eisenach/theaterchallenge-bach-project-landestheater-eisenach-100.html", "thumbnailUrl": null, "date": "Mon, 01 Apr 2024 16:40:32 +0200", "lat": 50.975, "lon": 10.3122, "intensity": 0.5, "source": "MDR"}, {"title": "Chemnitz und Zwickau: 4 besondere Konzerte im April 2024", "url": "https://www.mdr.de/kultur/musik/chemnitz-zwickau-konzerte-tipps-april-100.html", "thumbnailUrl": null, "date": "Fri, 29 Mar 2024 04:00:00 +0100", "lat": 50.8278, "lon": 12.9254, "intensity": 0.6, "source": "MDR"}, {"title": "Mit dem Kofferlabor aus Leipzig gegen antibiotikaresistente Keime in Afrika", "url": "https://www.mdr.de/wissen/medizin-gesundheit/kofferlabor-im-kampf-gegen-antibiotikaresitente-bakterien-in-afrika-100.html", "thumbnailUrl": null, "date": "Sat, 30 Mar 2024 15:59:00 +0100", "lat": 51.3434, "lon": 12.3778, "intensity": 0.8, "source": "MDR"}, {"title": "K\u00f6nig Charles - erster Auftritt nach der Krebs Diagnose - ohne Kate und William", "url": "https://www.brisant.de/royals/britisches-koenigshaus/charles-ostern-krebs-kate-100.html", "thumbnailUrl": null, "date": "Mon, 01 Apr 2024 18:50:52 +0200", "lat": 51.483462, "lon": -0.604278, "intensity": 0.8, "source": "MDR"}, {"title": "Ex-Verkehrsminister Scheuer legt Bundestagsmandat nieder", "url": "https://www.mdr.de/nachrichten/deutschland/politik/scheuer-bundestag-mandat-ruecktritt-100.html", "thumbnailUrl": null, "date": "Mon, 01 Apr 2024 19:13:07 +0200", "lat": 52.517, "lon": 13.3326, "intensity": 0.7, "source": "MDR"}, {"title": "Sachsen-Anhalt: Was die Bezahlkarte f\u00fcr Gefl\u00fcchtete bedeutet", "url": "https://www.mdr.de/nachrichten/sachsen-anhalt/gefluechtete-bezahlkarte-herausforderungen-100.html", "thumbnailUrl": null, "date": "Mon, 01 Apr 2024 05:00:00 +0200", "lat": 52.1205, "lon": 11.6276, "intensity": 0.6, "source": "MDR"}, {"title": "Unfall mit sieben Toten bei Bad Langensalza: Stilles Gedenken in M\u00fchlhausen", "url": "https://www.mdr.de/nachrichten/thueringen/nord-thueringen/unstrut-hainich/unfall-bad-langensalza-stilles-gedenken-muehlhausen-100.html", "thumbnailUrl": null, "date": "Mon, 01 Apr 2024 12:06:22 +0200", "lat": 51.2136, "lon": 10.4538, "intensity": 0.8, "source": "MDR"}, {"title": "Preview der Dokumentation \"Hirschhausen \u2013 Medizin von morgen\" in Magdeburg", "url": "https://www.mdr.de/nachrichten/mitmachen/medizin-von-morgen-mit-eckart-von-hirschhausen-100.html", "thumbnailUrl": null, "date": "Thu, 28 Mar 2024 12:56:03 +0100", "lat": 52.1205, "lon": 11.6276, "intensity": 0.3, "source": "MDR"}, {"title": "MDR-Fr\u00fchlingserwachen: Alle Termine zu allen Orten", "url": "https://www.mdr.de/nachrichten/mitmachen/fruehlingserwachen/alles-zum-mdr-fruehlingswachen--100.html", "thumbnailUrl": null, "date": "Mon, 25 Mar 2024 15:59:43 +0100", "lat": 50.5821, "lon": 12.6261, "intensity": 0.5, "source": "MDR"}, {"title": "Kurzfilmzeit: MDR engagiert sich auch 2024 beim Filmfest Dresden", "url": "https://www.mdr.de/presse/kurzfilmzeit-filmfest-dresden-100.html", "thumbnailUrl": null, "date": "Tue, 26 Mar 2024 13:32:13 +0100", "lat": 51.050409, "lon": 13.737262, "intensity": 0.2, "source": "MDR"}, {"title": "++ Halmich-Comeback im Box-Ring gegen Stefan Raab? ++ Verkaufsstopp von DFB-Trikot wegen Nazi-Symbolik ++ Details zu t\u00f6dlichem Autounfall bei VS ++", "url": "https://www.swr.de/swraktuell/baden-wuerttemberg/bw-newsticker-am-morgen-2024-04-02-100.html", "thumbnailUrl": "https://www.swr.de/swraktuell/baden-wuerttemberg/1712031742071%2Cregina-halmich-stefan-raab-100~_v-16x9@2dXL_-77ed5d09bafd4e3cf6a5a0264e5e16ea35f14925.jpg", "date": "Tue, 2 Apr 2024 08:36:15 +0200", "lat": 48.7758, "lon": 9.1829, "intensity": 0.7, "source": "SWR"}, {"title": "B\u00e4cker aus Serrig: \"Kleine B\u00e4ckereien auf dem Land werden verschwinden\"", "url": "https://www.swr.de/swraktuell/rheinland-pfalz/trier/traditionsbaeckerei-meier-aus-serrig-muss-wegen-fachkraeftemangel-schliessen-100.html", "thumbnailUrl": "https://www.swr.de/swraktuell/rheinland-pfalz/trier/1712030835615%2Cbaecker-franz-meier-aus-serrig-muss-seine-backstube-schliessen-100~_v-16x9@2dXL_-77ed5d09bafd4e3cf6a5a0264e5e16ea35f14925.jpg", "date": "Tue, 2 Apr 2024 07:26:49 +0200", "lat": 49.7882, "lon": 6.6115, "intensity": 0.7, "source": "SWR"}, {"title": "Stefan Raab k\u00fcndigt Kampf gegen Regina Halmich an", "url": "https://www.swr3.de/aktuell/promi-news/stefan-raab-comeback-100.html", "thumbnailUrl": "https://www.swr3.de/aktuell/promi-news/1711962343869%2Cstefan-raab-regina-halmich-boxen-100~_v-16x9@2dXL_-77ed5d09bafd4e3cf6a5a0264e5e16ea35f14925.jpg", "date": "Mon, 1 Apr 2024 15:22:03 +0200", "lat": 50.1109, "lon": 8.6821, "intensity": 0.7, "source": "SWR"}, {"title": "Geocaching-Beh\u00e4lter legt Skigebiet im Kleinwalsertal stundenlang lahm", "url": "https://www.swr.de/swraktuell/baden-wuerttemberg/friedrichshafen/moderne-schnitzeljagd-legt-skigebiet-in-vorarlberg-lahm-100.html", "thumbnailUrl": "https://www.swr.de/swraktuell/baden-wuerttemberg/friedrichshafen/1711979924935%2Cskigebiet-kanzelwand-100~_v-16x9@2dXL_-77ed5d09bafd4e3cf6a5a0264e5e16ea35f14925.jpg", "date": "Mon, 1 Apr 2024 15:58:45 +0200", "lat": 47.3342, "lon": 10.1649, "intensity": 0.3, "source": "SWR"}, {"title": "Verwechslung: \"Wolf\" bei Speyer entpuppt sich als Husky", "url": "https://www.swr.de/swraktuell/rheinland-pfalz/ludwigshafen/wolf-bei-speyer-entpuppt-sich-als-husky-100.html", "thumbnailUrl": "https://www.swr.de/swraktuell/rheinland-pfalz/ludwigshafen/1711966057220%2Chusky-bei-speyer-mit-wolf-verwechselt-100~_v-16x9@2dXL_-77ed5d09bafd4e3cf6a5a0264e5e16ea35f14925.jpg", "date": "Tue, 2 Apr 2024 08:10:29 +0200", "lat": 49.3182, "lon": 8.4292, "intensity": 0.2, "source": "SWR"}, {"title": "Unsere Tatort-Kritik: So war der Tatort am Ostermontag", "url": "https://www.swr3.de/tatort-und-polizeiruf/tatort-kritik-bremen-angst-im-dunkeln-100.html", "thumbnailUrl": "https://www.swr3.de/tatort-und-polizeiruf/1711598408596%2Ctatort-kritik-bremen-angst-im-dunkeln-teaser-100~_v-16x9@2dXL_-77ed5d09bafd4e3cf6a5a0264e5e16ea35f14925.png", "date": "Mon, 1 Apr 2024 23:59:01 +0200", "lat": 53.0793, "lon": 8.8091, "intensity": 0.6, "source": "SWR"}, {"title": "Unfall bei Villingen-Schwenningen: Zwei Autofahrer tot", "url": "https://www.swr.de/swraktuell/baden-wuerttemberg/tuebingen/zwei-tote-nach-autounfall-nahe-villingen-schwenningen-100.html", "thumbnailUrl": "https://www.swr.de/swraktuell/baden-wuerttemberg/tuebingen/1712003786311%2Ctoedlicher-unfall-bei-villingen-schwenningen-100~_v-16x9@2dXL_-77ed5d09bafd4e3cf6a5a0264e5e16ea35f14925.jpg", "date": "Tue, 2 Apr 2024 08:38:36 +0200", "lat": 48.0567, "lon": 8.4536, "intensity": 0.8, "source": "SWR"}, {"title": "Remchingen: 17-J\u00e4hriger stirbt an Stromschlag", "url": "https://www.swr.de/swraktuell/baden-wuerttemberg/karlsruhe/toedlicher-stromschlag-bahnhof-remchingen-100.html", "thumbnailUrl": null, "date": "Tue, 2 Apr 2024 07:25:38 +0200", "lat": 48.9347, "lon": 8.5686, "intensity": 0.8, "source": "SWR"}, {"title": "Von Nuh Pektas aus Bad Rappenau fehlt jede Spur", "url": "https://www.swr.de/swraktuell/baden-wuerttemberg/heilbronn/nuh-pektas-bleibt-unauffindbar-100.html", "thumbnailUrl": "https://www.swr.de/swraktuell/baden-wuerttemberg/heilbronn/1711101337721%2Cnuh-pektas-vermisst-102~_v-16x9@2dXL_-77ed5d09bafd4e3cf6a5a0264e5e16ea35f14925.jpg", "date": "Mon, 1 Apr 2024 11:59:27 +0200", "lat": 49.2382, "lon": 9.0959, "intensity": 0.8, "source": "SWR"}, {"title": "E-Rezept sorgt f\u00fcr Frust bei \u00c4rzten in Rheinland-Pfalz", "url": "https://www.swr.de/swraktuell/rheinland-pfalz/e-rezept-wo-klemmts-noch-wie-in-rlp-angelaufen-bilanz-quartal-100.html", "thumbnailUrl": "https://www.swr.de/swraktuell/rheinland-pfalz/1711903704761%2Cstehsatz-e-rezept-wo-klemmts-noch-102~_v-16x9@2dXL_-77ed5d09bafd4e3cf6a5a0264e5e16ea35f14925.png", "date": "Mon, 1 Apr 2024 04:48:08 +0200", "lat": 50.356943, "lon": 7.588576, "intensity": 0.6, "source": "SWR"}, {"title": "Besucherrekord auf der S21-Baustelle", "url": "https://www.swr.de/swraktuell/baden-wuerttemberg/stuttgart/tage-der-offenen-baustelle-s21-stuttgart-21-tiefbahnhof-baustellenbesichtigung-tag-der-offenen-tuer-100.html", "thumbnailUrl": "https://www.swr.de/swraktuell/baden-wuerttemberg/stuttgart/1711982602602%2Cstuttgart21-offene-baustelle-2024-bahnhof-besichtigung-infos-100~_v-16x9@2dXL_-77ed5d09bafd4e3cf6a5a0264e5e16ea35f14925.jpg", "date": "Mon, 1 Apr 2024 16:43:23 +0200", "lat": 48.7758, "lon": 9.1829, "intensity": 0.7, "source": "SWR"}, {"title": "Dominikaner-Orden gibt Kloster in Worms auf", "url": "https://www.swr.de/swraktuell/rheinland-pfalz/abschiedsmesse-der-dominikaner-100.html", "thumbnailUrl": "https://www.swr.de/swraktuell/rheinland-pfalz/mainz/1711997268421%2Cdominikaner-verlassen-worms-100~_v-16x9@2dXL_-77ed5d09bafd4e3cf6a5a0264e5e16ea35f14925.png", "date": "Mon, 1 Apr 2024 21:17:09 +0200", "lat": 49.6317, "lon": 8.3586, "intensity": 0.7, "source": "SWR"}, {"title": "Hengen schw\u00f6rt FCK auf Pokal-Kracher ein: \"Derby eher zweitrangig\"", "url": "https://www.swr.de/sport/fussball/1-fc-kaiserslautern/fck-dfb-pokal-saarbruecken-hengen-interview-100.html", "thumbnailUrl": "https://www.swr.de/sport/fussball/1-fc-kaiserslautern/1712039071111%2Cfck-thomas-hengen-102~_v-16x9@2dXL_-77ed5d09bafd4e3cf6a5a0264e5e16ea35f14925.jpg", "date": "Tue, 2 Apr 2024 08:24:31 +0200", "lat": 49.2354, "lon": 7.0226, "intensity": 0.8, "source": "SWR"}, {"title": "Helen Briem: Deutschlands gr\u00f6\u00dftes Golftalent auf dem Weg in die Weltspitze", "url": "https://www.swr.de/sport/frauen-im-sport/helen-briem-beste-nachwuchs-golferin-in-deutschland-100.html", "thumbnailUrl": "https://www.swr.de/sport/frauen-im-sport/1712039078632%2Cgolferin-helen-briem-100~_v-16x9@2dXL_-77ed5d09bafd4e3cf6a5a0264e5e16ea35f14925.jpg", "date": "Tue, 2 Apr 2024 08:24:40 +0200", "lat": 48.6369, "lon": 9.3372, "intensity": 0.8, "source": "SWR"}, {"title": "Die nur fast perfekte Kleindienst-Show beim VfB Stuttgart", "url": "https://www.swr.de/sport/fussball/1-fc-heidenheim/heidenheim-tim-kleindienst-show-beim-vfb-stuttgart-100.html", "thumbnailUrl": "https://www.swr.de/sport/fussball/1-fc-heidenheim/1712039082605%2Cheidenheim-jubelt-beim-vfb-stuttgart-100~_v-16x9@2dXL_-77ed5d09bafd4e3cf6a5a0264e5e16ea35f14925.jpg", "date": "Tue, 2 Apr 2024 08:24:43 +0200", "lat": 48.7758, "lon": 9.1773, "intensity": 0.7, "source": "SWR"}, {"title": "FCK im DFB-Pokal ohne Ache: Das Endspiel um das Endspiel", "url": "https://www.swr.de/sport/fussball/1-fc-kaiserslautern/fck-dfb-pokal-saarbruecken-vorbericht-100.html", "thumbnailUrl": "https://www.swr.de/sport/fussball/1-fc-kaiserslautern/1711989411478%2Cfck-friedhelm-funkel-100~_v-16x9@2dXL_-77ed5d09bafd4e3cf6a5a0264e5e16ea35f14925.jpg", "date": "Mon, 1 Apr 2024 21:16:13 +0200", "lat": 49.2403, "lon": 7.0112, "intensity": 0.7, "source": "SWR"}, {"title": "Mannheimer HC verliert Finale in der Euro Hockey League", "url": "https://www.swr.de/sport/mehr-sport/hockey-mannheimer-hc-euro-hockey-league-100.html", "thumbnailUrl": "https://www.swr.de/sport/mehr-sport/1711980617597%2Chockey-mannheimer-hc-euro-hockey-leaue-amsterdam-100~_v-16x9@2dXL_-77ed5d09bafd4e3cf6a5a0264e5e16ea35f14925.jpg", "date": "Mon, 1 Apr 2024 16:10:18 +0200", "lat": 49.4875, "lon": 8.4647, "intensity": 0.6, "source": "SWR"}, {"title": "Angelo Stiller - neun Ohrfeigen, aber kein R\u00fcckschlag", "url": "https://www.swr.de/sport/fussball/vfb-stuttgart/vfb-stuttgart-angelo-stiller-bei-swr-sport-100.html", "thumbnailUrl": "https://www.swr.de/sport/fussball/vfb-stuttgart/1711969206125%2Cvfb-stuttgart-angelo-stiller-jubelt-gegen-heidenheim-100~_v-16x9@2dXL_-77ed5d09bafd4e3cf6a5a0264e5e16ea35f14925.jpg", "date": "Mon, 1 Apr 2024 21:30:30 +0200", "lat": 48.7758, "lon": 9.18, "intensity": 0.7, "source": "SWR"}, {"title": "Blumenerde im Vergleich: Womit bl\u00fcht es besser?", "url": "https://www.swrfernsehen.de/marktcheck/blumenerde-im-vergleich-womit-blueht-es-besser-100.html", "thumbnailUrl": "https://www.swrfernsehen.de/marktcheck/1711457898890%2Cblumenerde-im-vergleich-100~_v-16x9@2dXL_-77ed5d09bafd4e3cf6a5a0264e5e16ea35f14925.jpg", "date": "Tue, 26 Mar 2024 20:00:00 +0100", "lat": 53.5511, "lon": 9.9937, "intensity": 0.2, "source": "SWR"}, {"title": "Junges Paar verl\u00e4sst Portugal, um in der Pfalz eine Ausbildung", "url": "https://www.swr.de/heimat/pfalz/bildergalerie-6272.html", "thumbnailUrl": "https://www.swr.de/heimat/pfalz/1711785603453%2Cfoto01-100~_v-16x9@2dXL_-77ed5d09bafd4e3cf6a5a0264e5e16ea35f14925.jpg", "date": "Sat, 30 Mar 2024 09:00:05 +0100", "lat": 49.305736, "lon": 8.247252, "intensity": 0.7, "source": "SWR"}, {"title": "Unsere Tatort-Kritik: So war der Tatort am Ostermontag", "url": "https://www.swr3.de/tatort-und-polizeiruf/tatort-kritik-bremen-angst-im-dunkeln-100.html", "thumbnailUrl": "https://www.swr3.de/tatort-und-polizeiruf/1711598408596%2Ctatort-kritik-bremen-angst-im-dunkeln-teaser-100~_v-16x9@2dXL_-77ed5d09bafd4e3cf6a5a0264e5e16ea35f14925.png", "date": "Mon, 1 Apr 2024 23:59:01 +0200", "lat": 53.0793, "lon": 8.8091, "intensity": 0.6, "source": "SWR"}, {"title": "Von Nuh Pektas aus Bad Rappenau fehlt jede Spur", "url": "https://www.swr.de/swraktuell/baden-wuerttemberg/heilbronn/nuh-pektas-bleibt-unauffindbar-100.html", "thumbnailUrl": "https://www.swr.de/swraktuell/baden-wuerttemberg/heilbronn/1711101337721%2Cnuh-pektas-vermisst-102~_v-16x9@2dXL_-77ed5d09bafd4e3cf6a5a0264e5e16ea35f14925.jpg", "date": "Mon, 1 Apr 2024 11:59:27 +0200", "lat": 49.2382, "lon": 9.0959, "intensity": 0.8, "source": "SWR"}, {"title": "Geocaching-Beh\u00e4lter legt Skigebiet im Kleinwalsertal stundenlang lahm", "url": "https://www.swr.de/swraktuell/baden-wuerttemberg/friedrichshafen/moderne-schnitzeljagd-legt-skigebiet-in-vorarlberg-lahm-100.html", "thumbnailUrl": "https://www.swr.de/swraktuell/baden-wuerttemberg/friedrichshafen/1711979924935%2Cskigebiet-kanzelwand-100~_v-16x9@2dXL_-77ed5d09bafd4e3cf6a5a0264e5e16ea35f14925.jpg", "date": "Mon, 1 Apr 2024 15:58:45 +0200", "lat": 47.3342, "lon": 10.1649, "intensity": 0.3, "source": "SWR"}, {"title": "Dachbodenfunde in 400 Jahre altem Gasthaus Br\u00e4uhaus in Wolfegg", "url": "https://www.swr.de/swraktuell/baden-wuerttemberg/friedrichshafen/dachbodenfunde-in-400-jahre-altem-gasthaus-braeuhaus-in-rossberg-bei-wolfegg-100.html", "thumbnailUrl": "https://www.swr.de/swraktuell/baden-wuerttemberg/friedrichshafen/1711895057505%2Cdachbodenfunde-in-400-jahre-altem-gasthaus-braeuhaus-in-rossberg-bei-wolfegg-104~_v-16x9@2dXL_-77ed5d09bafd4e3cf6a5a0264e5e16ea35f14925.jpg", "date": "Sun, 31 Mar 2024 16:24:20 +0200", "lat": 47.2429, "lon": 9.7441, "intensity": 0.6, "source": "SWR"}, {"title": "Unf\u00e4lle in Westerwald und Eifel: Zwei Tote und mehrere Verletzte", "url": "https://www.swr.de/swraktuell/rheinland-pfalz/unfall-hagel-dierscheid-malbert-motorradfahrer-tot-100.html", "thumbnailUrl": "https://www.swr.de/swraktuell/rheinland-pfalz/1711910224365%2Cunfall-darscheid-hagel-unwetter-a1-100~_v-16x9@2dXL_-77ed5d09bafd4e3cf6a5a0264e5e16ea35f14925.png", "date": "Mon, 1 Apr 2024 10:57:20 +0200", "lat": 50.425833, "lon": 7.249167, "intensity": 0.8, "source": "SWR"}, {"title": "Kommt in weiteren St\u00e4dten in Baden-W\u00fcrttemberg die Verpackungssteuer?", "url": "https://www.swr.de/swraktuell/baden-wuerttemberg/verpackungssteuer-in-mehreren-staedten-in-baden-wuerttemberg-geplant-100.html", "thumbnailUrl": "https://www.swr.de/swraktuell/baden-wuerttemberg/tuebingen/1687504144337%2Cverpackungssteuer-muelleimer-100~_v-16x9@2dXL_-77ed5d09bafd4e3cf6a5a0264e5e16ea35f14925.jpg", "date": "Mon, 1 Apr 2024 18:34:31 +0200", "lat": 48.5216, "lon": 9.1085, "intensity": 0.8, "source": "SWR"}, {"title": "Wir kommen zu euch!", "url": "https://www.swr.de/swr1/bw/programm/wir-kommen-zu-euch-fuer-uns-in-bw-tour-2024-100.html", "thumbnailUrl": "https://www.swr.de/swr1/bw/programm/1710944092379%2Cfuer-uns-in-baden-wuerttemberg-tour-allgemein-100~_v-16x9@2dXL_-77ed5d09bafd4e3cf6a5a0264e5e16ea35f14925.jpg", "date": "Tue, 2 Apr 2024 08:06:10 +0200", "lat": 49.0872, "lon": 9.1167, "intensity": 0.3, "source": "SWR"}, {"title": "Schwetzinger SWR Festspiele", "url": "https://www.swr.de/swr2/musik-klassik/schwetzinger-festspiele/artikel-programm-ssf-2024-100.html", "thumbnailUrl": null, "date": "Wed, 24 Jan 2024 12:47:20 +0100", "lat": 49.3822, "lon": 8.5635, "intensity": 0.4, "source": "SWR"}, {"title": "F\u00fcr nur 7 Euro seht ihr diese K\u00fcnstler beim SWR3 Rheinland-Pfalz Open Air Mainz!", "url": "https://www.swr3.de/events/rheinland-pfalz-open-air-mainz-100.html", "thumbnailUrl": "https://www.swr3.de/events/1708067629255%2Crheinland-pfalz-open-air-mainz-2024-lineup-100~_v-16x9@2dXL_-77ed5d09bafd4e3cf6a5a0264e5e16ea35f14925.jpg", "date": "Thu, 28 Mar 2024 09:26:14 +0100", "lat": 50.00113, "lon": 8.24725, "intensity": 0.6, "source": "SWR"}, {"title": "SWR2 Vor Ort: live dabei sein beim lesenswert Quartett mit Denis Scheck", "url": "https://www.swr.de/swr2/veranstaltungen/va-lesenswert-quartett-104.html", "thumbnailUrl": "https://www.swrfernsehen.de/lesenswert/1655834746554%2Cdenis-scheck-im-lesenswert-quartett-juni-2022-102~_v-16x9@2dXL_-77ed5d09bafd4e3cf6a5a0264e5e16ea35f14925.jpg", "date": "Mon, 4 Mar 2024 11:59:11 +0100", "lat": 50.00068, "lon": 8.26992, "intensity": 0.7, "source": "SWR"}, {"title": "\"Darauf freue ich mich\"", "url": "https://www.swrfernsehen.de/landesschau-rp/specials/formular-worauf-freuen-sie-sich-100.html", "thumbnailUrl": "https://www.swrfernsehen.de/landesschau-rp/specials/1653530478121%2Cdarauf-freue-ich-mich-102~_v-16x9@2dXL_-77ed5d09bafd4e3cf6a5a0264e5e16ea35f14925.jpg", "date": "Thu, 1 Feb 2024 12:50:28 +0100", "lat": 50.3974, "lon": 7.2661, "intensity": 0.3, "source": "SWR"}, {"title": "Freitags erf\u00fcllt die Landesschau Zuschauerw\u00fcnsche", "url": "https://www.swrfernsehen.de/landesschau-bw/kontakt/formular-freitagswunsch-ls-bw-100.html", "thumbnailUrl": "https://www.swrfernsehen.de/landesschau-bw/1653496456565%2Cfreitagswunsch-torte-100~_v-16x9@2dXL_-77ed5d09bafd4e3cf6a5a0264e5e16ea35f14925.jpg", "date": "Thu, 1 Feb 2024 12:23:47 +0100", "lat": 48.782, "lon": 9.177, "intensity": 0.3, "source": "SWR"}, {"title": "Das gro\u00dfe Bl\u00fchen", "url": "https://www.swr.de/wissen/apfelbluete/index.html", "thumbnailUrl": null, "date": "Wed, 27 Mar 2024 14:25:16 +0100", "lat": 51.5143, "lon": 9.9534, "intensity": 0.3, "source": "SWR"}, {"title": "1. April: +++ Apfelbl\u00fctenwelle startet - an Rhein und Neckar! +++", "url": "https://www.swr.de/wissen/apfelbluete/apfelbluete-liveticker-2024-100.html", "thumbnailUrl": "https://www.swr.de/wissen/apfelbluete/1711284440198%2Capfelbluete-moers-240323-102~_v-16x9@2dXL_-77ed5d09bafd4e3cf6a5a0264e5e16ea35f14925.jpg", "date": "Mon, 1 Apr 2024 23:02:12 +0200", "lat": 49.992861, "lon": 8.239895, "intensity": 0.4, "source": "SWR"}, {"title": "Dossier: Wie wohnt Rheinland-Pfalz?", "url": "https://www.swr.de/swraktuell/rheinland-pfalz/dossier-wohnen-in-rheinland-pfalz-102.html", "thumbnailUrl": "https://www.swr.de/swraktuell/rheinland-pfalz/1710928774431%2Cwohnen-symbolbild-100~_v-16x9@2dXL_-77ed5d09bafd4e3cf6a5a0264e5e16ea35f14925.jpg", "date": "Thu, 21 Mar 2024 07:36:09 +0100", "lat": 49.7604, "lon": 7.4157, "intensity": 0.5, "source": "SWR"}, {"title": "Vielfalt macht uns stark!", "url": "https://www.swr.de/home/diversitaetstag-100.html", "thumbnailUrl": "https://www.swr.de/home/1684163752619%2Cdiversity-day-2023-vielfalt-inklusion-logo-100~_v-16x9@2dXL_-77ed5d09bafd4e3cf6a5a0264e5e16ea35f14925.jpg", "date": "Wed, 27 Mar 2024 14:55:13 +0100", "lat": 48.791491, "lon": 9.993682, "intensity": 0.3, "source": "SWR"}, {"title": "So tanken Sie heute g\u00fcnstig", "url": "https://www.swr.de/swraktuell/diesel-und-benzinpreise-aktuell-so-tanken-sie-heute-clever-100.html", "thumbnailUrl": "https://www.swr.de/swraktuell/1667503969159%2Cdiesel-und-benzinpreise-so-teuer-ist-tanken-102~_v-16x9@2dXL_-77ed5d09bafd4e3cf6a5a0264e5e16ea35f14925.jpg", "date": "Tue, 2 Apr 2024 08:30:26 +0200", "lat": 51.1657, "lon": 10.4515, "intensity": 0.2, "source": "SWR"}, {"title": "Dossier: Wie der Klimawandel das Leben in Rheinland-Pfalz beeinflusst", "url": "https://www.swr.de/swraktuell/rheinland-pfalz/dossier-klimawandel-rheinland-pfalz-102.html", "thumbnailUrl": "https://www.swr.de/swraktuell/baden-wuerttemberg/ulm/1704477674263%2Causwirkungen-klimawandel-auf-wald-und-baeume-104~_v-16x9@2dXL_-77ed5d09bafd4e3cf6a5a0264e5e16ea35f14925.jpg", "date": "Thu, 21 Mar 2024 07:52:17 +0100", "lat": 49.7931, "lon": 7.2662, "intensity": 0.8, "source": "SWR"}, {"title": "Coronavirus: Alles Wichtige f\u00fcr Rheinland-Pfalz und Baden-W\u00fcrttemberg", "url": "https://www.swr.de/swraktuell/coronavirus-alles-wichtige-fuer-baden-wuerttemberg-und-rheinland-pfalz-100.html", "thumbnailUrl": "https://www.swr.de/home/1653540557339%2Ccoronabuendel-teaser-mud-abgestimmt-teaserbild-100~_v-16x9@2dXL_-77ed5d09bafd4e3cf6a5a0264e5e16ea35f14925.jpg", "date": "Thu, 21 Mar 2024 14:36:16 +0100", "lat": 49.992862, "lon": 8.239761, "intensity": 0.7, "source": "SWR"}, {"title": "Alles auf E \u00b7 Friedefeld", "url": "https://www.ardmediathek.de/video/friedefeld/alles-auf-e-friedefeld-oder-animated-sitcom/br-fernsehen/Y3JpZDovL2JyLmRlL2Jyb2FkY2FzdFNjaGVkdWxlU2xvdC80MTI2MzQ4NzM4MTNfRjIwMjRXTzAwMDcyM0Ew", "thumbnailUrl": "https://www.swrfernsehen.de/1711544631323%2Cfriedfeld-104~_v-16x9@2dXL_-77ed5d09bafd4e3cf6a5a0264e5e16ea35f14925.jpg", "date": "Wed, 27 Mar 2024 14:03:51 +0100", "lat": 50.35311, "lon": 7.58763, "intensity": 0.7, "source": "SWR"}, {"title": "Der SWR in der ARD Mediathek", "url": "https://www.ardmediathek.de/swr", "thumbnailUrl": "https://www.swrfernsehen.de/1653655919246%2Card-mediathek-168~_v-16x9@2dXL_-77ed5d09bafd4e3cf6a5a0264e5e16ea35f14925.jpg", "date": "Fri, 27 May 2022 14:51:59 +0200", "lat": 48.790447, "lon": 9.993682, "intensity": 0.1, "source": "SWR"}, {"title": "Wir kommen zu euch!", "url": "https://www.swr.de/swr1/bw/programm/wir-kommen-zu-euch-fuer-uns-in-bw-tour-2024-100.html", "thumbnailUrl": "https://www.swr.de/swr1/bw/programm/1710944092379%2Cfuer-uns-in-baden-wuerttemberg-tour-allgemein-100~_v-16x9@2dXL_-77ed5d09bafd4e3cf6a5a0264e5e16ea35f14925.jpg", "date": "Tue, 2 Apr 2024 08:06:10 +0200", "lat": 49.0872, "lon": 9.1167, "intensity": 0.3, "source": "SWR"}, {"title": "Campino als Gastprofessor", "url": "https://www.swr.de/swr1/rp/programm/saenger-campino-von-den-toten-hosen-als-gastprofessor-an-uni-duesseldorf-100.html", "thumbnailUrl": "https://www.swr.de/swr1/rp/programm/1712035168979%2Ccampino-als-gastprofessor-100~_v-16x9@2dXL_-77ed5d09bafd4e3cf6a5a0264e5e16ea35f14925.jpg", "date": "Tue, 2 Apr 2024 08:28:16 +0200", "lat": 51.2277, "lon": 6.7932, "intensity": 0.6, "source": "SWR"}, {"title": "Pablo Heras-Casado dirigiert Faur\u00e9, Ravel und Schumann", "url": "https://www.swr.de/swr2/musik-klassik/symphonieorchester/pablo-heras-casado-dirigiert-das-swr-symphonieorchester-100.html", "thumbnailUrl": "https://www.swr.de/swr2/musik-klassik/klangvielfalt/1687340540732%2Cstill-pablo-heras-casado-102~_v-16x9@2dL_-6c42aff4e68b43c7868c3240d3ebfa29867457da.jpg", "date": "Fri, 16 Feb 2024 13:30:38 +0100", "lat": 47.9972, "lon": 7.8492, "intensity": 0.3, "source": "SWR"}, {"title": "Constantin Z\u00f6ller telefoniert sich f\u00fcr euch durch ganz Deutschland", "url": "https://www.swr3.de/podcasts/podcast-consi-calling-mit-constantin-zoeller-100.html", "thumbnailUrl": "https://www.swr3.de/podcasts/1711615965667%2Cconsi-calling-podcast-cover-100~_v-16x9@2dXL_-77ed5d09bafd4e3cf6a5a0264e5e16ea35f14925.jpg", "date": "Tue, 2 Apr 2024 07:53:55 +0200", "lat": 53.5511, "lon": 9.9937, "intensity": 0.3, "source": "SWR"}, {"title": "105 - Drei Jahre nach dem Messerangriff", "url": "https://www.dasding.de/podcasts/105-drei-jahre-nach-dem-messerangriff-100.html", "thumbnailUrl": "https://www.dasding.de/podcasts/1707915766377%2C5-minuten-vor-dem-tod-cover-dasding-logo-100~_logo-dasding@2dlogo@2d100_v-16x9@2dXL_-6f98d90187a4197edb920af2094c86e92abec1fc.png", "date": "Wed, 27 Mar 2024 03:00:01 +0100", "lat": 48.7758, "lon": 9.1829, "intensity": 0.7, "source": "SWR"}, {"title": "Israel-Gaza-Krieg: Ausl\u00e4ndische Helfer in Gaza get\u00f6tet \u2013 Iran droht nach T\u00f6tung von Gener\u00e4len", "url": "https://www.spiegel.de/ausland/israel-gaza-krieg-auslaendische-helfer-in-gaza-getoetet-iran-droht-nach-toetung-von-generaelen-a-1686bd00-8338-4b99-98ab-b410fba3443e#ref=rss", "thumbnailUrl": "https://cdn.prod.www.spiegel.de/images/3e56fd49-8223-44c1-98fd-2b4a71a5ff1d_w520_r2.08_fpx42.74_fpy50.jpg", "date": "Tue, 2 Apr 2024 08:10:00 +0200", "lat": 31.7917, "lon": 34.4358, "intensity": 0.8, "source": "SPIEGEL"}, {"title": "Ukraine-Russland-Krieg: Belarus startet Milit\u00e4r\u00fcbung an Nato-Grenze \u2013 Selenskyj nennt Drohnen entscheidend f\u00fcr den Sieg", "url": "https://www.spiegel.de/ausland/ukraine-russland-krieg-belarus-startet-militaeruebung-an-nato-grenze-selenskyj-nennt-drohnen-entscheidend-fuer-den-sieg-a-719d2704-8eb5-4454-9610-e4ad992a0258#ref=rss", "thumbnailUrl": "https://cdn.prod.www.spiegel.de/images/a9d75299-c942-4b9c-9b05-c71b16fe6f13_w520_r2.08_fpx63.39_fpy50.jpg", "date": "Tue, 2 Apr 2024 08:56:00 +0200", "lat": 53.7098, "lon": 26.8351, "intensity": 0.8, "source": "SPIEGEL"}, {"title": "H\u00e4ftlinge verklagen Gef\u00e4ngnis \u2013 weil sie Sonnenfinsternis sehen wollen", "url": "https://www.spiegel.de/panorama/haeftlinge-verklagen-gefaengnis-weil-sie-sonnenfinsternis-sehen-wollen-a-a7663c89-88cb-43f2-82c0-ec8734d1e1dd#ref=rss", "thumbnailUrl": "https://cdn.prod.www.spiegel.de/images/caf4d673-b682-4f76-94b6-d5dc8ee843f4_w520_r2.08_fpx39.96_fpy49.97.jpg", "date": "Tue, 2 Apr 2024 07:49:00 +0200", "lat": 40.7128, "lon": -74.006, "intensity": 0.4, "source": "SPIEGEL"}, {"title": "Pearl Harbor: Letzter \u00dcberlebender Lou Conter verstorben - er wurde 102", "url": "https://www.spiegel.de/panorama/pearl-harbor-letzter-ueberlebender-lou-conter-verstorben-er-wurde-102-a-19bbdea4-cbf6-4474-a5c8-c59abd50f6f6#ref=rss", "thumbnailUrl": "https://cdn.prod.www.spiegel.de/images/7feb0a68-6f3d-4aed-b296-f61130c343a5_w520_r2.08_fpx34_fpy51.jpg", "date": "Mon, 1 Apr 2024 22:54:00 +0200", "lat": 21.344507, "lon": -157.960515, "intensity": 0.8, "source": "SPIEGEL"}, {"title": "\u00bbTatort\u00ab-Vote: Wie gefiel Ihnen \u00bbAngst im Dunkeln\u00ab mit Jasna Fritzi Bauer?", "url": "https://www.spiegel.de/kultur/tatort-vote-wie-gefiel-ihnen-angst-im-dunkeln-mit-jasna-fritzi-bauer-a-3a5afad1-0426-42f0-85a6-80282cbb354d#ref=rss", "thumbnailUrl": "https://cdn.prod.www.spiegel.de/images/37b880f3-14d2-4240-b01b-c41be1fd7602_w520_r2.08_fpx27.85_fpy49.98.jpg", "date": "Tue, 2 Apr 2024 05:59:00 +0200", "lat": 53.0793, "lon": 8.8047, "intensity": 0.6, "source": "SPIEGEL"}, {"title": "Skiurlaub in der Lombardei: So k\u00f6nnte die Zukunft des Skitourismus aussehen", "url": "https://www.spiegel.de/reise/europa/skiurlaub-in-der-lombardei-so-koennte-die-zukunft-des-skitourismus-aussehen-a-0330f973-0f07-42f6-b465-3c8eb04ea7fc#ref=rss", "thumbnailUrl": "https://cdn.prod.www.spiegel.de/images/3ff1ea2d-2aab-493e-abb9-45613c9c5310_w520_r2.08_fpx33.74_fpy44.98.jpg", "date": "Tue, 26 Mar 2024 07:08:00 +0100", "lat": 46.016, "lon": 9.9281, "intensity": 0.6, "source": "SPIEGEL"}, {"title": "Krieg in Nahost: Sieben ausl\u00e4ndische Helfer in Gaza get\u00f6tet", "url": "https://www.zeit.de/news/2024-04/02/berichte-ueber-tod-auslaendischer-helfer-in-gaza", "thumbnailUrl": "https://img.zeit.de/news/2024-04/02/berichte-ueber-tod-auslaendischer-helfer-in-gaza-image-group/original__640x360", "date": "Tue, 02 Apr 2024 06:59:12 -0000", "lat": 31.5241, "lon": 34.4538, "intensity": 0.8, "source": "ZEIT"}, {"title": "Wettervorhersage: St\u00fcrmisches Wetter in Hamburg und Schleswig-Holstein", "url": "https://www.zeit.de/news/2024-04/02/stuermisches-wetter-in-hamburg-und-schleswig-holstein", "thumbnailUrl": "https://img.zeit.de/news/2024-04/02/stuermisches-wetter-in-hamburg-und-schleswig-holstein-image-group/original__640x360", "date": "Tue, 02 Apr 2024 06:57:52 -0000", "lat": 53.5511, "lon": 9.9937, "intensity": 0.8, "source": "ZEIT"}, {"title": "Unfall: Motorradfahrer in Kreuzberg von Auto erfasst und verletzt", "url": "https://www.zeit.de/news/2024-04/02/motorradfahrer-in-kreuzberg-von-auto-erfasst-und-verletzt", "thumbnailUrl": "https://img.zeit.de/news/2024-04/02/motorradfahrer-in-kreuzberg-von-auto-erfasst-und-verletzt-image-group/original__640x360", "date": "Tue, 02 Apr 2024 06:55:57 -0000", "lat": 52.4883, "lon": 13.3986, "intensity": 0.7, "source": "ZEIT"}, {"title": "Gazastreifen: Hilfsorganisation meldet Tod mehrerer Helfer bei israelischem Angriff", "url": "https://www.zeit.de/politik/ausland/2024-04/gaza-luftangriff-tod-mitarbeiter-hilfsorganisation-world-central-kitchen", "thumbnailUrl": "https://img.zeit.de/politik/ausland/2024-04/hilfsorganisation-wck-mitarbeiter-getoetet/original__640x360", "date": "Tue, 02 Apr 2024 06:51:01 -0000", "lat": 31.4607, "lon": 34.3955, "intensity": 0.8, "source": "ZEIT"}, {"title": "Wettervorhersage: St\u00fcrmisches Wetter nach Ostern in Sachsen-Anhalt", "url": "https://www.zeit.de/news/2024-04/02/stuermisches-wetter-nach-ostern-in-sachsen-anhalt", "thumbnailUrl": "https://img.zeit.de/news/2024-04/02/stuermisches-wetter-nach-ostern-in-sachsen-anhalt-image-group/original__640x360", "date": "Tue, 02 Apr 2024 06:41:42 -0000", "lat": 52.1234, "lon": 11.5843, "intensity": 0.6, "source": "ZEIT"}, {"title": "Niederbayern: Leer stehendes Wohnhaus brennt: 100.000 Euro Schaden", "url": "https://www.zeit.de/news/2024-04/02/leer-stehendes-wohnhaus-brennt-100-000-euro-schaden", "thumbnailUrl": "https://img.zeit.de/news/2024-04/02/leer-stehendes-wohnhaus-brennt-100-000-euro-schaden-image-group/original__640x360", "date": "Tue, 02 Apr 2024 06:40:36 -0000", "lat": 48.790447, "lon": 12.488755, "intensity": 0.8, "source": "ZEIT"}, {"title": "Wetter: Starke Winde in Mecklenburg-Vorpommern erwartet", "url": "https://www.zeit.de/news/2024-04/02/starke-winde-in-mecklenburg-vorpommern-erwartet", "thumbnailUrl": "https://img.zeit.de/news/2024-04/02/starke-winde-in-mecklenburg-vorpommern-erwartet-image-group/original__640x360", "date": "Tue, 02 Apr 2024 06:23:10 -0000", "lat": 53.612664, "lon": 12.476388, "intensity": 0.8, "source": "ZEIT"}, {"title": "Schwarzwald-Baar-Kreis: Schwerer Unfall: Auto mutma\u00dflich zu schnell", "url": "https://www.zeit.de/news/2024-04/02/schwerer-unfall-auto-mutmasslich-zu-schnell", "thumbnailUrl": "https://img.zeit.de/news/2024-04/02/schwerer-unfall-auto-mutmasslich-zu-schnell-image-group/original__640x360", "date": "Tue, 02 Apr 2024 06:08:59 -0000", "lat": 48.0747, "lon": 8.4674, "intensity": 0.8, "source": "ZEIT"}]