[{"title": "Gantz fordert Neuwahl in Israel", "url": "https://www.tagesschau.de/ausland/asien/gantz-fordert-neuwahlen-israel-100.html", "thumbnailUrl": "https://images.tagesschau.de/image/a406a0b9-bf24-47dc-bc03-f593c0cb37ee/AAABjqagTwU/AAABjcWesUg/16x9-512.jpg", "date": "2024-04-04T03:08:56.248+02:00", "lat": 31.7683, "lon": 35.2137, "intensity": 0.8, "source": "Tagesschau"}, {"title": "Wangen im Allg\u00e4u: Mann verletzt Kind in Supermarkt mit Messer", "url": "https://www.tagesschau.de/inland/regional/badenwuerttemberg/swr-wangen-im-allgaeu-mann-verletzt-kind-in-supermarkt-mit-messer-100.html", "thumbnailUrl": "https://images.tagesschau.de/image/fa22e83e-a324-4cb6-8cc2-ba9f10e668d1/AAABjqatWiE/AAABjcWesUg/16x9-512.jpg", "date": "2024-04-04T03:08:26.000+02:00", "lat": 47.6866, "lon": 9.8373, "intensity": 0.8, "source": "Tagesschau"}, {"title": "853 Hinrichtungen im Iran im Jahr 2023", "url": "https://www.tagesschau.de/ausland/asien/amnesty-iran-hinrichtungen-100.html", "thumbnailUrl": "https://images.tagesschau.de/image/a675bf26-7b3f-4f8a-abd8-ecd8f32f8941/AAABjVTIU6k/AAABjcWesUg/16x9-512.jpg", "date": "2024-04-04T02:47:33.181+02:00", "lat": 35.689197, "lon": 51.388973, "intensity": 0.8, "source": "Tagesschau"}, {"title": "++ Gantz fordert Neuwahl im September ++", "url": "https://www.tagesschau.de/newsticker/liveblog-nahost-mittwoch-118.html", "thumbnailUrl": "https://images.tagesschau.de/image/3afd6424-534a-48e0-b3b9-c387e2994a1e/AAABjb_SYWI/AAABjcWesUg/16x9-512.jpg", "date": "2024-04-03T23:34:31.140+02:00", "lat": 31.7683, "lon": 35.2137, "intensity": 0.8, "source": "Tagesschau"}, {"title": "Niedersachsen stoppt Wolfs-Abschuss in Region Hannover", "url": "https://www.tagesschau.de/inland/regional/niedersachsen/ndr-niedersachsen-stoppt-wolfs-abschuss-in-region-hannover-100.html", "thumbnailUrl": "https://images.tagesschau.de/image/9d218fcc-e3de-406e-8cb1-8b46c3940e0a/AAABjqW9_Ho/AAABjcWesUg/16x9-512.jpg", "date": "2024-04-03T22:52:00.000+02:00", "lat": 52.3759, "lon": 9.7371, "intensity": 0.4, "source": "Tagesschau"}, {"title": "Freilichtmuseum am Kiekeberg pflanzt \"Apfel des Jahres\" 2024", "url": "https://www.tagesschau.de/inland/regional/niedersachsen/ndr-freilichtmuseum-am-kiekeberg-pflanzt-100.html", "thumbnailUrl": "https://images.tagesschau.de/image/c2864c4d-405b-4165-ba52-ec2f8668d921/AAABjqL1p44/AAABjcWesUg/16x9-512.jpg", "date": "2024-04-03T22:36:00.000+02:00", "lat": 53.3777, "lon": 9.8442, "intensity": 0.3, "source": "Tagesschau"}, {"title": "Erholungsversuch gescheitert", "url": "https://www.tagesschau.de/wirtschaft/finanzen/marktberichte/marktbericht-dax-dow-jones-boerse-aktien-100.html", "thumbnailUrl": "https://images.tagesschau.de/image/d8efa7a4-17c1-414b-a6f1-5ab2f61b50ab/AAABjNoGUIg/AAABjcWesUg/16x9-512.jpg", "date": "2024-04-03T22:15:12.757+02:00", "lat": 51.226, "lon": 10.412, "intensity": 0.6, "source": "Tagesschau"}, {"title": "Sieg gegen L\u00fcneburg: BR Volleys stehen im Volleyball-Finale", "url": "https://www.tagesschau.de/inland/regional/berlin/rbb-sieg-im-halbfinale-gegen-lueneburg-br-volleys-stehen-im-volleyball-finale-102.html", "thumbnailUrl": "https://images.tagesschau.de/image/8892077a-f54c-4396-8e00-e2c76625bbda/AAABjqWXYvc/AAABjcWesUg/16x9-512.jpg", "date": "2024-04-03T22:05:00.000+02:00", "lat": 52.520008, "lon": 13.404954, "intensity": 0.8, "source": "Tagesschau"}, {"title": "Hilfsorganisationen fordern mehr Schutz", "url": "https://www.tagesschau.de/ausland/asien/nahost-israel-luftangriff-hilfsorganisation-102.html", "thumbnailUrl": "https://images.tagesschau.de/image/f5cebb5c-02e5-4ebf-8c55-8331d16451e8/AAABjqWLEsY/AAABjcWesUg/16x9-512.jpg", "date": "2024-04-03T21:59:13.361+02:00", "lat": 31.5011, "lon": 34.3954, "intensity": 0.8, "source": "Tagesschau"}, {"title": "Mann in Dortmund von Polizei niedergeschossen", "url": "https://www.tagesschau.de/inland/regional/nordrheinwestfalen/wdr-mann-in-dortmund-von-polizei-niedergeschossen-100.html", "thumbnailUrl": "https://images.tagesschau.de/image/29214cf5-f20e-4957-a929-cf230ac7e240/AAABjqWBC-Y/AAABjcWesUg/16x9-512.jpg", "date": "2024-04-03T21:43:00.000+02:00", "lat": 51.5149, "lon": 7.4717, "intensity": 0.8, "source": "Tagesschau"}, {"title": "Prozess gegen \"Maddie\"-Verd\u00e4chtigen: Zeuge belastet Angeklagten B.", "url": "https://www.tagesschau.de/inland/regional/niedersachsen/ndr-prozess-gegen-maddie-verdaechtigen-zeuge-belastet-angeklagten-b-100.html", "thumbnailUrl": "https://images.tagesschau.de/image/028fd795-8e62-4daa-99a9-533043250065/AAABjqWxIgw/AAABjcWesUg/16x9-512.jpg", "date": "2024-04-03T21:37:00.000+02:00", "lat": 51.1657, "lon": 10.4167, "intensity": 0.8, "source": "Tagesschau"}, {"title": "Eintracht II gewinnt wildes Spiel - Fulda verliert knapp", "url": "https://www.tagesschau.de/inland/regional/hessen/hr-ofc-schiesst-walldorf-ab-punkteteilung-in-kassel-100.html", "thumbnailUrl": "https://images.tagesschau.de/image/bba623f2-4db4-464f-9f23-ce703748ec91/AAABjqVXF88/AAABjcWesUg/16x9-512.jpg", "date": "2024-04-03T21:01:56.416+02:00", "lat": 50.109957, "lon": 8.6951, "intensity": 0.7, "source": "Tagesschau"}, {"title": "XR EXPO: Virtuelle Welten f\u00fcr die reale Wirtschaft", "url": "https://www.tagesschau.de/inland/regional/badenwuerttemberg/swr-xr-expo-virtuelle-welten-fuer-die-reale-wirtschaft-100.html", "thumbnailUrl": "https://images.tagesschau.de/image/d1fec037-07dd-4844-be21-1ade05601adf/AAABjqUh3R4/AAABjcWesUg/16x9-512.jpg", "date": "2024-04-03T21:01:00.000+02:00", "lat": 48.7758, "lon": 9.1829, "intensity": 0.7, "source": "Tagesschau"}, {"title": "FC Homburg verliert 0:3 gegen Freiberg", "url": "https://www.tagesschau.de/inland/regional/saarland/sr-fc-homburg-verliert-03-gegen-freiberg-102.html", "thumbnailUrl": "https://images.tagesschau.de/image/419b0281-bb39-48d4-b408-d433072924e2/AAABjqVeQcg/AAABjcWesUg/16x9-512.jpg", "date": "2024-04-03T20:58:00.000+02:00", "lat": 49.3247, "lon": 7.3115, "intensity": 0.7, "source": "Tagesschau"}, {"title": "Putins Helfer", "url": "https://www.tagesschau.de/investigativ/monitor/ukraine-mariupol-wiederaufbau-russland-100.html", "thumbnailUrl": "https://images.tagesschau.de/image/a00adcb2-6c21-469c-922f-d2227d34e2eb/AAABjqSIx3U/AAABjcWesUg/16x9-512.jpg", "date": "2024-04-03T20:55:17.011+02:00", "lat": 47.0971, "lon": 37.5046, "intensity": 0.8, "source": "Tagesschau"}, {"title": "Nach Tod bei Osterfeuer: Warnte Feuerwehr die Besucher vor Baum?", "url": "https://www.tagesschau.de/inland/regional/niedersachsen/ndr-toedliches-unglueck-bei-osterfeuer-22-jaehrige-von-baum-getroffen-100.html", "thumbnailUrl": "https://images.tagesschau.de/image/2b319f17-0469-4f6f-9ec1-4ee67fcdc617/AAABjqTThXQ/AAABjcWesUg/16x9-512.jpg", "date": "2024-04-03T20:53:00.000+02:00", "lat": 52.3764, "lon": 9.2733, "intensity": 0.8, "source": "Tagesschau"}, {"title": "Jetzt live: Leverkusen trifft auf D\u00fcsseldorf", "url": "https://www.sportschau.de/live-und-ergebnisse/fussball/deutschland-dfb-pokal/ma9610461/bayer-leverkusen_fortuna-duesseldorf/liveticker/", "thumbnailUrl": "https://images.tagesschau.de/image/804a99c8-8f76-4983-acde-1b109f69654d/AAABiIJWu9w/AAABjcWesUg/16x9-512.jpg", "date": "2024-04-03T20:26:13.758+02:00", "lat": 51.045, "lon": 7.009362, "intensity": 0.5, "source": "Tagesschau"}, {"title": "Bombe in Wiesbaden mit Verz\u00f6gerung entsch\u00e4rft", "url": "https://www.tagesschau.de/inland/regional/hessen/hr-500-kilo-bombe-in-wiesbaden-biebrich-gefunden-10-000-anwohner-betroffen-100.html", "thumbnailUrl": "https://images.tagesschau.de/image/9ded1cd2-9541-461f-8c86-282bfdda6bbb/AAABjqU0ddY/AAABjcWesUg/16x9-512.jpg", "date": "2024-04-03T20:23:47.178+02:00", "lat": 50.0408, "lon": 8.2087, "intensity": 0.8, "source": "Tagesschau"}, {"title": "Hubschrauber bei Holzernte im Kreis Sonneberg abgest\u00fcrzt", "url": "https://www.tagesschau.de/inland/regional/thueringen/mdr-hubschrauber-bei-holzernte-im-kreis-sonneberg-abgestuerzt-100.html", "thumbnailUrl": "https://images.tagesschau.de/image/288af287-be81-4b80-9a5e-ab25861db2a0/AAABjqZFIoQ/AAABjcWesUg/16x9-512.jpg", "date": "2024-04-03T20:21:59.000+02:00", "lat": 50.3506, "lon": 11.1753, "intensity": 0.8, "source": "Tagesschau"}, {"title": "Biotop bei Hermeskeil zerst\u00f6rt: Das sagen die Verantwortlichen", "url": "https://www.tagesschau.de/inland/regional/rheinlandpfalz/swr-biotop-bei-hermeskeil-zerstoert-das-sagen-die-verantwortlichen-100.html", "thumbnailUrl": "https://images.tagesschau.de/image/1573608e-d993-4683-b7fd-c7bb9de45f51/AAABjqMb19k/AAABjcWesUg/16x9-512.jpg", "date": "2024-04-03T20:20:00.000+02:00", "lat": 49.6335, "lon": 6.9387, "intensity": 0.6, "source": "Tagesschau"}, {"title": "Prokurdischer Politiker wird doch B\u00fcrgermeister", "url": "https://www.tagesschau.de/ausland/europa/tuerkei-kommunalwahlen-buergermeister-100.html", "thumbnailUrl": "https://images.tagesschau.de/image/68206f14-ea64-4dbb-9b81-f0651d3f3b5b/AAABjqUVRpg/AAABjcWesUg/16x9-512.jpg", "date": "2024-04-03T20:18:52.064+02:00", "lat": 38.9637, "lon": 35.2433, "intensity": 0.8, "source": "Tagesschau"}, {"title": "Sozialkaufhaus \"M\u00f6belkiste Hamburg\" \u00f6ffnet an neuem Standort", "url": "https://www.tagesschau.de/inland/regional/hamburg/ndr-sozialkaufhaus-moebelkiste-hamburg-wird-in-barmbek-eroeffnet-100.html", "thumbnailUrl": "https://images.tagesschau.de/image/2d770c0d-189b-4a1b-9789-9941943afb0e/AAABjqRutl4/AAABjcWesUg/16x9-512.jpg", "date": "2024-04-03T20:17:00.000+02:00", "lat": 53.5921, "lon": 10.0357, "intensity": 0.6, "source": "Tagesschau"}, {"title": "Hamburgs Linienbusse kommen immer langsamer voran", "url": "https://www.tagesschau.de/inland/regional/hamburg/ndr-hamburgs-linienbusse-kommen-immer-langsamer-voran-100.html", "thumbnailUrl": "https://images.tagesschau.de/image/168255b7-4710-4ae9-b1c3-a015c358a626/AAABjqP7hYc/AAABjcWesUg/16x9-512.jpg", "date": "2024-04-03T20:11:00.000+02:00", "lat": 53.5653, "lon": 10.0009, "intensity": 0.8, "source": "Tagesschau"}, {"title": "74-j\u00e4hrige Tote bei Wohnungsbrand: Tochter wegen Mordes angeklagt", "url": "https://www.tagesschau.de/inland/regional/niedersachsen/ndr-74-jaehrige-tote-bei-wohnungsbrand-tochter-wegen-mordes-angeklagt-100.html", "thumbnailUrl": "https://images.tagesschau.de/image/64fa1827-28ab-4d71-8cfa-aa9b577057cc/AAABjqUkRzg/AAABjcWesUg/16x9-512.jpg", "date": "2024-04-03T20:04:00.000+02:00", "lat": 52.3759, "lon": 9.732, "intensity": 0.8, "source": "Tagesschau"}, {"title": "20.000 Elefanten f\u00fcr Deutschland: Was hinter dem Angebot aus Botswana steckt", "url": "https://www.tagesschau.de/inland/regional/nordrheinwestfalen/wdr-20-000-elefanten-fuer-deutschland-was-hinter-dem-angebot-aus-botswana-steckt-100.html", "thumbnailUrl": "https://images.tagesschau.de/image/af672611-101d-4c25-8c07-5ee94c840dc3/AAABjqUjrBY/AAABjcWesUg/16x9-512.jpg", "date": "2024-04-03T19:55:00.000+02:00", "lat": 51.4332, "lon": 7.6261, "intensity": 0.7, "source": "Tagesschau"}, {"title": "Toter in Nienburg: Haftbefehl wurde in Hamburg abgelehnt", "url": "https://www.tagesschau.de/inland/regional/hamburg/ndr-toter-in-nienburg-haftbefehl-wurde-in-hamburg-abgelehnt-100.html", "thumbnailUrl": "https://images.tagesschau.de/image/fe871530-9d7b-4384-a451-80d7445cc255/AAABjqVkN-s/AAABjcWesUg/16x9-512.jpg", "date": "2024-04-03T19:54:00.000+02:00", "lat": 52.3415, "lon": 9.6625, "intensity": 0.8, "source": "Tagesschau"}, {"title": "T\u00f6dliche Sch\u00fcsse vor Shisha-Bar: Prozess in Hamburg", "url": "https://www.tagesschau.de/inland/regional/hamburg/ndr-toedliche-schuesse-vor-shisha-bar-prozess-in-hamburg-100.html", "thumbnailUrl": "https://images.tagesschau.de/image/653732ee-3588-4832-af5d-1bd5a3f3b090/AAABjqS0T1I/AAABjcWesUg/16x9-512.jpg", "date": "2024-04-03T19:43:00.000+02:00", "lat": 53.5511, "lon": 9.9937, "intensity": 0.8, "source": "Tagesschau"}, {"title": "Scheitern oder Wortbruch? AfD-Plan f\u00fcr Corona-Untersuchungsausschuss droht zu platzen", "url": "https://www.tagesschau.de/inland/regional/hessen/hr-afd-will-corona-untersuchungsausschuss-im-mai-durchsetzen-100.html", "thumbnailUrl": "https://images.tagesschau.de/image/1672257e-5635-4afa-97b8-902f8e596594/AAABjqUIgT0/AAABjcWesUg/16x9-512.jpg", "date": "2024-04-03T19:34:18.449+02:00", "lat": 50.7753, "lon": 9.4815, "intensity": 0.6, "source": "Tagesschau"}, {"title": "Fracht aus Russland - Staatsanwaltschaft ermittelt ", "url": "https://www.tagesschau.de/inland/regional/mecklenburgvorpommern/atlantic-navigator-rostock-100.html", "thumbnailUrl": "https://images.tagesschau.de/image/5bd5070a-ae6f-4e24-a04a-4ba4194b8ef3/AAABjqUCuN4/AAABjcWesUg/16x9-512.jpg", "date": "2024-04-03T19:28:00.000+02:00", "lat": 54.0887, "lon": 12.1403, "intensity": 0.7, "source": "Tagesschau"}, {"title": "Nach t\u00f6dlichen Sch\u00fcssen in Nienburg: Polizei sichtet Videoaufnahmen", "url": "https://www.tagesschau.de/inland/regional/niedersachsen/ndr-toedliche-polizeischuesse-in-nienburg-staatsanwaltschaft-aeussert-sich-100.html", "thumbnailUrl": "https://images.tagesschau.de/image/14227532-ddec-4d64-9598-129a82838fa5/AAABjqVkMn8/AAABjcWesUg/16x9-512.jpg", "date": "2024-04-03T19:18:00.000+02:00", "lat": 52.6352, "lon": 9.2437, "intensity": 0.8, "source": "Tagesschau"}, {"title": "Acht Jahre Haft f\u00fcr Missbrauch ukrainischer Fl\u00fcchtlingskinder", "url": "https://www.tagesschau.de/inland/regional/hamburg/ndr-acht-jahre-haft-fuer-missbrauch-ukrainischer-fluechtlingskinder-100.html", "thumbnailUrl": "https://images.tagesschau.de/image/c324a587-5b4b-46b8-ac7f-47539820c3c6/AAABjqTrRZU/AAABjcWesUg/16x9-512.jpg", "date": "2024-04-03T18:59:00.000+02:00", "lat": 53.55, "lon": 10.0, "intensity": 0.8, "source": "Tagesschau"}, {"title": "Geb\u00fchr f\u00fcrs Restaurant: Wer nicht kommt, zahlt trotzdem", "url": "https://www.tagesschau.de/inland/regional/thueringen/mdr-gebuehr-fuers-restaurant-wer-nicht-kommt-zahlt-trotzdem-100.html", "thumbnailUrl": "https://images.tagesschau.de/image/b38fc667-f1dd-4b0b-a18c-9eeec590cfc3/AAABjqZFRlw/AAABjcWesUg/16x9-512.jpg", "date": "2024-04-03T18:57:56.000+02:00", "lat": 50.87761, "lon": 11.58031, "intensity": 0.6, "source": "Tagesschau"}, {"title": "Corona-Impfp\u00e4sse gef\u00e4lscht: 32-J\u00e4hriger steht weiter vor Gericht", "url": "https://www.tagesschau.de/inland/regional/schleswigholstein/ndr-corona-impfpaesse-gefaelscht-32-jaehriger-steht-vor-gericht-100.html", "thumbnailUrl": "https://images.tagesschau.de/image/45bec9fd-cf59-45f4-9589-f7261303938e/AAABjqTDB90/AAABjcWesUg/16x9-512.jpg", "date": "2024-04-03T18:49:00.000+02:00", "lat": 54.3327, "lon": 9.9886, "intensity": 0.7, "source": "Tagesschau"}, {"title": "FCK-Trainer Funkel im Interview: Abstiegskampf und Pokalfinale \"kein schwieriger Spagat\"", "url": "https://www.tagesschau.de/inland/regional/rheinlandpfalz/swr-fck-trainer-funkel-im-interview-abstiegskampf-und-pokalfinale-kein-schwieriger-spagat-102.html", "thumbnailUrl": "https://images.tagesschau.de/image/d1c2d105-8a3d-4fb0-8474-41e99e3f2f5e/AAABjqTpHx8/AAABjcWesUg/16x9-512.jpg", "date": "2024-04-03T18:48:05.000+02:00", "lat": 49.4431, "lon": 7.7683, "intensity": 0.7, "source": "Tagesschau"}, {"title": "Hamburgs Wirtschaft informiert sich \u00fcber Sicherheitslage im Baltikum", "url": "https://www.tagesschau.de/inland/regional/hamburg/ndr-hamburgs-wirtschaft-informiert-sich-ueber-sicherheitslage-im-baltikum-100.html", "thumbnailUrl": "https://images.tagesschau.de/image/53028a4c-9d9e-4bb8-93a5-85ab07d6cecc/AAABjqMsgw4/AAABjcWesUg/16x9-512.jpg", "date": "2024-04-03T18:40:00.000+02:00", "lat": 53.55, "lon": 10.0, "intensity": 0.6, "source": "Tagesschau"}, {"title": "Postbankbesch\u00e4ftigte haben am Mittwoch gestreikt", "url": "https://www.tagesschau.de/inland/regional/saarland/sr-verdi-ruft-postbankbeschaeftigte-erneut-zu-streiks-auf-100.html", "thumbnailUrl": "https://images.tagesschau.de/image/18eb5b36-c5eb-424c-b3bc-0d77131dd0a7/AAABjp4fZsQ/AAABjcWesUg/16x9-512.jpg", "date": "2024-04-03T18:35:00.000+02:00", "lat": 49.2354, "lon": 6.9815, "intensity": 0.8, "source": "Tagesschau"}, {"title": "Ermittlungen nach Tod von Dreij\u00e4hriger in Mainz eingestellt ", "url": "https://www.tagesschau.de/inland/regional/rheinlandpfalz/swr-ermittlungen-nach-tod-von-dreijaehriger-in-mainz-eingestellt-100.html", "thumbnailUrl": "https://images.tagesschau.de/image/55650669-7cf2-4ec9-8a18-5a426ee807f0/AAABjqURbd4/AAABjcWesUg/16x9-512.jpg", "date": "2024-04-03T18:33:36.000+02:00", "lat": 50.002731, "lon": 8.247252, "intensity": 0.8, "source": "Tagesschau"}, {"title": "Usedom: Deutsch-polnisches Polizeiteam gemeinsam auf Streife", "url": "https://www.tagesschau.de/inland/regional/mecklenburgvorpommern/ndr-usedom-deutsch-polnisches-polizeiteam-gemeinsam-auf-streife-100.html", "thumbnailUrl": "https://images.tagesschau.de/image/78657dd3-2237-4e44-bf44-83f522e9832e/AAABjqT_Fm8/AAABjcWesUg/16x9-512.jpg", "date": "2024-04-03T18:31:00.000+02:00", "lat": 53.96405, "lon": 14.10318, "intensity": 0.7, "source": "Tagesschau"}, {"title": "Japanisches Kirschbl\u00fctenfest: Kein Feuerwerk \u00fcber der Alster", "url": "https://www.tagesschau.de/inland/regional/hamburg/ndr-japanisches-kirschbluetenfest-kein-feuerwerk-ueber-der-alster-100.html", "thumbnailUrl": "https://images.tagesschau.de/image/a762234b-e592-49d0-909e-8545c112ae02/AAABjqQ0NGE/AAABjcWesUg/16x9-512.jpg", "date": "2024-04-03T18:30:00.000+02:00", "lat": 53.5587, "lon": 10.0116, "intensity": 0.4, "source": "Tagesschau"}, {"title": "Nordfassade am Halberst\u00e4dter Dom wird saniert", "url": "https://www.tagesschau.de/inland/regional/sachsenanhalt/mdr-nordfassade-am-halberstaedter-dom-wird-saniert-102.html", "thumbnailUrl": "https://images.tagesschau.de/image/b6e16d12-eb93-4c53-9067-1146830ed79d/AAABjqZDjRM/AAABjcWesUg/16x9-512.jpg", "date": "2024-04-03T18:29:26.000+02:00", "lat": 51.8972, "lon": 11.0472, "intensity": 0.3, "source": "Tagesschau"}, {"title": "Mordprozess in Frankfurt: Haft-Bekanntschaft mit Hammer erschlagen ", "url": "https://www.tagesschau.de/inland/regional/hessen/hr-mordprozess-in-frankfurt-haft-bekanntschaft-mit-hammer-erschlagen-100.html", "thumbnailUrl": "https://images.tagesschau.de/image/1592d6ca-df38-4397-aa7d-6b6ea8d07856/AAABjqS_GZA/AAABjcWesUg/16x9-512.jpg", "date": "2024-04-03T18:14:58.337+02:00", "lat": 50.1109, "lon": 8.6821, "intensity": 0.8, "source": "Tagesschau"}, {"title": "Wie die FP\u00d6 beim ORF \"ausmisten\" wollte", "url": "https://www.tagesschau.de/ausland/europa/oesterreich-fpoe-orf-100.html", "thumbnailUrl": "https://images.tagesschau.de/image/72c56b22-d3de-4abe-b2a3-61c96c086d15/AAABjqSd21o/AAABjcWesUg/16x9-512.jpg", "date": "2024-04-03T18:07:45.577+02:00", "lat": 47.269212, "lon": 13.409996, "intensity": 0.8, "source": "Tagesschau"}, {"title": "Liebherr gibt erneut Rekordumsatz bekannt", "url": "https://www.tagesschau.de/inland/regional/badenwuerttemberg/swr-liebherr-gibt-erneut-rekordumsatz-bekannt-100.html", "thumbnailUrl": "https://images.tagesschau.de/image/b5c4e362-7e38-4df1-ae1a-49f5107b2d85/AAABjqWEwkk/AAABjcWesUg/16x9-512.jpg", "date": "2024-04-03T18:05:49.000+02:00", "lat": 47.8648, "lon": 9.5477, "intensity": 0.8, "source": "Tagesschau"}, {"title": "Moselle diskutiert \u00fcber hohe Kosten f\u00fcrs Olympische Feuer", "url": "https://www.tagesschau.de/inland/regional/saarland/sr-moselle-diskutiert-ueber-hohe-kosten-fuers-olympische-feuer-100.html", "thumbnailUrl": "https://images.tagesschau.de/image/072dba9e-afb7-4860-a47a-a6a5b91a7dc5/AAABjqS5e9w/AAABjcWesUg/16x9-512.jpg", "date": "2024-04-03T18:05:00.000+02:00", "lat": 49.0953, "lon": 6.1167, "intensity": 0.8, "source": "Tagesschau"}, {"title": "Umweltsenatorin Schreiner: Mischwald-Programm in Berliner Forsten soll nicht fortgesetzt werden", "url": "https://www.tagesschau.de/inland/regional/berlin/rbb-umweltsenatorin-schreiner-mischwald-programm-in-berliner-forsten-soll-nicht-fortgesetzt-werden-100.html", "thumbnailUrl": "https://images.tagesschau.de/image/2a0d53c1-4f39-4358-bf62-33df915ea6e0/AAABjqS2OOw/AAABjcWesUg/16x9-512.jpg", "date": "2024-04-03T18:02:40.000+02:00", "lat": 52.52, "lon": 13.405, "intensity": 0.7, "source": "Tagesschau"}, {"title": "Pro-europ\u00e4isch oder Putin-h\u00f6rig?", "url": "https://www.tagesschau.de/ausland/europa/georgien-russland-eu-102.html", "thumbnailUrl": "https://images.tagesschau.de/image/b9789a74-b377-4625-9d7a-7a4b342b32ab/AAABjp35G_I/AAABjcWesUg/16x9-512.jpg", "date": "2024-04-03T17:50:22.309+02:00", "lat": 41.717, "lon": 44.793, "intensity": 0.7, "source": "Tagesschau"}, {"title": "\u00d6kolandbau in Deutschland: SH rangiert auf hinteren Pl\u00e4tzen", "url": "https://www.tagesschau.de/inland/regional/schleswigholstein/ndr-oekolandbau-in-deutschland-sh-rangiert-auf-hinteren-plaetzen-100.html", "thumbnailUrl": "https://images.tagesschau.de/image/09d842cf-6e03-4937-8a19-7970e945d3c0/AAABjqSnhSw/AAABjcWesUg/16x9-512.jpg", "date": "2024-04-03T17:46:00.000+02:00", "lat": 54.219367, "lon": 9.98844, "intensity": 0.5, "source": "Tagesschau"}, {"title": "Erdl\u00f6cher in Mansfeld-S\u00fcdharz: B\u00fcrger zu Mithilfe aufgerufen", "url": "https://www.tagesschau.de/inland/regional/sachsenanhalt/mdr-erdloecher-in-mansfeld-suedharz-buerger-zu-mithilfe-aufgerufen-100.html", "thumbnailUrl": "https://images.tagesschau.de/image/d926bd51-f8aa-4af6-8e2a-eba5ff37dec6/AAABjqZDyKc/AAABjcWesUg/16x9-512.jpg", "date": "2024-04-03T17:45:19.000+02:00", "lat": 51.5533, "lon": 11.5984, "intensity": 0.7, "source": "Tagesschau"}, {"title": "Sohn soll Vater in B\u00f6hl-Iggelheim get\u00f6tet haben", "url": "https://www.tagesschau.de/inland/regional/rheinlandpfalz/swr-sohn-soll-vater-in-boehl-iggelheim-getoetet-haben-100.html", "thumbnailUrl": "https://images.tagesschau.de/image/39666759-4767-4d76-9633-df1b0544d517/AAABjqNv61s/AAABjcWesUg/16x9-512.jpg", "date": "2024-04-03T17:41:00.000+02:00", "lat": 49.3642, "lon": 8.2919, "intensity": 0.8, "source": "Tagesschau"}, {"title": "Familien k\u00f6nnen nicht in ihre Wohnungen: Bautr\u00e4ger klagt auf Millionen wegen Pfusch auf Baustelle", "url": "https://www.tagesschau.de/inland/regional/hessen/hr-familien-koennen-nicht-in-ihre-wohnungen-bautraeger-klagt-auf-millionen-wegen-pfusch-auf-baustelle-100.html", "thumbnailUrl": "https://images.tagesschau.de/image/de7a8ea3-aba7-420d-a7ff-77288c398d94/AAABjqSgAIU/AAABjcWesUg/16x9-512.jpg", "date": "2024-04-03T17:40:53.790+02:00", "lat": 50.1331, "lon": 8.9141, "intensity": 0.8, "source": "Tagesschau"}, {"title": "Wenige Bremer Bereitschaftspolizisten bekommen bald Taser", "url": "https://www.tagesschau.de/inland/regional/bremen/rb-wenige-bremer-bereitschaftspolizisten-bekommen-bald-taser-100.html", "thumbnailUrl": "https://images.tagesschau.de/image/da40f34b-ad06-4555-9aa7-f945036503f4/AAABjqV0YU4/AAABjcWesUg/16x9-512.jpg", "date": "2024-04-03T17:27:00.000+02:00", "lat": 53.0793, "lon": 8.8017, "intensity": 0.6, "source": "Tagesschau"}, {"title": "Bombe in K\u00f6ln erfolgreich entsch\u00e4rft: 500 Kilogramm Blindg\u00e4nger lag im Rhein", "url": "https://www.tagesschau.de/inland/regional/nordrheinwestfalen/wdr-weltkriegsbombe-am-rheinufer-in-koeln-deutz-entdeckt-100.html", "thumbnailUrl": "https://images.tagesschau.de/image/238c7ac5-3672-43d5-a8a9-2f70e43f98c6/AAABjqTJ7es/AAABjcWesUg/16x9-512.jpg", "date": "2024-04-03T17:24:00.000+02:00", "lat": 50.9333, "lon": 7.0069, "intensity": 0.8, "source": "Tagesschau"}, {"title": "Nach Flucht von H\u00e4ftling in Ludwigshafen: Anklage gegen mutma\u00dfliche Komplizen erhoben", "url": "https://www.tagesschau.de/inland/regional/rheinlandpfalz/swr-nach-flucht-von-haeftling-in-ludwigshafen-anklage-gegen-mutmassliche-komplizen-erhoben-100.html", "thumbnailUrl": "https://images.tagesschau.de/image/51bf960c-7fea-40e7-9487-fd9070225141/AAABjqURc30/AAABjcWesUg/16x9-512.jpg", "date": "2024-04-03T17:16:11.000+02:00", "lat": 49.4875, "lon": 8.4433, "intensity": 0.8, "source": "Tagesschau"}, {"title": "Was \u00fcber das Erdbeben in Taiwan bekannt ist", "url": "https://www.tagesschau.de/ausland/asien/erdbeben-taiwan-122.html", "thumbnailUrl": "https://images.tagesschau.de/image/83f4fbeb-22de-4cd1-8f61-a825948a6fbf/AAABjqSuRf4/AAABjcWesUg/16x9-512.jpg", "date": "2024-04-03T17:12:04.036+02:00", "lat": 23.9689, "lon": 121.5654, "intensity": 0.8, "source": "Tagesschau"}, {"title": "Wann kommt die neue Br\u00fccke \u00fcber die Hunte? Wirtschaft macht Druck", "url": "https://www.tagesschau.de/inland/regional/niedersachsen/ndr-wann-kommt-die-neue-bruecke-ueber-die-hunte-wirtschaft-macht-druck-100.html", "thumbnailUrl": "https://images.tagesschau.de/image/f17c1be0-ff2e-4314-9777-c67d8f502fdd/AAABjqSDAGE/AAABjcWesUg/16x9-512.jpg", "date": "2024-04-03T17:08:00.000+02:00", "lat": 53.2372, "lon": 8.462, "intensity": 0.6, "source": "Tagesschau"}, {"title": "Lkw-Fahrer bei Unfall auf dem s\u00fcdlichen Berliner Ring schwer verletzt", "url": "https://www.tagesschau.de/inland/regional/brandenburg/rbb-schwerer-unfall-auf-dem-suedlichen-berliner-ring-a10-in-richtung-potsdam-gesperrt-100.html", "thumbnailUrl": "https://images.tagesschau.de/image/8b8c7e64-022a-4d68-92ed-38593a2ac7ec/AAABjqSBDts/AAABjcWesUg/16x9-512.jpg", "date": "2024-04-03T17:07:48.000+02:00", "lat": 52.3806, "lon": 13.2064, "intensity": 0.8, "source": "Tagesschau"}, {"title": "Gesch\u00e4ft mit der Not: Webseiten handeln mit Terminen beim Berliner Einwanderungsamt", "url": "https://www.tagesschau.de/inland/regional/berlin/rbb-geschaeft-mit-der-not-webseiten-handeln-mit-terminen-beim-berliner-einwanderungsamt-100.html", "thumbnailUrl": "https://images.tagesschau.de/image/3d9c1a32-58f7-4f58-aa33-3a6eb5a2ac67/AAABjqSBKgw/AAABjcWesUg/16x9-512.jpg", "date": "2024-04-03T17:05:37.000+02:00", "lat": 52.52, "lon": 13.405, "intensity": 0.8, "source": "Tagesschau"}, {"title": "Sch\u00e4uble in Memoiren: Ich sollte Merkel st\u00fcrzen", "url": "https://www.tagesschau.de/inland/regional/badenwuerttemberg/swr-schaeuble-in-memoiren-ich-sollte-merkel-stuerzen-100.html", "thumbnailUrl": "https://images.tagesschau.de/image/8ce5798e-9300-4bfd-8778-c10184d8d41d/AAABjqSAuto/AAABjcWesUg/16x9-512.jpg", "date": "2024-04-03T17:04:03.000+02:00", "lat": 48.7758, "lon": 9.7661, "intensity": 0.7, "source": "Tagesschau"}, {"title": "\u00dcberfall auf Uhrengesch\u00e4ft: Zeugin schl\u00e4gt R\u00e4uber in die Flucht", "url": "https://www.tagesschau.de/inland/regional/niedersachsen/ndr-ueberfall-auf-uhrengeschaeft-zeugin-schlaegt-raeuber-in-die-flucht-100.html", "thumbnailUrl": "https://images.tagesschau.de/image/f6edc285-8f58-470f-95c3-38989e4d9661/AAABjqSBRhQ/AAABjcWesUg/16x9-512.jpg", "date": "2024-04-03T17:04:00.000+02:00", "lat": 52.3759, "lon": 9.7392, "intensity": 0.5, "source": "Tagesschau"}, {"title": "Rettungssanit\u00e4ter sagen im Fall Mouhamed Dram\u00e9 aus", "url": "https://www.tagesschau.de/inland/regional/nordrheinwestfalen/wdr-rettungssanitaeter-sagen-im-fall-mouhamed-dram-aus-100.html", "thumbnailUrl": "https://images.tagesschau.de/image/f9532021-4c8f-4ca4-a855-6eb3ee3fcb53/AAABjqTGRUg/AAABjcWesUg/16x9-512.jpg", "date": "2024-04-03T17:02:00.000+02:00", "lat": 51.5143, "lon": 7.4633, "intensity": 0.7, "source": "Tagesschau"}, {"title": "Zum achten Mal: Fastenbrechen unter Nachbarn im Bahnhofsviertel ", "url": "https://www.tagesschau.de/inland/regional/hessen/hr-zum-achten-mal-fastenbrechen-unter-nachbarn-im-bahnhofsviertel-100.html", "thumbnailUrl": "https://images.tagesschau.de/image/1a089e76-91dd-41a1-a699-605d1d02f0ec/AAABjqR32KQ/AAABjcWesUg/16x9-512.jpg", "date": "2024-04-03T16:57:50.093+02:00", "lat": 50.1072, "lon": 8.6651, "intensity": 0.6, "source": "Tagesschau"}, {"title": "Kinderpornografie: Bedeuten mehr Daten auch mehr Taten?", "url": "https://www.tagesschau.de/inland/regional/niedersachsen/ndr-kinderpornografie-ermittler-muessen-immer-mehr-daten-sichten-100.html", "thumbnailUrl": "https://images.tagesschau.de/image/9ceaec4e-8c1d-426c-b1a0-07b4f6d8effc/AAABjqSiKNk/AAABjcWesUg/16x9-512.jpg", "date": "2024-04-03T16:43:00.000+02:00", "lat": 52.6367, "lon": 10.4515, "intensity": 0.8, "source": "Tagesschau"}, {"title": "Nebel gegen gesprengte Geldautomaten: Sparkasse Heidelberg stellt neue Ma\u00dfnahme vor", "url": "https://www.tagesschau.de/inland/regional/badenwuerttemberg/swr-nebel-gegen-gesprengte-geldautomaten-sparkasse-heidelberg-stellt-neue-massnahme-vor-100.html", "thumbnailUrl": "https://images.tagesschau.de/image/22f2d24b-0f59-4952-a382-f3fd84707a2c/AAABjqRcJV8/AAABjcWesUg/16x9-512.jpg", "date": "2024-04-03T16:39:00.000+02:00", "lat": 49.3988, "lon": 8.6902, "intensity": 0.6, "source": "Tagesschau"}, {"title": "Folgenreiche Wassersch\u00e4den in Ratinger Hochhaus", "url": "https://www.tagesschau.de/inland/regional/nordrheinwestfalen/wdr-ratinger-hochhaus-nach-wasserschaden-ohne-strom-100.html", "thumbnailUrl": "https://images.tagesschau.de/image/390cf0ba-0015-4930-8b55-301556b93990/AAABjqRo688/AAABjcWesUg/16x9-512.jpg", "date": "2024-04-03T16:36:00.000+02:00", "lat": 51.2965, "lon": 6.8613, "intensity": 0.7, "source": "Tagesschau"}, {"title": "\"Solche Verbote gleichen einer Rolle r\u00fcckw\u00e4rts\" ", "url": "https://www.tagesschau.de/inland/innenpolitik/genderverbot-bayern-100.html", "thumbnailUrl": "https://images.tagesschau.de/image/6cab4014-462e-4a15-a0e0-12dab0134c84/AAABjqMfZn0/AAABjcWesUg/16x9-512.jpg", "date": "2024-04-03T16:35:51.256+02:00", "lat": 48.1351, "lon": 11.582, "intensity": 0.8, "source": "Tagesschau"}, {"title": "Geh\u00e4lter in Sachsen \u00fcberdurchschnittlich gestiegen", "url": "https://www.tagesschau.de/inland/regional/sachsen/mdr-gehaelter-in-sachsen-ueberdurchschnittlich-gestiegen-100.html", "thumbnailUrl": "https://images.tagesschau.de/image/c0512005-f0a3-4767-b8aa-c047b4b1a5f4/AAABjqZJbEg/AAABjcWesUg/16x9-512.jpg", "date": "2024-04-03T16:35:37.000+02:00", "lat": 51.1045, "lon": 13.3485, "intensity": 0.7, "source": "Tagesschau"}, {"title": "Universit\u00e4t Trier erforscht, warum Menschen AfD w\u00e4hlen", "url": "https://www.tagesschau.de/inland/regional/saarland/sr-universitaet-trier-erforscht-warum-menschen-afd-waehlen-100.html", "thumbnailUrl": "https://images.tagesschau.de/image/2390482e-8942-4cfa-8711-1f770a22c696/AAABjqR-4Ss/AAABjcWesUg/16x9-512.jpg", "date": "2024-04-03T16:34:00.000+02:00", "lat": 49.75, "lon": 6.6412, "intensity": 0.7, "source": "Tagesschau"}, {"title": "Cannabis in der Region Stuttgart: Viele Raucherkneipen erlauben kein Kiffen", "url": "https://www.tagesschau.de/inland/regional/badenwuerttemberg/swr-cannabis-in-der-region-stuttgart-viele-raucherkneipen-erlauben-kein-kiffen-100.html", "thumbnailUrl": "https://images.tagesschau.de/image/58ca691b-8673-42d0-b4ce-99fa6debcfb2/AAABjqRq0Iw/AAABjcWesUg/16x9-512.jpg", "date": "2024-04-03T16:33:00.000+02:00", "lat": 48.7758, "lon": 9.1829, "intensity": 0.4, "source": "Tagesschau"}, {"title": "Kritik an h\u00f6heren Kita-Geb\u00fchren in Halle", "url": "https://www.tagesschau.de/inland/regional/sachsenanhalt/mdr-kritik-an-hoeheren-kita-gebuehren-in-halle-100.html", "thumbnailUrl": "https://images.tagesschau.de/image/397680d6-d9ac-4cdf-802c-c79323760145/AAABjqZD2bU/AAABjcWesUg/16x9-512.jpg", "date": "2024-04-03T16:30:05.000+02:00", "lat": 51.4828, "lon": 11.9678, "intensity": 0.6, "source": "Tagesschau"}, {"title": "Corona: \u00c4rztin aus MV wegen falscher Maskenbefreiungen angeklagt", "url": "https://www.tagesschau.de/inland/regional/mecklenburgvorpommern/ndr-corona-aerztin-aus-mv-wegen-falscher-maskenbefreiungen-angeklagt-100.html", "thumbnailUrl": "https://images.tagesschau.de/image/e1d75313-096a-4a4f-91f1-d5f4a02ffc86/AAABjqRiolY/AAABjcWesUg/16x9-512.jpg", "date": "2024-04-03T16:30:00.000+02:00", "lat": 53.5797, "lon": 13.2629, "intensity": 0.7, "source": "Tagesschau"}, {"title": "Rettungskr\u00e4fte brechen Suche nach mutma\u00dflichen Vermissten am Badesee bei Cottbus ab", "url": "https://www.tagesschau.de/inland/regional/brandenburg/rbb-rettungskraefte-brechen-suche-nach-mutmasslichen-vermissten-am-badesee-bei-cottbus-ab-100.html", "thumbnailUrl": "https://images.tagesschau.de/image/ca8e4bd6-30c8-4ded-b229-1bcafe28ffae/AAABjqRf96s/AAABjcWesUg/16x9-512.jpg", "date": "2024-04-03T16:28:57.000+02:00", "lat": 51.7562, "lon": 14.3333, "intensity": 0.7, "source": "Tagesschau"}, {"title": "Urteil gegen 23-j\u00e4hrigen Messerangreifer von Karlsbrunn rechtskr\u00e4ftig", "url": "https://www.tagesschau.de/inland/regional/saarland/sr-urteil-gegen-23-jaehrigen-messerangreifer-von-karlsbrunn-rechtskraeftig-100.html", "thumbnailUrl": "https://images.tagesschau.de/image/3755ebc6-1f15-418e-b79d-5dccd1056a5c/AAABjqRd6XA/AAABjcWesUg/16x9-512.jpg", "date": "2024-04-03T16:26:00.000+02:00", "lat": 49.1407, "lon": 7.0755, "intensity": 0.8, "source": "Tagesschau"}, {"title": "Tote, Verletzte, zerst\u00f6rte Geb\u00e4ude", "url": "https://www.tagesschau.de/multimedia/bilder/erdbeben-taiwan-120.html", "thumbnailUrl": "https://images.tagesschau.de/image/223f1e6b-d5ac-4c9d-8787-1927f0c54356/AAABjqSu8Og/AAABjcWesUg/16x9-512.jpg", "date": "2024-04-03T16:21:48.349+02:00", "lat": 23.69781, "lon": 120.960515, "intensity": 0.9, "source": "Tagesschau"}, {"title": "Deutlich mehr \u00dcbergriffe auf st\u00e4dtische Mitarbeiter in M\u00fcnster", "url": "https://www.tagesschau.de/inland/regional/nordrheinwestfalen/wdr-deutlich-mehr-uebergriffe-auf-staedtische-mitarbeiter-in-muenster-100.html", "thumbnailUrl": "https://images.tagesschau.de/image/ead54364-e810-45a7-8e05-84f729c7b85d/AAABjqTCn_4/AAABjcWesUg/16x9-512.jpg", "date": "2024-04-03T16:21:00.000+02:00", "lat": 51.9607, "lon": 7.6261, "intensity": 0.8, "source": "Tagesschau"}, {"title": "Berliner Immobilien-Managerin wegen Betruges verurteilt", "url": "https://www.tagesschau.de/inland/regional/berlin/rbb-berliner-immobilien-managerin-wegen-betruges-verurteilt-100.html", "thumbnailUrl": "https://images.tagesschau.de/image/95128847-0b40-4c9e-bd8f-88eea6dc224c/AAABjqRY3Fk/AAABjcWesUg/16x9-512.jpg", "date": "2024-04-03T16:20:31.000+02:00", "lat": 52.520008, "lon": 13.404954, "intensity": 0.8, "source": "Tagesschau"}, {"title": "Zw\u00f6lfj\u00e4hriger nennt Mobbing als Grund f\u00fcr Angriff", "url": "https://www.tagesschau.de/ausland/finnland-angriff-schule-tatmotiv-100.html", "thumbnailUrl": "https://images.tagesschau.de/image/e830a9f9-b5a0-43eb-8b6e-f1dbf0cb414f/AAABjqSFyy8/AAABjcWesUg/16x9-512.jpg", "date": "2024-04-03T16:16:10.403+02:00", "lat": 64.6073, "lon": 27.5495, "intensity": 0.8, "source": "Tagesschau"}, {"title": "Eintracht: +++ Ekitik\u00e9 mit Steigerungspotenzial +++ Kr\u00f6sche peilt Europapokal an +++ Kr\u00f6sche verl\u00e4ngert Vertrag +++", "url": "https://www.tagesschau.de/inland/regional/hessen/hr--eintracht-wohl-mit-chaibi-einig--glasner-fast-nur-kolo-muani-der-tore-erzielt--bericht-eintracht-sagt-aouar-ab-100.html", "thumbnailUrl": "https://images.tagesschau.de/image/83e68e64-09f6-428f-ad08-673f5afac45e/AAABjqRRXSI/AAABjcWesUg/16x9-512.jpg", "date": "2024-04-03T16:14:28.906+02:00", "lat": 50.1109, "lon": 8.6821, "intensity": 0.7, "source": "Tagesschau"}, {"title": "Unbekannte legen N\u00e4gel vor Rettungszufahrt am St\u00f6ffel-Park aus", "url": "https://www.tagesschau.de/inland/regional/rheinlandpfalz/swr-unbekannte-legen-naegel-vor-rettungszufahrt-am-stoeffel-park-aus-100.html", "thumbnailUrl": "https://images.tagesschau.de/image/3459fb19-b3ba-4b82-a863-23fd14414867/AAABjqMCP0I/AAABjcWesUg/16x9-512.jpg", "date": "2024-04-03T16:01:00.000+02:00", "lat": 50.6674, "lon": 7.9156, "intensity": 0.6, "source": "Tagesschau"}, {"title": "Stuttgarter Fr\u00fchlingsfest: In den Festzelten darf kein Cannabis geraucht werden", "url": "https://www.tagesschau.de/inland/regional/badenwuerttemberg/swr-stuttgarter-fruehlingsfest-in-den-festzelten-darf-kein-cannabis-geraucht-werden-100.html", "thumbnailUrl": "https://images.tagesschau.de/image/fe0ac453-18db-4205-993e-7db1aaeb7813/AAABjqRqx2Q/AAABjcWesUg/16x9-512.jpg", "date": "2024-04-03T16:00:49.000+02:00", "lat": 48.7758, "lon": 9.1829, "intensity": 0.6, "source": "Tagesschau"}, {"title": "Neue Rettungswache Schwansen verk\u00fcrzt Einsatzfahrten deutlich", "url": "https://www.tagesschau.de/inland/regional/schleswigholstein/ndr-neue-rettungswache-schwansen-verkuerzt-einsatzfahrten-deutlich-100.html", "thumbnailUrl": "https://images.tagesschau.de/image/272a80bd-b785-4b04-ab45-99873ee1369c/AAABjqRN3Rc/AAABjcWesUg/16x9-512.jpg", "date": "2024-04-03T16:00:00.000+02:00", "lat": 54.4706, "lon": 9.9283, "intensity": 0.8, "source": "Tagesschau"}, {"title": "Kultur : +++ Schlossgarten Fulda wieder er\u00f6ffnet +++ Geschwister Korn und Gerstenmann-Preis f\u00fcr Natan Sznaider +++", "url": "https://www.tagesschau.de/inland/regional/hessen/hr--schauspiel-frankfurt-bringt-putin-und-macbeth-zusammen--die-filmfestival-saison-2023-startet--lichter-filmfest-zum-thema-liebe-startet-am-dienstag-100.html", "thumbnailUrl": "https://images.tagesschau.de/image/bdda8d64-5919-4ac7-b8ef-4d40c49c3e88/AAABjqRA1II/AAABjcWesUg/16x9-512.jpg", "date": "2024-04-03T15:57:10.471+02:00", "lat": 50.3155, "lon": 9.6862, "intensity": 0.7, "source": "Tagesschau"}, {"title": "Regionalliga Nordost: Wie Markus Zschiesche den SV Babelsberg formt \u2013 und es ab Sommer f\u00fcr ihn weitergeht", "url": "https://www.tagesschau.de/inland/regional/brandenburg/rbb-regionalliga-nordost-wie-markus-zschiesche-den-sv-babelsberg-formt--und-es-ab-sommer-fuer-ihn-weitergeht-102.html", "thumbnailUrl": "https://images.tagesschau.de/image/295aec62-949b-41af-b6cc-d2ad5e09caaf/AAABjqRC7Oo/AAABjcWesUg/16x9-512.jpg", "date": "2024-04-03T15:57:07.000+02:00", "lat": 52.3906, "lon": 13.0885, "intensity": 0.7, "source": "Tagesschau"}, {"title": "Polizei K\u00f6ln warnt: Betrug mit gef\u00e4lschten Handys - Tausend Euro f\u00fcr Elektro-Schrott", "url": "https://www.tagesschau.de/inland/regional/nordrheinwestfalen/wdr-polizei-koeln-warnt-betrug-mit-gefaelschten-handys-tausend-euro-fuer-elektro-schrott-100.html", "thumbnailUrl": "https://images.tagesschau.de/image/989c1a3e-8d60-456f-be86-a4fcfe8f9957/AAABjqTRQ_I/AAABjcWesUg/16x9-512.jpg", "date": "2024-04-03T15:48:00.000+02:00", "lat": 50.9375, "lon": 6.9583, "intensity": 0.6, "source": "Tagesschau"}, {"title": "Gr\u00fcnheide: Wasserverband bekr\u00e4ftigt Nein zu Tesla-Erweiterungspl\u00e4nen", "url": "https://www.tagesschau.de/inland/regional/brandenburg/rbb-gruenheide-wasserverband-bekraeftigt-nein-zu-tesla-erweiterungsplaenen-100.html", "thumbnailUrl": "https://images.tagesschau.de/image/69dd86ac-d081-4642-83a9-8140aa9f0df5/AAABjqQ5mpU/AAABjcWesUg/16x9-512.jpg", "date": "2024-04-03T15:46:07.000+02:00", "lat": 52.407574, "lon": 13.764821, "intensity": 0.6, "source": "Tagesschau"}, {"title": "Will die Hamas Anschl\u00e4ge in Deutschland ver\u00fcben?", "url": "https://www.tagesschau.de/investigativ/hamas-deutschland-anschlagsziele-100.html", "thumbnailUrl": "https://images.tagesschau.de/image/01e14bf7-b158-4fac-9831-4029b5655fb2/AAABikDMkVs/AAABjcWesUg/16x9-512.jpg", "date": "2024-04-03T15:34:32.612+02:00", "lat": 51.1657, "lon": 10.4515, "intensity": 0.8, "source": "Tagesschau"}, {"title": "Polizei und Linke: Waffenverbotszone in Eisenbahnstra\u00dfe Leipzig unn\u00f6tig", "url": "https://www.tagesschau.de/inland/regional/sachsen/mdr-polizei-und-linke-waffenverbotszone-in-eisenbahnstrasse-leipzig-unnoetig-100.html", "thumbnailUrl": "https://images.tagesschau.de/image/fcc187ca-ebf9-4069-8748-0bdc08dcb510/AAABjqZI56s/AAABjcWesUg/16x9-512.jpg", "date": "2024-04-03T15:31:43.000+02:00", "lat": 51.3401, "lon": 12.3982, "intensity": 0.5, "source": "Tagesschau"}, {"title": "Ermittlungen gegen Fahrer nach t\u00f6dlichem Motorradunfall auf Berliner Stadtautobahn", "url": "https://www.tagesschau.de/inland/regional/berlin/rbb-ermittlungen-gegen-fahrer-nach-toedlichem-motorradunfall-auf-berliner-stadtautobahn-100.html", "thumbnailUrl": "https://images.tagesschau.de/image/a3d801ea-1d2e-46b8-96cf-fe6d18906a12/AAABjqQh30Q/AAABjcWesUg/16x9-512.jpg", "date": "2024-04-03T15:21:07.000+02:00", "lat": 52.520008, "lon": 13.404954, "intensity": 0.8, "source": "Tagesschau"}, {"title": "Eine Insel im Schockzustand", "url": "https://www.tagesschau.de/ausland/asien/taiwan-erdbeben-110.html", "thumbnailUrl": "https://images.tagesschau.de/image/bc70f88f-137d-4abf-ac79-188f6123372d/AAABjqSf8eY/AAABjcWesUg/16x9-512.jpg", "date": "2024-04-03T15:01:35.131+02:00", "lat": 25.033, "lon": 121.5637, "intensity": 0.8, "source": "Tagesschau"}, {"title": "\"Mehr Realit\u00e4tssinn drin\": Th\u00fcringer CDU-Chef Voigt schlie\u00dft Koalition mit BSW nicht aus", "url": "https://www.tagesschau.de/inland/regional/thueringen/mdr-mehr-realitaetssinn-drin-thueringer-cdu-chef-voigt-schliesst-koalition-mit-bsw-nicht-aus-100.html", "thumbnailUrl": "https://images.tagesschau.de/image/7aafc22c-8352-44d5-a388-dd7a09486e65/AAABjqZFjYc/AAABjcWesUg/16x9-512.jpg", "date": "2024-04-03T15:00:59.000+02:00", "lat": 50.9778, "lon": 10.8453, "intensity": 0.6, "source": "Tagesschau"}, {"title": "A7 in Hamburg: Vollsperrung des Elbtunnels am Wochenende", "url": "https://www.tagesschau.de/inland/regional/hamburg/ndr-a7-in-hamburg-vollsperrung-des-elbtunnels-am-wochenende-100.html", "thumbnailUrl": "https://images.tagesschau.de/image/53194636-f72e-4972-81fe-472631c630a5/AAABjqQTJeI/AAABjcWesUg/16x9-512.jpg", "date": "2024-04-03T14:58:00.000+02:00", "lat": 53.5653, "lon": 9.9833, "intensity": 0.8, "source": "Tagesschau"}, {"title": "Frachter aus Russland in Rostock festgesetzt", "url": "https://www.tagesschau.de/inland/regional/mecklenburgvorpommern/frachter-rostock-festgesetzt-100.html", "thumbnailUrl": "https://images.tagesschau.de/image/5bd5070a-ae6f-4e24-a04a-4ba4194b8ef3/AAABjqUCuN4/AAABjcWesUg/16x9-512.jpg", "date": "2024-04-03T14:52:00.000+02:00", "lat": 54.083, "lon": 12.099, "intensity": 0.6, "source": "Tagesschau"}, {"title": "Neuer Stopp in Brunsb\u00fcttel: \u00dcber Hamburg und Cuxhaven nach Helgoland", "url": "https://www.tagesschau.de/inland/regional/niedersachsen/ndr-neuer-stopp-in-brunsbuettel-ueber-hamburg-und-cuxhaven-nach-helgoland-100.html", "thumbnailUrl": "https://images.tagesschau.de/image/cbd452e2-f3f2-457d-8cf0-16dc1612afe0/AAABjqI3KY0/AAABjcWesUg/16x9-512.jpg", "date": "2024-04-03T14:50:00.000+02:00", "lat": 53.8948, "lon": 9.1192, "intensity": 0.7, "source": "Tagesschau"}, {"title": "Mord an Kosmetikerin - Tatverd\u00e4chtiger festgenommen", "url": "https://www.tagesschau.de/inland/regional/berlin/rbb-mord-an-kosmetikerin-tatverdaechtiger-festgenommen-100.html", "thumbnailUrl": "https://images.tagesschau.de/image/42ac0869-d6f2-4943-9808-d897d3fbd232/AAABjqRY37c/AAABjcWesUg/16x9-512.jpg", "date": "2024-04-03T14:48:00.000+02:00", "lat": 52.52, "lon": 13.405, "intensity": 0.8, "source": "Tagesschau"}, {"title": "Trotz schwerer Vorw\u00fcrfe: Rangh\u00f6chster BW-Polizist erh\u00e4lt weiter volle Bez\u00fcge", "url": "https://www.tagesschau.de/inland/regional/badenwuerttemberg/swr-trotz-schwerer-vorwuerfe-ranghoechster-bw-polizist-erhaelt-weiter-volle-bezuege-100.html", "thumbnailUrl": "https://images.tagesschau.de/image/8e6d33df-5888-4397-8c3d-a23f940bed1c/AAABjqQAjlk/AAABjcWesUg/16x9-512.jpg", "date": "2024-04-03T14:43:02.000+02:00", "lat": 48.6616, "lon": 9.9937, "intensity": 0.8, "source": "Tagesschau"}, {"title": "CDU-Generalsekret\u00e4r in Mecklenburg-Vorpommern?", "url": "https://www.tagesschau.de/inland/regional/mecklenburgvorpommern/amthor-cdu-mv-100.html", "thumbnailUrl": "https://images.tagesschau.de/image/4ad18c70-bd6b-480d-b948-5ecb57312efd/AAABjqSiXSk/AAABjcWesUg/16x9-512.jpg", "date": "2024-04-03T14:31:00.000+02:00", "lat": 53.6127, "lon": 13.3227, "intensity": 0.6, "source": "Tagesschau"}, {"title": "Wetterlage und Temperaturen", "url": "https://www.tagesschau.de/wetter/europa-welt", "thumbnailUrl": "https://images.tagesschau.de/image/6e7d3b16-79c8-4308-822b-20c3035236b5/AAABjqPwL64/AAABjcWesUg/16x9-512.jpg", "date": "2024-04-03T14:30:24.854+02:00", "lat": 51.4344, "lon": 9.9975, "intensity": 0.7, "source": "Tagesschau"}, {"title": "CDU: Schwesigs SPD-Ostergru\u00df an Schweriner Kita-Kinder \"unanst\u00e4ndig\"", "url": "https://www.tagesschau.de/inland/regional/mecklenburgvorpommern/ndr-schwesigs-spd-ostergruss-an-schweriner-kita-kinder-unanstaendig-100.html", "thumbnailUrl": "https://images.tagesschau.de/image/ccb31d2d-8404-4e91-a40d-e8ca3339e8af/AAABjqPuQ8A/AAABjcWesUg/16x9-512.jpg", "date": "2024-04-03T14:24:00.000+02:00", "lat": 53.6297, "lon": 11.4075, "intensity": 0.6, "source": "Tagesschau"}, {"title": "Geld bezahlt, kein Wohnmobil erhalten: Eutiner Camping-H\u00e4ndler verurteilt", "url": "https://www.tagesschau.de/inland/regional/schleswigholstein/ndr-geld-bezahlt-kein-wohnmobil-erhalten-eutiner-camping-haendler-verurteilt-100.html", "thumbnailUrl": "https://images.tagesschau.de/image/8512d232-2465-4ba7-bf8c-df0fe1960e03/AAABjqQmCHk/AAABjcWesUg/16x9-512.jpg", "date": "2024-04-03T14:13:00.000+02:00", "lat": 54.134, "lon": 10.611, "intensity": 0.8, "source": "Tagesschau"}, {"title": "Inflation verliert an Tempo: Werden Lebensmittel jetzt dauerhaft billiger?", "url": "https://www.tagesschau.de/inland/regional/nordrheinwestfalen/wdr-inflation-verliert-an-tempo-werden-lebensmittel-jetzt-dauerhaft-billiger-100.html", "thumbnailUrl": "https://images.tagesschau.de/image/c08442c9-08bf-44e4-9b7c-158de2a9a9d4/AAABjqQ5YXI/AAABjcWesUg/16x9-512.jpg", "date": "2024-04-03T14:10:00.000+02:00", "lat": 51.9607, "lon": 7.6261, "intensity": 0.8, "source": "Tagesschau"}, {"title": "2,5 Tonnen B\u00e4rlauch in Kupferzell unerlaubt geerntet: \u00dcberraschende Wendung", "url": "https://www.tagesschau.de/inland/regional/badenwuerttemberg/swr-kuriose-wendung-um-tonnenweise-gestohlenen-baerlauch-in-kupferzell-100.html", "thumbnailUrl": "https://images.tagesschau.de/image/b463c051-36d6-4dc6-a4ac-9b5d6ba5db63/AAABjqPfm1M/AAABjcWesUg/16x9-512.jpg", "date": "2024-04-03T14:07:00.000+02:00", "lat": 49.2138, "lon": 9.6256, "intensity": 0.6, "source": "Tagesschau"}, {"title": "Was halten Parteien in Hamburg von Aufarbeitung der Corona-Politik?", "url": "https://www.tagesschau.de/inland/regional/hamburg/ndr-was-halten-parteien-in-hamburg-von-aufarbeitung-der-corona-politik-100.html", "thumbnailUrl": "https://images.tagesschau.de/image/f020de72-40da-4ee1-a57a-ee9514ee0847/AAABjqPjna0/AAABjcWesUg/16x9-512.jpg", "date": "2024-04-03T14:03:00.000+02:00", "lat": 53.551086, "lon": 9.993682, "intensity": 0.5, "source": "Tagesschau"}, {"title": "Kulturst\u00e4tte YAAM kann f\u00fcr mehrere Jahrzehnte an der Schillingbr\u00fccke in Berlin-Friedrichshain bleiben - Mietvertrag unterzeichnet", "url": "https://www.tagesschau.de/inland/regional/berlin/rbb-kulturstaette-yaam-kann-fuer-mehrere-jahrzehnte-an-der-schillingbruecke-bleiben-mietvertrag-unterzeichnet-100.html", "thumbnailUrl": "https://images.tagesschau.de/image/37e535c0-d4b7-475c-bb27-e8c4f3aeb45b/AAABjqOLuwA/AAABjcWesUg/16x9-512.jpg", "date": "2024-04-03T14:01:35.000+02:00", "lat": 52.5093, "lon": 13.4346, "intensity": 0.7, "source": "Tagesschau"}, {"title": "Boxkampf gegen Murtazaliev: Im Havelland will sich Culcay endlich zum Weltmeister kr\u00f6nen", "url": "https://www.tagesschau.de/inland/regional/berlin/rbb-boxkampf-gegen-murtazaliev-im-havelland-will-sich-culcay-endlich-zum-weltmeister-kroenen-102.html", "thumbnailUrl": "https://images.tagesschau.de/image/0b715a0b-3ba2-4284-a67c-46e48a64414b/AAABjqPaQRk/AAABjcWesUg/16x9-512.jpg", "date": "2024-04-03T14:01:14.000+02:00", "lat": 52.567242, "lon": 13.096882, "intensity": 0.9, "source": "Tagesschau"}, {"title": "Sommerliche Temperaturen von bis zu 27 Grad am Wochenende vorhergesagt", "url": "https://www.tagesschau.de/inland/regional/brandenburg/rbb-sommerliche-temperaturen-von-bis-zu-27-grad-am-wochenende-vorhergesagt-100.html", "thumbnailUrl": "https://images.tagesschau.de/image/3a952e6d-a75e-4aed-821f-60ed8ec936ec/AAABjqPNmVI/AAABjcWesUg/16x9-512.jpg", "date": "2024-04-03T13:49:09.000+02:00", "lat": 52.520008, "lon": 13.404954, "intensity": 0.7, "source": "Tagesschau"}, {"title": "\"Silo 1\" in Rostock: Getreidespeicher wird saniert", "url": "https://www.tagesschau.de/inland/regional/mecklenburgvorpommern/ndr-silo-1-in-rostock-getreidespeicher-im-stadthafen-wird-buero-100.html", "thumbnailUrl": "https://images.tagesschau.de/image/e95d6648-458d-43f7-ba82-0b72e50b0456/AAABjqNds-M/AAABjcWesUg/16x9-512.jpg", "date": "2024-04-03T13:46:00.000+02:00", "lat": 54.0887, "lon": 12.118, "intensity": 0.6, "source": "Tagesschau"}, {"title": "T\u00fcrkei weiter in der Hyperinflation", "url": "https://www.tagesschau.de/wirtschaft/konjunktur/tuerkei-inflation-teuerung-100.html", "thumbnailUrl": "https://images.tagesschau.de/image/1299ae8c-fd78-467e-81a6-b31080741cf6/AAABjgjM1JU/AAABjcWesUg/16x9-512.jpg", "date": "2024-04-03T13:43:22.336+02:00", "lat": 38.9637, "lon": 35.2433, "intensity": 0.8, "source": "Tagesschau"}, {"title": "Warum ein Allg\u00e4uer See lila leuchtet", "url": "https://www.tagesschau.de/inland/regional/bayern/allgaeu-see-lila-100.html", "thumbnailUrl": "https://images.tagesschau.de/image/53400d02-eee2-42a3-a672-67f14ebfd9ab/AAABjqPDC9A/AAABjcWesUg/16x9-512.jpg", "date": "2024-04-03T13:40:52.919+02:00", "lat": 47.8902, "lon": 10.542, "intensity": 0.8, "source": "Tagesschau"}, {"title": "Zwei Verletzte bei Kleinflugzeug-Unfall am Dortmunder Flughafen", "url": "https://www.tagesschau.de/inland/regional/nordrheinwestfalen/wdr-zwei-verletzte-bei-kleinflugzeug-unfall-am-dortmunder-flughafen-100.html", "thumbnailUrl": "https://images.tagesschau.de/image/d444e165-01ca-4114-aef9-db8a341338a3/AAABjqPSw10/AAABjcWesUg/16x9-512.jpg", "date": "2024-04-03T13:34:00.000+02:00", "lat": 51.51845, "lon": 7.60238, "intensity": 0.8, "source": "Tagesschau"}, {"title": "Naturschauspiel: Gipsbruchweiher im Allg\u00e4u leuchtet lila", "url": "https://www.tagesschau.de/inland/regional/nordrheinwestfalen/wdr-naturschauspiel-gipsbruchweiher-im-allgaeu-leuchtet-lila-100.html", "thumbnailUrl": "https://images.tagesschau.de/image/2ec52421-d5bb-458f-b947-ca395153d1e3/AAABjqQuSv0/AAABjcWesUg/16x9-512.jpg", "date": "2024-04-03T13:27:00.000+02:00", "lat": 47.57, "lon": 10.69, "intensity": 0.8, "source": "Tagesschau"}, {"title": "Fernsehreihe \"Inside Skyline Frankfurt\": Wer in Frankfurts Hochh\u00e4usern arbeitet", "url": "https://www.tagesschau.de/inland/regional/hessen/hr-fernsehreihe-inside-skyline-frankfurt-wer-in-frankfurts-hochhaeusern-arbeitet-100.html", "thumbnailUrl": "https://images.tagesschau.de/image/ec4a0c92-88cb-4bfb-9ce9-7cdd8ee67e83/AAABjqOwIXY/AAABjcWesUg/16x9-512.jpg", "date": "2024-04-03T13:18:55.764+02:00", "lat": 50.1109, "lon": 8.6821, "intensity": 0.5, "source": "Tagesschau"}, {"title": "LNG-Terminal: Regelbetrieb vor Genehmigung - Streit dauert an ", "url": "https://www.tagesschau.de/inland/regional/mecklenburgvorpommern/ndr-ruegener-lng-terminal-regelbetrieb-soll-genehmigt-werden-100.html", "thumbnailUrl": "https://images.tagesschau.de/image/97dbb740-273b-48bd-9e7b-189feead52e6/AAABjqP-v2g/AAABjcWesUg/16x9-512.jpg", "date": "2024-04-03T13:14:00.000+02:00", "lat": 54.383, "lon": 13.468, "intensity": 0.5, "source": "Tagesschau"}, {"title": "Modellprojekt zur Armutsbek\u00e4mpfung im Saarland gestartet", "url": "https://www.tagesschau.de/inland/regional/saarland/sr-modellprojekt-zur-armutsbekaempfung-im-saarland-gestartet-100.html", "thumbnailUrl": "https://images.tagesschau.de/image/39e39d79-0dbc-4454-8bf9-6b8ec80d9269/AAABjqOsTGA/AAABjcWesUg/16x9-512.jpg", "date": "2024-04-03T13:09:00.000+02:00", "lat": 49.3964, "lon": 6.9108, "intensity": 0.8, "source": "Tagesschau"}, {"title": "Gr\u00fcne Ministerin Paul will Justizministerin aus Sachsen heiraten", "url": "https://www.tagesschau.de/inland/regional/nordrheinwestfalen/wdr-gruene-ministerin-paul-will-justizministerin-aus-sachsen-heiraten-100.html", "thumbnailUrl": "https://images.tagesschau.de/image/6c1b9343-5ab6-4100-9ae7-1d305a8adec6/AAABjqSf0LM/AAABjcWesUg/16x9-512.jpg", "date": "2024-04-03T13:02:00.000+02:00", "lat": 51.4623, "lon": 9.082, "intensity": 0.2, "source": "Tagesschau"}, {"title": "VfL Wolfsburg: Rots\u00fcnder Lacroix gesperrt - und weiter hei\u00df begehrt", "url": "https://www.tagesschau.de/inland/regional/niedersachsen/ndr-vfl-wolfsburg-rotsuender-lacroix-gesperrt-und-weiter-heiss-begehrt-102.html", "thumbnailUrl": "https://images.tagesschau.de/image/ba004495-5d45-4fdf-af40-12e4bc0f8aff/AAABjqQ7jN4/AAABjcWesUg/16x9-512.jpg", "date": "2024-04-03T13:00:00.000+02:00", "lat": 52.3759, "lon": 10.75, "intensity": 0.7, "source": "Tagesschau"}, {"title": "Tusk sieht Solidarit\u00e4t mit Israel auf \"harter Probe\"", "url": "https://www.tagesschau.de/ausland/europa/polen-israel-spannungen-gaza-100.html", "thumbnailUrl": "https://images.tagesschau.de/image/1392ff14-e84e-4b0f-84e5-c76a8835003b/AAABjqOasOg/AAABjcWesUg/16x9-512.jpg", "date": "2024-04-03T12:57:03.884+02:00", "lat": 31.52037, "lon": 34.308825, "intensity": 0.8, "source": "Tagesschau"}, {"title": "82-j\u00e4hriger Radfahrer stirbt nach Sturz im Krankenhaus", "url": "https://www.tagesschau.de/inland/regional/niedersachsen/ndr-82-jaehriger-radfahrer-stirbt-nach-sturz-im-krankenhaus-100.html", "thumbnailUrl": "https://images.tagesschau.de/image/c86b4ba7-d5e7-4811-a87a-38970bd92d37/AAABjqOTNOE/AAABjcWesUg/16x9-512.jpg", "date": "2024-04-03T12:37:00.000+02:00", "lat": 52.0655, "lon": 7.9296, "intensity": 0.8, "source": "Tagesschau"}, {"title": "MS Goldberg: J\u00fcdisches Kulturschiff startet in Eisenh\u00fcttenstadt in neue Spielzeit ", "url": "https://www.tagesschau.de/inland/regional/brandenburg/rbb-ms-goldberg-juedisches-kulturschiff-startet-in-eisenhuettenstadt-in-neue-spielzeit-100.html", "thumbnailUrl": "https://images.tagesschau.de/image/c5ba9924-bf00-4218-9562-57b2255000b5/AAABjqOH4iY/AAABjcWesUg/16x9-512.jpg", "date": "2024-04-03T12:31:26.000+02:00", "lat": 52.1436, "lon": 14.6517, "intensity": 0.3, "source": "Tagesschau"}, {"title": "Mutma\u00dfliche \u00dcbergriffe durch Lehrer stuft Innenministerium als ausl\u00e4nderfeindlich ein", "url": "https://www.tagesschau.de/inland/regional/brandenburg/rbb-oberschule-in-cottbus-mutmassliche-uebergriffe-durch-lehrer-stuft-innenministerium-als-auslaenderfeindlich-ein-100.html", "thumbnailUrl": "https://images.tagesschau.de/image/a06624ac-94e7-4d1b-bf54-95876264f899/AAABjmHvYQQ/AAABjcWesUg/16x9-512.jpg", "date": "2024-04-03T12:29:40.000+02:00", "lat": 51.7562, "lon": 14.3356, "intensity": 0.8, "source": "Tagesschau"}, {"title": "Barnim: Eberswalde erh\u00e4lt 2,3 Millionen Euro f\u00fcr Projekte zur Klimaanpassung", "url": "https://www.tagesschau.de/inland/regional/brandenburg/rbb-barnim-eberswalde-erhaelt-23-millionen-euro-fuer-projekte-zur-klimaanpassung-100.html", "thumbnailUrl": "https://images.tagesschau.de/image/67e6804f-ef20-448a-97d9-2a72eee83b6d/AAABjqOCWRU/AAABjcWesUg/16x9-512.jpg", "date": "2024-04-03T12:26:25.000+02:00", "lat": 52.8333, "lon": 13.8189, "intensity": 0.7, "source": "Tagesschau"}, {"title": "Freiburg: Wie ein israelisch zubereitetes Gericht in einem arabischen Restaurant die Gem\u00fcter erhitzt", "url": "https://www.tagesschau.de/inland/regional/badenwuerttemberg/swr-freiburg-wie-ein-israelisch-zubereitetes-gericht-in-einem-arabischen-restaurant-die-gemueter-erhitzt-100.html", "thumbnailUrl": "https://images.tagesschau.de/image/36648b97-f56c-4439-b6d8-e3204b0c61db/AAABjqPF-dI/AAABjcWesUg/16x9-512.jpg", "date": "2024-04-03T12:21:16.000+02:00", "lat": 47.9990077, "lon": 7.8490209, "intensity": 0.6, "source": "Tagesschau"}, {"title": "Nach Diesel-Unfall: B437 vor Wesertunnel am Donnerstag gesperrt", "url": "https://www.tagesschau.de/inland/regional/niedersachsen/ndr-nach-diesel-unfall-b437-vor-wesertunnel-am-donnerstag-gesperrt-100.html", "thumbnailUrl": "https://images.tagesschau.de/image/fd90d294-e153-47e9-a9a4-06f2628bc8e3/AAABjqPs4r0/AAABjcWesUg/16x9-512.jpg", "date": "2024-04-03T12:20:00.000+02:00", "lat": 53.5275, "lon": 8.6531, "intensity": 0.8, "source": "Tagesschau"}, {"title": "Zu viele Waschb\u00e4ren: Schw\u00e4bisch Gm\u00fcnd setzt vier neue Stadtj\u00e4ger ein", "url": "https://www.tagesschau.de/inland/regional/badenwuerttemberg/swr-zu-viele-waschbaeren-schwaebisch-gmuend-setzt-vier-neue-stadtjaeger-ein-100.html", "thumbnailUrl": "https://images.tagesschau.de/image/2b293c07-0f34-406f-aa55-5259df149a5e/AAABjqSA8L4/AAABjcWesUg/16x9-512.jpg", "date": "2024-04-03T12:19:47.000+02:00", "lat": 48.7974, "lon": 9.8029, "intensity": 0.7, "source": "Tagesschau"}, {"title": "Forscherteam aus Trippstadt zeigt, was der Feldhase im Pf\u00e4lzerwald treibt", "url": "https://www.tagesschau.de/inland/regional/rheinlandpfalz/swr-forscherteam-aus-trippstadt-zeigt-was-der-feldhase-im-pfaelzerwald-treibt-100.html", "thumbnailUrl": "https://images.tagesschau.de/image/54c951d6-5c08-4833-b53c-dc543ea36d06/AAABjqOF60o/AAABjcWesUg/16x9-512.jpg", "date": "2024-04-03T12:17:34.000+02:00", "lat": 49.4142, "lon": 7.7158, "intensity": 0.2, "source": "Tagesschau"}, {"title": "Saarbr\u00fccker Weltrekordhalterin Czerwenka-Nagel ist verstorben", "url": "https://www.tagesschau.de/inland/regional/saarland/sr-saarbruecker-weltrekordhalterin-czerwenka-nagel-ist-verstorben-100.html", "thumbnailUrl": "https://images.tagesschau.de/image/e174129f-1e49-45fb-b951-90b58ffe5ea7/AAABjqQ5Sb0/AAABjcWesUg/16x9-512.jpg", "date": "2024-04-03T12:15:00.000+02:00", "lat": 49.2354, "lon": 6.9969, "intensity": 0.8, "source": "Tagesschau"}, {"title": "Saarbr\u00fccker Weltrekordhalterin Czerwenka-Nagel ist verstorben", "url": "https://www.tagesschau.de/inland/regional/saarland/sr-saarbruecker-weltrekordhalterin-czerwenka-nagel-ist-verstorben-102.html", "thumbnailUrl": "https://images.tagesschau.de/image/e174129f-1e49-45fb-b951-90b58ffe5ea7/AAABjqQ5Sb0/AAABjcWesUg/16x9-512.jpg", "date": "2024-04-03T12:15:00.000+02:00", "lat": 49.2308, "lon": 7.0007, "intensity": 0.7, "source": "Tagesschau"}, {"title": "Wenn es juckt und krabbelt: Wieder mehr L\u00e4use-F\u00e4lle in SH", "url": "https://www.tagesschau.de/inland/regional/schleswigholstein/ndr-wenn-es-juckt-und-krabbelt-wieder-mehr-laeuse-faelle-in-sh-100.html", "thumbnailUrl": "https://images.tagesschau.de/image/7144ce3e-d48a-454a-9a76-aca4f81b174c/AAABjqN10V8/AAABjcWesUg/16x9-512.jpg", "date": "2024-04-03T12:13:00.000+02:00", "lat": 54.2194, "lon": 9.6961, "intensity": 0.7, "source": "Tagesschau"}, {"title": "Kind auf Campingplatz Schillig niedergeschlagen? Mehrere Hinweise", "url": "https://www.tagesschau.de/inland/regional/niedersachsen/ndr-kind-auf-campingplatz-niedergeschlagen-mehrere-zeugenhinweise-100.html", "thumbnailUrl": "https://images.tagesschau.de/image/54283d80-02c8-4387-9fb5-a5e606234e28/AAABjqNlaK8/AAABjcWesUg/16x9-512.jpg", "date": "2024-04-03T11:55:00.000+02:00", "lat": 53.6118, "lon": 8.2317, "intensity": 0.8, "source": "Tagesschau"}, {"title": "Starker Regen: Pegelst\u00e4nde von Aller, Leine und Fuhse steigen wieder", "url": "https://www.tagesschau.de/inland/regional/niedersachsen/ndr-starker-regen-pegelstaende-von-aller-leine-und-fuhse-steigen-wieder-100.html", "thumbnailUrl": "https://images.tagesschau.de/image/f00cca9a-202e-4fe8-bde1-0c7e9c05f981/AAABjqOYp-Q/AAABjcWesUg/16x9-512.jpg", "date": "2024-04-03T11:55:00.000+02:00", "lat": 52.3759, "lon": 9.7356, "intensity": 0.8, "source": "Tagesschau"}, {"title": "Wie Hessen gegen Stechm\u00fccken vorgeht - und was auch Sie tun k\u00f6nnen", "url": "https://www.tagesschau.de/inland/regional/hessen/hr-wie-hessen-gegen-stechmuecken-vorgeht-und-was-auch-sie-tun-koennen-100.html", "thumbnailUrl": "https://images.tagesschau.de/image/9f38ad56-c46a-4da5-87b0-78a547ae9c39/AAABjqV4B90/AAABjcWesUg/16x9-512.jpg", "date": "2024-04-03T11:52:31.576+02:00", "lat": 50.6333, "lon": 9.6447, "intensity": 0.8, "source": "Tagesschau"}, {"title": "Heuschrecken in Hamburg: So viele Arten wie nie zuvor", "url": "https://www.tagesschau.de/inland/regional/hamburg/ndr-heuschrecken-in-hamburg-so-viele-arten-wie-nie-zuvor-100.html", "thumbnailUrl": "https://images.tagesschau.de/image/78baa28a-43bf-4cc2-af8a-495dbf19a76c/AAABjqNubsY/AAABjcWesUg/16x9-512.jpg", "date": "2024-04-03T11:51:00.000+02:00", "lat": 53.5511, "lon": 9.9937, "intensity": 0.8, "source": "Tagesschau"}, {"title": "Hemmschwelle sinkt: Ostdeutsche Sch\u00fclerr\u00e4te warnen vor Rechtsextremismus an Schulen", "url": "https://www.tagesschau.de/inland/regional/brandenburg/rbb-hemmschwelle-sinkt-ostdeutsche-schuelerraete-warnen-vor-rechtsextremismus-an-schulen-100.html", "thumbnailUrl": "https://images.tagesschau.de/image/e860fb0d-50d3-4815-ac34-8b2f2ce5459d/AAABjqNfljI/AAABjcWesUg/16x9-512.jpg", "date": "2024-04-03T11:47:42.000+02:00", "lat": 52.4125, "lon": 13.0827, "intensity": 0.6, "source": "Tagesschau"}, {"title": "Unfall im Berufsverkehr: Zwei Autos sto\u00dfen frontal zusammen", "url": "https://www.tagesschau.de/inland/regional/niedersachsen/ndr-unfall-im-berufsverkehr-zwei-autos-stossen-frontal-zusammen-100.html", "thumbnailUrl": "https://images.tagesschau.de/image/1940cecd-5be1-4549-9e56-6e5f4e5b7a80/AAABjqNlepg/AAABjcWesUg/16x9-512.jpg", "date": "2024-04-03T11:44:00.000+02:00", "lat": 53.1111, "lon": 9.3996, "intensity": 0.8, "source": "Tagesschau"}, {"title": "In Bremen klagen immer mehr Asylbewerber gegen ihre Ablehnungen", "url": "https://www.tagesschau.de/inland/regional/bremen/rb-in-bremen-klagen-immer-mehr-asylbewerber-gegen-ihre-ablehnungen-100.html", "thumbnailUrl": "https://images.tagesschau.de/image/f6f0ef8a-8331-4c8e-a744-88a7a8f019c6/AAABjqRaSw0/AAABjcWesUg/16x9-512.jpg", "date": "2024-04-03T11:42:00.000+02:00", "lat": 53.0793, "lon": 8.8017, "intensity": 0.7, "source": "Tagesschau"}, {"title": "Nach Antisemitismusvorw\u00fcrfen: Judith Butler reagiert auf Forderung nach Preis-Aberkennung", "url": "https://www.tagesschau.de/inland/regional/hessen/hr-nach-antisemitismusvorwuerfen-forderung-nach-aberkennung-des-adorno-preises-fuer-judith-butler-100.html", "thumbnailUrl": "https://images.tagesschau.de/image/11be16ba-1fe7-484e-80ef-a7754850b8af/AAABjqNWoDc/AAABjcWesUg/16x9-512.jpg", "date": "2024-04-03T11:40:51.343+02:00", "lat": 50.1109, "lon": 8.6833, "intensity": 0.8, "source": "Tagesschau"}, {"title": "Karstadt-Geb\u00e4ude in Harburg ist verkauft", "url": "https://www.tagesschau.de/inland/regional/hamburg/ndr-karstadt-gebaeude-in-hamburg-harburg-ist-verkauft-100.html", "thumbnailUrl": "https://images.tagesschau.de/image/6d826750-92b8-4534-b98b-383b35d7cda5/AAABjqRNzf0/AAABjcWesUg/16x9-512.jpg", "date": "2024-04-03T11:36:00.000+02:00", "lat": 53.4563, "lon": 9.9827, "intensity": 0.7, "source": "Tagesschau"}, {"title": "\"Padderborn\" Schreibfehler sorgt f\u00fcr Schmunzler", "url": "https://www.tagesschau.de/inland/regional/nordrheinwestfalen/wdr-padderborn-schreibfehler-sorgt-fuer-schmunzler-102.html", "thumbnailUrl": "https://images.tagesschau.de/image/6b647c47-92d3-428e-986c-aecea8a5d00c/AAABjqOx8GU/AAABjcWesUg/16x9-512.jpg", "date": "2024-04-03T11:35:00.000+02:00", "lat": 51.717, "lon": 8.7206, "intensity": 0.4, "source": "Tagesschau"}, {"title": "Autorennen mit 100 Sachen durch Tempo-30-Zone in Alzey", "url": "https://www.tagesschau.de/inland/regional/rheinlandpfalz/swr-autorennen-mit-100-sachen-durch-tempo-30-zone-in-alzey-100.html", "thumbnailUrl": "https://images.tagesschau.de/image/e6f94e19-b3b9-4f75-8bbd-392bf6be5c62/AAABjqNhPvg/AAABjcWesUg/16x9-512.jpg", "date": "2024-04-03T11:28:39.000+02:00", "lat": 49.7489, "lon": 8.1142, "intensity": 0.7, "source": "Tagesschau"}, {"title": "Klage gegen Anti-LGBTQ-Gesetz gescheitert", "url": "https://www.tagesschau.de/ausland/afrika/uganda-gesetz-lgbtq-klage-100.html", "thumbnailUrl": "https://images.tagesschau.de/image/c0a2cce0-24bc-4d3c-a3d5-7a06285e6d5d/AAABjqSHjfk/AAABjcWesUg/16x9-512.jpg", "date": "2024-04-03T11:27:33.229+02:00", "lat": 0.3136, "lon": 32.2903, "intensity": 0.9, "source": "Tagesschau"}, {"title": "Sensor \"Oscar\" aus SH soll M\u00fcllberge verhindern", "url": "https://www.tagesschau.de/inland/regional/schleswigholstein/ndr-sensor-oscar-aus-sh-soll-muellberge-verhindern-100.html", "thumbnailUrl": "https://images.tagesschau.de/image/1d8c98e2-cd9e-431d-a40f-874f9d1dab2f/AAABjqNNh80/AAABjcWesUg/16x9-512.jpg", "date": "2024-04-03T11:26:00.000+02:00", "lat": 54.3326, "lon": 9.6961, "intensity": 0.8, "source": "Tagesschau"}, {"title": "T\u00f6dlicher Unfall auf A7 bei Kassel: Lkw-Fahrer stirbt nach Panne", "url": "https://www.tagesschau.de/inland/regional/hessen/hr-lkw-fahrer-stirbt-auf-a7-bei-kassel-gegenrichtung-nach-brand-blockiert-100.html", "thumbnailUrl": "https://images.tagesschau.de/image/90cc87e6-6596-4cd4-a4ef-f1572ddc480b/AAABjqQ3pxs/AAABjcWesUg/16x9-512.jpg", "date": "2024-04-03T11:22:48.165+02:00", "lat": 51.3114, "lon": 9.4158, "intensity": 0.8, "source": "Tagesschau"}, {"title": "Kann ein \u00dcbergangsrat die Gewalt beenden?", "url": "https://www.tagesschau.de/ausland/amerika/haiti-krise-uebergangsrat-100.html", "thumbnailUrl": "https://images.tagesschau.de/image/26a19817-2dcd-463b-bf41-abd67ff61565/AAABjqSjVr0/AAABjcWesUg/16x9-512.jpg", "date": "2024-04-03T11:16:54.636+02:00", "lat": 18.594395, "lon": -72.285215, "intensity": 0.7, "source": "Tagesschau"}, {"title": "Dutzende Menschen in Tunneln eingeschlossen", "url": "https://www.tagesschau.de/ausland/asien/taiwan-erdbeben-108.html", "thumbnailUrl": "https://images.tagesschau.de/image/663ec8a1-6730-4f9d-8a37-9e400b040a0c/AAABjqMzHnA/AAABjcWesUg/16x9-512.jpg", "date": "2024-04-03T11:03:40.422+02:00", "lat": 25.033, "lon": 121.5654, "intensity": 0.9, "source": "Tagesschau"}, {"title": "Mehr Biobauern in Deutschland", "url": "https://www.tagesschau.de/wirtschaft/unternehmen/oekobetriebe-deutschland-bauern-landwirtschaft-100.html", "thumbnailUrl": "https://images.tagesschau.de/image/4a7ee25e-747e-425a-9dd0-222d06c8298d/AAABjqSkIzA/AAABjcWesUg/16x9-512.jpg", "date": "2024-04-03T10:58:56.869+02:00", "lat": 51.1657, "lon": 10.4515, "intensity": 0.5, "source": "Tagesschau"}, {"title": "B1 in Gerwisch: Ortsdurchfahrt monatelang gesperrt", "url": "https://www.tagesschau.de/inland/regional/sachsenanhalt/mdr-b1-in-gerwisch-ortsdurchfahrt-monatelang-gesperrt-100.html", "thumbnailUrl": "https://images.tagesschau.de/image/784ef8e7-439a-4b39-bd49-1a67b4f023b5/AAABjqMz1Vo/AAABjcWesUg/16x9-512.jpg", "date": "2024-04-03T10:53:56.000+02:00", "lat": 52.3392, "lon": 11.7261, "intensity": 0.8, "source": "Tagesschau"}, {"title": "Darmstadt 98: +++ Vilhelmssons Quote macht Lilien Hoffnung +++ M\u00fcller nimmt Holtmann in Schutz +++ M\u00fcller hofft auf Topleistung und Matchgl\u00fcck +++", "url": "https://www.tagesschau.de/inland/regional/hessen/hr--tietz-vermisst-fehlende-gier--lilien-fans-liefern-sich-raststaetten-pruegelei--die-niederlage-der-lilien-in-der-video-zusammenfassung-102.html", "thumbnailUrl": "https://images.tagesschau.de/image/d2379d55-1e00-4bc6-99c6-30f4c8d23c13/AAABjqLsUKw/AAABjcWesUg/16x9-512.jpg", "date": "2024-04-03T09:45:41.962+02:00", "lat": 49.8717, "lon": 8.65, "intensity": 0.5, "source": "Tagesschau"}, {"title": "Brand bei der Feuerwehr: Flammen in der Fahrzeughalle", "url": "https://www.tagesschau.de/inland/regional/niedersachsen/ndr-brand-bei-der-feuerwehr-flammen-in-der-fahrzeughalle-100.html", "thumbnailUrl": "https://images.tagesschau.de/image/b3256ef1-46be-4997-85e3-ba89be6d0381/AAABjqM3oTQ/AAABjcWesUg/16x9-512.jpg", "date": "2024-04-03T10:53:00.000+02:00", "lat": 53.7303, "lon": 8.6466, "intensity": 0.8, "source": "Tagesschau"}, {"title": "Krankenkassen: Komasaufen unter Jugendlichen nimmt weiter ab", "url": "https://www.tagesschau.de/inland/regional/badenwuerttemberg/swr-krankenkassen-komasaufen-unter-jugendlichen-nimmt-weiter-ab-100.html", "thumbnailUrl": "https://images.tagesschau.de/image/bbedf6cf-caab-4fbb-bbf2-d14afbc77975/AAABjqM1VxA/AAABjcWesUg/16x9-512.jpg", "date": "2024-04-03T10:49:00.000+02:00", "lat": 48.6616, "lon": 9.4895, "intensity": 0.4, "source": "Tagesschau"}, {"title": "Ironman 2024: Patrick Lange traut sich weiteren Triumph auf Hawaii zu", "url": "https://www.tagesschau.de/inland/regional/hessen/hr-ironman-2024-patrick-lange-traut-sich-weiteren-triumph-auf-hawaii-zu-102.html", "thumbnailUrl": "https://images.tagesschau.de/image/0d10f6d8-2ac4-4dea-94f4-281e930e5f79/AAABjqMwDPA/AAABjcWesUg/16x9-512.jpg", "date": "2024-04-03T10:47:02.542+02:00", "lat": 21.3069, "lon": -157.8583, "intensity": 0.6, "source": "Tagesschau"}, {"title": "Cannabis: Einfuhr aus Niederlanden bleibt verboten", "url": "https://www.tagesschau.de/inland/regional/niedersachsen/ndr-cannabis-einfuhr-aus-niederlanden-bleibt-verboten-100.html", "thumbnailUrl": "https://images.tagesschau.de/image/0f69af4e-1f78-4173-a89a-b4681c02223a/AAABjqMf4eU/AAABjcWesUg/16x9-512.jpg", "date": "2024-04-03T10:41:00.000+02:00", "lat": 52.338611, "lon": 7.073056, "intensity": 0.5, "source": "Tagesschau"}, {"title": "Burg im Spreewald: 22-J\u00e4hriger von Vermummtem attackiert - Sch\u00e4delbruch", "url": "https://www.tagesschau.de/inland/regional/brandenburg/rbb-burg-im-spreewald-22-jaehriger-von-vermummten-attackiert-schaedelbruch-100.html", "thumbnailUrl": "https://images.tagesschau.de/image/5412691c-6a77-4547-82cb-da47280fde5a/AAABjqRf_ek/AAABjcWesUg/16x9-512.jpg", "date": "2024-04-03T10:30:54.000+02:00", "lat": 51.8331, "lon": 14.0757, "intensity": 0.8, "source": "Tagesschau"}, {"title": "\"Unglaubliche Reise mit unfassbar beschissenem Ende\"", "url": "https://www.tagesschau.de/inland/regional/saarland/sr-unglaubliche-reise-mit-unfassbar-beschissenem-ende-102.html", "thumbnailUrl": "https://images.tagesschau.de/image/881e04f2-eee8-438a-ad2b-8ed476dc6523/AAABjqV_N-c/AAABjcWesUg/16x9-512.jpg", "date": "2024-04-03T10:27:00.000+02:00", "lat": 49.2367, "lon": 6.9684, "intensity": 0.8, "source": "Tagesschau"}, {"title": "Anteil der \u00fcber 80-J\u00e4hrigen in Berlin und Brandenburg w\u00e4chst", "url": "https://www.tagesschau.de/inland/regional/berlin/rbb-anteil-der-ueber-80-jaehrigen-waechst-100.html", "thumbnailUrl": "https://images.tagesschau.de/image/b0c6744f-ffbb-414f-8832-bcff006ab93f/AAABjqMQ1SM/AAABjcWesUg/16x9-512.jpg", "date": "2024-04-03T10:21:52.000+02:00", "lat": 52.520008, "lon": 13.404954, "intensity": 0.6, "source": "Tagesschau"}, {"title": "Stra\u00dfenbahnen der BSAG fahren wieder nach Plan \u2013 Busse aber nicht", "url": "https://www.tagesschau.de/inland/regional/bremen/rb-strassenbahnen-der-bsag-fahren-wieder-nach-plan--busse-aber-nicht-102.html", "thumbnailUrl": "https://images.tagesschau.de/image/851224ce-a6e9-4231-b99d-6623a6a4913d/AAABjqI1CuI/AAABjcWesUg/16x9-512.jpg", "date": "2024-04-03T10:21:00.000+02:00", "lat": 53.0793, "lon": 8.8017, "intensity": 0.6, "source": "Tagesschau"}, {"title": "Entsch\u00e4rfung am Donnerstag: Erneut Weltkriegsbombe in Berlin-Schmargendorf gefunden ", "url": "https://www.tagesschau.de/inland/regional/berlin/rbb-medienberichte-erneut-weltkriegsbombe-in-schmargendorf-gefunden-100.html", "thumbnailUrl": "https://images.tagesschau.de/image/8360af90-2199-4cad-8db2-349b88c9f2db/AAABjqMREWs/AAABjcWesUg/16x9-512.jpg", "date": "2024-04-03T10:20:57.000+02:00", "lat": 52.4699, "lon": 13.2854, "intensity": 0.8, "source": "Tagesschau"}, {"title": "Tote und Verletzte nach schwerem Erdbeben", "url": "https://www.tagesschau.de/ausland/asien/taiwan-erdbeben-106.html", "thumbnailUrl": "https://images.tagesschau.de/image/bb68d11f-ab44-4f62-acf5-5e0959571dcb/AAABjqLLIrM/AAABjcWesUg/16x9-512.jpg", "date": "2024-04-03T10:17:37.704+02:00", "lat": 23.69781, "lon": 121.509062, "intensity": 0.8, "source": "Tagesschau"}, {"title": "Mannheim: Betrunkener Autofahrer verursacht zwei Unf\u00e4lle und f\u00e4hrt weiter", "url": "https://www.tagesschau.de/inland/regional/badenwuerttemberg/swr-mannheim-betrunkener-autofahrer-verursacht-zwei-unfaelle-und-faehrt-weiter-100.html", "thumbnailUrl": "https://images.tagesschau.de/image/ae92c9de-134e-44ba-82cf-8fbf8d15ebc5/AAABjqMbwvA/AAABjcWesUg/16x9-512.jpg", "date": "2024-04-03T10:17:26.000+02:00", "lat": 49.4875, "lon": 8.4636, "intensity": 0.8, "source": "Tagesschau"}, {"title": "F\u00fcnf Verletzte bei K\u00fcchenbrand in Diepenau", "url": "https://www.tagesschau.de/inland/regional/niedersachsen/ndr-fuenf-verletzte-bei-kuechenbrand-in-diepenau-100.html", "thumbnailUrl": "https://images.tagesschau.de/image/5b6f0cf2-27d0-4a6e-b7ce-97611b20897f/AAABjqMrFqU/AAABjcWesUg/16x9-512.jpg", "date": "2024-04-03T10:12:00.000+02:00", "lat": 52.5938, "lon": 8.7681, "intensity": 0.7, "source": "Tagesschau"}, {"title": "Agrarpolitik in Brandenburg: Ostdeutsche Landwirte fordern Verkauf von bundeseigenen Agrarfl\u00e4chen", "url": "https://www.tagesschau.de/inland/regional/brandenburg/rbb-agrarpolitik-in-brandenburg-ostdeutsche-landwirte-fordern-verkauf-von-bundeseigenen-agrarflaechen-100.html", "thumbnailUrl": "https://images.tagesschau.de/image/9b76b511-deaf-4b4d-a0b3-0b1cd8e8eced/AAABjqOCZIU/AAABjcWesUg/16x9-512.jpg", "date": "2024-04-03T10:11:41.000+02:00", "lat": 52.4125, "lon": 13.4651, "intensity": 0.7, "source": "Tagesschau"}, {"title": "Hessen am Morgen: +++ Bombenfund in Wiesbaden - Evakuierung l\u00e4uft noch +++ Mordprozess in Frankfurt +++ Langer Stau auf A7 nach Lkw-Brand +++", "url": "https://www.tagesschau.de/inland/regional/hessen/hr-hessen-am-morgen--bombenfund-in-wiesbaden-biebrich-evakuierung-am-morgen-100.html", "thumbnailUrl": "https://images.tagesschau.de/image/44d0a1df-dc20-4b4a-9679-b9ce299ecb9e/AAABjqM80KQ/AAABjcWesUg/16x9-512.jpg", "date": "2024-04-03T10:11:39.013+02:00", "lat": 51.3126, "lon": 9.4952, "intensity": 0.8, "source": "Tagesschau"}, {"title": "DFB-Pokal-Halbfinale in Saarbr\u00fccken laut Polizei friedlich verlaufen ", "url": "https://www.tagesschau.de/inland/regional/saarland/sr-dfb-pokal-halbfinale-in-saarbruecken-laut-polizei-friedlich-verlaufen-100.html", "thumbnailUrl": "https://images.tagesschau.de/image/849acdaf-2883-4ab8-8810-56ecb25a75f7/AAABjqMFq3g/AAABjcWesUg/16x9-512.jpg", "date": "2024-04-03T10:08:00.000+02:00", "lat": 49.2354, "lon": 6.9969, "intensity": 0.3, "source": "Tagesschau"}, {"title": "VfL-Torj\u00e4gerin Vivien Endemann: Mit Bodenhaftung auf H\u00f6henflug ", "url": "https://www.tagesschau.de/inland/regional/niedersachsen/ndr-vfl-torjaegerin-vivien-endemann-mit-bodenhaftung-auf-hoehenflug-102.html", "thumbnailUrl": "https://images.tagesschau.de/image/034053e0-ba1c-448e-a5cf-035f2c2e3e53/AAABjqMYfjc/AAABjcWesUg/16x9-512.jpg", "date": "2024-04-03T10:05:00.000+02:00", "lat": 52.4226, "lon": 10.5378, "intensity": 0.4, "source": "Tagesschau"}, {"title": "Pleite der Greensill-Bank: Kommunen schlie\u00dfen Aff\u00e4re mit hohen Verlusten ab", "url": "https://www.tagesschau.de/inland/regional/hessen/hr-millionen-steuergelder-in-den-sand-gesetzt-hessische-kommunen-ziehen-schlussstrich-unter-greensill-affaere-100.html", "thumbnailUrl": "https://images.tagesschau.de/image/e11f92c8-948d-4d7f-afd5-2eda62e6843b/AAABjqQyJ9w/AAABjcWesUg/16x9-512.jpg", "date": "2024-04-03T10:03:30.279+02:00", "lat": 50.1109, "lon": 8.6833, "intensity": 0.8, "source": "Tagesschau"}, {"title": "BW-Newsticker am Morgen: Diebe wollen tonnenweise B\u00e4rlauch klauen, Sch\u00e4uble-Memoiren skizzieren m\u00f6glichen Merkel-Sturz, Halmich will es gegen Raab knallen lassen", "url": "https://www.tagesschau.de/inland/regional/badenwuerttemberg/swr-bw-newsticker-am-morgen-weniger-komasaufen-bei-jugendlichen-diebe-wollen-tonnenweise-baerlauch-klauen-halmich-will-es-gegen-raab-knallen-lassen-100.html", "thumbnailUrl": "https://images.tagesschau.de/image/a115f24e-0cef-4265-8b78-74d0ba8b7b66/AAABjqJg7yU/AAABjcWesUg/16x9-512.jpg", "date": "2024-04-03T10:00:00.000+02:00", "lat": 48.6617, "lon": 9.4895, "intensity": 0.5, "source": "Tagesschau"}, {"title": "FCK feiert Einzug in DFB-Pokalfinale, Vollsperrung am Schiersteiner Kreuz, Unfall mit Pferd", "url": "https://www.tagesschau.de/inland/regional/rheinlandpfalz/swr-fck-feiert-einzug-in-dfb-pokalfinale-vollsperrung-am-schiersteiner-kreuz-wildschweine-verwuesten-graeber-100.html", "thumbnailUrl": "https://images.tagesschau.de/image/2e11680f-b4cc-49dd-843a-279f7184b705/AAABjqKM97A/AAABjcWesUg/16x9-512.jpg", "date": "2024-04-03T10:00:00.000+02:00", "lat": 49.9929, "lon": 8.2394, "intensity": 0.8, "source": "Tagesschau"}, {"title": "Alarm in Chemiebetrieb: Feuerwehr r\u00fcckt in Schutzanz\u00fcgen vor", "url": "https://www.tagesschau.de/inland/regional/niedersachsen/ndr-alarm-in-chemiebetrieb-feuerwehr-rueckt-in-schutzanzuegen-vor-100.html", "thumbnailUrl": "https://images.tagesschau.de/image/993a6e2a-0883-42ca-b21b-0eb5e7ea1578/AAABjqKb_Ig/AAABjcWesUg/16x9-512.jpg", "date": "2024-04-03T09:58:00.000+02:00", "lat": 53.10904, "lon": 8.890938, "intensity": 0.7, "source": "Tagesschau"}, {"title": "Aktienhandel per Smartphone", "url": "https://www.tagesschau.de/wirtschaft/verbraucher/n26-verbraucher-aktienhandel-100.html", "thumbnailUrl": "https://images.tagesschau.de/image/c8847089-2f88-46a7-a078-cc863a894676/AAABjqLKe8w/AAABjcWesUg/16x9-512.jpg", "date": "2024-04-03T09:48:31.192+02:00", "lat": 52.52, "lon": 13.405, "intensity": 0.6, "source": "Tagesschau"}, {"title": "Brand in psychiatrischer Klinik in Rosdorf: Ursache steht fest", "url": "https://www.tagesschau.de/inland/regional/niedersachsen/ndr-goettingen-vier-verletzte-bei-brand-in-psychiatrischer-klinik-100.html", "thumbnailUrl": "https://images.tagesschau.de/image/ab0986c1-39ff-4a83-ad3b-aa13c7c03c49/AAABjqLsv68/AAABjcWesUg/16x9-512.jpg", "date": "2024-04-03T09:42:00.000+02:00", "lat": 51.5353, "lon": 9.9135, "intensity": 0.8, "source": "Tagesschau"}, {"title": "Diebe zapfen Lkw-Tanks an - und stehlen 900 Liter Diesel", "url": "https://www.tagesschau.de/inland/regional/niedersachsen/ndr-diebe-zapfen-lkw-tanks-an-und-stehlen-900-liter-diesel-100.html", "thumbnailUrl": "https://images.tagesschau.de/image/005aca29-80ec-4e84-991f-99662b9dfac6/AAABjqLqucc/AAABjcWesUg/16x9-512.jpg", "date": "2024-04-03T09:37:00.000+02:00", "lat": 53.0878, "lon": 8.7381, "intensity": 0.7, "source": "Tagesschau"}, {"title": "Unfall bei Goldenstedt: 14 Tonnen Getreide auf Landstra\u00dfe", "url": "https://www.tagesschau.de/inland/regional/niedersachsen/ndr-traktor-kippt-um-14-tonnen-getreide-auf-landstrasse-100.html", "thumbnailUrl": "https://images.tagesschau.de/image/cb324d2f-66a2-4622-83f9-5fe8c1cb63bc/AAABjqLjZPA/AAABjcWesUg/16x9-512.jpg", "date": "2024-04-03T09:34:00.000+02:00", "lat": 52.7784, "lon": 8.3803, "intensity": 0.7, "source": "Tagesschau"}, {"title": "Prostitution in Stuttgart: Bordellbetreiber gewinnt im Rechtsstreit gegen Politikerin", "url": "https://www.tagesschau.de/inland/regional/badenwuerttemberg/swr-prostitution-in-stuttgart-bordellbetreiber-gewinnt-im-rechtsstreit-gegen-politikerin-100.html", "thumbnailUrl": "https://images.tagesschau.de/image/27556f68-5a61-4ecc-8418-4156a9def4a2/AAABjqLhLCM/AAABjcWesUg/16x9-512.jpg", "date": "2024-04-02T16:15:47.000+02:00", "lat": 48.7758, "lon": 9.1829, "intensity": 0.7, "source": "Tagesschau"}, {"title": "Wegen Shisha-Kohle: Kinder in Idar-Oberstein im Krankenhaus", "url": "https://www.tagesschau.de/inland/regional/rheinlandpfalz/swr-wegen-shisha-kohle-kinder-in-idar-oberstein-im-krankenhaus-100.html", "thumbnailUrl": "https://images.tagesschau.de/image/cff94542-cb48-429c-a940-89ff447d3024/AAABjqLv_x8/AAABjcWesUg/16x9-512.jpg", "date": "2024-04-03T09:29:57.000+02:00", "lat": 49.7139, "lon": 7.3027, "intensity": 0.8, "source": "Tagesschau"}, {"title": "Finale und Relegation? Terminstress f\u00fcr den FCK m\u00f6glich", "url": "https://www.tagesschau.de/inland/regional/rheinlandpfalz/swr-finale-und-relegation-terminstress-fuer-den-fck-moeglich-106.html", "thumbnailUrl": "https://images.tagesschau.de/image/ca8e4d5d-8fee-4151-a47a-21f3cb481033/AAABjqTpKMc/AAABjcWesUg/16x9-512.jpg", "date": "2024-04-03T09:29:43.000+02:00", "lat": 49.4431, "lon": 7.7774, "intensity": 0.8, "source": "Tagesschau"}, {"title": "Alkoholkonsum im und am Hamburger Hauptbahnhof verboten", "url": "https://www.tagesschau.de/inland/regional/hamburg/ndr-alkoholverbot-am-hamburger-hauptbahnhof-tritt-am-dienstag-in-kraft-100.html", "thumbnailUrl": "https://images.tagesschau.de/image/ccd52a46-1451-463a-ac31-373402f10c2d/AAABjqLb63c/AAABjcWesUg/16x9-512.jpg", "date": "2024-04-03T09:19:00.000+02:00", "lat": 53.5511, "lon": 9.9937, "intensity": 0.8, "source": "Tagesschau"}, {"title": "Lohnl\u00fccke zwischen Ost und West bleibt gro\u00df", "url": "https://www.tagesschau.de/wirtschaft/arbeitsmarkt/lohnluecke-ost-west-100.html", "thumbnailUrl": "https://images.tagesschau.de/image/c9ccf309-cfc0-480e-9db3-fba217dde22e/AAABiiGWZ_c/AAABjcWesUg/16x9-512.jpg", "date": "2024-04-03T09:14:47.311+02:00", "lat": 52.4643, "lon": 11.582, "intensity": 0.7, "source": "Tagesschau"}, {"title": "Berauscht und mit Kokain in der Socke: Polizei stoppt Autofahrer", "url": "https://www.tagesschau.de/inland/regional/niedersachsen/ndr-berauscht-und-mit-kokain-in-der-socke-polizei-stoppt-autofahrer-100.html", "thumbnailUrl": "https://images.tagesschau.de/image/bb3ec6df-5d6c-478b-9193-e61ee0de2be2/AAABjqMaS48/AAABjcWesUg/16x9-512.jpg", "date": "2024-04-03T09:14:00.000+02:00", "lat": 52.6367, "lon": 10.4515, "intensity": 0.8, "source": "Tagesschau"}, {"title": "Polizei ermittelt nach Fund von mehreren Bomben in Wolfsburg", "url": "https://www.tagesschau.de/inland/regional/niedersachsen/ndr-polizei-findet-sprengvorrichtungen-in-wohnung-drei-festnahmen-100.html", "thumbnailUrl": "https://images.tagesschau.de/image/8f728b88-03cb-4657-a15f-c2cf116cdb2b/AAABjqLRFhM/AAABjcWesUg/16x9-512.jpg", "date": "2024-04-03T09:13:00.000+02:00", "lat": 52.4226, "lon": 10.7769, "intensity": 0.8, "source": "Tagesschau"}, {"title": "Herpes: Impfung f\u00fcr Turnier-Pferde bald nicht mehr Pflicht", "url": "https://www.tagesschau.de/inland/regional/niedersachsen/ndr-herpes-impfung-fuer-turnierpferde-bald-nicht-mehr-pflicht-100.html", "thumbnailUrl": "https://images.tagesschau.de/image/110b95f9-9ed6-4442-a618-ec52c304d0bd/AAABjqLJuAk/AAABjcWesUg/16x9-512.jpg", "date": "2024-04-03T09:07:00.000+02:00", "lat": 51.1657, "lon": 10.4515, "intensity": 0.6, "source": "Tagesschau"}, {"title": "Steuererkl\u00e4rung im Alter: Was Rentner wissen m\u00fcssen", "url": "https://www.tagesschau.de/inland/regional/saarland/sr-steuererklaerung-im-alter-was-rentner-wissen-muessen-100.html", "thumbnailUrl": "https://images.tagesschau.de/image/516a199e-9bd9-4bca-bf6e-01a079095096/AAABjqMLKXo/AAABjcWesUg/16x9-512.jpg", "date": "2024-04-03T09:01:00.000+02:00", "lat": 49.3964, "lon": 7.0005, "intensity": 0.6, "source": "Tagesschau"}, {"title": "Autofahrer st\u00f6\u00dft bei Traisen mit Pferd zusammen", "url": "https://www.tagesschau.de/inland/regional/rheinlandpfalz/swr-autofahrer-stoesst-bei-traisen-mit-pferd-zusammen-100.html", "thumbnailUrl": "https://images.tagesschau.de/image/8f34466d-cc8d-4497-9cbc-13e7ee206a9b/AAABjqMqe2k/AAABjcWesUg/16x9-512.jpg", "date": "2024-04-03T08:53:14.000+02:00", "lat": 49.8429, "lon": 7.8706, "intensity": 0.6, "source": "Tagesschau"}, {"title": "Doku \u00fcber die \"G\u00f6hrde-Morde\" und das Verschwinden von Birgit Meier", "url": "https://www.tagesschau.de/inland/regional/niedersachsen/ndr-doku-ueber-die-goehrde-morde-und-das-verschwinden-von-birgit-meier-100.html", "thumbnailUrl": "https://images.tagesschau.de/image/cf382c2e-d633-4892-b4dd-2682d67d0a36/AAABjqK7D50/AAABjcWesUg/16x9-512.jpg", "date": "2024-04-03T08:45:00.000+02:00", "lat": 53.2405, "lon": 10.5293, "intensity": 0.8, "source": "Tagesschau"}, {"title": "W\u00f6lfe: Brandenburger J\u00e4ger dr\u00e4ngen auf baldige Einf\u00fchrung von Schnellabsch\u00fcssen", "url": "https://www.tagesschau.de/inland/regional/brandenburg/rbb-woelfe-brandenburger-jaeger-draengen-auf-baldige-einfuehrung-von-schnellabschuessen-100.html", "thumbnailUrl": "https://images.tagesschau.de/image/6bce7b03-47e3-477d-8866-4cef0df49ae0/AAABjqKsHhk/AAABjcWesUg/16x9-512.jpg", "date": "2024-04-03T08:44:58.000+02:00", "lat": 52.3001, "lon": 13.1683, "intensity": 0.8, "source": "Tagesschau"}, {"title": "Seltene Funde an der Nordsee: Kehren verschwundene Arten zur\u00fcck?", "url": "https://www.tagesschau.de/inland/regional/schleswigholstein/ndr-seltene-funde-an-der-nordsee-kehren-verschwundene-arten-zurueck-100.html", "thumbnailUrl": "https://images.tagesschau.de/image/66d39a31-4098-40c1-b670-8ff72574ed96/AAABjp5BBJ4/AAABjcWesUg/16x9-512.jpg", "date": "2024-04-03T08:44:00.000+02:00", "lat": 53.5444, "lon": 8.8139, "intensity": 0.7, "source": "Tagesschau"}, {"title": "A31 bei D\u00f6rpen nach Unfall wieder frei - Vorfahrt missachtet?", "url": "https://www.tagesschau.de/inland/regional/niedersachsen/ndr-a31-bei-doerpen-nach-unfall-wieder-frei-vorfahrt-missachtet-100.html", "thumbnailUrl": "https://images.tagesschau.de/image/22d00e2d-a5bc-496a-a8ca-59185248c115/AAABjqK1pAQ/AAABjcWesUg/16x9-512.jpg", "date": "2024-04-03T08:44:00.000+02:00", "lat": 52.8567, "lon": 7.3357, "intensity": 0.6, "source": "Tagesschau"}, {"title": "Mieten steigen in Niedersachsen: So sieht es in Ihrem Landkreis aus", "url": "https://www.tagesschau.de/inland/regional/niedersachsen/ndr-mieten-steigen-in-niedersachsen-so-sieht-es-in-ihrem-landkreis-aus-100.html", "thumbnailUrl": "https://images.tagesschau.de/image/e3931de4-cb6f-43a5-b0b7-abd7fa7f0295/AAABjqKzxXY/AAABjcWesUg/16x9-512.jpg", "date": "2024-04-03T08:43:00.000+02:00", "lat": 52.6367, "lon": 9.7356, "intensity": 0.8, "source": "Tagesschau"}, {"title": "Frau muss nach Betrug ihres Ex-Partners 11.000 Euro bezahlen", "url": "https://www.tagesschau.de/inland/regional/niedersachsen/ndr-frau-muss-fuer-betrug-ihres-ex-partners-11-000-euro-bezahlen-100.html", "thumbnailUrl": "https://images.tagesschau.de/image/9c5ed984-b994-48d7-a953-9845e5428680/AAABjqKx_xI/AAABjcWesUg/16x9-512.jpg", "date": "2024-04-03T08:40:00.000+02:00", "lat": 52.6367, "lon": 10.4234, "intensity": 0.7, "source": "Tagesschau"}, {"title": "Weniger Jungtiere bei Kegelrobben im Wattenmeer gez\u00e4hlt", "url": "https://www.tagesschau.de/inland/regional/niedersachsen/ndr-weniger-jungtiere-bei-kegelrobben-im-wattenmeer-gezaehlt-100.html", "thumbnailUrl": "https://images.tagesschau.de/image/efd1d214-6e94-49b4-af73-2965d83ae54b/AAABjqLo4Pg/AAABjcWesUg/16x9-512.jpg", "date": "2024-04-03T08:40:00.000+02:00", "lat": 53.1355, "lon": 7.8451, "intensity": 0.7, "source": "Tagesschau"}, {"title": "Weniger Br\u00fctereien seit K\u00fckent\u00f6tungsverbot", "url": "https://www.tagesschau.de/wirtschaft/unternehmen/bruetereien-kuekentoeten-landwirtschaft-100.html", "thumbnailUrl": "https://images.tagesschau.de/image/31f8d8c7-daff-409d-9466-69fbb62f9f49/AAABhnRYNcE/AAABjcWesUg/16x9-512.jpg", "date": "2024-04-03T08:36:01.507+02:00", "lat": 53.5511, "lon": 9.9937, "intensity": 0.8, "source": "Tagesschau"}, {"title": "Bayern und seine Muslime \u2013 kein unkompliziertes Verh\u00e4ltnis", "url": "https://www.tagesschau.de/inland/regional/bayern/br-bayern-und-seine-muslime--kein-unkompliziertes-verhaeltnis-102.html", "thumbnailUrl": "https://images.tagesschau.de/image/7d46c95b-ff3c-4339-9326-263131b50e07/AAABjqKsPr0/AAABjcWesUg/16x9-512.jpg", "date": "2024-04-03T08:34:22.691+02:00", "lat": 48.1351, "lon": 11.582, "intensity": 0.7, "source": "Tagesschau"}, {"title": "Verwaltungsgerichte in Niedersachsen verzeichnen mehr Asylverfahren", "url": "https://www.tagesschau.de/inland/regional/niedersachsen/ndr-verwaltungsgerichte-in-niedersachsen-verzeichnen-mehr-asylverfahren-100.html", "thumbnailUrl": "https://images.tagesschau.de/image/b23a5269-4a6a-465c-8213-bd06f7e87ca8/AAABjqLfuDk/AAABjcWesUg/16x9-512.jpg", "date": "2024-04-03T08:34:00.000+02:00", "lat": 52.6367, "lon": 10.4515, "intensity": 0.6, "source": "Tagesschau"}, {"title": "Firmen unterst\u00fctzen Klimaschutzma\u00dfnahmen von Landwirten", "url": "https://www.tagesschau.de/inland/regional/bayern/br-firmen-unterstuetzen-klimaschutzmassnahmen-von-landwirten-102.html", "thumbnailUrl": "https://images.tagesschau.de/image/0e64ac67-7e79-44df-b79a-21ab478c6d6f/AAABjqKqZ5g/AAABjcWesUg/16x9-512.jpg", "date": "2024-04-03T08:32:50.157+02:00", "lat": 49.0379, "lon": 10.4515, "intensity": 0.6, "source": "Tagesschau"}, {"title": "Solarbike: 19-j\u00e4hriger \"Sonnenradler\" auf dem Weg zur Sahara", "url": "https://www.tagesschau.de/inland/regional/bayern/br-solarbike-19-jaehriger-sonnenradler-auf-dem-weg-zur-sahara-102.html", "thumbnailUrl": "https://images.tagesschau.de/image/e2e936e1-a883-417b-9667-005ee969f79e/AAABjqKmyng/AAABjcWesUg/16x9-512.jpg", "date": "2024-04-03T08:29:37.237+02:00", "lat": 48.135125, "lon": 11.581981, "intensity": 0.7, "source": "Tagesschau"}, {"title": "Was die Bahn mit vergessenen Fahrr\u00e4dern macht", "url": "https://www.tagesschau.de/wirtschaft/verbraucher/bahn-fahrraeder-versteigerung-bauprogramm-puenktlichkeit-100.html", "thumbnailUrl": "https://images.tagesschau.de/image/7a8c1fda-3db8-40b1-950f-51c4b53b4bb4/AAABjqLIcU0/AAABjcWesUg/16x9-512.jpg", "date": "2024-04-03T08:26:40.922+02:00", "lat": 51.515, "lon": 9.998, "intensity": 0.6, "source": "Tagesschau"}, {"title": "Rund um die Uhr den Pass abholen im Rathaus in Wachenheim", "url": "https://www.tagesschau.de/inland/regional/rheinlandpfalz/swr-rund-um-die-uhr-den-pass-abholen-im-rathaus-in-wachenheim-100.html", "thumbnailUrl": "https://images.tagesschau.de/image/53724a22-4b0a-4259-a1cd-69ab9884f9d6/AAABjqLM_Eg/AAABjcWesUg/16x9-512.jpg", "date": "2024-04-03T08:11:43.000+02:00", "lat": 49.4841, "lon": 8.2151, "intensity": 0.2, "source": "Tagesschau"}, {"title": "Kinder zum Essen gezwungen? Kita-Mitarbeiterin geht in Berufung", "url": "https://www.tagesschau.de/inland/regional/niedersachsen/ndr-kinder-zum-essen-gezwungen-kita-mitarbeiterin-geht-in-berufung-100.html", "thumbnailUrl": "https://images.tagesschau.de/image/f6d7fbc7-5d4a-42b0-b7db-f609f53e5969/AAABjqKS5eg/AAABjcWesUg/16x9-512.jpg", "date": "2024-04-03T08:04:00.000+02:00", "lat": 51.5414, "lon": 9.8867, "intensity": 0.6, "source": "Tagesschau"}, {"title": "Weiter viel Kritik an Pl\u00e4nen f\u00fcr autoarmes Ottensen ", "url": "https://www.tagesschau.de/inland/regional/hamburg/ndr-weiter-viel-kritik-an-plaenen-fuer-autoarmes-ottensen-100.html", "thumbnailUrl": "https://images.tagesschau.de/image/ea050f7f-eaef-48b0-b274-367f27b29c51/AAABjqKSveA/AAABjcWesUg/16x9-512.jpg", "date": "2024-04-03T08:02:00.000+02:00", "lat": 53.5511, "lon": 9.9372, "intensity": 0.6, "source": "Tagesschau"}, {"title": "BDI-Pr\u00e4sident kritisiert Kanzler Scholz scharf", "url": "https://www.tagesschau.de/wirtschaft/konjunktur/kritik-bdi-regierung-100.html", "thumbnailUrl": "https://images.tagesschau.de/image/4ecc6647-a7a6-4461-b8e2-c68c37883baf/AAABjqKJKlo/AAABjcWesUg/16x9-512.jpg", "date": "2024-04-03T07:58:02.325+02:00", "lat": 53.5511, "lon": 9.9937, "intensity": 0.7, "source": "Tagesschau"}, {"title": "Tochter Quecksilber gespritzt? Lange Haftstrafe f\u00fcr Vater gefordert", "url": "https://www.tagesschau.de/inland/regional/niedersachsen/ndr-tochter-quecksilber-gespritzt-lange-haftstrafe-fuer-vater-gefordert-100.html", "thumbnailUrl": "https://images.tagesschau.de/image/2a555426-4b6c-46c4-b031-d2d5fc04c14f/AAABjqKuRfw/AAABjcWesUg/16x9-512.jpg", "date": "2024-04-03T07:54:00.000+02:00", "lat": 52.3759, "lon": 9.7332, "intensity": 0.8, "source": "Tagesschau"}, {"title": "Beleuchteter Zebrastreifen in Heiden", "url": "https://www.tagesschau.de/inland/regional/nordrheinwestfalen/wdr-beleuchteter-zebrastreifen-in-heiden-102.html", "thumbnailUrl": "https://images.tagesschau.de/image/87f3e6e5-68df-4cec-88dd-0c93afe150ac/AAABjqLhDr4/AAABjcWesUg/16x9-512.jpg", "date": "2024-04-03T07:48:00.000+02:00", "lat": 51.9435, "lon": 7.0373, "intensity": 0.6, "source": "Tagesschau"}, {"title": "Unbekannte bewerfen NordWestBahn mit Stein und Glasflasche", "url": "https://www.tagesschau.de/inland/regional/niedersachsen/ndr-unbekannte-bewerfen-nordwestbahn-mit-stein-und-glasflasche-100.html", "thumbnailUrl": "https://images.tagesschau.de/image/89c7a875-b64c-47da-bee0-8df2a596aeb6/AAABjqKF8l4/AAABjcWesUg/16x9-512.jpg", "date": "2024-04-03T07:48:00.000+02:00", "lat": 52.2796, "lon": 8.2275, "intensity": 0.7, "source": "Tagesschau"}, {"title": "Litauens Angst vor Putin", "url": "https://www.tagesschau.de/ausland/europa/podcast-11km-litauen-russland-100.html", "thumbnailUrl": "https://images.tagesschau.de/image/499d663f-437f-4dc5-90de-2ab19a80aa0a/AAABjqIopOI/AAABjcWesUg/16x9-512.jpg", "date": "2024-04-03T07:46:35.489+02:00", "lat": 54.6872, "lon": 25.2797, "intensity": 0.8, "source": "Tagesschau"}, {"title": "Auto f\u00e4hrt in Magdeburger Caf\u00e9: Lokal wieder ge\u00f6ffnet", "url": "https://www.tagesschau.de/inland/regional/sachsenanhalt/mdr-auto-faehrt-in-magdeburger-caf--mehrere-verletzte-100.html", "thumbnailUrl": "https://images.tagesschau.de/image/af52288d-a607-4f1c-b567-d0498019a550/AAABjqRw01Y/AAABjcWesUg/16x9-512.jpg", "date": "2024-04-03T06:40:33.000+02:00", "lat": 52.1285, "lon": 11.6276, "intensity": 0.8, "source": "Tagesschau"}, {"title": "Gasleitung wird bei Bauarbeiten in Hamburg besch\u00e4digt", "url": "https://www.tagesschau.de/inland/regional/hamburg/ndr-gasleitung-wird-bei-bauarbeiten-beschaedigt-100.html", "thumbnailUrl": "https://images.tagesschau.de/image/2c1f749d-f6d5-4497-8af0-c5bbe15ae0d3/AAABjqO126E/AAABjcWesUg/16x9-512.jpg", "date": "2024-04-03T06:36:00.000+02:00", "lat": 53.6336, "lon": 9.9392, "intensity": 0.7, "source": "Tagesschau"}, {"title": "Hochbegabte im Job: Schlauer als der Boss", "url": "https://www.tagesschau.de/inland/regional/brandenburg/rbb-hochbegabte-im-job-schlauer-als-der-boss-100.html", "thumbnailUrl": "https://images.tagesschau.de/image/4f8284f4-7030-488b-b082-d1d0c0f77459/AAABjqIv0-A/AAABjcWesUg/16x9-512.jpg", "date": "2024-04-03T06:15:00.000+02:00", "lat": 52.52, "lon": 13.405, "intensity": 0.7, "source": "Tagesschau"}, {"title": "Mediziner abgesprungen: B\u00fchlertal wieder ohne \u00e4rztliche Versorgung", "url": "https://www.tagesschau.de/inland/regional/badenwuerttemberg/swr-mediziner-abgesprungen-buehlertal-wieder-ohne-aerztliche-versorgung-100.html", "thumbnailUrl": "https://images.tagesschau.de/image/a01fc478-fe32-40b1-8616-3248a043537d/AAABjqK1H9k/AAABjcWesUg/16x9-512.jpg", "date": "2024-04-03T06:14:13.000+02:00", "lat": 49.2611, "lon": 9.7272, "intensity": 0.8, "source": "Tagesschau"}, {"title": "Nutzen Islamisten in Hamburg den Ramadan f\u00fcr ihre Ideologien?", "url": "https://www.tagesschau.de/inland/regional/hamburg/ndr-nutzen-islamisten-in-hamburg-den-ramadan-fuer-ihre-ideologien-100.html", "thumbnailUrl": "https://images.tagesschau.de/image/efbbfc7f-f651-4a35-8a37-075fa4eee533/AAABjp6Ay5E/AAABjcWesUg/16x9-512.jpg", "date": "2024-04-03T06:11:00.000+02:00", "lat": 53.5511, "lon": 9.9937, "intensity": 0.8, "source": "Tagesschau"}, {"title": "Baustelle A8 bei Pforzheim: Wann ist wieder freie Fahrt?", "url": "https://www.tagesschau.de/inland/regional/badenwuerttemberg/swr-baustelle-a8-bei-pforzheim-wann-ist-wieder-freie-fahrt-100.html", "thumbnailUrl": "https://images.tagesschau.de/image/d3f86d80-f1b0-427f-9d6f-8b3c268f5cac/AAABjqMb4K4/AAABjcWesUg/16x9-512.jpg", "date": "2024-04-03T06:04:16.000+02:00", "lat": 48.8922, "lon": 8.6947, "intensity": 0.7, "source": "Tagesschau"}, {"title": "Noch immer kein Strom f\u00fcr K\u00f6lner Blitzer", "url": "https://www.tagesschau.de/inland/regional/nordrheinwestfalen/wdr-noch-immer-kein-strom-fuer-koelner-blitzer-100.html", "thumbnailUrl": "https://images.tagesschau.de/image/0e13ac23-59f6-4f77-ae7e-7be38ad64d8b/AAABjqIxWqk/AAABjcWesUg/16x9-512.jpg", "date": "2024-04-03T06:00:00.000+02:00", "lat": 50.9469, "lon": 6.9694, "intensity": 0.4, "source": "Tagesschau"}, {"title": "Hochbegabung bei Kindern - Wie Eltern das erkennen k\u00f6nnen", "url": "https://www.tagesschau.de/inland/regional/nordrheinwestfalen/wdr-hochbegabung-bei-kindern-wie-eltern-das-erkennen-koennen-100.html", "thumbnailUrl": "https://images.tagesschau.de/image/d490a0b9-679b-4078-89ab-a80894051fc3/AAABjqMCACc/AAABjcWesUg/16x9-512.jpg", "date": "2024-04-03T06:00:00.000+02:00", "lat": 51.9607, "lon": 7.6261, "intensity": 0.3, "source": "Tagesschau"}, {"title": "Neuer Wanderweg auf Caspar David Friedrichs Spuren", "url": "https://www.tagesschau.de/inland/regional/sachsen/mdr-neuer-wanderweg-auf-caspar-david-friedrichs-spuren-100.html", "thumbnailUrl": "https://images.tagesschau.de/image/fc9ccc63-da0f-454a-b874-5b2404a93345/AAABjqZJDEc/AAABjcWesUg/16x9-512.jpg", "date": "2024-04-03T05:01:00.000+02:00", "lat": 50.9097, "lon": 14.0833, "intensity": 0.7, "source": "Tagesschau"}, {"title": "Industrialisierung an der Westk\u00fcste: Die gr\u00fcne Zukunft?", "url": "https://www.tagesschau.de/inland/regional/schleswigholstein/ndr-industrialisierung-an-der-westkueste-die-gruene-zukunft-100.html", "thumbnailUrl": "https://images.tagesschau.de/image/a88cdc73-5ee9-432a-becd-e49666c51690/AAABjqHmn_Y/AAABjcWesUg/16x9-512.jpg", "date": "2024-04-03T05:00:00.000+02:00", "lat": 54.2194, "lon": 9.6963, "intensity": 0.6, "source": "Tagesschau"}, {"title": "Israelische Armee gesteht \"schweren Fehler\" ein", "url": "https://www.tagesschau.de/ausland/asien/netanyahu-wck-angriff-102.html", "thumbnailUrl": "https://images.tagesschau.de/image/e69bdd78-75d7-417a-8e6f-25ece38e6959/AAABjqFmVNE/AAABjcWesUg/16x9-512.jpg", "date": "2024-04-03T03:00:15.403+02:00", "lat": 31.51, "lon": 34.3449, "intensity": 0.8, "source": "Tagesschau"}, {"title": "DFB-Pokal: Mehr Zuschauer beim Public Viewing des FCK als in Saarbr\u00fccken im Stadion", "url": "https://www.tagesschau.de/inland/regional/rheinlandpfalz/swr-dfb-pokal-mehr-zuschauer-beim-public-viewing-des-fck-als-in-saarbruecken-102.html", "thumbnailUrl": "https://images.tagesschau.de/image/4fa2ac47-22e6-4118-b631-7bb1fd1ef3f5/AAABjqMCNFM/AAABjcWesUg/16x9-512.jpg", "date": "2024-04-03T02:44:00.000+02:00", "lat": 49.758076, "lon": 7.28134, "intensity": 0.7, "source": "Tagesschau"}, {"title": "\"Der Fu\u00dfball schreibt die sch\u00f6nsten Geschichten\" - Der FCK steht im DFB-Pokalfinale", "url": "https://www.tagesschau.de/inland/regional/rheinlandpfalz/swr-der-fussball-schreibt-die-schoensten-geschichten-der-fck-steht-im-dfb-pokalfinale-102.html", "thumbnailUrl": "https://images.tagesschau.de/image/d95c31d1-481b-48a6-bb3e-7dcb57596c75/AAABjqTpJ6Y/AAABjcWesUg/16x9-512.jpg", "date": "2024-04-03T01:06:14.000+02:00", "lat": 49.4444, "lon": 7.7551, "intensity": 0.7, "source": "Tagesschau"}, {"title": "NATO-Partner diskutieren 100-Milliarden-Euro-Fonds f\u00fcr Ukraine", "url": "https://www.br.de/nachrichten/meldungen/index.html#n1", "thumbnailUrl": null, "date": "2024-04-04T02:19:36+02:00", "lat": 30.0444, "lon": 31.2357, "intensity": 0.8, "source": "Bayrischer Rundfunk"}, {"title": "Steuerzahlerbund warnt vor zu hoher B\u00fcrokratie bei Kindergrundsicherung", "url": "https://www.br.de/nachrichten/meldungen/index.html#n2", "thumbnailUrl": null, "date": "2024-04-04T02:19:36+02:00", "lat": 33.5138, "lon": 36.2021, "intensity": 0.8, "source": "Bayrischer Rundfunk"}, {"title": "400 Polizisten der L\u00e4nder laut Medienbericht unter Extremismusverdacht", "url": "https://www.br.de/nachrichten/meldungen/index.html#n3", "thumbnailUrl": null, "date": "2024-04-04T02:19:36+02:00", "lat": 39.9334, "lon": 32.8597, "intensity": 0.8, "source": "Bayrischer Rundfunk"}, {"title": "AfD fordert Auskunft von Abgeordnetem Bystron - Geld aus Russland?", "url": "https://www.br.de/nachrichten/meldungen/index.html#n4", "thumbnailUrl": null, "date": "2024-04-04T02:19:36+02:00", "lat": 52.520008, "lon": 13.404954, "intensity": 0.7, "source": "Bayrischer Rundfunk"}, {"title": "UN-Sicherheitsrat weist Verurteilung des Angriffs auf iranische Botschaft zur\u00fcck", "url": "https://www.br.de/nachrichten/meldungen/index.html#n5", "thumbnailUrl": null, "date": "2024-04-04T02:19:36+02:00", "lat": 52.520008, "lon": 13.404954, "intensity": 0.6, "source": "Bayrischer Rundfunk"}, {"title": "USA halten an Pl\u00e4nen f\u00fcr tempor\u00e4ren Hafen vor Gaza fest", "url": "https://www.br.de/nachrichten/meldungen/index.html#n6", "thumbnailUrl": null, "date": "2024-04-04T02:19:36+02:00", "lat": 48.135125, "lon": 11.581981, "intensity": 0.6, "source": "Bayrischer Rundfunk"},