[{"title": "EU und USA planen neue Sanktionen gegen Iran", "url": "https://www.tagesschau.de/ausland/eu-iran-sanktionen-100.html", "thumbnailUrl": "https://images.tagesschau.de/image/63b86a9a-db2a-497b-9475-250a92761f66/AAABjuMYzZ4/AAABjcWesUg/16x9-512.jpg", "date": "2024-04-17T02:10:22.680+02:00", "lat": 35.6895, "lon": 51.389, "intensity": 0.8, "source": "Tagesschau"}, {"title": "Wormser Hauptbahnhof nach Zug-Kollision wieder freigegeben", "url": "https://www.tagesschau.de/inland/regional/rheinlandpfalz/swr-zuege-am-wormser-hauptbahnhof-zusammengestossen-100.html", "thumbnailUrl": "https://images.tagesschau.de/image/a6d23a82-0e74-44c6-8e0b-5230bdb91a30/AAABjuc1HWY/AAABjcWesUg/16x9-512.jpg", "date": "2024-04-17T01:39:00.000+02:00", "lat": 49.6301, "lon": 8.3586, "intensity": 0.8, "source": "Tagesschau"}, {"title": "Dortmund zieht ins Champions League-Halbfinale ein", "url": "https://www.tagesschau.de/eilmeldung/dortmund-madrid-champions-league-halbfinale-100.html", "thumbnailUrl": "https://images.tagesschau.de/image/0a2d6b9b-cda7-4aaa-a361-082cb8e3f67a/AAABjui7LvY/AAABjcWesUg/16x9-512.jpg", "date": "2024-04-16T23:06:05.783+02:00", "lat": 51.4926, "lon": 7.4129, "intensity": 0.8, "source": "Tagesschau"}, {"title": "Gro\u00dfbrand in Braunschweig: F\u00fcnf Einsatzkr\u00e4fte verletzt", "url": "https://www.tagesschau.de/inland/regional/niedersachsen/ndr-explosionsgefahr-in-braunschweig-feuer-in-gewerbegebiet-100.html", "thumbnailUrl": "https://images.tagesschau.de/image/238814b7-f99b-4f62-bf04-d08bc8ae9403/AAABjui1wIY/AAABjcWesUg/16x9-512.jpg", "date": "2024-04-16T22:44:00.000+02:00", "lat": 52.2689, "lon": 10.5277, "intensity": 0.8, "source": "Tagesschau"}, {"title": "Spielzeugwaffe im Gep\u00e4ck: Mann l\u00f6st Einsatz am Bahnhof aus", "url": "https://www.tagesschau.de/inland/regional/niedersachsen/ndr-spielzeugwaffe-im-gepaeck-mann-loest-einsatz-am-bahnhof-aus-100.html", "thumbnailUrl": "https://images.tagesschau.de/image/56fd8414-d99f-42bc-a6de-decbfef04c54/AAABjuYUUxI/AAABjcWesUg/16x9-512.jpg", "date": "2024-04-16T22:28:00.000+02:00", "lat": 51.1657, "lon": 10.4515, "intensity": 0.6, "source": "Tagesschau"}, {"title": "++ Sunak ruft Israel zu Besonnenheit auf ++", "url": "https://www.tagesschau.de/newsticker/liveblog-nahost-dienstag-128.html", "thumbnailUrl": "https://images.tagesschau.de/image/5258f1fa-7f50-41ef-a0dc-ecf97a211a6f/AAABjqo5B5U/AAABjcWesUg/16x9-512.jpg", "date": "2024-04-16T22:22:57.621+02:00", "lat": 31.7767, "lon": 35.2354, "intensity": 0.7, "source": "Tagesschau"}, {"title": "+ Selenskyj: China kann Weg zu Frieden beschleunigen +", "url": "https://www.tagesschau.de/newsticker/liveblog-ukraine-dienstag-340.html", "thumbnailUrl": "https://images.tagesschau.de/image/98834e81-44b6-42d2-9023-d59e39e1a6c8/AAABjufBtSc/AAABjcWesUg/16x9-512.jpg", "date": "2024-04-16T22:22:37.497+02:00", "lat": 50.4501, "lon": 30.5234, "intensity": 0.8, "source": "Tagesschau"}, {"title": "Politik-Abitur: Teil der Pr\u00fcflinge darf Klausur erneut schreiben", "url": "https://www.tagesschau.de/inland/regional/niedersachsen/ndr-verzoegerte-politik-abipruefung-ministerium-kuendigt-konsequenzen-an-100.html", "thumbnailUrl": "https://images.tagesschau.de/image/3bf464af-afa8-416b-b588-083dfcbdc4db/AAABjucB45I/AAABjcWesUg/16x9-512.jpg", "date": "2024-04-16T22:21:00.000+02:00", "lat": 52.3555, "lon": 9.6856, "intensity": 0.6, "source": "Tagesschau"}, {"title": "Wall Street macht etwas Boden gut", "url": "https://www.tagesschau.de/wirtschaft/finanzen/marktberichte/marktbericht-dax-dow-nikkei-geldanlage-zinsen-konjunktur-aktien-rente-100.html", "thumbnailUrl": "https://images.tagesschau.de/image/79f135e5-7e50-43d5-a623-d5422cfb7526/AAABituBiww/AAABjcWesUg/16x9-512.jpg", "date": "2024-04-16T22:20:26.450+02:00", "lat": 40.7128, "lon": -74.0097, "intensity": 0.8, "source": "Tagesschau"}, {"title": "Schwerer Unfall in Garbsen: Zwei Kinder unter den Verletzten", "url": "https://www.tagesschau.de/inland/regional/niedersachsen/ndr-schwerer-unfall-in-garbsen-zwei-kinder-unter-den-verletzten-100.html", "thumbnailUrl": "https://images.tagesschau.de/image/15c13d3e-0c7d-487a-921d-1e5fa8142f78/AAABjuiJxqc/AAABjcWesUg/16x9-512.jpg", "date": "2024-04-16T22:08:00.000+02:00", "lat": 52.4125, "lon": 9.6123, "intensity": 0.8, "source": "Tagesschau"}, {"title": "DEL2: Kassel Huskies gehen in der Final-Serie wieder in F\u00fchrung", "url": "https://www.tagesschau.de/inland/regional/hessen/hr-del2-kassel-huskies-gehen-in-der-final-serie-wieder-in-fuehrung-102.html", "thumbnailUrl": "https://images.tagesschau.de/image/a609377e-f1fa-4c76-9105-82a47e98900a/AAABjuiJtaM/AAABjcWesUg/16x9-512.jpg", "date": "2024-04-16T22:00:40.609+02:00", "lat": 51.3127, "lon": 9.4792, "intensity": 0.8, "source": "Tagesschau"}, {"title": "120 Mitarbeitende der Sch\u00fcchtermann-Klinik bei Kundgebung", "url": "https://www.tagesschau.de/inland/regional/niedersachsen/ndr-120-mitarbeitende-der-schuechtermann-klinik-bei-kundgebung-100.html", "thumbnailUrl": "https://images.tagesschau.de/image/59a75f92-1550-42fd-b9d7-7fb1b58ed140/AAABjuh86nw/AAABjcWesUg/16x9-512.jpg", "date": "2024-04-16T21:57:00.000+02:00", "lat": 52.013539, "lon": 8.45467, "intensity": 0.7, "source": "Tagesschau"}, {"title": "Wohin mit dem Grundwasser? Bremerhavener warten weiter auf Hilfe", "url": "https://www.tagesschau.de/inland/regional/bremen/rb-wohin-mit-dem-grundwasser-bremerhavener-warten-weiter-auf-hilfe-100.html", "thumbnailUrl": "https://images.tagesschau.de/image/64aca969-b4cf-4724-8927-3085f9befc72/AAABjuhsdxg/AAABjcWesUg/16x9-512.jpg", "date": "2024-04-16T21:32:00.000+02:00", "lat": 53.53958, "lon": 8.58537, "intensity": 0.8, "source": "Tagesschau"}, {"title": "Chemnitz: Planungen f\u00fcr NSU-Dokumentationszentrum vorgestellt", "url": "https://www.tagesschau.de/inland/regional/sachsen/mdr-chemnitz-planungen-fuer-nsu-dokumentationszentrum-vorgestellt-100.html", "thumbnailUrl": "https://images.tagesschau.de/image/4663bfe6-44ce-4d81-8b5a-288f28bd8eef/AAABjuj53xc/AAABjcWesUg/16x9-512.jpg", "date": "2024-04-16T21:03:48.000+02:00", "lat": 50.8278, "lon": 12.9254, "intensity": 0.8, "source": "Tagesschau"}, {"title": "Landtag entscheidet \u00fcber Untersuchungsausschuss", "url": "https://www.tagesschau.de/inland/regional/niedersachsen/ndr-landtag-entscheidet-ueber-untersuchungsausschuss-100.html", "thumbnailUrl": "https://images.tagesschau.de/image/49e0e874-76f8-4d6e-9eb0-6c5aaa00e47f/AAABjuhLe7k/AAABjcWesUg/16x9-512.jpg", "date": "2024-04-16T21:00:00.000+02:00", "lat": 52.3738, "lon": 9.7332, "intensity": 0.6, "source": "Tagesschau"}, {"title": "Weltkriegsbombe in Rastatt: Blindg\u00e4nger erfolgreich gesprengt", "url": "https://www.tagesschau.de/inland/regional/badenwuerttemberg/swr-blindgaenger-an-der-a5-weltkriegsbombe-in-rastatt-gefunden-100.html", "thumbnailUrl": "https://images.tagesschau.de/image/472c4aed-b626-4527-9313-30cfe377ec26/AAABjufbxnU/AAABjcWesUg/16x9-512.jpg", "date": "2024-04-16T20:56:00.000+02:00", "lat": 48.8566, "lon": 8.2026, "intensity": 0.8, "source": "Tagesschau"}, {"title": "Die Harlem Globetrotters zu Gast in Koblenz", "url": "https://www.tagesschau.de/inland/regional/rheinlandpfalz/swr-die-harlem-globetrotters-zu-gast-in-koblenz-102.html", "thumbnailUrl": "https://images.tagesschau.de/image/380cfec9-c50d-44c6-b305-aa7caa7889c3/AAABjuhAgn8/AAABjcWesUg/16x9-512.jpg", "date": "2024-04-16T20:51:02.000+02:00", "lat": 50.3569, "lon": 7.5955, "intensity": 0.8, "source": "Tagesschau"}, {"title": "So verhalten Sie sich bei der Begegnung mit einem Wildschwein richtig", "url": "https://www.tagesschau.de/inland/regional/saarland/sr-so-verhalten-sie-sich-bei-der-begegnung-mit-einem-wildschwein-richtig-100.html", "thumbnailUrl": "https://images.tagesschau.de/image/87260f6f-7c69-481f-bd62-8723763d9cc0/AAABjuhwFm4/AAABjcWesUg/16x9-512.jpg", "date": "2024-04-16T20:46:00.000+02:00", "lat": 49.2778, "lon": 7.1167, "intensity": 0.6, "source": "Tagesschau"}, {"title": "Neue Herausforderungen durch mehr Pedelecs und E-Bikes im Saarland ", "url": "https://www.tagesschau.de/inland/regional/saarland/sr-neue-herausforderungen-durch-mehr-pedelecs-und-e-bikes-im-saarland-100.html", "thumbnailUrl": "https://images.tagesschau.de/image/a6deb7e8-8089-4c21-8af4-ca9c329f1c8b/AAABjug68U0/AAABjcWesUg/16x9-512.jpg", "date": "2024-04-16T20:43:00.000+02:00", "lat": 49.3964, "lon": 7.0, "intensity": 0.7, "source": "Tagesschau"}, {"title": "Stadion-Neubau in Oldenburg: Kritiker gehen in \"zweite Halbzeit\"", "url": "https://www.tagesschau.de/inland/regional/niedersachsen/ndr-neues-stadion-fuer-vfb-oldenburg-stadtrat-stimmt-heute-ab-100.html", "thumbnailUrl": "https://images.tagesschau.de/image/2af2d640-77d8-43e8-9289-73d41cfd542b/AAABjubvqLw/AAABjcWesUg/16x9-512.jpg", "date": "2024-04-16T20:40:00.000+02:00", "lat": 53.1447, "lon": 8.2176, "intensity": 0.6, "source": "Tagesschau"}, {"title": "Umweltsch\u00fctzer-Klage gescheitert: VGH erlaubt h\u00f6here Grundwasser-Entnahme aus Hessischem Ried", "url": "https://www.tagesschau.de/inland/regional/hessen/hr-umweltschuetzer-klage-gescheitert-vgh-erlaubt-hoehere-grundwasser-entnahme-aus-hessischem-ried-100.html", "thumbnailUrl": "https://images.tagesschau.de/image/5a06d2b3-4409-47ea-9815-e22ee7a7619a/AAABjugzrSc/AAABjcWesUg/16x9-512.jpg", "date": "2024-04-16T20:37:01.455+02:00", "lat": 49.767, "lon": 8.279, "intensity": 0.6, "source": "Tagesschau"}, {"title": "Regierender B\u00fcrgermeister Wegner: Berlin ben\u00f6tigt weitere Standorte f\u00fcr Gefl\u00fcchtete", "url": "https://www.tagesschau.de/inland/regional/berlin/rbb-regierender-buergermeister-wegner-berlin-benoetigt-weitere-standorte-fuer-gefluechtete-100.html", "thumbnailUrl": "https://images.tagesschau.de/image/21674206-da77-4ac7-8d4e-9fafc78db011/AAABjugx6Qc/AAABjcWesUg/16x9-512.jpg", "date": "2024-04-16T20:32:13.000+02:00", "lat": 52.52, "lon": 13.405, "intensity": 0.8, "source": "Tagesschau"}, {"title": "Grenzwerte f\u00fcr Stickstoff: Versorger WSE im Streit um Abwasserentsorung von Tesla kompromissbereit", "url": "https://www.tagesschau.de/inland/regional/brandenburg/rbb-streit-um-abwasser-grenzwerte-teslas-wasserversorger-wse-waehlt-neuen-versammlungschef-100.html", "thumbnailUrl": "https://images.tagesschau.de/image/9e2ee447-6101-413c-9c27-9d347c5a5b2b/AAABjugx3cs/AAABjcWesUg/16x9-512.jpg", "date": "2024-04-16T20:30:54.000+02:00", "lat": 52.517, "lon": 13.8574, "intensity": 0.7, "source": "Tagesschau"}, {"title": "Mahnwache vor Saarbr\u00fccker Synagoge setzt Zeichen gegen Antisemitismus", "url": "https://www.tagesschau.de/inland/regional/saarland/sr-mahnwache-vor-saarbruecker-synagoge-setzt-zeichen-gegen-antisemitismus-100.html", "thumbnailUrl": "https://images.tagesschau.de/image/27274083-f4a8-4c13-81f2-62413506d0c1/AAABjugxyeA/AAABjcWesUg/16x9-512.jpg", "date": "2024-04-16T20:28:00.000+02:00", "lat": 49.2334, "lon": 6.9815, "intensity": 0.8, "source": "Tagesschau"}, {"title": "Mehr Ausgaben als Einnahmen: 9 Fragen rund um Bremens Doppelhaushalt", "url": "https://www.tagesschau.de/inland/regional/bremen/rb-mehr-ausgaben-als-einnahmen-9-fragen-rund-um-bremens-doppelhaushalt-100.html", "thumbnailUrl": "https://images.tagesschau.de/image/0d59bb44-1115-4950-b486-a3f48eed8b8b/AAABjub4wkE/AAABjcWesUg/16x9-512.jpg", "date": "2024-04-16T20:26:00.000+02:00", "lat": 53.0793, "lon": 8.8017, "intensity": 0.7, "source": "Tagesschau"}, {"title": "Wie das Saarland mehr Lehrer gewinnen will", "url": "https://www.tagesschau.de/inland/regional/saarland/sr-wie-das-saarland-mehr-lehrer-gewinnen-will-100.html", "thumbnailUrl": "https://images.tagesschau.de/image/dd8a7ab0-e666-499e-b434-2719a5b903a4/AAABjudt3cQ/AAABjcWesUg/16x9-512.jpg", "date": "2024-04-16T20:21:00.000+02:00", "lat": 49.3964, "lon": 7.0, "intensity": 0.6, "source": "Tagesschau"}, {"title": "Mann misshandelt? Polizisten bestreiten Vorw\u00fcrfe vor Gericht", "url": "https://www.tagesschau.de/inland/regional/niedersachsen/ndr-mann-misshandelt-polizisten-wegen-koerperverletzung-vor-gericht-100.html", "thumbnailUrl": "https://images.tagesschau.de/image/cc7dde08-8955-46e4-93ee-d41d9f833544/AAABjugjMhM/AAABjcWesUg/16x9-512.jpg", "date": "2024-04-16T20:18:00.000+02:00", "lat": 53.3675, "lon": 7.1957, "intensity": 0.8, "source": "Tagesschau"}, {"title": "Gro\u00dfeinsatz im Schullandheim Bad Essen: Ursache f\u00fcr Erkrankung klar", "url": "https://www.tagesschau.de/inland/regional/niedersachsen/ndr-grosseinsatz-im-schullandheim-bad-essen-ursache-fuer-erkrankung-klar-100.html", "thumbnailUrl": "https://images.tagesschau.de/image/7b757bba-d777-4f51-bba1-43d1d9171452/AAABjugfjcY/AAABjcWesUg/16x9-512.jpg", "date": "2024-04-16T20:13:00.000+02:00", "lat": 52.3825, "lon": 8.3801, "intensity": 0.8, "source": "Tagesschau"}, {"title": "A7 in Hamburg im Juni f\u00fcr ein Wochenende gesperrt", "url": "https://www.tagesschau.de/inland/regional/hamburg/ndr-a7-in-hamburg-im-juni-fuer-ein-wochenende-gesperrt-100.html", "thumbnailUrl": "https://images.tagesschau.de/image/1f898e99-fba7-49b2-88b2-bf17383f186d/AAABjugb5FU/AAABjcWesUg/16x9-512.jpg", "date": "2024-04-16T20:09:00.000+02:00", "lat": 53.5511, "lon": 9.8969, "intensity": 0.6, "source": "Tagesschau"}, {"title": "Wissing kann sich nicht zur\u00fccklehnen", "url": "https://www.tagesschau.de/inland/innenpolitik/klimaschutzgesetz-bundesregierung-100.html", "thumbnailUrl": "https://images.tagesschau.de/image/6fc8136a-fd35-437a-b590-dd04afdb2147/AAABjuE0-Ck/AAABjcWesUg/16x9-512.jpg", "date": "2024-04-16T19:58:24.519+02:00", "lat": 48.8636, "lon": 9.8618, "intensity": 0.7, "source": "Tagesschau"}, {"title": "Krankenhausreform: Niedersachsen f\u00fcrchtet um kleine Kliniken", "url": "https://www.tagesschau.de/inland/regional/niedersachsen/ndr-krankenhausreform-niedersachsen-fuerchtet-um-kleine-klinken-100.html", "thumbnailUrl": "https://images.tagesschau.de/image/89068616-e2d8-474a-97e0-90c57ccf0ae1/AAABjuguKJc/AAABjcWesUg/16x9-512.jpg", "date": "2024-04-16T19:56:00.000+02:00", "lat": 52.3796, "lon": 10.4234, "intensity": 0.7, "source": "Tagesschau"}, {"title": "Sparkassen im Saarland erwarten Fachkr\u00e4ftemangel ", "url": "https://www.tagesschau.de/inland/regional/saarland/sr-sparkassen-im-saarland-erwarten-fachkraeftemangel-100.html", "thumbnailUrl": "https://images.tagesschau.de/image/57bbe7b8-67bb-4c44-8dc5-d61e30d5c400/AAABjugLVgI/AAABjcWesUg/16x9-512.jpg", "date": "2024-04-16T19:52:00.000+02:00", "lat": 49.2354, "lon": 6.9864, "intensity": 0.6, "source": "Tagesschau"}, {"title": "Hamburger Otto Group er\u00f6ffnet neues Hauptquartier", "url": "https://www.tagesschau.de/inland/regional/hamburg/ndr-hamburger-otto-group-eroeffnet-neues-hauptquartier-100.html", "thumbnailUrl": "https://images.tagesschau.de/image/19152b39-cc9c-4843-9e52-426a0b91347d/AAABjueSnFQ/AAABjcWesUg/16x9-512.jpg", "date": "2024-04-16T19:51:00.000+02:00", "lat": 53.55, "lon": 10.0833, "intensity": 0.8, "source": "Tagesschau"}, {"title": "Gr\u00f6\u00dfte Breitensport-Veranstaltung in Brandenburg: Fragen und Antworten zum 22. Spreewald-Marathon", "url": "https://www.tagesschau.de/inland/regional/brandenburg/rbb-groesste-breitensport-veranstaltung-in-brandenburg-fragen-und-antworten-zum-22-spreewald-marathon-102.html", "thumbnailUrl": "https://images.tagesschau.de/image/cfcd7c49-c1ff-41c6-9e91-5bf2f5734da0/AAABjugNP40/AAABjcWesUg/16x9-512.jpg", "date": "2024-04-16T19:49:18.000+02:00", "lat": 52.52, "lon": 13.9667, "intensity": 0.8, "source": "Tagesschau"}, {"title": "Saarland schneidet bei Digitalisierung im L\u00e4ndervergleich bescheiden ab", "url": "https://www.tagesschau.de/inland/regional/saarland/sr-saarland-schneidet-bei-digitalisierung-im-laendervergleich-bescheiden-ab-100.html", "thumbnailUrl": "https://images.tagesschau.de/image/05666840-d2b1-475c-8290-545733bafe36/AAABjugJgaw/AAABjcWesUg/16x9-512.jpg", "date": "2024-04-16T19:46:00.000+02:00", "lat": 49.3964, "lon": 7.0, "intensity": 0.4, "source": "Tagesschau"}, {"title": "Studie sieht Anstieg rechtsextremer Einstellungen in Th\u00fcringen", "url": "https://www.tagesschau.de/inland/regional/thueringen/mdr-studie-sieht-anstieg-rechtsextremer-einstellungen-in-thueringen-100.html", "thumbnailUrl": "https://images.tagesschau.de/image/4648dd89-523a-4869-aadf-e26bfd9467fe/AAABjuj5ap0/AAABjcWesUg/16x9-512.jpg", "date": "2024-04-16T19:32:24.000+02:00", "lat": 51.0109, "lon": 11.5719, "intensity": 0.8, "source": "Tagesschau"}, {"title": "Duisburger Hafen trotzt der Konjunkturflaute", "url": "https://www.tagesschau.de/inland/regional/nordrheinwestfalen/wdr-duisburger-hafen-trotzt-der-konjunkturflaute-100.html", "thumbnailUrl": "https://images.tagesschau.de/image/bd64c0cd-c1f8-4d52-bf6c-8d64695e2205/AAABjuhGIoU/AAABjcWesUg/16x9-512.jpg", "date": "2024-04-16T19:27:00.000+02:00", "lat": 51.434407, "lon": 6.761451, "intensity": 0.6, "source": "Tagesschau"}, {"title": "Brand in Neustadt-Glewe: Bahnverkehr kommt zum Erliegen ", "url": "https://www.tagesschau.de/inland/regional/mecklenburgvorpommern/ndr-brand-in-neustadt-glewe-bahnverkehr-kommt-zum-erliegen-100.html", "thumbnailUrl": "https://images.tagesschau.de/image/f0a80842-4206-471c-bb98-030c098052f6/AAABjufv4Ns/AAABjcWesUg/16x9-512.jpg", "date": "2024-04-16T19:22:00.000+02:00", "lat": 53.3634, "lon": 11.5529, "intensity": 0.8, "source": "Tagesschau"}, {"title": "In Oranienburg wird der Strom knapp", "url": "https://www.tagesschau.de/inland/regional/brandenburg/oranienburg-strom-netzagentur-100.html", "thumbnailUrl": "https://images.tagesschau.de/image/51e4668b-942c-46d2-b169-cf7dc45ad381/AAABjufuElI/AAABjcWesUg/16x9-512.jpg", "date": "2024-04-16T19:19:39.000+02:00", "lat": 52.7547, "lon": 13.2503, "intensity": 0.7, "source": "Tagesschau"}, {"title": "Entwarnung nach Chemieunfall bei Evonik in Herne mit zwei Verletzten", "url": "https://www.tagesschau.de/inland/regional/nordrheinwestfalen/wdr-chemie-alarm-bei-evonik-in-herne-behoerden-warnen-100.html", "thumbnailUrl": "https://images.tagesschau.de/image/cce1b411-c287-4372-bef7-05f600963a1d/AAABjuhCSuA/AAABjcWesUg/16x9-512.jpg", "date": "2024-04-16T19:17:00.000+02:00", "lat": 51.5388, "lon": 7.2089, "intensity": 0.5, "source": "Tagesschau"}, {"title": "Steinh\u00f6fel (Oder-Spree): Drei Kinder und zwei Erwachsene bei Unfall mit Bus verletzt", "url": "https://www.tagesschau.de/inland/regional/brandenburg/rbb-steinhoefel-oder-spree-drei-kinder-und-zwei-erwachsene-bei-unfall-mit-bus-verletzt-100.html", "thumbnailUrl": "https://images.tagesschau.de/image/178743b2-2417-468f-96d9-c451a2299b74/AAABjufsR-Y/AAABjcWesUg/16x9-512.jpg", "date": "2024-04-16T19:16:21.000+02:00", "lat": 52.2279, "lon": 14.0004, "intensity": 0.7, "source": "Tagesschau"}, {"title": "Friedrichskoog: Wie ein Deich fit f\u00fcr den Klimawandel wird", "url": "https://www.tagesschau.de/inland/regional/schleswigholstein/ndr-friedrichskoog-wie-deiche-fit-fuer-den-klimawandel-werden-100.html", "thumbnailUrl": "https://images.tagesschau.de/image/ad335fcb-6f90-4b01-92c9-7813c9fcc112/AAABjufsVsc/AAABjcWesUg/16x9-512.jpg", "date": "2024-04-16T19:13:00.000+02:00", "lat": 54.0167, "lon": 9.1167, "intensity": 0.7, "source": "Tagesschau"}, {"title": "Die Optionen des Benjamin Netanyahu", "url": "https://www.tagesschau.de/ausland/asien/israel-iran-angriff-102.html", "thumbnailUrl": "https://images.tagesschau.de/image/143deed6-a996-4f82-b245-eb3ded25fc9e/AAABjp7WUBk/AAABjcWesUg/16x9-512.jpg", "date": "2024-04-16T18:58:07.577+02:00", "lat": 32.085299, "lon": 34.781768, "intensity": 0.8, "source": "Tagesschau"}, {"title": "Regen und Gl\u00e4ttegefahr: Aprilwetter hat Baden-W\u00fcrttemberg fest im Griff", "url": "https://www.tagesschau.de/inland/regional/badenwuerttemberg/swr-typisches-aprilwetter-wetterumsturz-bringt-kaelte-und-regen-nach-bw-100.html", "thumbnailUrl": "https://images.tagesschau.de/image/2627f5c6-6ba6-452e-943f-2b4bb960ffcd/AAABjugv9-U/AAABjcWesUg/16x9-512.jpg", "date": "2024-04-16T18:58:00.000+02:00", "lat": 48.7758, "lon": 9.0233, "intensity": 0.8, "source": "Tagesschau"}, {"title": "Berliner Senat will mehr \"Werkswohnungen\" f\u00fcr \u00d6ffentlichen Dienst", "url": "https://www.tagesschau.de/inland/regional/berlin/rbb-berliner-senat-will-mehr-werkswohnungen-fuer-oeffentlichen-dienst-102.html", "thumbnailUrl": "https://images.tagesschau.de/image/720628da-8a7c-4f5d-935d-df01aa1543ea/AAABjugLeiM/AAABjcWesUg/16x9-512.jpg", "date": "2024-04-16T18:57:00.000+02:00", "lat": 52.520008, "lon": 13.404954, "intensity": 0.6, "source": "Tagesschau"}, {"title": "Frankfurter Bahnhofsviertel soll kein \"Zombieland\" werden - Stadt reagiert auf Drogen und Kriminalit\u00e4t", "url": "https://www.tagesschau.de/inland/regional/hessen/hr-frankfurter-bahnhofsviertel-soll-kein-zombieland-werden-stadt-reagiert-auf-drogen-und-kriminalitaet-100.html", "thumbnailUrl": "https://images.tagesschau.de/image/d62af5b0-81fb-4d75-8cdb-eba1f91c7cef/AAABjufO84w/AAABjcWesUg/16x9-512.jpg", "date": "2024-04-16T18:47:41.293+02:00", "lat": 50.1072, "lon": 8.6611, "intensity": 0.8, "source": "Tagesschau"}, {"title": "Eintracht: +++ Breitner: \"Bernd war f\u00fcr jeden Schm\u00e4h zu haben\" +++ Bein: \"Bernd wollte nie im Mittelpunkt stehen\" +++ Trapp hat Heim-EM weiter als Ziel +++", "url": "https://www.tagesschau.de/inland/regional/hessen/hr--eintracht-wohl-mit-chaibi-einig--glasner-fast-nur-kolo-muani-der-tore-erzielt--bericht-eintracht-sagt-aouar-ab-100.html", "thumbnailUrl": "https://images.tagesschau.de/image/b01613a1-6484-4a4f-bd15-f6ec3ee2cf3b/AAABjufF6I8/AAABjcWesUg/16x9-512.jpg", "date": "2024-04-16T18:37:10.058+02:00", "lat": 50.110922, "lon": 8.682127, "intensity": 0.6, "source": "Tagesschau"}, {"title": "Hamburg f\u00f6rdert den Bau begr\u00fcnter Fassaden", "url": "https://www.tagesschau.de/inland/regional/hamburg/ndr-hamburg-foerdert-den-bau-begruenter-fassaden-100.html", "thumbnailUrl": "https://images.tagesschau.de/image/7ede871e-c1db-4f43-b28b-e3bd24e31072/AAABjucvpzs/AAABjcWesUg/16x9-512.jpg", "date": "2024-04-16T18:36:00.000+02:00", "lat": 53.5511, "lon": 9.9937, "intensity": 0.7, "source": "Tagesschau"}, {"title": "Panne auf Hamburger Dom: Fahrg\u00e4ste aus Achterbahn abgeseilt", "url": "https://www.tagesschau.de/inland/regional/hamburg/ndr-dom-panne-achterbahn-fahrgaeste-aus-sechs-metern-hoehe-abgeseilt-100.html", "thumbnailUrl": "https://images.tagesschau.de/image/1cb69eae-1ee4-4b02-a144-c021c44ea135/AAABjuV_0oc/AAABjcWesUg/16x9-512.jpg", "date": "2024-04-16T18:33:00.000+02:00", "lat": 53.5511, "lon": 9.9937, "intensity": 0.7, "source": "Tagesschau"}, {"title": "Ein Mensch bei Brand in Hamburger Fl\u00fcchtlingsunterkunft gestorben", "url": "https://www.tagesschau.de/inland/regional/hamburg/ndr-ein-toter-bei-brand-in-hamburger-fluechtlingsunterkunft-100.html", "thumbnailUrl": "https://images.tagesschau.de/image/5b4c3001-430f-484b-a5c3-3b5da7974aef/AAABjubg6iM/AAABjcWesUg/16x9-512.jpg", "date": "2024-04-16T18:29:00.000+02:00", "lat": 53.6275, "lon": 10.1619, "intensity": 0.8, "source": "Tagesschau"}, {"title": "Jagdtouristen sollen in Bausendorf zahmes Wild erlegt haben", "url": "https://www.tagesschau.de/inland/regional/rheinlandpfalz/swr-jagdtouristen-sollen-in-bausendorf-zahmes-wild-erlegt-haben-100.html", "thumbnailUrl": "https://images.tagesschau.de/image/fc6e8bc4-7146-4fee-9696-1f518ef3459c/AAABjuVvDvY/AAABjcWesUg/16x9-512.jpg", "date": "2024-04-16T18:29:00.000+02:00", "lat": 49.9453, "lon": 6.9283, "intensity": 0.8, "source": "Tagesschau"}, {"title": "Abschied von H\u00f6lzenbein: \"Ein \u00fcberragender Fu\u00dfballer und ein wundervoller Typ\"", "url": "https://www.tagesschau.de/inland/regional/hessen/hr-abschied-von-hoelzenbein-ein-ueberragender-fussballer-und-ein-wundervoller-typ-102.html", "thumbnailUrl": "https://images.tagesschau.de/image/82061b91-0a1e-40e4-9573-707a732d6558/AAABjue8uNI/AAABjcWesUg/16x9-512.jpg", "date": "2024-04-16T18:27:12.571+02:00", "lat": 50.6411, "lon": 9.6753, "intensity": 0.8, "source": "Tagesschau"}, {"title": "Frau stirbt durch Gaskartusche: 13-j\u00e4hriger Tatverd\u00e4chtiger ermittelt", "url": "https://www.tagesschau.de/inland/regional/badenwuerttemberg/swr-frau-stirbt-durch-gaskartusche-13-jaehriger-tatverdaechtiger-ermittelt-100.html", "thumbnailUrl": "https://images.tagesschau.de/image/ed72040e-d143-4515-98a8-d9895c5594b6/AAABjufYFBs/AAABjcWesUg/16x9-512.jpg", "date": "2024-04-16T18:24:37.000+02:00", "lat": 49.0069, "lon": 8.4037, "intensity": 0.9, "source": "Tagesschau"}, {"title": "Zwei neue Schutzgebiete in griechischen Gew\u00e4ssern", "url": "https://www.tagesschau.de/ausland/europa/griechenland-meeresschutzgebiete-ionisches-meer-aegaeis-100.html", "thumbnailUrl": "https://images.tagesschau.de/image/f676510c-2ac6-4fc9-a7f1-3f3f36f76f31/AAABjue2zYA/AAABjcWesUg/16x9-512.jpg", "date": "2024-04-16T18:21:41.138+02:00", "lat": 37.9838, "lon": 24.9407, "intensity": 0.7, "source": "Tagesschau"}, {"title": "Entscheidung getroffen: AfD steht bei Kommunalwahlen in Saarbr\u00fccken nicht zur Wahl ", "url": "https://www.tagesschau.de/inland/regional/saarland/sr-entscheidung-getroffen-afd-steht-bei-kommunalwahlen-in-saarbruecken-nicht-zur-wahl-100.html", "thumbnailUrl": "https://images.tagesschau.de/image/f83408a0-645b-4709-9583-8927f3197f4f/AAABjue-b6s/AAABjcWesUg/16x9-512.jpg", "date": "2024-04-16T18:20:00.000+02:00", "lat": 49.2354, "lon": 6.9714, "intensity": 0.7, "source": "Tagesschau"}, {"title": "Oberhof: Erneuter Wintereinbruch im Th\u00fcringer Wald", "url": "https://www.tagesschau.de/inland/regional/thueringen/mdr-oberhof-erneuter-wintereinbruch-im-thueringer-wald-100.html", "thumbnailUrl": "https://images.tagesschau.de/image/ee595513-0d49-4da2-bcdc-cd9af37fe87b/AAABjuj6HJ0/AAABjcWesUg/16x9-512.jpg", "date": "2024-04-16T18:16:14.000+02:00", "lat": 50.7081, "lon": 10.7002, "intensity": 0.7, "source": "Tagesschau"}, {"title": "Darmstadt 98: +++ Fernie will \"frisches Blut\" reinbringen +++ Fritsch schickt Essenseinladung Richtung Wiesbaden +++ Fernie hat Dreijahresvertrag +++", "url": "https://www.tagesschau.de/inland/regional/hessen/hr--tietz-vermisst-fehlende-gier--lilien-fans-liefern-sich-raststaetten-pruegelei--die-niederlage-der-lilien-in-der-video-zusammenfassung-102.html", "thumbnailUrl": "https://images.tagesschau.de/image/424f0079-35a3-4328-8db6-01df088bbde2/AAABjueuE8w/AAABjcWesUg/16x9-512.jpg", "date": "2024-04-16T18:11:08.711+02:00", "lat": 49.878, "lon": 8.6536, "intensity": 0.6, "source": "Tagesschau"}, {"title": "Prozess um \"Gorch Fock\"-Korruptionsskandal gestartet", "url": "https://www.tagesschau.de/inland/regional/schleswigholstein/prozess-korruption-gorchfock-100.html", "thumbnailUrl": "https://images.tagesschau.de/image/d277e639-a09b-400f-a54e-3d78d8b84139/AAABjuVDlWI/AAABjcWesUg/16x9-512.jpg", "date": "2024-04-16T18:10:00.000+02:00", "lat": 53.343539, "lon": 8.245036, "intensity": 0.8, "source": "Tagesschau"}, {"title": "\"\u00d6kogas-L\u00fcge\": Vorw\u00fcrfe gegen hessische Gasversorger", "url": "https://www.tagesschau.de/inland/regional/hessen/hr-oekogas-luege-vorwuerfe-gegen-hessische-gasversorger-100.html", "thumbnailUrl": "https://images.tagesschau.de/image/aa97f41e-1529-4975-9914-5415f1202f22/AAABjuesXJY/AAABjcWesUg/16x9-512.jpg", "date": "2024-04-16T18:09:45.876+02:00", "lat": 50.7933, "lon": 9.8491, "intensity": 0.8, "source": "Tagesschau"}, {"title": "Jugendkriminalit\u00e4t in BW: Kretschmann fordert \u00dcberpr\u00fcfung der Strafm\u00fcndigkeit", "url": "https://www.tagesschau.de/inland/regional/badenwuerttemberg/swr-jugendkriminalitaet-in-bw-kretschmann-fordert-ueberpruefung-der-strafmuendigkeit-100.html", "thumbnailUrl": "https://images.tagesschau.de/image/ee015ce9-f343-4b62-8f7c-cb651efb2005/AAABjuesJGk/AAABjcWesUg/16x9-512.jpg", "date": "2024-04-16T18:02:47.000+02:00", "lat": 48.7904, "lon": 9.048, "intensity": 0.6, "source": "Tagesschau"}, {"title": "Warum staatliche F\u00f6rdergelder Tierheimen nur bedingt helfen ", "url": "https://www.tagesschau.de/inland/regional/bayern/br-warum-staatliche-foerdergelder-tierheimen-nur-bedingt-helfen-104.html", "thumbnailUrl": "https://images.tagesschau.de/image/f0c528e1-28e9-4e2d-b55d-7a806dc1cce7/AAABjuVVwUw/AAABjcWesUg/16x9-512.jpg", "date": "2024-04-16T17:59:37.332+02:00", "lat": 48.1351, "lon": 11.582, "intensity": 0.8, "source": "Tagesschau"}, {"title": "Brandenburg: 540 Millionen Euro sollen in Programm f\u00fcr benachteiligte Sch\u00fcler flie\u00dfen", "url": "https://www.tagesschau.de/inland/regional/brandenburg/rbb-brandenburg-540-millionen-euro-sollen-in-programm-fuer-benachteiligte-schueler-fliessen-100.html", "thumbnailUrl": "https://images.tagesschau.de/image/ff0faafe-0ee5-480e-a4b6-ade5a10ad015/AAABjuehO_U/AAABjcWesUg/16x9-512.jpg", "date": "2024-04-16T17:52:43.000+02:00", "lat": 52.459919, "lon": 13.696118, "intensity": 0.6, "source": "Tagesschau"}, {"title": "40-J\u00e4hriger tot in Celle gefunden - Verd\u00e4chtiger festgenommen ", "url": "https://www.tagesschau.de/inland/regional/niedersachsen/ndr-40-jaehriger-tot-in-celle-gefunden-verdaechtiger-festgenommen-100.html", "thumbnailUrl": "https://images.tagesschau.de/image/b5e2fb64-2c52-4965-b008-53142747114e/AAABjuedmFc/AAABjcWesUg/16x9-512.jpg", "date": "2024-04-16T17:51:00.000+02:00", "lat": 52.6252, "lon": 10.0809, "intensity": 0.8, "source": "Tagesschau"}, {"title": "Kleine Schritte statt gro\u00dfer Wurf", "url": "https://www.tagesschau.de/ausland/asien/scholz-china-xi-100.html", "thumbnailUrl": "https://images.tagesschau.de/image/111e8ffc-94a3-4e0f-a9dd-486b79421a19/AAABjudlgB4/AAABjcWesUg/16x9-512.jpg", "date": "2024-04-16T17:45:31.153+02:00", "lat": 39.9042, "lon": 116.4074, "intensity": 0.6, "source": "Tagesschau"}, {"title": "K\u00fcnftige Brandenburger Integrationsbeauftragte sieht hohe Zugangsbarrieren f\u00fcr Migranten", "url": "https://www.tagesschau.de/inland/regional/brandenburg/rbb-kuenftige-brandenburger-integrationsbeauftragte-sieht-hohe-zugangsbarrieren-fuer-migranten-100.html", "thumbnailUrl": "https://images.tagesschau.de/image/81c7549c-c612-4086-beee-297c9389403f/AAABjueUabY/AAABjcWesUg/16x9-512.jpg", "date": "2024-04-16T17:42:23.000+02:00", "lat": 52.3009, "lon": 13.1802, "intensity": 0.3, "source": "Tagesschau"}, {"title": "\"Es tut in der d\u00e4nischen Volksseele weh\"", "url": "https://www.tagesschau.de/ausland/europa/kopenhagen-boerse-brand-102.html", "thumbnailUrl": "https://images.tagesschau.de/image/3a422764-0a0b-47d6-8cfb-8535c31c03db/AAABjuY88iQ/AAABjcWesUg/16x9-512.jpg", "date": "2024-04-16T17:38:40.387+02:00", "lat": 55.676098, "lon": 12.568337, "intensity": 0.8, "source": "Tagesschau"}, {"title": "R\u00fcckkehr zu G9 im kommenden Schuljahr? F\u00fcr Kretschmann \"unm\u00f6glich\"", "url": "https://www.tagesschau.de/inland/regional/badenwuerttemberg/swr-rueckkehr-zu-g9-im-kommenden-schuljahr-fuer-kretschmann-unmoeglich-100.html", "thumbnailUrl": "https://images.tagesschau.de/image/c0a3972f-d1ec-485c-bcfa-393e8c99903d/AAABjucdjTk/AAABjcWesUg/16x9-512.jpg", "date": "2024-04-16T17:35:00.000+02:00", "lat": 48.72725, "lon": 9.9937, "intensity": 0.8, "source": "Tagesschau"}, {"title": "Wirtschaftliche Konsolidierung: Hertha BSC vermeldet erstmals seit Jahren positive Finanzzahlen", "url": "https://www.tagesschau.de/inland/regional/berlin/rbb-wirtschaftliche-konsolidierung-hertha-bsc-vermeldet-erstmals-seit-jahren-positive-finanzzahlen-102.html", "thumbnailUrl": "https://images.tagesschau.de/image/289df99f-ab24-44cf-b59b-0eba031adff7/AAABjueNE-A/AAABjcWesUg/16x9-512.jpg", "date": "2024-04-16T17:33:04.000+02:00", "lat": 52.52, "lon": 13.4073, "intensity": 0.7, "source": "Tagesschau"}, {"title": "F\u00fcnf Menschen in SH mit Bundesverdienstkreuz ausgezeichnet", "url": "https://www.tagesschau.de/inland/regional/schleswigholstein/ndr-fuenf-menschen-in-sh-mit-bundesverdienstkreuz-ausgezeichnet-100.html", "thumbnailUrl": "https://images.tagesschau.de/image/82e61ac7-12e6-4c9c-b482-f0a3bb5c3643/AAABjucX63o/AAABjcWesUg/16x9-512.jpg", "date": "2024-04-16T17:29:00.000+02:00", "lat": 54.3678, "lon": 9.8153, "intensity": 0.6, "source": "Tagesschau"}, {"title": "Neuruppin: Mann an Bushaltestelle mit Messer angegriffen und schwer verletzt", "url": "https://www.tagesschau.de/inland/regional/brandenburg/rbb-neuruppin-mann-an-bushaltestelle-mit-messer-angegriffen-und-schwer-verletzt-100.html", "thumbnailUrl": "https://images.tagesschau.de/image/07093cbf-2fac-4449-b1fe-28d1984e568c/AAABjufsSnY/AAABjcWesUg/16x9-512.jpg", "date": "2024-04-16T17:20:19.000+02:00", "lat": 52.923, "lon": 12.801, "intensity": 0.8, "source": "Tagesschau"}, {"title": "UN-Kritik wegen Beteiligung an Siedlerangriffen", "url": "https://www.tagesschau.de/ausland/asien/un-menschenrechte-siedler-israel-100.html", "thumbnailUrl": "https://images.tagesschau.de/image/39bd64c3-c576-4165-bdf6-75a194dbf0ab/AAABjuc5Atw/AAABjcWesUg/16x9-512.jpg", "date": "2024-04-16T17:19:58.999+02:00", "lat": 31.9828, "lon": 35.0856, "intensity": 0.8, "source": "Tagesschau"}, {"title": "Mehr als 400 Taten? Razzia gegen mutma\u00dfliche Kokainh\u00e4ndler", "url": "https://www.tagesschau.de/inland/regional/niedersachsen/ndr-mehr-als-400-taten-razzia-gegen-mutmassliche-kokainhaendler-100.html", "thumbnailUrl": "https://images.tagesschau.de/image/700ef62f-a6b8-41d7-9657-ae7548e4dea4/AAABjuZBpYk/AAABjcWesUg/16x9-512.jpg", "date": "2024-04-16T17:14:00.000+02:00", "lat": 52.2593, "lon": 9.0576, "intensity": 0.8, "source": "Tagesschau"}, {"title": "Solarpaket der Ampel: Solarglashersteller GMB Tschernitz \"schwer entt\u00e4uscht\"", "url": "https://www.tagesschau.de/inland/regional/brandenburg/rbb-solarpaket-der-ampel-solarglashersteller-gmb-tschernitz-schwer-enttaeuscht-100.html", "thumbnailUrl": "https://images.tagesschau.de/image/479d15a3-75eb-4b1c-a1dd-6d1b79c1729b/AAABjud1QGw/AAABjcWesUg/16x9-512.jpg", "date": "2024-04-16T17:07:06.000+02:00", "lat": 52.4125, "lon": 13.055, "intensity": 0.7, "source": "Tagesschau"}, {"title": "B\u00e4ume umgest\u00fcrzt, Menschen verletzt: Unwetter sorgt in Hessen f\u00fcr Unf\u00e4lle und Sch\u00e4den", "url": "https://www.tagesschau.de/inland/regional/hessen/hr-unwetter-ueber-hessen-baeume-umgestuerzt-daecher-abgedeckt-verkehr-lahmgelegt-100.html", "thumbnailUrl": "https://images.tagesschau.de/image/cc7fa6fc-7049-448a-bad4-adad3bba6ebd/AAABjudzczU/AAABjcWesUg/16x9-512.jpg", "date": "2024-04-16T17:06:36.146+02:00", "lat": 50.6293, "lon": 8.6753, "intensity": 0.7, "source": "Tagesschau"}, {"title": "Verd\u00e4chtiger nach Mord an V-Mann gefasst", "url": "https://www.tagesschau.de/investigativ/ndr-wdr/drogenkriminalitaet-v-mann-mord-verdaechtiger-100.html", "thumbnailUrl": "https://images.tagesschau.de/image/151a1878-218e-4bf4-aa76-da7a9e05b0ee/AAABjucR0mw/AAABjcWesUg/16x9-512.jpg", "date": "2024-04-16T17:00:30.707+02:00", "lat": 38.963745, "lon": 34.802075, "intensity": 0.8, "source": "Tagesschau"}, {"title": "Augmented Reality: Durch die Jahrhunderte im Schloss Colditz", "url": "https://www.tagesschau.de/inland/regional/sachsen/mdr-augmented-reality-durch-die-jahrhunderte-im-schloss-colditz-100.html", "thumbnailUrl": "https://images.tagesschau.de/image/3ebf26e8-d307-41ec-a045-ecd27d6cf12c/AAABjuj6QKo/AAABjcWesUg/16x9-512.jpg", "date": "2024-04-16T17:00:00.000+02:00", "lat": 51.1303, "lon": 12.8075, "intensity": 0.7, "source": "Tagesschau"}, {"title": "Wuppertal will Geothermie nutzen: \"Haben Potenzial erkannt\"", "url": "https://www.tagesschau.de/inland/regional/nordrheinwestfalen/wdr-wuppertal-will-geothermie-nutzen-haben-potenzial-erkannt-106.html", "thumbnailUrl": "https://images.tagesschau.de/image/7e85e685-2b9c-4c60-b30a-c120df56fac9/AAABjuhGA7s/AAABjcWesUg/16x9-512.jpg", "date": "2024-04-16T16:52:00.000+02:00", "lat": 51.2637, "lon": 7.1761, "intensity": 0.6, "source": "Tagesschau"}, {"title": "18-J\u00e4hrige bei Unfall in Bersenbr\u00fcck schwer verletzt", "url": "https://www.tagesschau.de/inland/regional/niedersachsen/ndr-18-jaehrige-bei-unfall-in-bersenbrueck-schwer-verletzt-100.html", "thumbnailUrl": "https://images.tagesschau.de/image/fb32f936-6b0d-4211-883a-49f16daae21c/AAABjuehTQc/AAABjcWesUg/16x9-512.jpg", "date": "2024-04-16T16:43:00.000+02:00", "lat": 52.5354, "lon": 7.9965, "intensity": 0.8, "source": "Tagesschau"}, {"title": "2023 mehr als 4000 Schwimmabzeichen im Saarland vergeben ", "url": "https://www.tagesschau.de/inland/regional/saarland/sr-2023-mehr-als-4000-schwimmabzeichen-im-saarland-vergeben-100.html", "thumbnailUrl": "https://images.tagesschau.de/image/fe5a3793-2692-45d5-be9a-ea2772275428/AAABjufD7OI/AAABjcWesUg/16x9-512.jpg", "date": "2024-04-16T16:41:00.000+02:00", "lat": 49.3964, "lon": 7.0, "intensity": 0.4, "source": "Tagesschau"}, {"title": "Mannheim sagt \"Eltern-Taxis\" den Kampf an", "url": "https://www.tagesschau.de/inland/regional/badenwuerttemberg/swr-mannheim-sagt-eltern-taxis-den-kampf-an-102.html", "thumbnailUrl": "https://images.tagesschau.de/image/161b20f6-8adf-4a08-81bb-24c7b404a7f1/AAABjudxoSA/AAABjcWesUg/16x9-512.jpg", "date": "2024-04-16T16:37:43.000+02:00", "lat": 49.48746, "lon": 8.46472, "intensity": 0.6, "source": "Tagesschau"}, {"title": "Seniorenheim in Berlin-Lichtenberg: Keine geeignete Abl\u00f6se f\u00fcr die Nachtschicht - Pflegekraft ruft Polizei", "url": "https://www.tagesschau.de/inland/regional/berlin/rbb-seniorenheim-in-berlin-lichtenberg-keine-geeignete-abloese-fuer-die-nachtschicht-pflegekraft-ruft-polizei-100.html", "thumbnailUrl": "https://images.tagesschau.de/image/087a603c-6140-48bf-8a41-26396f03bfcd/AAABjub5Fh8/AAABjcWesUg/16x9-512.jpg", "date": "2024-04-16T16:37:18.000+02:00", "lat": 52.5125, "lon": 13.4917, "intensity": 0.6, "source": "Tagesschau"}, {"title": "Tesla in Gr\u00fcnheide: Zahl von 3.000 Stellen-Streichungen \"entbehrt jeder Grundlage\"", "url": "https://www.tagesschau.de/inland/regional/brandenburg/rbb-tesla-in-gruenheide-zahl-von-3-000-stellen-streichungen-entbehrt-jeder-grundlage-102.html", "thumbnailUrl": "https://images.tagesschau.de/image/5a547008-1eaa-4c8d-8cd9-b726a53566f6/AAABjudX7MU/AAABjcWesUg/16x9-512.jpg", "date": "2024-04-16T16:35:04.000+02:00", "lat": 52.3626, "lon": 13.8164, "intensity": 0.7, "source": "Tagesschau"}, {"title": "Brandenburg, Mecklenburg-Vorpommern und Th\u00fcringen kaufen gemeinsam Feuerwehrautos", "url": "https://www.tagesschau.de/inland/regional/brandenburg/rbb-brandenburg-mecklenburg-vorpommern-und-thueringen-kaufen-gemeinsam-feuerwehrautos-100.html", "thumbnailUrl": "https://images.tagesschau.de/image/32a0d03e-c462-4acf-95de-c27c309912e9/AAABjudYBcA/AAABjcWesUg/16x9-512.jpg", "date": "2024-04-16T16:31:36.000+02:00", "lat": 52.52001, "lon": 13.41444, "intensity": 0.6, "source": "Tagesschau"}, {"title": "Hapag-Lloyd setzt auf Beteiligungen an Container-Terminals ", "url": "https://www.tagesschau.de/inland/regional/hamburg/ndr-hapag-lloyd-setzt-auf-beteiligungen-an-container-terminals-100.html", "thumbnailUrl": "https://images.tagesschau.de/image/a149b4f4-7e15-47dc-8e84-e966dea0c908/AAABjudUSko/AAABjcWesUg/16x9-512.jpg", "date": "2024-04-16T16:27:00.000+02:00", "lat": 53.5511, "lon": 9.9937, "intensity": 0.7, "source": "Tagesschau"}, {"title": "Nato-Gro\u00dfman\u00f6ver \"Steadfast Defender\": Britisches Milit\u00e4r wieder mit hunderten Fahrzeugen in Brandenburg unterwegs", "url": "https://www.tagesschau.de/inland/regional/brandenburg/rbb-nato-grossmanoever-steadfast-defender-britisches-militaer-wieder-mit-hunderten-fahrzeugen-in-brandenburg-unterwegs-100.html", "thumbnailUrl": "https://images.tagesschau.de/image/117edec5-f95f-4837-8e8b-aac98dc5734a/AAABjudOznQ/AAABjcWesUg/16x9-512.jpg", "date": "2024-04-16T16:26:33.000+02:00", "lat": 52.4125, "lon": 13.1677, "intensity": 0.7, "source": "Tagesschau"}, {"title": "Israel-Pavillon auf Biennale bleibt geschlossen", "url": "https://www.tagesschau.de/ausland/europa/kunstbiennale-israel-pavillon-100.html", "thumbnailUrl": "https://images.tagesschau.de/image/8f928ffb-ad13-4bfc-90f2-0549c36e9bb5/AAABjucDzTc/AAABjcWesUg/16x9-512.jpg", "date": "2024-04-16T16:26:03.985+02:00", "lat": 45.4408, "lon": 12.3155, "intensity": 0.7, "source": "Tagesschau"}, {"title": "Noch kein Urteil: Darf diese Figur auf einem Grab stehen?", "url": "https://www.tagesschau.de/inland/regional/badenwuerttemberg/swr-verwaltungsgericht-entscheidet-darf-diese-figur-auf-einem-grab-stehen-100.html", "thumbnailUrl": "https://images.tagesschau.de/image/41ef6e68-8b60-4c06-a74b-d56c9277d262/AAABjuY6gAc/AAABjcWesUg/16x9-512.jpg", "date": "2024-04-16T16:22:00.000+02:00", "lat": 49.3036, "lon": 9.87, "intensity": 0.4, "source": "Tagesschau"}, {"title": "Nach Brand in Schweinemast in Binde: Unrechtm\u00e4\u00dfig erbaute St\u00e4lle nicht betroffen", "url": "https://www.tagesschau.de/inland/regional/sachsenanhalt/mdr-nach-brand-in-schweinemast-in-binde-unrechtmaessig-erbaute-staelle-nicht-betroffen-100.html", "thumbnailUrl": "https://images.tagesschau.de/image/8b6bf1bb-455e-43fe-9440-cb06413a0c67/AAABjuj7KcU/AAABjcWesUg/16x9-512.jpg", "date": "2024-04-16T16:11:17.000+02:00", "lat": 52.8533, "lon": 11.3833, "intensity": 0.7, "source": "Tagesschau"}, {"title": "Ermittlung wegen Brandstiftung nach Brand des Neutorturms", "url": "https://www.tagesschau.de/inland/regional/thueringen/mdr-ermittlung-wegen-brandstiftung-nach-brand-des-neutorturms-100.html", "thumbnailUrl": "https://images.tagesschau.de/image/c8cca226-e2c9-4fab-8b28-788c0887225f/AAABjuj6gFM/AAABjcWesUg/16x9-512.jpg", "date": "2024-04-16T16:11:00.000+02:00", "lat": 50.8393, "lon": 10.9487, "intensity": 0.8, "source": "Tagesschau"}, {"title": "Erziehungstipps \u00fcbers Handy auf Spielpl\u00e4tzen in Ulm", "url": "https://www.tagesschau.de/inland/regional/badenwuerttemberg/swr-erziehungstipps-uebers-handy-auf-spielplaetzen-in-ulm-100.html", "thumbnailUrl": "https://images.tagesschau.de/image/61edf965-66c3-4331-bffa-89b08f636fb6/AAABjueWOeE/AAABjcWesUg/16x9-512.jpg", "date": "2024-04-16T16:05:04.000+02:00", "lat": 48.4011, "lon": 9.9937, "intensity": 0.6, "source": "Tagesschau"}, {"title": "Marienfigur von Ostro untersucht: Kirche hat Erkl\u00e4rung f\u00fcr \"Blutwunder\"", "url": "https://www.tagesschau.de/inland/regional/sachsen/mdr-marienfigur-von-ostro-untersucht-kirche-hat-erklaerung-fuer-blutwunder-100.html", "thumbnailUrl": "https://images.tagesschau.de/image/76c6bd5b-d73f-4da6-b8ac-20ad147d32ed/AAABjuj6wVA/AAABjcWesUg/16x9-512.jpg", "date": "2024-04-16T16:03:33.000+02:00", "lat": 51.1544, "lon": 14.4253, "intensity": 0.7, "source": "Tagesschau"}, {"title": "\"Wir werfen niemanden raus\"", "url": "https://www.tagesschau.de/inland/mittendrin/jugendhilfeeinrichtung-maedchen-wg-100.html", "thumbnailUrl": "https://images.tagesschau.de/image/e064ad04-f5f9-4ca3-ae2d-b843232d6452/AAABjuYcIb8/AAABjcWesUg/16x9-512.jpg", "date": "2024-04-16T15:59:30.431+02:00", "lat": 49.9929, "lon": 8.2711, "intensity": 0.7, "source": "Tagesschau"}, {"title": "Wiener Staatsanwaltschaft ermittelt gegen Benko", "url": "https://www.tagesschau.de/wirtschaft/unternehmen/benko-justiz-ermittlungen-100.html", "thumbnailUrl": "https://images.tagesschau.de/image/cf8e2968-f134-4bb0-8c04-617c690cf38d/AAABjucuxkE/AAABjcWesUg/16x9-512.jpg", "date": "2024-04-16T15:53:40.022+02:00", "lat": 48.208174, "lon": 16.373819, "intensity": 0.8, "source": "Tagesschau"}, {"title": "Bayern will Cannabis auf Volksfesten verbieten", "url": "https://www.tagesschau.de/inland/regional/bayern/cannabis-verbot-volksfeste-biergaerten-100.html", "thumbnailUrl": "https://images.tagesschau.de/image/2c125d9f-109d-43f7-a6eb-2ae53768992b/AAABjuctLI4/AAABjcWesUg/16x9-512.jpg", "date": "2024-04-16T15:51:21.541+02:00", "lat": 48.13513, "lon": 11.58198, "intensity": 0.7, "source": "Tagesschau"}, {"title": "Burgenlandkreis stellt Weichen f\u00fcr Wasserstoffregion", "url": "https://www.tagesschau.de/inland/regional/sachsenanhalt/mdr-burgenlandkreis-stellt-weichen-fuer-wasserstoffregion-100.html", "thumbnailUrl": "https://images.tagesschau.de/image/5e610ba0-41f9-40ae-8905-3a3acfedaeb4/AAABjuj60vg/AAABjcWesUg/16x9-512.jpg", "date": "2024-04-16T15:50:45.000+02:00", "lat": 51.307, "lon": 11.7386, "intensity": 0.8, "source": "Tagesschau"}, {"title": "Schleibr\u00fccke Lindaunis: Viel Kritik an Verz\u00f6gerung", "url": "https://www.tagesschau.de/inland/regional/schleswigholstein/ndr-der-neubau-der-schleibruecke-bei-lindaunis-verzoegert-sich-100.html", "thumbnailUrl": "https://images.tagesschau.de/image/ee87e67c-17b7-436c-ab75-b74d3bb6403b/AAABjucr_gY/AAABjcWesUg/16x9-512.jpg", "date": "2024-04-16T15:49:00.000+02:00", "lat": 54.6165, "lon": 9.6696, "intensity": 0.7, "source": "Tagesschau"}, {"title": "Nordhessens erste E-Busse auf zwei Linien in Kassel unterwegs", "url": "https://www.tagesschau.de/inland/regional/hessen/hr-nordhessens-erste-e-busse-auf-zwei-linien-in-kassel-unterwegs-100.html", "thumbnailUrl": "https://images.tagesschau.de/image/4eecab95-934d-41f0-86d2-8fb72b4e68d1/AAABjucoUQ0/AAABjcWesUg/16x9-512.jpg", "date": "2024-04-16T15:44:10.475+02:00", "lat": 51.3107, "lon": 9.4937, "intensity": 0.7, "source": "Tagesschau"}, {"title": "Stiftung verlost Grunderbe in Frankfurt: \"Das Leben vieler Menschen wird vom Verm\u00f6gen der Eltern bestimmt\"", "url": "https://www.tagesschau.de/inland/regional/hessen/hr-stiftung-verlost-grunderbe-in-frankfurt-das-leben-vieler-menschen-wird-vom-vermoegen-der-eltern-bestimmt-100.html", "thumbnailUrl": "https://images.tagesschau.de/image/54b13abc-5788-480c-884f-0a8e90dbf637/AAABjucobIg/AAABjcWesUg/16x9-512.jpg", "date": "2024-04-16T15:44:04.765+02:00", "lat": 50.1109, "lon": 8.6821, "intensity": 0.7, "source": "Tagesschau"}, {"title": "Streiks im Nahverkehr werden fortgesetzt", "url": "https://www.tagesschau.de/inland/regional/nordrheinwestfalen/nrw-nahverkehr-streiks-100.html", "thumbnailUrl": "https://images.tagesschau.de/image/1932194a-5a49-4a68-aa39-e7749d1d1b00/AAABjuddY8w/AAABjcWesUg/16x9-512.jpg", "date": "2024-04-16T15:43:00.000+02:00", "lat": 51.9607, "lon": 7.6261, "intensity": 0.8, "source": "Tagesschau"}, {"title": "Nach t\u00f6dlichem Rennbahn-Unfall: Angeklagter gesteht Alkoholkonsum", "url": "https://www.tagesschau.de/inland/regional/mecklenburgvorpommern/ndr-galopprennbahn-bad-doberan-berufungsprozess-geht-weiter-100.html", "thumbnailUrl": "https://images.tagesschau.de/image/3689f3cc-c6c1-449e-982b-6772314efdd3/AAABjudHaxk/AAABjcWesUg/16x9-512.jpg", "date": "2024-04-16T15:41:00.000+02:00", "lat": 54.1125, "lon": 11.9137, "intensity": 0.8, "source": "Tagesschau"}, {"title": "Die vielen Prozesse des Ex-US-Pr\u00e4sidenten", "url": "https://www.tagesschau.de/ausland/amerika/usa-trump-prozesse-100.html", "thumbnailUrl": "https://images.tagesschau.de/image/38651f06-6744-4dc9-b8a1-8d41943ce2fd/AAABjuccyKI/AAABjcWesUg/16x9-512.jpg", "date": "2024-04-16T15:33:27.350+02:00", "lat": 38.9072, "lon": -77.0369, "intensity": 0.8, "source": "Tagesschau"}, {"title": "IWF senkt Wachstumserwartung f\u00fcr Deutschland", "url": "https://www.tagesschau.de/wirtschaft/konjunktur/iwf-prognose-deutschland-102.html", "thumbnailUrl": "https://images.tagesschau.de/image/b55df270-afda-48c9-86de-b5edb70c1166/AAABi3_ZBXU/AAABjcWesUg/16x9-512.jpg", "date": "2024-04-16T15:33:06.651+02:00", "lat": 51.1657, "lon": 9.9937, "intensity": 0.8, "source": "Tagesschau"}, {"title": "Keine Streiks mehr: Tarifeinigung im \u00f6ffentlichen Nahverkehr in Hessen", "url": "https://www.tagesschau.de/inland/regional/hessen/hr-keine-streiks-mehr-tarifeinigung-im-oeffentlichen-nahverkehr-in-hessen-100.html", "thumbnailUrl": "https://images.tagesschau.de/image/475be94c-e6ca-482a-9c2a-000e34fc15fb/AAABjucbhEM/AAABjcWesUg/16x9-512.jpg", "date": "2024-04-16T15:30:58.026+02:00", "lat": 50.7561, "lon": 9.6937, "intensity": 0.4, "source": "Tagesschau"}, {"title": "Zahl der Angriffe auf Journalisten w\u00e4chst bundesweit", "url": "https://www.tagesschau.de/inland/gesellschaft/angriffe-journalisten-102.html", "thumbnailUrl": "https://images.tagesschau.de/image/181048f4-989b-4bef-970f-120c3ef2e131/AAABjucXtwo/AAABjcWesUg/16x9-512.jpg", "date": "2024-04-16T15:27:55.389+02:00", "lat": 51.1657, "lon": 10.4515, "intensity": 0.7, "source": "Tagesschau"}, {"title": "Zuzug in Wandlitz: \"Wir haben mittlerweile Mietpreise wie in Berlin.\"", "url": "https://www.tagesschau.de/inland/regional/brandenburg/rbb-zuzug-in-wandlitz-wir-haben-mittlerweile-mietpreise-wie-in-berlin-100.html", "thumbnailUrl": "https://images.tagesschau.de/image/7c8e48fb-cbcc-41cb-9b36-58e9b3e5dccf/AAABjufuGz8/AAABjcWesUg/16x9-512.jpg", "date": "2024-04-16T15:24:31.000+02:00", "lat": 52.6975, "lon": 13.3975, "intensity": 0.7, "source": "Tagesschau"}, {"title": "Interview | Ex-Eisb\u00e4r Jens Baxmann: \"Wir waren damals im absoluten Rausch\"", "url": "https://www.tagesschau.de/inland/regional/berlin/rbb-interview--ex-eisbaer-jens-baxmann-wir-waren-damals-im-absoluten-rausch-102.html", "thumbnailUrl": "https://images.tagesschau.de/image/e3cc4e98-353e-4107-bf4d-4814fd081e92/AAABjucX1kY/AAABjcWesUg/16x9-512.jpg", "date": "2024-04-16T15:23:27.000+02:00", "lat": 52.52, "lon": 13.405, "intensity": 0.6, "source": "Tagesschau"}, {"title": "29-Euro-Ticket kommt in Berlin am 1. Juli", "url": "https://www.tagesschau.de/inland/regional/berlin/rbb-29-euro-ticket-kommt-in-berlin-am-1-juli-100.html", "thumbnailUrl": "https://images.tagesschau.de/image/faa6886f-9002-487c-8d79-9f3fc678c350/AAABjucLF44/AAABjcWesUg/16x9-512.jpg", "date": "2024-04-16T15:10:27.000+02:00", "lat": 52.52, "lon": 13.4049, "intensity": 0.8, "source": "Tagesschau"}, {"title": "AfD mahnt bayerische Abgeordnete ab", "url": "https://www.tagesschau.de/inland/innenpolitik/afd-bayern-abgeordnete-russland-wahlbeobachtung-100.html", "thumbnailUrl": "https://images.tagesschau.de/image/8f02f582-e642-43a2-8185-cb637b6945f1/AAABjucExmg/AAABjcWesUg/16x9-512.jpg", "date": "2024-04-16T15:07:14.121+02:00", "lat": 48.135125, "lon": 11.581981, "intensity": 0.8, "source": "Tagesschau"}, {"title": "S\u00fcdpfalz: Haben Eltern kranke 39-j\u00e4hrige Tochter sterben lassen?", "url": "https://www.tagesschau.de/inland/regional/rheinlandpfalz/swr-suedpfalz-haben-eltern-kranke-39-jaehrige-tochter-sterben-lassen-100.html", "thumbnailUrl": "https://images.tagesschau.de/image/8942efcb-7b21-4444-9eb7-12f5a96cb13e/AAABjudSdkA/AAABjcWesUg/16x9-512.jpg", "date": "2024-04-16T15:07:00.000+02:00", "lat": 49.1947, "lon": 8.1165, "intensity": 0.8, "source": "Tagesschau"}, {"title": "Abi-Pr\u00fcfungen in Hamburg erstmals wieder ohne Corona-Erleichterungen", "url": "https://www.tagesschau.de/inland/regional/hamburg/ndr-abi-pruefungen-in-hamburg-erstmals-wieder-ohne-corona-erleichterungen-100.html", "thumbnailUrl": "https://images.tagesschau.de/image/a7a036c8-267e-4479-8e45-381411c0af87/AAABjucHbZE/AAABjcWesUg/16x9-512.jpg", "date": "2024-04-16T15:05:00.000+02:00", "lat": 53.55, "lon": 10.0, "intensity": 0.6, "source": "Tagesschau"}, {"title": "Kultur: +++ Nacht der Museen mit \u00fcber 40 Kultureinrichtungen +++ Tipp: Das sind die Highlights des 17. Lichter Filmfests +++ Landestheater Marburg erinnert an Hanau-Opfer +++", "url": "https://www.tagesschau.de/inland/regional/hessen/hr--schauspiel-frankfurt-bringt-putin-und-macbeth-zusammen--die-filmfestival-saison-2023-startet--lichter-filmfest-zum-thema-liebe-startet-am-dienstag-100.html", "thumbnailUrl": "https://images.tagesschau.de/image/a725c211-92d9-485b-9167-d0357abfbf42/AAABjucD0eQ/AAABjcWesUg/16x9-512.jpg", "date": "2024-04-16T15:04:12.315+02:00", "lat": 50.110922, "lon": 8.682127, "intensity": 0.7, "source": "Tagesschau"}, {"title": "Rufbus in MV: Startschuss f\u00fcr landesweites Angebot", "url": "https://www.tagesschau.de/inland/regional/mecklenburgvorpommern/ndr-rufbus-in-mv-startschuss-fuer-landesweites-angebot-102.html", "thumbnailUrl": "https://images.tagesschau.de/image/f16c2b15-7c22-4347-b189-12fc283cf7b1/AAABjucZrY8/AAABjcWesUg/16x9-512.jpg", "date": "2024-04-16T15:04:00.000+02:00", "lat": 53.6127, "lon": 13.5606, "intensity": 0.6, "source": "Tagesschau"}, {"title": "Radrennen Eschborn-Frankfurt: Verletzter Degenkolb bangt um Teilnahme", "url": "https://www.tagesschau.de/inland/regional/hessen/hr-radrennen-eschborn-frankfurt-verletzter-degenkolb-bangt-um-teilnahme-102.html", "thumbnailUrl": "https://images.tagesschau.de/image/a733c1e0-1028-4ae5-9271-10be6b12fb98/AAABjud-b_k/AAABjcWesUg/16x9-512.jpg", "date": "2024-04-16T15:02:50.565+02:00", "lat": 50.1109, "lon": 8.6819, "intensity": 0.7, "source": "Tagesschau"}, {"title": "Nach Hackerangriff auf Ozeaneum in Stralsund: Weiterhin Probleme", "url": "https://www.tagesschau.de/inland/regional/mecklenburgvorpommern/ndr-nach-hackerangriff-auf-ozeaneum-in-stralsund-weiterhin-probleme-100.html", "thumbnailUrl": "https://images.tagesschau.de/image/98fa6f2b-4bd7-4f83-87f6-db4ed80f2dc4/AAABjucdUwo/AAABjcWesUg/16x9-512.jpg", "date": "2024-04-16T14:56:00.000+02:00", "lat": 54.3122, "lon": 13.0865, "intensity": 0.8, "source": "Tagesschau"}, {"title": "Avocado-Import verf\u00fcnffacht", "url": "https://www.tagesschau.de/wirtschaft/verbraucher/avocado-import-rekord-100.html", "thumbnailUrl": "https://images.tagesschau.de/image/5a19105f-691c-4186-91ac-4e3a373dcd77/AAABjuZ2VFU/AAABjcWesUg/16x9-512.jpg", "date": "2024-04-16T14:54:09.005+02:00", "lat": 50.1109, "lon": 8.6821, "intensity": 0.7, "source": "Tagesschau"}, {"title": "Weiterer Klimaaktivist beginnt Hungerstreik", "url": "https://www.tagesschau.de/inland/regional/berlin/weiterer-klimaaktivist-beginnt-hungerstreik-im-regierungsviertel-100.html", "thumbnailUrl": "https://images.tagesschau.de/image/84e4d4c0-cd12-495d-852a-e5aed5e174ea/AAABjuatrw0/AAABjcWesUg/16x9-512.jpg", "date": "2024-04-16T14:52:37.788+02:00", "lat": 52.516275, "lon": 13.377704, "intensity": 0.8, "source": "Tagesschau"}, {"title": "Olympiasiegerin Heike Drechsler spielt bei \"Rote Rosen\" mit", "url": "https://www.tagesschau.de/inland/regional/niedersachsen/ndr-olympiasiegerin-heike-drechsler-spielt-bei-roten-rosen-mit-100.html", "thumbnailUrl": "https://images.tagesschau.de/image/4539ae7c-523c-444a-aed5-a725d7f33f95/AAABjub6umU/AAABjcWesUg/16x9-512.jpg", "date": "2024-04-16T14:52:00.000+02:00", "lat": 52.3759, "lon": 9.7371, "intensity": 0.3, "source": "Tagesschau"}, {"title": "Aufgeheizte Weltmeere bedrohen die Korallenriffe", "url": "https://www.tagesschau.de/wissen/korallenbleiche-weltmeere-klimakrise-100.html", "thumbnailUrl": "https://images.tagesschau.de/image/1799cf7b-7174-4fac-835d-b1953dc9c442/AAABjubsqy0/AAABjcWesUg/16x9-512.jpg", "date": "2024-04-16T14:40:54.105+02:00", "lat": -18.286, "lon": 147.716, "intensity": 0.8, "source": "Tagesschau"}, {"title": "Mehrere Geb\u00e4ude in Berlin-Mahlsdorf wegen besch\u00e4digter Gasleitung ger\u00e4umt", "url": "https://www.tagesschau.de/inland/regional/berlin/rbb-mehrere-gebaeude-in-berlin-mahlsdorf-wegen-beschaedigter-gasleitung-geraeumt-100.html", "thumbnailUrl": "https://images.tagesschau.de/image/8b371d8e-d028-48a2-91e3-16a4afff2baf/AAABjubr718/AAABjcWesUg/16x9-512.jpg", "date": "2024-04-16T14:35:53.000+02:00", "lat": 52.5159, "lon": 13.6119, "intensity": 0.7, "source": "Tagesschau"}, {"title": "Kreistag Holzminden ist gegen Austritt von Bodenwerder-Polle", "url": "https://www.tagesschau.de/inland/regional/niedersachsen/ndr-kreistag-holzminden-ist-gegen-austritt-von-bodenwerder-polle-100.html", "thumbnailUrl": "https://images.tagesschau.de/image/dd2778ed-c967-4bb4-84d5-4f5ecd0d6a2a/AAABjuKTDAw/AAABjcWesUg/16x9-512.jpg", "date": "2024-04-16T14:16:00.000+02:00", "lat": 51.9936, "lon": 9.5333, "intensity": 0.6, "source": "Tagesschau"}, {"title": "Digitalisierung: So steht NRW im Vergleich da", "url": "https://www.tagesschau.de/inland/regional/nordrheinwestfalen/wdr-digitalisierung-so-steht-nrw-im-vergleich-da-100.html", "thumbnailUrl": "https://images.tagesschau.de/image/106ff926-8403-4748-bca7-b0271ec20f0e/AAABjugb0RA/AAABjcWesUg/16x9-512.jpg", "date": "2024-04-16T14:15:00.000+02:00", "lat": 51.4332, "lon": 7.6261, "intensity": 0.4, "source": "Tagesschau"}, {"title": "Bekifft Autofahren: Ein Selbstversuch mit Cannabis", "url": "https://www.tagesschau.de/inland/regional/niedersachsen/ndr-bekifft-autofahren-ein-selbstversuch-mit-cannabis-100.html", "thumbnailUrl": "https://images.tagesschau.de/image/4cf40d08-4d6a-47c5-840c-6cf05a565065/AAABjuFlAT0/AAABjcWesUg/16x9-512.jpg", "date": "2024-04-16T14:00:00.000+02:00", "lat": 52.3759, "lon": 9.7344, "intensity": 0.7, "source": "Tagesschau"}, {"title": "23-J\u00e4hriger st\u00fcrzt in V\u00f6lklingen mit Auto drei Meter in die Tiefe ", "url": "https://www.tagesschau.de/inland/regional/saarland/sr-23-jaehriger-stuerzt-in-voelklingen-mit-auto-drei-meter-in-die-tiefe-100.html", "thumbnailUrl": "https://images.tagesschau.de/image/38d5c2bc-0e61-49c3-b83b-1b5ed30f816d/AAABjubSOck/AAABjcWesUg/16x9-512.jpg", "date": "2024-04-16T13:52:00.000+02:00", "lat": 49.2486, "lon": 6.8724, "intensity": 0.8, "source": "Tagesschau"}, {"title": "Kopenhagens historische B\u00f6rse in Flammen", "url": "https://www.tagesschau.de/ausland/europa/kopenhagen-brand-boerse-100.html", "thumbnailUrl": "https://images.tagesschau.de/image/3a422764-0a0b-47d6-8cfb-8535c31c03db/AAABjuY88iQ/AAABjcWesUg/16x9-512.jpg", "date": "2024-04-16T13:46:16.231+02:00", "lat": 55.676098, "lon": 12.568337, "intensity": 0.8, "source": "Tagesschau"}, {"title": "Toter nach Brand in Barmbek - Polizei nimmt Verd\u00e4chtigen fest", "url": "https://www.tagesschau.de/inland/regional/hamburg/ndr-toter-bei-brand-in-barmbek-jetzt-ermittelt-die-mordkommission-100.html", "thumbnailUrl": "https://images.tagesschau.de/image/bedff49a-7d03-451a-9d48-0871a58b03f8/AAABjua4otc/AAABjcWesUg/16x9-512.jpg", "date": "2024-04-16T13:41:00.000+02:00", "lat": 53.5863, "lon": 10.0396, "intensity": 0.8, "source": "Tagesschau"}, {"title": "Gleitzeit statt fr\u00fch aufstehen: So l\u00e4uft das Projekt am Gymnasium Plochingen  ", "url": "https://www.tagesschau.de/inland/regional/badenwuerttemberg/swr-gleitzeit-statt-frueh-aufstehen-so-laeuft-das-projekt-am-gymnasium-plochingen-100.html", "thumbnailUrl": "https://images.tagesschau.de/image/ded72fea-a601-4020-8c4d-5c9aa59c21e1/AAABjubDn1U/AAABjcWesUg/16x9-512.jpg", "date": "2024-04-16T13:37:52.000+02:00", "lat": 48.679321, "lon": 9.402005, "intensity": 0.3, "source": "Tagesschau"}, {"title": "\"Blitzermarathon\" in Hessen 2024: Polizei gibt Standorte f\u00fcr Radarkontrollen bekannt", "url": "https://www.tagesschau.de/inland/regional/hessen/hr-blitzermarathon-in-hessen-2024-polizei-kuendigt-radarkontrollen-gegen-raser-an-100.html", "thumbnailUrl": "https://images.tagesschau.de/image/6cd9e970-237a-4a9a-9706-af48209e2359/AAABjuazJXk/AAABjcWesUg/16x9-512.jpg", "date": "2024-04-16T13:37:44.687+02:00", "lat": 50.6521, "lon": 9.1625, "intensity": 0.6, "source": "Tagesschau"}, {"title": "L\u00fcneburg: Gutachter h\u00e4lt Fernw\u00e4rme-Abschl\u00e4ge f\u00fcr zu hoch", "url": "https://www.tagesschau.de/inland/regional/niedersachsen/ndr-lueneburg-gutachter-haelt-fernwaerme-abschlaege-fuer-zu-hoch-100.html", "thumbnailUrl": "https://images.tagesschau.de/image/4d85e93b-d603-4e02-a079-f6b14c0a56ec/AAABjuWJJeU/AAABjcWesUg/16x9-512.jpg", "date": "2024-04-16T13:29:00.000+02:00", "lat": 53.2405, "lon": 10.4043, "intensity": 0.6, "source": "Tagesschau"}, {"title": "Weiterer Klimaaktivist beginnt Hungerstreik im Regierungsviertel", "url": "https://www.tagesschau.de/inland/regional/berlin/rbb-weiterer-klimaaktivist-beginnt-hungerstreik-im-regierungsviertel-100.html", "thumbnailUrl": "https://images.tagesschau.de/image/84e4d4c0-cd12-495d-852a-e5aed5e174ea/AAABjuatrw0/AAABjcWesUg/16x9-512.jpg", "date": "2024-04-16T13:28:44.000+02:00", "lat": 52.520008, "lon": 13.404954, "intensity": 0.8, "source": "Tagesschau"}, {"title": "Neue Hinweise im Mordfall Markus Marker - Cold Case aus Idstein in \"Aktenzeichen XY\"", "url": "https://www.tagesschau.de/inland/regional/hessen/hr-neue-hinweise-im-mordfall-markus-marker-cold-case-aus-idstein-in-aktenzeichen-xy-100.html", "thumbnailUrl": "https://images.tagesschau.de/image/f3c68aca-4897-4995-99a9-46cbf058f572/AAABjuarzLY/AAABjcWesUg/16x9-512.jpg", "date": "2024-04-16T13:28:33.399+02:00", "lat": 50.21286, "lon": 8.271538, "intensity": 0.8, "source": "Tagesschau"}, {"title": "Gro\u00dfer Scheunenbrand in Stade: Polizei vermutet Brandstiftung", "url": "https://www.tagesschau.de/inland/regional/niedersachsen/ndr-grossbrand-in-stade-feuerwehr-rueckt-mit-allen-kraeften-aus-100.html", "thumbnailUrl": "https://images.tagesschau.de/image/3775e604-3c6e-4b21-af63-dc60b9567dae/AAABjuZAf5Q/AAABjcWesUg/16x9-512.jpg", "date": "2024-04-16T13:26:00.000+02:00", "lat": 53.5939, "lon": 9.4786, "intensity": 0.8, "source": "Tagesschau"}, {"title": "Friedrichshain-Kreuzberg: Bisheriger Organisator macht Bezirk f\u00fcr \"MyFest\"-Absage verantwortlich", "url": "https://www.tagesschau.de/inland/regional/berlin/rbb-friedrichshain-kreuzberg-bisheriger-organisator-macht-bezirk-fuer-myfest-absage-verantwortlich-100.html", "thumbnailUrl": "https://images.tagesschau.de/image/be77a10e-22e5-4945-b2b5-8c2774a794a9/AAABjuaitpQ/AAABjcWesUg/16x9-512.jpg", "date": "2024-04-16T13:16:20.000+02:00", "lat": 52.4946, "lon": 13.4294, "intensity": 0.8, "source": "Tagesschau"}, {"title": "Urlaubsorte im Oberharz z\u00e4hlen wieder mehr \u00dcbernachtungsg\u00e4ste", "url": "https://www.tagesschau.de/inland/regional/niedersachsen/ndr-urlaubsorte-im-oberharz-zaehlen-wieder-mehr-uebernachtungsgaeste-100.html", "thumbnailUrl": "https://images.tagesschau.de/image/01ffdedf-f59c-4dfb-8c59-0740001e7a0b/AAABjua6gFw/AAABjcWesUg/16x9-512.jpg", "date": "2024-04-16T13:11:00.000+02:00", "lat": 51.7981, "lon": 10.5506, "intensity": 0.7, "source": "Tagesschau"}, {"title": "Boehringer Ingelheim ist jetzt der gr\u00f6\u00dfte Pharmakonzern Deutschlands", "url": "https://www.tagesschau.de/inland/regional/rheinlandpfalz/swr-boehringer-ingelheim-ist-jetzt-der-groesste-pharmakonzern-deutschlands-100.html", "thumbnailUrl": "https://images.tagesschau.de/image/58e33fce-416d-44ee-a029-df95a985ce51/AAABjubOobc/AAABjcWesUg/16x9-512.jpg", "date": "2024-04-16T13:05:41.000+02:00", "lat": 49.9139, "lon": 8.239762, "intensity": 0.8, "source": "Tagesschau"}, {"title": "Synode Schaumburg-Lippe ber\u00e4t \u00fcber Missbrauchsstudie", "url": "https://www.tagesschau.de/inland/regional/niedersachsen/ndr-synode-schaumburg-lippe-beraet-ueber-missbrauchsstudie-100.html", "thumbnailUrl": "https://images.tagesschau.de/image/0d7bb114-c28b-4aea-ba97-3be914905fc4/AAABjuicDBI/AAABjcWesUg/16x9-512.jpg", "date": "2024-04-16T13:03:00.000+02:00", "lat": 52.257, "lon": 9.0519, "intensity": 0.7, "source": "Tagesschau"}, {"title": "Finanzierungszusage: Berliner Verkehrsbetriebe sollen Verl\u00e4ngerung der U8 vorantreiben", "url": "https://www.tagesschau.de/inland/regional/berlin/rbb-finanzierungszusage-berliner-verkehrsbetriebe-sollen-verlaengerung-der-u8-vorantreiben-100.html", "thumbnailUrl": "https://images.tagesschau.de/image/f270a692-ce36-4482-8080-4a6e70941b97/AAABjuaUBrE/AAABjcWesUg/16x9-512.jpg", "date": "2024-04-16T13:00:09.000+02:00", "lat": 52.52001, "lon": 13.38886, "intensity": 0.6, "source": "Tagesschau"}, {"title": "Hannover: Mobiles Badezimmer f\u00fcr Menschen auf der Stra\u00dfe", "url": "https://www.tagesschau.de/inland/regional/niedersachsen/ndr-hannover-mobiles-badezimmer-fuer-menschen-auf-der-strasse-100.html", "thumbnailUrl": "https://images.tagesschau.de/image/548ed21c-f65c-424c-8742-3bd491f1de2f/AAABjuedpd8/AAABjcWesUg/16x9-512.jpg", "date": "2024-04-16T12:51:00.000+02:00", "lat": 52.3759, "lon": 9.7332, "intensity": 0.6, "source": "Tagesschau"}, {"title": "Suchaktion nach Fund eines leeren Kanus auf der Saale", "url": "https://www.tagesschau.de/inland/regional/sachsenanhalt/mdr-suchaktion-nach-fund-eines-leeren-kanus-auf-der-saale-100.html", "thumbnailUrl": "https://images.tagesschau.de/image/1c204f9a-7fa9-44e6-97df-c14aa7cafcd6/AAABjuj7Bwg/AAABjcWesUg/16x9-512.jpg", "date": "2024-04-16T12:49:29.000+02:00", "lat": 51.4254, "lon": 11.8283, "intensity": 0.7, "source": "Tagesschau"}, {"title": "Wie globale Faktoren Bremens Haushaltspl\u00e4ne zunichte machen k\u00f6nnten", "url": "https://www.tagesschau.de/inland/regional/bremen/rb-wie-globale-faktoren-bremens-haushaltsplaene-zunichte-machen-koennten-100.html", "thumbnailUrl": "https://images.tagesschau.de/image/63927ecc-6eec-4817-b99e-5b4c407b421e/AAABjub438w/AAABjcWesUg/16x9-512.jpg", "date": "2024-04-16T12:44:00.000+02:00", "lat": 53.079296, "lon": 8.801693, "intensity": 0.7, "source": "Tagesschau"}, {"title": "Mogelpackung \u00d6kogas: Haben Gasversorger in BW geschummelt?", "url": "https://www.tagesschau.de/inland/regional/badenwuerttemberg/swr-mogelpackung-oekogas-haben-gasversorger-in-bw-geschummelt-100.html", "thumbnailUrl": "https://images.tagesschau.de/image/602777bf-01ed-4f10-9803-5d0f40caefc1/AAABjub1BkA/AAABjcWesUg/16x9-512.jpg", "date": "2024-04-16T12:37:10.000+02:00", "lat": 48.7374, "lon": 9.9876, "intensity": 0.7, "source": "Tagesschau"}, {"title": "Handball-Bundesliga: MT Melsungen bindet Cheftrainer Parrondo", "url": "https://www.tagesschau.de/inland/regional/hessen/hr-handball-bundesliga-mt-melsungen-bindet-cheftrainer-parrondo-102.html", "thumbnailUrl": "https://images.tagesschau.de/image/d843e514-214d-4d11-a61c-da79c0ba1b9b/AAABjuadNqo/AAABjcWesUg/16x9-512.jpg", "date": "2024-04-16T12:35:06.595+02:00", "lat": 51.3135, "lon": 9.4234, "intensity": 0.3, "source": "Tagesschau"}, {"title": "Kinder, Bildung und Soziales: Daf\u00fcr gibt Bremen am meisten Geld aus", "url": "https://www.tagesschau.de/inland/regional/bremen/rb-kinder-bildung-und-soziales-dafuer-gibt-bremen-am-meisten-geld-aus-102.html", "thumbnailUrl": "https://images.tagesschau.de/image/f86eb673-8011-45ab-9238-b92fe0f2ad31/AAABjugqfuU/AAABjcWesUg/16x9-512.jpg", "date": "2024-04-16T12:31:00.000+02:00", "lat": 53.0793, "lon": 8.8017, "intensity": 0.8, "source": "Tagesschau"}, {"title": "Anna Loos, Lilo Wanders und Sandy M\u00f6lling: Anna Loos, Lilo Wanders und Sandy M\u00f6lling", "url": "https://www.tagesschau.de/inland/regional/hessen/hr-anna-loos-lilo-wanders-und-sandy-moelling-anna-loos-lilo-wanders-und-sandy-moelling-100.html", "thumbnailUrl": "https://images.tagesschau.de/image/4b339272-7f0a-4aeb-84c9-8a9e0c20ab9e/AAABjuZ05LA/AAABjcWesUg/16x9-512.jpg", "date": "2024-04-16T12:29:21.024+02:00", "lat": 50.8667, "lon": 9.6982, "intensity": 0.5, "source": "Tagesschau"}, {"title": "SV Elversberg dominiert Kicker-Elf des Tages", "url": "https://www.tagesschau.de/inland/regional/saarland/sr-sv-elversberg-dominiert-kicker-elf-des-tages-102.html", "thumbnailUrl": "https://images.tagesschau.de/image/1f1a0490-c9bf-4098-8027-235e1c1c9a5c/AAABjuaOeck/AAABjcWesUg/16x9-512.jpg", "date": "2024-04-16T12:29:00.000+02:00", "lat": 49.3193, "lon": 7.1598, "intensity": 0.8, "source": "Tagesschau"}, {"title": "Zum Tod von Bernd H\u00f6lzenbein: Frankfurts Stolz", "url": "https://www.tagesschau.de/inland/regional/hessen/hr-zum-tod-von-bernd-hoelzenbein-frankfurts-stolz-102.html", "thumbnailUrl": "https://images.tagesschau.de/image/975af00a-69c4-4a92-bb66-9c141b38de8d/AAABjueLMbc/AAABjcWesUg/16x9-512.jpg", "date": "2024-04-16T12:28:56.291+02:00", "lat": 50.1109, "lon": 8.6821, "intensity": 0.8, "source": "Tagesschau"}, {"title": "Potsdam: Fahrradfahrerin bei Unfall mit Tram schwer verletzt", "url": "https://www.tagesschau.de/inland/regional/brandenburg/rbb-potsdam-fahrradfahrerin-bei-unfall-mit-tram-schwer-verletzt-100.html", "thumbnailUrl": "https://images.tagesschau.de/image/08879a4e-cbf4-4929-a4c6-ec24710f371d/AAABjuZxaCs/AAABjcWesUg/16x9-512.jpg", "date": "2024-04-16T12:23:22.000+02:00", "lat": 52.3906, "lon": 13.0645, "intensity": 0.7, "source": "Tagesschau"}, {"title": "Polemischer Reichelt-Post ist rechtens", "url": "https://www.tagesschau.de/inland/innenpolitik/bundesverfassungsgericht-verfassungsbeschwerde-kritik-reichelt-100.html", "thumbnailUrl": "https://images.tagesschau.de/image/cc261551-5971-48a5-86a4-d60163afe305/AAABjuY_9s4/AAABjcWesUg/16x9-512.jpg", "date": "2024-04-16T12:21:08.453+02:00", "lat": 49.0139, "lon": 8.402, "intensity": 0.7, "source": "Tagesschau"}, {"title": "Polizei stuft Angriff in Kirche als Terrorakt ein", "url": "https://www.tagesschau.de/ausland/asien/sydney-angriff-terror-100.html", "thumbnailUrl": "https://images.tagesschau.de/image/f93c2499-d3f7-4c69-a2b0-a656eef7c564/AAABjuShFAE/AAABjcWesUg/16x9-512.jpg", "date": "2024-04-16T12:18:39.126+02:00", "lat": -33.8688, "lon": 151.2093, "intensity": 0.8, "source": "Tagesschau"}, {"title": "Freie W\u00e4hler in Saarlouis gehen gegen Ausschluss ihres OB-Kandidaten vor", "url": "https://www.tagesschau.de/inland/regional/saarland/sr-freie-waehler-in-saarlouis-gehen-gegen-ausschluss-ihres-ob-kandidaten-vor-100.html", "thumbnailUrl": "https://images.tagesschau.de/image/76c82056-0738-4d08-8b07-cc9088474a45/AAABjuZvWZU/AAABjcWesUg/16x9-512.jpg", "date": "2024-04-16T12:16:00.000+02:00", "lat": 49.3151, "lon": 6.7529, "intensity": 0.7, "source": "Tagesschau"}, {"title": "Neues Gesetz: Rettungswagen in BW sollen in zw\u00f6lf Minuten da sein", "url": "https://www.tagesschau.de/inland/regional/badenwuerttemberg/swr-neues-gesetz-rettungswagen-in-bw-sollen-in-zwoelf-minuten-da-sein-100.html", "thumbnailUrl": "https://images.tagesschau.de/image/a99e19ab-4c8a-42a9-9dab-071eb96fb163/AAABjuZp3rU/AAABjcWesUg/16x9-512.jpg", "date": "2024-04-16T12:14:15.000+02:00", "lat": 48.7758, "lon": 9.3273, "intensity": 0.6, "source": "Tagesschau"}, {"title": "Was die Bremische B\u00fcrgerschaft die Steuerzahler kostet ", "url": "https://www.tagesschau.de/inland/regional/bremen/rb-was-die-bremische-buergerschaft-die-steuerzahler-kostet-102.html", "thumbnailUrl": "https://images.tagesschau.de/image/9b98140d-76de-4f5c-9f9a-1834e7b3f900/AAABjugqfb8/AAABjcWesUg/16x9-512.jpg", "date": "2024-04-16T12:14:00.000+02:00", "lat": 53.0793, "lon": 8.8017, "intensity": 0.8, "source": "Tagesschau"}, {"title": "Berlin-Sch\u00f6neberg: Einsturzgef\u00e4hrdetes Haus soll durch Stahlkonstruktion gest\u00fctzt werden", "url": "https://www.tagesschau.de/inland/regional/berlin/rbb-berlin-schoeneberg-einsturzgefaehrdetes-haus-soll-durch-stahlkonstruktion-gestuetzt-werden-100.html", "thumbnailUrl": "https://images.tagesschau.de/image/27732296-4199-402a-9963-7308f924a698/AAABjuZoHHM/AAABjcWesUg/16x9-512.jpg", "date": "2024-04-16T12:09:32.000+02:00", "lat": 52.4847, "lon": 13.3439, "intensity": 0.8, "source": "Tagesschau"}, {"title": "Computer-Konzern will langfristig 1.000 Arbeitspl\u00e4tze in J\u00fclich schaffen", "url": "https://www.tagesschau.de/inland/regional/nordrheinwestfalen/wdr-von-der-steinkohle-zur-ki-qcg-investiert-40-millionen-euro-102.html", "thumbnailUrl": "https://images.tagesschau.de/image/c99e7844-e4c9-4d8b-9ddb-f3c2b52f60db/AAABjug7CLQ/AAABjcWesUg/16x9-512.jpg", "date": "2024-04-16T12:03:00.000+02:00", "lat": 50.9271, "lon": 6.4069, "intensity": 0.8, "source": "Tagesschau"}, {"title": "Baumpr\u00e4mie soll wieder flie\u00dfen", "url": "https://www.tagesschau.de/inland/regional/nordrheinwestfalen/wdr-baumpraemie-soll-wieder-fliessen-100.html", "thumbnailUrl": "https://images.tagesschau.de/image/0db03859-52bd-4162-8f89-8ee0ce1219af/AAABjuZ_8fA/AAABjcWesUg/16x9-512.jpg", "date": "2024-04-16T12:00:00.000+02:00", "lat": 51.4333, "lon": 7.6125, "intensity": 0.8, "source": "Tagesschau"}, {"title": "Stra\u00dfenmusiker bei Union: Die One-Man-Show von K\u00f6penick", "url": "https://www.tagesschau.de/inland/regional/brandenburg/rbb-strassenmusiker-bei-union-die-one-man-show-von-koepenick-102.html", "thumbnailUrl": "https://images.tagesschau.de/image/02957149-2a0a-4bd1-a8ba-9716f64bd49a/AAABjuZZomw/AAABjcWesUg/16x9-512.jpg", "date": "2024-04-16T11:55:34.000+02:00", "lat": 52.4726, "lon": 13.5174, "intensity": 0.6, "source": "Tagesschau"}, {"title": "Campus Golm: 420 neue Wohnheimpl\u00e4tze f\u00fcr Studierende in Potsdam", "url": "https://www.tagesschau.de/inland/regional/brandenburg/rbb-campus-golm-420-neue-wohnheimplaetze-fuer-studierende-in-potsdam-100.html", "thumbnailUrl": "https://images.tagesschau.de/image/90dbbf0f-b4fc-4275-8ff8-072db1a83919/AAABjuZWGG8/AAABjcWesUg/16x9-512.jpg", "date": "2024-04-16T11:51:39.000+02:00", "lat": 52.4055, "lon": 13.0818, "intensity": 0.8, "source": "Tagesschau"}, {"title": "Mannheim: Waschstra\u00dfen-Mitarbeiter wird von Auto \u00fcberrollt", "url": "https://www.tagesschau.de/inland/regional/badenwuerttemberg/swr-mannheim-waschstrassen-mitarbeiter-wird-von-kunde-ueberrollt-100.html", "thumbnailUrl": "https://images.tagesschau.de/image/5a975b2d-dad2-4c58-84fe-39dfd54f7275/AAABjuZe8vM/AAABjcWesUg/16x9-512.jpg", "date": "2024-04-16T11:50:15.000+02:00", "lat": 49.4875, "lon": 8.4699, "intensity": 0.6, "source": "Tagesschau"}, {"title": "Mythos Bremer Br\u00fccke: 125 Jahre VfL Osnabr\u00fcck", "url": "https://www.tagesschau.de/inland/regional/niedersachsen/ndr-mythos-bremer-bruecke-125-jahre-vfl-osnabrueck-106.html", "thumbnailUrl": "https://images.tagesschau.de/image/9f8af5e1-9a94-453e-96c7-32458745fa6a/AAABjuZisXM/AAABjcWesUg/16x9-512.jpg", "date": "2024-04-16T11:45:00.000+02:00", "lat": 52.2673, "lon": 8.0476, "intensity": 0.4, "source": "Tagesschau"}, {"title": "Fans k\u00f6nnen in V\u00f6lklingen in Retro-Welt eintauchen", "url": "https://www.tagesschau.de/inland/regional/saarland/sr-fans-koennen-in-voelklingen-in-retro-welt-eintauchen-100.html", "thumbnailUrl": "https://images.tagesschau.de/image/2f24fd5c-473d-4875-90ab-f8ce575cf9ba/AAABjuZMj6g/AAABjcWesUg/16x9-512.jpg", "date": "2024-04-16T11:43:00.000+02:00", "lat": 49.2547, "lon": 6.8568, "intensity": 0.7, "source": "Tagesschau"}, {"title": "Tesla widerspricht Berichten \u00fcber Stellenabbau", "url": "https://www.tagesschau.de/inland/regional/berlin/rbb-tesla-gruenheide-stellenabbau-100.html", "thumbnailUrl": "https://images.tagesschau.de/image/5a547008-1eaa-4c8d-8cd9-b726a53566f6/AAABjudX7MU/AAABjcWesUg/16x9-512.jpg", "date": "2024-04-16T11:36:55.080+02:00", "lat": 52.3833, "lon": 13.6236, "intensity": 0.8, "source": "Tagesschau"}, {"title": "Scholz und Xi setzen weiter auf Kooperation", "url": "https://www.tagesschau.de/ausland/asien/scholz-china-116.html", "thumbnailUrl": "https://images.tagesschau.de/image/c379dfbe-7b95-4fa0-ba87-048a9bb59c00/AAABjuX-gLk/AAABjcWesUg/16x9-512.jpg", "date": "2024-04-16T11:36:05.983+02:00", "lat": 39.9042, "lon": 116.4074, "intensity": 0.7, "source": "Tagesschau"}, {"title": "Asiatische Hornisse auch in Hessen zu Hause: Bedrohung f\u00fcr Honigbienen?", "url": "https://www.tagesschau.de/inland/regional/hessen/hr-asiatische-hornisse-ist-jetzt-auch-in-hessen-zu-hause-100.html", "thumbnailUrl": "https://images.tagesschau.de/image/e537cfb6-8013-4fcd-83a4-acff833aae09/AAABjuZdG6I/AAABjcWesUg/16x9-512.jpg", "date": "2024-04-16T11:34:23.733+02:00", "lat": 50.6521, "lon": 8.5149, "intensity": 0.6, "source": "Tagesschau"}, {"title": "\"Gro\u00dfstadtrevier\"-Serie: Am Set vom Spielfilm \"Triage\" in Hamburg", "url": "https://www.tagesschau.de/inland/regional/hamburg/ndr-grossstadtrevier-serie-am-set-vom-spielfilm-triage-in-hamburg-100.html", "thumbnailUrl": "https://images.tagesschau.de/image/d7feabfc-dc55-4a08-8ffe-597409d62bfe/AAABjuY_3jM/AAABjcWesUg/16x9-512.jpg", "date": "2024-04-16T11:31:00.000+02:00", "lat": 53.5511, "lon": 9.9937, "intensity": 0.7, "source": "Tagesschau"}, {"title": "Illegale Gl\u00fccksspielautomaten: Razzien in Wilhelmsburg", "url": "https://www.tagesschau.de/inland/regional/hamburg/ndr-illegale-gluecksspielautomaten-razzien-in-wilhelmsburg-100.html", "thumbnailUrl": "https://images.tagesschau.de/image/f0589f55-5920-4648-9f63-9150a552a1d9/AAABjuZK2N0/AAABjcWesUg/16x9-512.jpg", "date": "2024-04-16T11:29:00.000+02:00", "lat": 53.5306, "lon": 10.0077, "intensity": 0.8, "source": "Tagesschau"}, {"title": "Immer mehr Deutsche wandern in den S\u00fcden D\u00e4nemarks aus", "url": "https://www.tagesschau.de/inland/regional/schleswigholstein/ndr-immer-mehr-deutsche-wandern-in-den-sueden-daenemarks-aus-100.html", "thumbnailUrl": "https://images.tagesschau.de/image/19ab384f-2dda-4a40-bd2e-eb5803068d81/AAABjuaSPas/AAABjcWesUg/16x9-512.jpg", "date": "2024-04-16T11:25:00.000+02:00", "lat": 55.0368, "lon": 9.7192, "intensity": 0.8, "source": "Tagesschau"}, {"title": "Prozess in Bad Kreuznach: Paketzusteller sollen M\u00e4dchen vergewaltigt haben", "url": "https://www.tagesschau.de/inland/regional/rheinlandpfalz/swr-prozess-in-bad-kreuznach-paketzusteller-sollen-maedchen-vergewaltigt-haben-100.html", "thumbnailUrl": "https://images.tagesschau.de/image/0e1a5844-a71d-4eb6-9890-dd23d7bb3639/AAABjuY6nUY/AAABjcWesUg/16x9-512.jpg", "date": "2024-04-16T11:22:00.000+02:00", "lat": 49.8419, "lon": 7.8662, "intensity": 0.8, "source": "Tagesschau"}, {"title": "Neuer Messengerdienst soll an Schulen in RLP WhatsApp & Co. ersetzen", "url": "https://www.tagesschau.de/inland/regional/rheinlandpfalz/swr-neuer-messengerdienst-soll-an-schulen-in-rlp-whatsapp--co-ersetzen-100.html", "thumbnailUrl": "https://images.tagesschau.de/image/7f085002-b3b5-4502-88eb-65c2b15fbbdb/AAABjuY6Y88/AAABjcWesUg/16x9-512.jpg", "date": "2024-04-16T11:20:00.000+02:00", "lat": 49.8051, "lon": 9.9976, "intensity": 0.8, "source": "Tagesschau"}, {"title": "Nach Abwahl: Neue Amtsdirektorin in D\u00f6bern gew\u00e4hlt", "url": "https://www.tagesschau.de/inland/regional/brandenburg/rbb-nach-abwahl-neue-amtsdirektorin-in-doebern-gewaehlt-100.html", "thumbnailUrl": "https://images.tagesschau.de/image/4ad9e282-6e56-4dbd-9513-cd689e1615d9/AAABjuY06ro/AAABjcWesUg/16x9-512.jpg", "date": "2024-04-16T11:17:57.000+02:00", "lat": 51.7625, "lon": 14.5275, "intensity": 0.3, "source": "Tagesschau"}, {"title": "Wetterlage und Temperaturen", "url": "https://www.tagesschau.de/wetter/europa-welt", "thumbnailUrl": "https://images.tagesschau.de/image/6e7d3b16-79c8-4308-822b-20c3035236b5/AAABjuYhcu8/AAABjcWesUg/16x9-512.jpg", "date": "2024-04-16T11:04:35.904+02:00", "lat": 51.1657, "lon": 10.4515, "intensity": 0.3, "source": "Tagesschau"}, {"title": "Stadtlohn: \"Westfalen Werke\" melden Insolvenz an", "url": "https://www.tagesschau.de/inland/regional/nordrheinwestfalen/wdr-stadtlohn-westfalen-werke-melden-insolvenz-an-100.html", "thumbnailUrl": "https://images.tagesschau.de/image/dd94da43-8932-4d19-94fd-93d6bdbd9295/AAABjuZe5gg/AAABjcWesUg/16x9-512.jpg", "date": "2024-04-16T11:03:00.000+02:00", "lat": 51.9952, "lon": 6.9001, "intensity": 0.8, "source": "Tagesschau"}, {"title": "Zukunft der Messe Berlin: Das schwierige 101. Jahr", "url": "https://www.tagesschau.de/inland/regional/berlin/rbb-zukunft-der-messe-berlin-das-schwierige-101-jahr-100.html", "thumbnailUrl": "https://images.tagesschau.de/image/b6a5525f-5ca2-4174-b5fe-072e3abdf7dc/AAABjuYfKi8/AAABjcWesUg/16x9-512.jpg", "date": "2024-04-16T10:53:52.000+02:00", "lat": 52.5159, "lon": 13.2856, "intensity": 0.8, "source": "Tagesschau"}, {"title": "Blitzermarathon: Polizei blitzt verst\u00e4rkt in elf Bundesl\u00e4ndern", "url": "https://www.tagesschau.de/inland/regional/brandenburg/rbb-blitzermarathon-polizei-blitzt-verstaerkt-in-fuenf-bundeslaendern-100.html", "thumbnailUrl": "https://images.tagesschau.de/image/a3e46a00-f720-4032-aa5f-fbc5f75a3fb4/AAABjuYbmgc/AAABjcWesUg/16x9-512.jpg", "date": "2024-04-16T10:50:28.000+02:00", "lat": 52.520008, "lon": 13.404954, "intensity": 0.8, "source": "Tagesschau"}, {"title": "Frau von Gaskartusche erschlagen - Polizei sucht m\u00f6gliche T\u00e4ter", "url": "https://www.tagesschau.de/inland/regional/badenwuerttemberg/swr-frau-in-karlsruhe-durch-herabfallenden-gegenstand-toedlich-verletzt-100.html", "thumbnailUrl": "https://images.tagesschau.de/image/a8779ddb-17a7-4b1a-a0d1-4f4db801bc38/AAABjufYGgA/AAABjcWesUg/16x9-512.jpg", "date": "2024-04-16T10:50:00.000+02:00", "lat": 49.00689, "lon": 8.403653, "intensity": 0.8, "source": "Tagesschau"}, {"title": "L\u00f6wen Frankfurt trennen sich von Sportdirektor Fritzmeier - wegen Wutausbr\u00fcchen?", "url": "https://www.tagesschau.de/inland/regional/hessen/hr-loewen-frankfurt-trennen-sich-von-sportdirektor-fritzmeier-wegen-wutausbruechen-102.html", "thumbnailUrl": "https://images.tagesschau.de/image/eeb4e70a-0931-4be2-a4c3-15c0daa7b13e/AAABjuYbVLE/AAABjcWesUg/16x9-512.jpg", "date": "2024-04-16T10:47:08.510+02:00", "lat": 50.1109, "lon": 8.6815, "intensity": 0.6, "source": "Tagesschau"}, {"title": "Leiche an Primstalsperre bei Nonnweiler gefunden ", "url": "https://www.tagesschau.de/inland/regional/saarland/sr-leiche-an-primstalsperre-bei-nonnweiler-gefunden-100.html", "thumbnailUrl": "https://images.tagesschau.de/image/b0425a74-e34d-490d-bb47-1e6601f2da93/AAABjuV0gd4/AAABjcWesUg/16x9-512.jpg", "date": "2024-04-16T10:47:00.000+02:00", "lat": 49.58153, "lon": 7.12838, "intensity": 0.7, "source": "Tagesschau"}, {"title": "Senatsangaben: 11.023 Berlinerinnen und Berliner besitzen Schusswaffen", "url": "https://www.tagesschau.de/inland/regional/berlin/rbb-senatsangaben-11-023-berlinerinnen-und-berliner-besitzen-schusswaffen-100.html", "thumbnailUrl": "https://images.tagesschau.de/image/54f520a7-3e8f-4dd5-96a3-656a58f7f232/AAABjuYZ4ws/AAABjcWesUg/16x9-512.jpg", "date": "2024-04-16T10:44:06.000+02:00", "lat": 52.520008, "lon": 13.404954, "intensity": 0.8, "source": "Tagesschau"}, {"title": "Handball: Zweitliga-Toptorj\u00e4ger Max Beneke kehrt zu F\u00fcchsen zur\u00fcck", "url": "https://www.tagesschau.de/inland/regional/berlin/rbb-handball-zweitliga-toptorjaeger-max-beneke-kehrt-zu-fuechsen-zurueck-102.html", "thumbnailUrl": "https://images.tagesschau.de/image/630922d1-f4e3-4a0c-9d24-e2c501f6a8bc/AAABjuYZ7nI/AAABjcWesUg/16x9-512.jpg", "date": "2024-04-16T10:38:42.000+02:00", "lat": 52.520008, "lon": 13.404954, "intensity": 0.4, "source": "Tagesschau"}, {"title": "Chinas Wirtschaft w\u00e4chst \u00fcberraschend stark", "url": "https://www.tagesschau.de/wirtschaft/weltwirtschaft/china-bip-q1-100.html", "thumbnailUrl": "https://images.tagesschau.de/image/6fa4271f-e43a-4e42-978c-e76fe019d6b8/AAABjuWtDkE/AAABjcWesUg/16x9-512.jpg", "date": "2024-04-16T10:35:49.009+02:00", "lat": 39.9042, "lon": 116.4074, "intensity": 0.7, "source": "Tagesschau"}, {"title": "Mehrere Verletzte und Versp\u00e4tungen durch Unwetter", "url": "https://www.tagesschau.de/inland/unwetter-deutschland-152.html", "thumbnailUrl": "https://images.tagesschau.de/image/c45af6de-0f00-4937-aaa7-0b7d2b80c252/AAABjuWrUQE/AAABjcWesUg/16x9-512.jpg", "date": "2024-04-16T10:34:48.527+02:00", "lat": 51.1657, "lon": 10.4515, "intensity": 0.8, "source": "Tagesschau"}, {"title": "Geldautomat in Hauptstuhl gesprengt", "url": "https://www.tagesschau.de/inland/regional/saarland/sr-geldautomat-in-hauptstuhl-gesprengt-100.html", "thumbnailUrl": "https://images.tagesschau.de/image/60ee3d80-973f-4d6f-bdf4-5e0994924076/AAABjuXrh1k/AAABjcWesUg/16x9-512.jpg", "date": "2024-04-16T10:33:00.000+02:00", "lat": 49.2931, "lon": 7.4433, "intensity": 0.8, "source": "Tagesschau"}, {"title": "Forum f\u00fcr K\u00fcnstlernachl\u00e4sse bekommt Geb\u00e4ude in Niendorf", "url": "https://www.tagesschau.de/inland/regional/hamburg/ndr-forum-fuer-kuenstlernachlaesse-bekommt-gebaeude-in-niendorf-100.html", "thumbnailUrl": "https://images.tagesschau.de/image/f160386d-f45b-4dbe-96b5-3ebcb7b49724/AAABjuZbQ48/AAABjcWesUg/16x9-512.jpg", "date": "2024-04-16T10:31:00.000+02:00", "lat": 53.6354, "lon": 9.9221, "intensity": 0.6, "source": "Tagesschau"}, {"title": "Mehr als 70 Eins\u00e4tze wegen Sturm im Saarland", "url": "https://www.tagesschau.de/inland/regional/saarland/sr-mehr-als-40-einsaetze-wegen-sturm-im-saarland-100.html", "thumbnailUrl": "https://images.tagesschau.de/image/c94b90d0-3d2d-4b95-bbea-d69506fb384a/AAABjuLfirQ/AAABjcWesUg/16x9-512.jpg", "date": "2024-04-16T10:28:00.000+02:00", "lat": 49.3964, "lon": 6.9984, "intensity": 0.8, "source": "Tagesschau"}, {"title": "Auschwitz \u00fcberlebt, R\u00fcckkehr mit Familie: Dokumentarfilm zeichnet Flucht einer jungen J\u00fcdin nach", "url": "https://www.tagesschau.de/inland/regional/hessen/hr-auschwitz-ueberlebt-rueckkehr-mit-familie-dokumentarfilm-zeichnet-flucht-einer-jungen-juedin-nach-100.html", "thumbnailUrl": "https://images.tagesschau.de/image/d09c7638-ee7a-4f57-b78c-b644538489a6/AAABjuX_zBU/AAABjcWesUg/16x9-512.jpg", "date": "2024-04-16T10:20:13.287+02:00", "lat": 49.9929, "lon": 9.1895, "intensity": 0.7, "source": "Tagesschau"}, {"title": "Wolfsangriff in Aurich? Neun Schafe get\u00f6tet", "url": "https://www.tagesschau.de/inland/regional/niedersachsen/ndr-wolfsangriff-in-aurich-neun-schafe-getoetet-100.html", "thumbnailUrl": "https://images.tagesschau.de/image/22db10b3-8321-4da3-8215-ccba62e11920/AAABjuYdcLg/AAABjcWesUg/16x9-512.jpg", "date": "2024-04-16T10:17:00.000+02:00", "lat": 53.4709, "lon": 7.4866, "intensity": 0.6, "source": "Tagesschau"}, {"title": "Hessen am Morgen: +++ Sturm hebt Dach von Wohnhaus in Ober-Ramstadt an +++ Bernd H\u00f6lzenbein ist tot +++ Arbeiter aus Gondel an Frankfurter Hochhaus gerettet +++", "url": "https://www.tagesschau.de/inland/regional/hessen/hr-hessen-am-morgen--unwetter-laesst-baeume-umstuerzen--leichtverletzte-mit-motorsaegen-aus-auto-befreit-100.html", "thumbnailUrl": "https://images.tagesschau.de/image/0faf662c-d71f-471c-abed-30b444514828/AAABjudzeCM/AAABjcWesUg/16x9-512.jpg", "date": "2024-04-16T10:05:59.139+02:00", "lat": 49.8479, "lon": 8.7545, "intensity": 0.8, "source": "Tagesschau"}, {"title": "BW-Newsticker am Morgen: Unwetter und Aprilwetter in BW, Illegale M\u00fcllentsorgung, Hund als Darsteller gesucht", "url": "https://www.tagesschau.de/inland/regional/badenwuerttemberg/swr-bw-newsticker-am-morgen-unwetter-und-aprilwetter-in-bw-illegale-muellentsorgung-schulen-sollen-digitaler-werden-100.html", "thumbnailUrl": "https://images.tagesschau.de/image/6e8fde64-2d9e-4cb8-a6c7-da53a68d9ea6/AAABjuURuJk/AAABjcWesUg/16x9-512.jpg", "date": "2024-04-16T10:00:00.000+02:00", "lat": 48.6617, "lon": 9.093, "intensity": 0.5, "source": "Tagesschau"}, {"title": "Nach Sch\u00fcssen in Rinteln: 20-J\u00e4hriger im Krankenhaus gestorben", "url": "https://www.tagesschau.de/inland/regional/niedersachsen/ndr-schuesse-in-rinteln-junger-mann-lebensgefaehrlich-verletzt-100.html", "thumbnailUrl": "https://images.tagesschau.de/image/a3af0deb-0515-4592-855f-30017f7af17f/AAABjuXoP8w/AAABjcWesUg/16x9-512.jpg", "date": "2024-04-16T09:55:00.000+02:00", "lat": 52.1852, "lon": 9.081, "intensity": 0.8, "source": "Tagesschau"}, {"title": "Bremerhaven-Trainer Popiesch: DEL-Finale gegen die eigene Vergangenheit", "url": "https://www.tagesschau.de/inland/regional/niedersachsen/ndr-bremerhaven-trainer-popiesch-del-finale-gegen-die-eigene-vergangenheit-102.html", "thumbnailUrl": "https://images.tagesschau.de/image/81425040-f999-48bf-bace-9a6a587213cb/AAABjuYCVOE/AAABjcWesUg/16x9-512.jpg", "date": "2024-04-16T09:50:00.000+02:00", "lat": 53.5396, "lon": 8.5806, "intensity": 0.8, "source": "Tagesschau"}, {"title": "Jetzt anmelden: Workshops zum Tag der Pressefreiheit", "url": "https://www.tagesschau.de/inland/regional/hamburg/ndr-jetzt-anmelden-workshops-zum-tag-der-pressefreiheit-100.html", "thumbnailUrl": "https://images.tagesschau.de/image/e4cd76ac-bca1-4b21-83cc-ee95bab8ce2a/AAABjuXiqg4/AAABjcWesUg/16x9-512.jpg", "date": "2024-04-16T09:49:00.000+02:00", "lat": 53.55, "lon": 10.0, "intensity": 0.6, "source": "Tagesschau"}, {"title": "Sternschnuppen Lyriden blitzen am Nachthimmel", "url": "https://www.tagesschau.de/inland/regional/hamburg/ndr-sternschnuppen-lyriden-blitzen-am-nachthimmel-100.html", "thumbnailUrl": "https://images.tagesschau.de/image/e095be9b-ceeb-4fa0-8a0a-15d8b63e23be/AAABjuZMnrI/AAABjcWesUg/16x9-512.jpg", "date": "2024-04-16T09:45:00.000+02:00", "lat": 53.55, "lon": 10.0, "intensity": 0.3, "source": "Tagesschau"}, {"title": "Ein Jahr nach Atom-Aus: R\u00fcckbau des AKW Emsland r\u00fcckt n\u00e4her", "url": "https://www.tagesschau.de/inland/regional/niedersachsen/ndr-ein-jahr-nach-atom-aus-rueckbau-des-akw-emsland-rueckt-naeher-100.html", "thumbnailUrl": "https://images.tagesschau.de/image/caed3462-0781-4a4d-bc76-4f0d81f888cb/AAABjuXdioY/AAABjcWesUg/16x9-512.jpg", "date": "2024-04-16T09:43:00.000+02:00", "lat": 52.5264, "lon": 7.3167, "intensity": 0.8, "source": "Tagesschau"}, {"title": "Nach Angriff auf Israel: Solidarit\u00e4tsdemo in Hamburg", "url": "https://www.tagesschau.de/inland/regional/hamburg/ndr-nach-angriff-auf-israel-solidaritaetsdemonstration-in-hamburg-100.html", "thumbnailUrl": "https://images.tagesschau.de/image/569ca83b-da28-4516-bb9e-29f230929f9c/AAABjuD4w-E/AAABjcWesUg/16x9-512.jpg", "date": "2024-04-16T09:21:00.000+02:00", "lat": 53.5511, "lon": 10.0006, "intensity": 0.7, "source": "Tagesschau"}, {"title": "A14-Baustelle bei Seehausen: Riesiges Br\u00fcckenteil aus Stahl wird Richtung Elbe gezogen", "url": "https://www.tagesschau.de/inland/regional/sachsenanhalt/mdr-a14-baustelle-bei-seehausen-riesiges-brueckenteil-aus-stahl-wird-richtung-elbe-gezogen-100.html", "thumbnailUrl": "https://images.tagesschau.de/image/e630c20b-f8ad-4fab-80b0-025d92bacbf2/AAABjuXB1FE/AAABjcWesUg/16x9-512.jpg", "date": "2024-04-16T09:12:45.000+02:00", "lat": 52.1498, "lon": 11.9706, "intensity": 0.8, "source": "Tagesschau"}, {"title": "Bernd H\u00f6lzenbein ist tot: Eintracht Frankfurt trauert um Legende und Weltmeister", "url": "https://www.tagesschau.de/inland/regional/hessen/hr-eintracht-frankfurt-trauert-um-klub-legende-und-weltmeister-bernd-hoelzenbein-100.html", "thumbnailUrl": "https://images.tagesschau.de/image/68f68c81-aedd-4436-a1e1-bad2d4ae2f0d/AAABjuZguos/AAABjcWesUg/16x9-512.jpg", "date": "2024-04-16T09:08:55.879+02:00", "lat": 50.1109, "lon": 8.6821, "intensity": 0.8, "source": "Tagesschau"}, {"title": "Ein gro\u00dfes Problem in BW: Illegal abgelegter M\u00fcll mitten in der Landschaft ", "url": "https://www.tagesschau.de/inland/regional/badenwuerttemberg/swr-ein-grosses-problem-in-bw-illegal-abgelegter-muell-mitten-in-der-landschaft-100.html", "thumbnailUrl": "https://images.tagesschau.de/image/a1608bb3-a38a-4e3a-beff-7c93f115030a/AAABjuaJDUg/AAABjcWesUg/16x9-512.jpg", "date": "2024-04-16T08:44:00.000+02:00", "lat": 48.6616, "lon": 9.3677, "intensity": 0.7, "source": "Tagesschau"}, {"title": "Bahnrad-Olympiasiegerin Kristina Vogel nach Lungenembolie in Berlin notoperiert", "url": "https://www.tagesschau.de/inland/regional/brandenburg/rbb-bahnrad-olympiasiegerin-kristina-vogel-nach-lungenembolie-in-berlin-notoperiert-102.html", "thumbnailUrl": "https://images.tagesschau.de/image/0e6dbc63-7393-432e-a14d-2c9b5a414617/AAABjuWn_Uw/AAABjcWesUg/16x9-512.jpg", "date": "2024-04-16T08:43:22.000+02:00", "lat": 52.520008, "lon": 13.404954, "intensity": 0.8, "source": "Tagesschau"}, {"title": "Drei Schwerverletzte bei Unfall im Landkreis Rotenburg", "url": "https://www.tagesschau.de/inland/regional/niedersachsen/ndr-drei-schwerverletzte-bei-unfall-im-landkreis-rotenburg-100.html", "thumbnailUrl": "https://images.tagesschau.de/image/04f185bb-e2e8-4bbd-9dcd-a075b091aa30/AAABjuWbZoM/AAABjcWesUg/16x9-512.jpg", "date": "2024-04-16T08:22:00.000+02:00", "lat": 53.2297, "lon": 9.2747, "intensity": 0.8, "source": "Tagesschau"}, {"title": "Konzertkritik | Cymande in Berlin: Gro\u00dfartig zeitlose Funk-Bretter mit Karibik-Flair", "url": "https://www.tagesschau.de/inland/regional/berlin/rbb-konzertkritik--cymande-in-berlin-grossartig-zeitlose-funk-bretter-mit-karibik-flair-100.html", "thumbnailUrl": "https://images.tagesschau.de/image/f0d3dc44-d4ec-4de3-b5ce-a21be627d950/AAABjuWUBEc/AAABjcWesUg/16x9-512.jpg", "date": "2024-04-16T08:20:01.000+02:00", "lat": 52.52, "lon": 13.405, "intensity": 0.7, "source": "Tagesschau"}, {"title": "25 Jahre West-Eastern Divan Orchestra: \"Humanismus ist die letzte Verteidigungslinie\"", "url": "https://www.tagesschau.de/inland/regional/berlin/rbb-25-jahre-west-eastern-divan-orchestra-humanismus-ist-die-letzte-verteidigungslinie-100.html", "thumbnailUrl": "https://images.tagesschau.de/image/fc23918c-a70d-428f-bbfd-eb7c84d21c0c/AAABjuWQY6w/AAABjcWesUg/16x9-512.jpg", "date": "2024-04-16T08:17:09.000+02:00", "lat": 52.520008, "lon": 13.404954, "intensity": 0.8, "source": "Tagesschau"}, {"title": "Nach dem Unwetter: Bahnverkehr l\u00e4uft weitgehend nach Plan", "url": "https://www.tagesschau.de/inland/regional/nordrheinwestfalen/wdr-wetter-in-nrw-am-samstag-noch-mal-die-sonne-geniessen-100.html", "thumbnailUrl": "https://images.tagesschau.de/image/d7b42aac-7e6d-433b-a1e9-b413d5a637eb/AAABjuYkSBw/AAABjcWesUg/16x9-512.jpg", "date": "2024-04-16T08:16:00.000+02:00", "lat": 51.4332, "lon": 7.6261, "intensity": 0.5, "source": "Tagesschau"}, {"title": "Hilfe f\u00fcr die Menschen in der Ukraine", "url": "https://www.tagesschau.de/spendenkonten/spendenkonten-133.html", "thumbnailUrl": "https://images.tagesschau.de/image/af005073-bb3d-428a-b6f8-a685c725811f/AAABh4VRChA/AAABjcWesUg/16x9-512.jpg", "date": "2024-04-16T08:09:27.723+02:00", "lat": 50.4501, "lon": 30.5234, "intensity": 0.8, "source": "Tagesschau"}, {"title": "Israel will mit H\u00e4rte reagieren - aber Krieg vermeiden", "url": "https://www.tagesschau.de/ausland/asien/israel-iran-angriff-100.html", "thumbnailUrl": "https://images.tagesschau.de/image/fb26f4ce-5ffa-4373-ad96-3457a1199449/AAABjuV2cbU/AAABjcWesUg/16x9-512.jpg", "date": "2024-04-16T07:52:08.947+02:00", "lat": 31.7683, "lon": 35.2137, "intensity": 0.8, "source": "Tagesschau"}, {"title": "BRB schie\u00dft gegen Deutsche Bahn: \"Das System ist am Ende\"", "url": "https://www.tagesschau.de/inland/regional/bayern/br-brb-schiesst-gegen-deutsche-bahn-das-system-ist-am-ende-102.html", "thumbnailUrl": "https://images.tagesschau.de/image/43ca6407-c66e-43ba-9c7b-5eefc0f530a0/AAABjuV03Dc/AAABjcWesUg/16x9-512.jpg", "date": "2024-04-16T07:49:51.703+02:00", "lat": 48.135125, "lon": 11.581981, "intensity": 0.8, "source": "Tagesschau"}, {"title": "Tempolimit abgelehnt: Weiter L\u00e4rm und Gestank in Brettenfeld", "url": "https://www.tagesschau.de/inland/regional/badenwuerttemberg/swr-ausweichverkehr-aergert-dorfbewohner-laerm-und-gestank-in-rot-am-see-100.html", "thumbnailUrl": "https://images.tagesschau.de/image/f3b16cf7-4360-441c-b192-82f73e65d0f3/AAABjuV4REI/AAABjcWesUg/16x9-512.jpg", "date": "2024-04-16T07:45:00.000+02:00", "lat": 49.0967, "lon": 9.6493, "intensity": 0.7, "source": "Tagesschau"}, {"title": "Eintracht Frankfurt: Das muss passieren, damit der achte Platz f\u00fcr Europa reicht", "url": "https://www.tagesschau.de/inland/regional/hessen/hr-eintracht-frankfurt-das-muss-passieren-damit-der-achte-platz-fuer-europa-reicht-102.html", "thumbnailUrl": "https://images.tagesschau.de/image/b83713af-8a39-4a03-9944-04dc2da329a6/AAABjuWkRC4/AAABjcWesUg/16x9-512.jpg", "date": "2024-04-16T07:30:11.690+02:00", "lat": 50.1109, "lon": 8.6821, "intensity": 0.8, "source": "Tagesschau"}, {"title": "Sch\u00fcler verspr\u00fcht offenbar Tierabwehrspray in Umkleidekabine", "url": "https://www.tagesschau.de/inland/regional/niedersachsen/ndr-schueler-versprueht-offenbar-tierabwehrspray-in-umkleidekabine-100.html", "thumbnailUrl": "https://images.tagesschau.de/image/fd37c845-b4a0-482f-9ec5-311a21ab6250/AAABjuXqIxk/AAABjcWesUg/16x9-512.jpg", "date": "2024-04-16T07:07:00.000+02:00", "lat": 52.0364, "lon": 9.9793, "intensity": 0.8, "source": "Tagesschau"}, {"title": "Wo Reform auf Realit\u00e4t trifft", "url": "https://www.tagesschau.de/ausland/europa/faeser-rumaenien-102.html", "thumbnailUrl": "https://images.tagesschau.de/image/9b254717-d5fc-4486-a435-a5188d285b51/AAABjuVDkkk/AAABjcWesUg/16x9-512.jpg", "date": "2024-04-16T06:56:34.904+02:00", "lat": 52.520008, "lon": 13.404954, "intensity": 0.8, "source": "Tagesschau"}, {"title": "Das Problem mit den Elefanten - und Europa", "url": "https://www.tagesschau.de/ausland/afrika/botswana-elefanten-106.html", "thumbnailUrl": "https://images.tagesschau.de/image/08f6ce31-ee57-4e3d-b536-71a7899da79c/AAABjuU66h4/AAABjcWesUg/16x9-512.jpg", "date": "2024-04-16T06:47:07.555+02:00", "lat": -22.3285, "lon": 23.814, "intensity": 0.8, "source": "Tagesschau"}, {"title": "Iran und Israel - wer kann die Lage entsch\u00e4rfen?", "url": "https://www.tagesschau.de/multimedia/podcast/podcast-iran-israel-deeskalation-100.html", "thumbnailUrl": "https://images.tagesschau.de/image/fc7c73d5-f5d8-4926-ab61-a6add74523c8/AAABjuhQ3ik/AAABjcWesUg/16x9-512.jpg", "date": "2024-04-16T06:46:10.726+02:00", "lat": 51.389, "lon": 35.6895, "intensity": 0.8, "source": "Tagesschau"}, {"title": "Neues Tierheim: Rat der Stadt Duisburg beschlie\u00dft Neubau", "url": "https://www.tagesschau.de/inland/regional/nordrheinwestfalen/wdr-neues-tierheim-rat-der-stadt-duisburg-beschliesst-neubau-104.html", "thumbnailUrl": "https://images.tagesschau.de/image/28c94db9-10e2-436c-8edf-c8b9c7851789/AAABjuZfAUs/AAABjcWesUg/16x9-512.jpg", "date": "2024-04-16T06:46:00.000+02:00", "lat": 51.434, "lon": 6.774, "intensity": 0.6, "source": "Tagesschau"}, {"title": "Unwetter in S\u00fcdniedersachsen: B\u00e4ume auf Stra\u00dfen, Bahnverkehr gest\u00f6rt", "url": "https://www.tagesschau.de/inland/regional/niedersachsen/ndr-unwetter-in-suedniedersachsen-baeume-auf-strassen-bahnverkehr-gestoert-100.html", "thumbnailUrl": "https://images.tagesschau.de/image/63073c4c-a330-4df9-8299-8fddf3a86631/AAABjuVdKA0/AAABjcWesUg/16x9-512.jpg", "date": "2024-04-16T06:45:00.000+02:00", "lat": 51.5877, "lon": 10.3228, "intensity": 0.8, "source": "Tagesschau"}, {"title": "Hannover: Junge M\u00e4nner eilen Gewaltopfer zu Hilfe", "url": "https://www.tagesschau.de/inland/regional/niedersachsen/ndr-hannover-junge-maenner-eilen-gewaltopfer-zu-hilfe-100.html", "thumbnailUrl": "https://images.tagesschau.de/image/f9927396-7cda-456f-9f87-aa73601c8622/AAABjuVV37E/AAABjcWesUg/16x9-512.jpg", "date": "2024-04-16T06:44:00.000+02:00", "lat": 52.3759, "lon": 9.7332, "intensity": 0.8, "source": "Tagesschau"}, {"title": "Hamburg setzt auf mehr Eigenvorsorge beim Katastrophenschutz", "url": "https://www.tagesschau.de/inland/regional/hamburg/ndr-katastrophenschutz-hamburg-setzt-auf-mehr-eigenvorsorsorge-100.html", "thumbnailUrl": "https://images.tagesschau.de/image/a7bdafda-ea51-42a8-8a23-c6e86629fad0/AAABjuVFPGI/AAABjcWesUg/16x9-512.jpg", "date": "2024-04-16T06:44:00.000+02:00", "lat": 53.551085, "lon": 9.993682, "intensity": 0.7, "source": "Tagesschau"}, {"title": "Bei Havelsee in Potsdam-Mittelmark: Wolf soll Jagdhund angegriffen haben", "url": "https://www.tagesschau.de/inland/regional/brandenburg/rbb-bei-havelsee-in-potsdam-mittelmark-wolf-soll-jagdhund-angegriffen-haben-100.html", "thumbnailUrl": "https://images.tagesschau.de/image/90553800-3c8b-4311-8029-bdf7a6bfcaf3/AAABjuU_rBc/AAABjcWesUg/16x9-512.jpg", "date": "2024-04-16T06:39:02.000+02:00", "lat": 52.5479, "lon": 12.5868, "intensity": 0.6, "source": "Tagesschau"}, {"title": "Guten Morgen, NRW!", "url": "https://www.tagesschau.de/inland/regional/nordrheinwestfalen/wdr-guten-morgen-nrw-450.html", "thumbnailUrl": "https://images.tagesschau.de/image/14ed1b1f-a140-43fb-ba46-c7987fe6f1dc/AAABjuWIo6k/AAABjcWesUg/16x9-512.jpg", "date": "2024-04-16T06:38:00.000+02:00", "lat": 51.9607, "lon": 7.6261, "intensity": 0.8, "source": "Tagesschau"}, {"title": "Geldautomat in Hauptstuhl gesprengt", "url": "https://www.tagesschau.de/inland/regional/rheinlandpfalz/swr-geldautomat-in-hauptstuhl-gesprengt-100.html", "thumbnailUrl": "https://images.tagesschau.de/image/daf5a574-5dd2-49d2-af78-9ef44bbf9d80/AAABjuW4SIk/AAABjcWesUg/16x9-512.jpg", "date": "2024-04-16T06:27:09.000+02:00", "lat": 49.3838, "lon": 7.6001, "intensity": 0.8, "source": "Tagesschau"}, {"title": "Nur wenige Corona-Impfsch\u00e4den im Saarland anerkannt", "url": "https://www.tagesschau.de/inland/regional/saarland/sr-nur-wenige-corona-impfschaeden-im-saarland-anerkannt-100.html", "thumbnailUrl": "https://images.tagesschau.de/image/f180fc92-e45f-4c29-989c-cf417e8006ee/AAABjuWToJg/AAABjcWesUg/16x9-512.jpg", "date": "2024-04-16T06:24:00.000+02:00", "lat": 49.3964, "lon": 7.0203, "intensity": 0.2, "source": "Tagesschau"},