[{"title": "AfD gegen Verfassungsschutz - Gericht verk\u00fcndet Urteil", "url": "https://www.tagesschau.de/inland/afd-verfassungsschutz-verdachtsfall-gerichtsurteil-100.html", "thumbnailUrl": "https://images.tagesschau.de/image/1fe0201f-299a-4bad-a780-c2c26e16adeb/AAABj29Y_lw/AAABjwnlKNc/16x9-512.jpg", "date": "2024-05-13T02:27:35.021+02:00", "lat": 51.9607, "lon": 7.6261, "intensity": 0.7, "source": "Tagesschau"}, {"title": "Neuer Regen, weitere Todesopfer", "url": "https://www.tagesschau.de/ausland/amerika/brasilien-flut-106.html", "thumbnailUrl": "https://images.tagesschau.de/image/9da5fcdb-f231-4cb3-94be-fa9cc28ff013/AAABj28VqwI/AAABjwnlKNc/16x9-512.jpg", "date": "2024-05-13T01:14:02.504+02:00", "lat": -15.780148, "lon": -47.929722, "intensity": 0.8, "source": "Tagesschau"}, {"title": "Polizei verhindert St\u00f6raktion an Wahlkampfstand der AfD in Reutlingen", "url": "https://www.tagesschau.de/inland/regional/badenwuerttemberg/swr-polizei-verhindert-stoeraktion-an-wahlkampfstand-der-afd-in-reutlingen-100.html", "thumbnailUrl": "https://images.tagesschau.de/image/4deeb0a5-9167-4a2b-9401-35b8fbec15bc/AAABj27Xa70/AAABjwnlKNc/16x9-512.jpg", "date": "2024-05-12T23:34:00.000+02:00", "lat": 48.4979, "lon": 9.2068, "intensity": 0.7, "source": "Tagesschau"}, {"title": "Separatisten in Katalonien verlieren Mehrheit", "url": "https://www.tagesschau.de/ausland/europa/katalonien-wahl-112.html", "thumbnailUrl": "https://images.tagesschau.de/image/853779b2-15e9-4c15-9f20-5def3b546c02/AAABj26WoC8/AAABjwnlKNc/16x9-512.jpg", "date": "2024-05-12T23:08:10.032+02:00", "lat": 41.3851, "lon": 2.1774, "intensity": 0.8, "source": "Tagesschau"}, {"title": "++ Selenskyj berichtet von Ausweitung der K\u00e4mpfe ++", "url": "https://www.tagesschau.de/newsticker/liveblog-ukraine-sonntag-426.html", "thumbnailUrl": "https://images.tagesschau.de/image/103b4045-85a7-4d46-a2e0-1e0c4522dcc2/AAABj1cTvZg/AAABjwnlKNc/16x9-512.jpg", "date": "2024-05-12T22:51:57.309+02:00", "lat": 50.4501, "lon": 30.522, "intensity": 0.8, "source": "Tagesschau"}, {"title": "++ \u00c4gypten will sich V\u00f6lkermord-Klage anschlie\u00dfen ++", "url": "https://www.tagesschau.de/newsticker/liveblog-nahost-sonntag-140.html", "thumbnailUrl": "https://images.tagesschau.de/image/6d47ed91-ac8e-45c2-a5e1-0b4914c7dbbb/AAABjURKvoc/AAABjwnlKNc/16x9-512.jpg", "date": "2024-05-12T22:17:06.708+02:00", "lat": 31.413163, "lon": 34.802075, "intensity": 0.8, "source": "Tagesschau"}, {"title": "Verteidigungsminister Schoigu verliert sein Amt", "url": "https://www.tagesschau.de/ausland/asien/russland-schoigu-putin-100.html", "thumbnailUrl": "https://images.tagesschau.de/image/5f15fee5-d26b-4c9d-b01b-471228bea45c/AAABj25Euo8/AAABjwnlKNc/16x9-512.jpg", "date": "2024-05-12T21:43:00.062+02:00", "lat": 55.7522, "lon": 37.6156, "intensity": 0.8, "source": "Tagesschau"}, {"title": "Saarbr\u00fccken gewinnt gegen Freiburg II mit 2:1", "url": "https://www.tagesschau.de/inland/regional/saarland/sr-fcs-empfaengt-sc-freiburg-ii-102.html", "thumbnailUrl": "https://images.tagesschau.de/image/87fe8434-1921-4b01-b362-969c99c37510/AAABj25KZmw/AAABjwnlKNc/16x9-512.jpg", "date": "2024-05-12T21:29:00.000+02:00", "lat": 49.2331, "lon": 6.9611, "intensity": 0.8, "source": "Tagesschau"}, {"title": "Live-Blog 2. Liga: St. Pauli ist Bundesligist! Eintracht Braunschweig gerettet!", "url": "https://www.tagesschau.de/inland/regional/hamburg/ndr-live-blog-2-liga-hsv-oder-st-pauli-wer-gewinnt-das-stadtderby-102.html", "thumbnailUrl": "https://images.tagesschau.de/image/6595394d-cf19-448c-93cf-5f503331780c/AAABj256K9U/AAABjwnlKNc/16x9-512.jpg", "date": "2024-05-12T21:27:00.000+02:00", "lat": 53.5511, "lon": 9.9937, "intensity": 0.7, "source": "Tagesschau"}, {"title": "Heidelberg: \"Taylor Swift\"-Gottesdienste locken Fans in die Kirche", "url": "https://www.tagesschau.de/inland/regional/badenwuerttemberg/swr-heidelberg-taylor-swift-gottesdienste-locken-fans-in-die-kirche-100.html", "thumbnailUrl": "https://images.tagesschau.de/image/d1b466f3-b9f8-422d-8a5e-a3a42911a4ca/AAABj222HjU/AAABjwnlKNc/16x9-512.jpg", "date": "2024-05-12T21:01:00.000+02:00", "lat": 49.3988, "lon": 8.709, "intensity": 0.8, "source": "Tagesschau"}, {"title": "Auftakt f\u00fcr Dixieland Festival 2024 in Dresden", "url": "https://www.tagesschau.de/inland/regional/sachsen/mdr-auftakt-fuer-dixieland-festival-2024-in-dresden-100.html", "thumbnailUrl": "https://images.tagesschau.de/image/f02ea010-d909-4bb3-848b-e77fb2a987fe/AAABj28xUe8/AAABjwnlKNc/16x9-512.jpg", "date": "2024-05-12T20:49:17.000+02:00", "lat": 51.0504088, "lon": 13.7372621, "intensity": 0.5, "source": "Tagesschau"}, {"title": "Tesla-Gegner k\u00fcndigen weitere Proteste an", "url": "https://www.tagesschau.de/inland/regional/brandenburg/rbb-tesla-gegner-beenden-aktionstage-und-kuendigen-weitere-proteste-an-100.html", "thumbnailUrl": "https://images.tagesschau.de/image/106b24dc-1f6a-4559-a843-a54f08616d04/AAABj24iJv0/AAABjwnlKNc/16x9-512.jpg", "date": "2024-05-12T20:44:31.000+02:00", "lat": 52.351, "lon": 13.861, "intensity": 0.8, "source": "Tagesschau"}, {"title": "Werteunion gr\u00fcndet Landesverband in Brandenburg", "url": "https://www.tagesschau.de/inland/regional/brandenburg/rbb-werteunion-will-in-brandenburg-an-landtagswahl-teilnehmen-und-gruendet-landesverband-100.html", "thumbnailUrl": "https://images.tagesschau.de/image/b49ac28f-7970-4aa3-b4b0-8bc4651285f5/AAABj2fcUuo/AAABjwnlKNc/16x9-512.jpg", "date": "2024-05-12T20:27:58.000+02:00", "lat": 52.3007, "lon": 13.1651, "intensity": 0.5, "source": "Tagesschau"}, {"title": "Schlotterbeck f\u00fcr EM-Kader nominiert", "url": "https://www.tagesschau.de/inland/schlotterbeck-nationalelf-100.html", "thumbnailUrl": "https://images.tagesschau.de/image/dda78804-20e2-4da0-8625-21c504965173/AAABj21lpRA/AAABjwnlKNc/16x9-512.jpg", "date": "2024-05-12T20:10:38.195+02:00", "lat": 51.2465, "lon": 7.4129, "intensity": 0.7, "source": "Tagesschau"}, {"title": "44-J\u00e4hriger in Saarbr\u00fccken mit Messer angegriffen", "url": "https://www.tagesschau.de/inland/regional/saarland/sr-44-jaehriger-in-saarbruecken-mit-messer-angegriffen-100.html", "thumbnailUrl": "https://images.tagesschau.de/image/a6e498e6-1f72-403e-8c3a-c80ca38ebcbe/AAABj23_VDk/AAABjwnlKNc/16x9-512.jpg", "date": "2024-05-12T20:07:00.000+02:00", "lat": 49.2354, "lon": 6.9854, "intensity": 0.8, "source": "Tagesschau"}, {"title": "VfL Wolfsburg chancenlos bei Bayern M\u00fcnchen", "url": "https://www.tagesschau.de/inland/regional/niedersachsen/ndr-vfl-wolfsburg-chancenlos-bei-bayern-muenchen-102.html", "thumbnailUrl": "https://images.tagesschau.de/image/59d25baf-4d86-4217-81c4-93c51e3a7c1f/AAABj23ebWQ/AAABjwnlKNc/16x9-512.jpg", "date": "2024-05-12T20:06:00.000+02:00", "lat": 52.517, "lon": 11.621, "intensity": 0.7, "source": "Tagesschau"}, {"title": "Aufstieg perfekt! St. Pauli ist zur\u00fcck in der Bundesliga", "url": "https://www.tagesschau.de/inland/regional/hamburg/ndr-aufstieg-perfekt-st-pauli-ist-zurueck-in-der-bundesliga-100.html", "thumbnailUrl": "https://images.tagesschau.de/image/2d7de170-6a1c-4a03-8104-01bd0f3fc4ef/AAABj262lFw/AAABjwnlKNc/16x9-512.jpg", "date": "2024-05-12T19:56:00.000+02:00", "lat": 53.5587, "lon": 10.0067, "intensity": 0.9, "source": "Tagesschau"}, {"title": "Forschungsschiff \"Polarstern\" ist wieder in Bremerhaven", "url": "https://www.tagesschau.de/inland/regional/niedersachsen/ndr-forschungsschiff-polarstern-kehrt-nach-bremerhaven-zurueck-100.html", "thumbnailUrl": "https://images.tagesschau.de/image/65cf753f-8f26-42cf-9851-1955ac1fdcbe/AAABj23pbF8/AAABjwnlKNc/16x9-512.jpg", "date": "2024-05-12T19:41:00.000+02:00", "lat": 53.5396, "lon": 8.8017, "intensity": 0.8, "source": "Tagesschau"}, {"title": "Darmstadt 98: +++ Klare Worte nach klarer Niederlage +++ Lieberknecht will mit Klarer und Schuhen reden +++ Debakel gegen Hoffenheim +++", "url": "https://www.tagesschau.de/inland/regional/hessen/hr--tietz-vermisst-fehlende-gier--lilien-fans-liefern-sich-raststaetten-pruegelei--die-niederlage-der-lilien-in-der-video-zusammenfassung-102.html", "thumbnailUrl": "https://images.tagesschau.de/image/f6ef0d3a-5289-448e-84b3-3233b45c67dc/AAABj23TdZg/AAABjwnlKNc/16x9-512.jpg", "date": "2024-05-12T19:20:27.531+02:00", "lat": 49.8717, "lon": 8.6553, "intensity": 0.5, "source": "Tagesschau"}, {"title": "Mafioso aus Schwaigern wieder auf freiem Fu\u00df", "url": "https://www.tagesschau.de/inland/regional/badenwuerttemberg/swr-mafiosi-aus-schwaigern-wieder-auf-freiem-fuss-100.html", "thumbnailUrl": "https://images.tagesschau.de/image/7c955ff2-ceb0-46c8-999d-c314d992e7b7/AAABj23XD7Y/AAABjwnlKNc/16x9-512.jpg", "date": "2024-05-12T19:20:00.000+02:00", "lat": 49.1481, "lon": 9.0556, "intensity": 0.8, "source": "Tagesschau"}, {"title": "Tuning World Bodensee: Fast 110.000 Fans kommen nach Friedrichshafen", "url": "https://www.tagesschau.de/inland/regional/badenwuerttemberg/swr-tuning-world-bodensee-fast-110-000-fans-kommen-nach-friedrichshafen-100.html", "thumbnailUrl": "https://images.tagesschau.de/image/223c802e-2245-4fd6-9f46-e84b6e315d20/AAABj23XJzA/AAABjwnlKNc/16x9-512.jpg", "date": "2024-05-12T19:19:25.000+02:00", "lat": 47.65, "lon": 9.482, "intensity": 0.8, "source": "Tagesschau"}, {"title": "\"Giorgia\" als Europawahl-Strategie", "url": "https://www.tagesschau.de/europawahl/italien-meloni-europawahl-100.html", "thumbnailUrl": "https://images.tagesschau.de/image/c51dbe0a-8bf4-461f-9dc9-837f113be2af/AAABj23NBhQ/AAABjwnlKNc/16x9-512.jpg", "date": "2024-05-12T19:15:04.413+02:00", "lat": 41.9027835, "lon": 12.4963655, "intensity": 0.7, "source": "Tagesschau"}, {"title": "Formel E auf Ex-Flughafen Tempelhof: Wehrlein verliert in Berlin an Boden", "url": "https://www.tagesschau.de/inland/regional/berlin/rbb-formel-e-auf-ex-flughafen-tempelhof-wehrlein-verliert-in-berlin-an-boden-102.html", "thumbnailUrl": "https://images.tagesschau.de/image/debcaba3-97a6-4363-b779-64d31ad78dad/AAABj23OBBA/AAABjwnlKNc/16x9-512.jpg", "date": "2024-05-12T19:12:53.000+02:00", "lat": 52.4952, "lon": 13.4019, "intensity": 0.6, "source": "Tagesschau"}, {"title": "Fast \u00fcberall Fr\u00fchsommerwetter auch in der neuen Woche", "url": "https://www.tagesschau.de/inland/regional/niedersachsen/ndr-himmelfahrt-wie-wird-das-wetter-im-norden-am-langen-wochenende-100.html", "thumbnailUrl": "https://images.tagesschau.de/image/fa94524d-9b39-445c-ac3a-2ab841e16c7a/AAABj23KXhE/AAABjwnlKNc/16x9-512.jpg", "date": "2024-05-12T19:10:00.000+02:00", "lat": 52.4, "lon": 9.7, "intensity": 0.4, "source": "Tagesschau"}, {"title": "Stimmen zum Debakel gegen Hoffenheim: \"Es war ein absolutes Desaster\"", "url": "https://www.tagesschau.de/inland/regional/hessen/hr-stimmen-zum-debakel-gegen-hoffenheim-es-war-ein-absolutes-desaster-102.html", "thumbnailUrl": "https://images.tagesschau.de/image/bb4d8690-353a-4ad6-ac65-8c5bd0ba08f1/AAABj230aEE/AAABjwnlKNc/16x9-512.jpg", "date": "2024-05-12T19:04:46.145+02:00", "lat": 49.8788, "lon": 8.6524, "intensity": 0.8, "source": "Tagesschau"}, {"title": "Hafengeburtstag 2024 endet mit der gro\u00dfen Auslaufparade", "url": "https://www.tagesschau.de/inland/regional/hamburg/ndr-hamburger-hafengeburtstag-heute-grosse-auslaufparade-102.html", "thumbnailUrl": "https://images.tagesschau.de/image/7bbe207a-d64a-403c-9417-b1b181ff01ad/AAABj236mHk/AAABjwnlKNc/16x9-512.jpg", "date": "2024-05-12T18:59:00.000+02:00", "lat": 53.551086, "lon": 9.993682, "intensity": 1, "source": "Tagesschau"}, {"title": "Stau und stockender Verkehr: Kurzurlauber brauchen viel Geduld", "url": "https://www.tagesschau.de/inland/regional/niedersachsen/ndr-himmelfahrt-adac-rechnet-mit-vielen-staus-am-mittwoch-100.html", "thumbnailUrl": "https://images.tagesschau.de/image/fb131526-3d3a-44cc-8e43-adb34d6b28eb/AAABj23KZG8/AAABjwnlKNc/16x9-512.jpg", "date": "2024-05-12T18:42:00.000+02:00", "lat": 52.6367, "lon": 10.3819, "intensity": 0.8, "source": "Tagesschau"}, {"title": "Voglsammer und Halstenberg treffen: Hannover 96 siegt in Karlsruhe", "url": "https://www.tagesschau.de/inland/regional/niedersachsen/ndr-voglsammer-und-halstenberg-treffen-hannover-96-siegt-in-karlsruhe-100.html", "thumbnailUrl": "https://images.tagesschau.de/image/45dd52b5-16e5-4449-9def-f0591f98181b/AAABj20CtKk/AAABjwnlKNc/16x9-512.jpg", "date": "2024-05-12T18:37:00.000+02:00", "lat": 49.0069, "lon": 8.4037, "intensity": 0.8, "source": "Tagesschau"}, {"title": "Wittmund: 90-J\u00e4hriger verursacht Unfall mit acht Verletzten", "url": "https://www.tagesschau.de/inland/regional/niedersachsen/ndr-wittmund-90-jaehriger-verursacht-unfall-mit-acht-verletzten-100.html", "thumbnailUrl": "https://images.tagesschau.de/image/de6f8572-9495-46c8-a445-ba7ea4942233/AAABj2zCnLk/AAABjwnlKNc/16x9-512.jpg", "date": "2024-05-12T18:08:00.000+02:00", "lat": 53.5814, "lon": 7.7868, "intensity": 0.8, "source": "Tagesschau"}, {"title": "Basketball-Bundesliga: Alba Berlin schickt Crailsheim in die zweite Liga", "url": "https://www.tagesschau.de/inland/regional/berlin/rbb-basketball-bundesliga-alba-berlin-schickt-crailsheim-in-die-zweite-liga-102.html", "thumbnailUrl": "https://images.tagesschau.de/image/d7a0020f-e5a1-4477-8c90-61b89cc54084/AAABj22Ps7c/AAABjwnlKNc/16x9-512.jpg", "date": "2024-05-12T18:04:34.000+02:00", "lat": 52.52, "lon": 13.5086, "intensity": 0.7, "source": "Tagesschau"}, {"title": "Th\u00fcringer AfD will neun Mitglieder ausschlie\u00dfen", "url": "https://www.tagesschau.de/inland/afd-thueringen-mitglieder-ausschluss-100.html", "thumbnailUrl": "https://images.tagesschau.de/image/d22a0309-acff-48f2-9e06-5bf8f467e4bd/AAABj22ImCU/AAABjwnlKNc/16x9-512.jpg", "date": "2024-05-12T18:03:02.024+02:00", "lat": 51.011, "lon": 10.4515, "intensity": 0.6, "source": "Tagesschau"}, {"title": "Rostock Seawolves feiern Klassenerhalt - Hamburg Towers in Play-ins ", "url": "https://www.tagesschau.de/inland/regional/mecklenburgvorpommern/ndr-rostock-seawolves-feiern-klassenerhalt-hamburg-towers-in-play-ins-102.html", "thumbnailUrl": "https://images.tagesschau.de/image/eaa81472-7c9a-42c1-852f-c490d7a94f9b/AAABj22W-H0/AAABjwnlKNc/16x9-512.jpg", "date": "2024-05-12T17:51:00.000+02:00", "lat": 54.087525, "lon": 12.099146, "intensity": 0.8, "source": "Tagesschau"}, {"title": "Friedenspreis Dresden und Requiem f\u00fcr Alexej Nawalny", "url": "https://www.tagesschau.de/inland/regional/sachsen/mdr-friedenspreis-dresden-und-requiem-fuer-alexej-nawalny-100.html", "thumbnailUrl": "https://images.tagesschau.de/image/5ebab8bb-72d2-4109-8561-e59311f69b46/AAABj28xLPU/AAABjwnlKNc/16x9-512.jpg", "date": "2024-05-12T17:48:38.000+02:00", "lat": 51.050409, "lon": 13.737262, "intensity": 0.8, "source": "Tagesschau"}, {"title": "Geplatzter Urlaub trotz gebuchter Unterkunft", "url": "https://www.tagesschau.de/wirtschaft/verbraucher/hotel-lotterie-plusminus-100.html", "thumbnailUrl": "https://images.tagesschau.de/image/28ce271f-bc1f-4b86-8415-f713d7ca9b7a/AAABj1ybbWc/AAABjwnlKNc/16x9-512.jpg", "date": "2024-05-12T17:44:58.455+02:00", "lat": 48.8566, "lon": 2.3522, "intensity": 0.8, "source": "Tagesschau"}, {"title": "Polizei ermittelt gegen 39 Demo-Teilnehmer", "url": "https://www.tagesschau.de/inland/regional/berlin/pro-palaestina-demo-neukoelln-festnahmen-100.html", "thumbnailUrl": "https://images.tagesschau.de/image/66443180-72f5-4e77-bafc-ec2ec06d43df/AAABj213-js/AAABjwnlKNc/16x9-512.jpg", "date": "2024-05-12T17:39:10.000+02:00", "lat": 52.4814, "lon": 13.4431, "intensity": 0.8, "source": "Tagesschau"}, {"title": "Wetterlage und Temperaturen", "url": "https://www.tagesschau.de/wetter/europa-welt", "thumbnailUrl": "https://images.tagesschau.de/image/6e7d3b16-79c8-4308-822b-20c3035236b5/AAABj21rbo8/AAABjwnlKNc/16x9-512.jpg", "date": "2024-05-12T17:37:17.280+02:00", "lat": 51.1657, "lon": 10.4515, "intensity": 0.3, "source": "Tagesschau"}, {"title": "Gro\u00dfbrand zerst\u00f6rt Einkaufszentrum in Warschau", "url": "https://www.tagesschau.de/ausland/europa/warschau-brand-feuer-einkaufszentrum-100.html", "thumbnailUrl": "https://images.tagesschau.de/image/f20017f0-47d2-4705-be49-8238c03b6121/AAABj21YlZ0/AAABjwnlKNc/16x9-512.jpg", "date": "2024-05-12T17:36:58.437+02:00", "lat": 52.2297, "lon": 21.0122, "intensity": 0.8, "source": "Tagesschau"}, {"title": "83-j\u00e4hriger Rettungsschwimmer aus Th\u00fcringen gewinnt bei Deutschen Seniorenmeisterschaften", "url": "https://www.tagesschau.de/inland/regional/thueringen/mdr-mit-lust-und-ehrgeiz-83-jaehriger-rettungsschwimmer-tritt-bei-deutschen-meisterschaften-an-100.html", "thumbnailUrl": "https://images.tagesschau.de/image/2b7973a1-05f6-4fb7-ac1c-d2a74d72221d/AAABj188dqs/AAABjwnlKNc/16x9-512.jpg", "date": "2024-05-12T17:36:16.000+02:00", "lat": 51.1657, "lon": 10.4528, "intensity": 0.5, "source": "Tagesschau"}, {"title": "Wir bleiben drin: Fan-Marsch des VfL Bochum", "url": "https://www.tagesschau.de/inland/regional/nordrheinwestfalen/wdr-wir-bleiben-drin-fan-marsch-des-vfl-bochum-100.html", "thumbnailUrl": "https://images.tagesschau.de/image/04662e08-b9c7-4495-9127-fd4fa4a8c561/AAABj23GkdI/AAABjwnlKNc/16x9-512.jpg", "date": "2024-05-12T17:36:00.000+02:00", "lat": 51.481845, "lon": 7.192454, "intensity": 0.6, "source": "Tagesschau"}, {"title": "\"G\u00e4ngiges antisemitisches Muster\"", "url": "https://www.tagesschau.de/inland/gesellschaft/esc-bilanz-israel-100.html", "thumbnailUrl": "https://images.tagesschau.de/image/288d8ff4-9968-4e18-9342-302543eeedce/AAABj21g7dk/AAABjwnlKNc/16x9-512.jpg", "date": "2024-05-12T17:34:12.418+02:00", "lat": 31.046051, "lon": 34.781768, "intensity": 0.7, "source": "Tagesschau"}, {"title": "Europa-League-Platz von Eintracht Frankfurt wackelt", "url": "https://www.tagesschau.de/inland/regional/hessen/hr-europa-league-platz-von-eintracht-frankfurt-wackelt-102.html", "thumbnailUrl": "https://images.tagesschau.de/image/51b6a696-8034-438d-844b-d00bbbef303f/AAABj2136Y8/AAABjwnlKNc/16x9-512.jpg", "date": "2024-05-12T17:29:43.876+02:00", "lat": 50.1109, "lon": 8.67, "intensity": 0.7, "source": "Tagesschau"}, {"title": "Entwarnung: Brand in ehemaligen Malzfabrik in Dresden Osten gel\u00f6scht", "url": "https://www.tagesschau.de/inland/regional/sachsen/mdr-feuer-im-dresdner-osten-geloescht-polizei-hat-hinweise-auf-brandstiftung-100.html", "thumbnailUrl": "https://images.tagesschau.de/image/e066fc70-c8d2-43b6-a0ca-7acbfb9155b1/AAABj21rN9c/AAABjwnlKNc/16x9-512.jpg", "date": "2024-05-12T17:27:00.000+02:00", "lat": 51.0504, "lon": 13.7913, "intensity": 0.3, "source": "Tagesschau"}, {"title": "Regionalliga Nordost: Union Berlin holt Titel und erwartet Aufstiegsspiele", "url": "https://www.tagesschau.de/inland/regional/berlin/rbb-regionalliga-nordost-union-berlin-holt-titel-und-erwartet-aufstiegsspiele-102.html", "thumbnailUrl": "https://images.tagesschau.de/image/9edd9094-035f-4124-b121-119d95dfe170/AAABj21BOUI/AAABjwnlKNc/16x9-512.jpg", "date": "2024-05-12T17:26:54.000+02:00", "lat": 52.5192, "lon": 13.4073, "intensity": 0.8, "source": "Tagesschau"}, {"title": "Eintracht: +++ Europa League doch in Gefahr +++ Kr\u00f6sche sieht mehr Licht als Schatten +++ Seltsame Saison \"mit gl\u00fccklichem Ende\" +++", "url": "https://www.tagesschau.de/inland/regional/hessen/hr--eintracht-wohl-mit-chaibi-einig--glasner-fast-nur-kolo-muani-der-tore-erzielt--bericht-eintracht-sagt-aouar-ab-100.html", "thumbnailUrl": "https://images.tagesschau.de/image/157ced03-085c-445e-a360-2a672a4d2fad/AAABj21rDRA/AAABjwnlKNc/16x9-512.jpg", "date": "2024-05-12T17:26:04.311+02:00", "lat": 50.110922, "lon": 8.682127, "intensity": 0.6, "source": "Tagesschau"}, {"title": "Darmstadt 98 bricht beim letzten Bundesliga-Heimspiel gegen Hoffenheim in sich zusammen", "url": "https://www.tagesschau.de/inland/regional/hessen/hr-darmstadt-98-bricht-beim-letzten-bundesliga-heimspiel-gegen-hoffenheim-in-sich-zusammen-102.html", "thumbnailUrl": "https://images.tagesschau.de/image/f530df76-d3a8-4f76-a696-0169e4fee33f/AAABj21pPH0/AAABjwnlKNc/16x9-512.jpg", "date": "2024-05-12T17:23:25.377+02:00", "lat": 49.8707, "lon": 8.6526, "intensity": 0.7, "source": "Tagesschau"}, {"title": "Fu\u00dfg\u00e4ngerin von Auto angefahren und t\u00f6dlich verletzt", "url": "https://www.tagesschau.de/inland/regional/niedersachsen/ndr-fussgaengerin-von-auto-angefahren-und-toedlich-verletzt-100.html", "thumbnailUrl": "https://images.tagesschau.de/image/43b76780-159b-4401-8838-633de7b98158/AAABj21loLU/AAABjwnlKNc/16x9-512.jpg", "date": "2024-05-12T17:16:00.000+02:00", "lat": 52.3759, "lon": 9.7332, "intensity": 0.8, "source": "Tagesschau"}, {"title": "Radfahrer stirbt nach Sturz in der Nacht", "url": "https://www.tagesschau.de/inland/regional/niedersachsen/ndr-radfahrer-stirbt-nach-sturz-in-der-nacht-100.html", "thumbnailUrl": "https://images.tagesschau.de/image/f4bcd37b-ba1f-48f1-b58a-bfcd5b53131f/AAABj21PsFc/AAABjwnlKNc/16x9-512.jpg", "date": "2024-05-12T16:54:00.000+02:00", "lat": 53.2794, "lon": 9.2106, "intensity": 0.8, "source": "Tagesschau"}, {"title": "Dreij\u00e4hrige aus Kassel zeitweise vermisst: 70 Jahre alter Verd\u00e4chtiger nach Festnahme wieder frei", "url": "https://www.tagesschau.de/inland/regional/hessen/hr-in-koeln-polizei-findet-vermisste-dreijaehrige-aus-kassel-bei-70-jaehrigem-100.html", "thumbnailUrl": "https://images.tagesschau.de/image/1f337ad2-cb63-4ff7-901d-7ecf03a016e3/AAABj209RRM/AAABjwnlKNc/16x9-512.jpg", "date": "2024-05-12T16:37:21.270+02:00", "lat": 51.3397, "lon": 7.6015, "intensity": 0.8, "source": "Tagesschau"}, {"title": "Sieg gegen Wiesbaden: Eintracht Braunschweig schafft Klassenerhalt", "url": "https://www.tagesschau.de/inland/regional/niedersachsen/ndr-sieg-gegen-wiesbaden-eintracht-braunschweig-schafft-klassenerhalt-102.html", "thumbnailUrl": "https://images.tagesschau.de/image/c7109ec6-b6cc-4f8d-83d4-ebb3afca7d9c/AAABj25gkCw/AAABjwnlKNc/16x9-512.jpg", "date": "2024-05-12T16:32:00.000+02:00", "lat": 52.268874, "lon": 10.52677, "intensity": 0.8, "source": "Tagesschau"}, {"title": "\"Es ist unheimlich\"", "url": "https://www.tagesschau.de/ausland/ukraine-charkiw-144.html", "thumbnailUrl": "https://images.tagesschau.de/image/63154950-762e-4599-96d2-85c585d25fad/AAABj2zlOHw/AAABjwnlKNc/16x9-512.jpg", "date": "2024-05-12T16:26:17.084+02:00", "lat": 50.0, "lon": 36.3167, "intensity": 0.8, "source": "Tagesschau"}, {"title": "Starke Schmerzen, wenig Forschung: Viele Frauen leiden an Endometriose ", "url": "https://www.tagesschau.de/inland/regional/saarland/sr-starke-schmerzen-wenig-forschung-viele-frauen-leiden-an-endometriose-100.html", "thumbnailUrl": "https://images.tagesschau.de/image/18a2cfed-050e-4ae7-9f41-3844d305d69d/AAABj203vrQ/AAABjwnlKNc/16x9-512.jpg", "date": "2024-05-12T16:18:00.000+02:00", "lat": 49.3964, "lon": 6.9918, "intensity": 0.7, "source": "Tagesschau"}, {"title": "Regionalliga Nordost: Babelsberg gewinnt, Absteiger BAK verliert hoch, BFC nur Remis", "url": "https://www.tagesschau.de/inland/regional/brandenburg/rbb-regionalliga-nordost-babelsberg-gewinnt-absteiger-bak-verliert-hoch-bfc-nur-remis-102.html", "thumbnailUrl": "https://images.tagesschau.de/image/499d63f3-0a0e-4009-9c5f-3efb88db84bd/AAABj20kkD4/AAABjwnlKNc/16x9-512.jpg", "date": "2024-05-12T16:06:40.000+02:00", "lat": 52.3934, "lon": 13.1136, "intensity": 0.8, "source": "Tagesschau"}, {"title": "Aufstiegs-Entscheidung vertagt: Energie Cottbus spielt nur 3:3 gegen Luckenwalde", "url": "https://www.tagesschau.de/inland/regional/brandenburg/rbb-aufstiegs-entscheidung-vertagt-energie-cottbus-spielt-nur-33-gegen-luckenwalde-102.html", "thumbnailUrl": "https://images.tagesschau.de/image/69f9e8cd-49cd-4740-986f-f1a3c30b00bb/AAABj20kkyI/AAABjwnlKNc/16x9-512.jpg", "date": "2024-05-12T16:06:33.000+02:00", "lat": 51.73783, "lon": 13.19225, "intensity": 0.8, "source": "Tagesschau"}, {"title": "Polarlichter leuchten \u00fcber RLP ", "url": "https://www.tagesschau.de/inland/regional/rheinlandpfalz/swr-kommende-nacht-grosse-chance-auf-polarlichter-ueber-rlp-100.html", "thumbnailUrl": "https://images.tagesschau.de/image/a6cfa330-264c-4a98-aafe-d781872333f4/AAABj2Z1aOo/AAABjwnlKNc/16x9-512.jpg", "date": "2024-05-12T15:56:00.000+02:00", "lat": 50.3569, "lon": 7.6129, "intensity": 0.6, "source": "Tagesschau"}, {"title": "Fr\u00fchlingsfest in Stuttgart: 1,4 Millionen Besucher und aggressive Jugendliche", "url": "https://www.tagesschau.de/inland/regional/badenwuerttemberg/swr-fruehlingsfest-in-stuttgart-14-millionen-besucher-und-aggressive-jugendliche-100.html", "thumbnailUrl": "https://images.tagesschau.de/image/df847ac0-1e4e-4f4d-81d9-27e979d2acff/AAABj20f_MQ/AAABjwnlKNc/16x9-512.jpg", "date": "2024-05-12T15:54:00.000+02:00", "lat": 48.7758, "lon": 9.1833, "intensity": 0.8, "source": "Tagesschau"}, {"title": "Der 1. FC Kaiserlautern ist vor dem Abstieg gerettet", "url": "https://www.tagesschau.de/inland/regional/saarland/sr-der-1-fc-kaiserlautern-ist-vor-dem-abstieg-gerettet-102.html", "thumbnailUrl": "https://images.tagesschau.de/image/57c550f1-cfdb-4646-bf50-ad602dc75802/AAABj20WyEs/AAABjwnlKNc/16x9-512.jpg", "date": "2024-05-12T15:43:00.000+02:00", "lat": 49.44323, "lon": 7.77107, "intensity": 0.8, "source": "Tagesschau"}, {"title": "Polizei sucht T\u00e4ter nach Angriff auf selbsternannten \"Anzeigenhauptmeister\"", "url": "https://www.tagesschau.de/inland/regional/sachsen/mdr-polizei-sucht-taeter-nach-angriff-auf-selbsternannten-anzeigenhauptmeister-100.html", "thumbnailUrl": "https://images.tagesschau.de/image/bcccc73a-57a8-487a-87ab-14e60305f1da/AAABj28xZ0U/AAABjwnlKNc/16x9-512.jpg", "date": "2024-05-12T15:42:56.000+02:00", "lat": 51.15083, "lon": 14.99167, "intensity": 0.6, "source": "Tagesschau"}, {"title": "St. Pauli steigt in die Fu\u00dfball-Bundesliga auf", "url": "https://www.tagesschau.de/sport/bundesliga-stpauli-aufstieg-100.html", "thumbnailUrl": "https://images.tagesschau.de/image/45ff974f-379b-499c-8e25-42eec8834ddd/AAABj2z0Zx4/AAABjwnlKNc/16x9-512.jpg", "date": "2024-05-12T15:37:19.049+02:00", "lat": 53.5533, "lon": 9.968, "intensity": 0.8, "source": "Tagesschau"}, {"title": "Dreij\u00e4hrige in K\u00f6ln gefunden - 70-J\u00e4hriger aus der Haft entlassen", "url": "https://www.tagesschau.de/inland/regional/nordrheinwestfalen/wdr-dreijaehrige-in-koeln-verschwunden-suche-nach-helin-geht-weiter-100.html", "thumbnailUrl": "https://images.tagesschau.de/image/16edefde-6243-4175-876f-30047fca5dc7/AAABj20L1cc/AAABjwnlKNc/16x9-512.jpg", "date": "2024-05-12T15:34:00.000+02:00", "lat": 50.9331, "lon": 7.0314, "intensity": 0.8, "source": "Tagesschau"}, {"title": "2. Bundesliga: SV Wehen Wiesbaden verpasst sicheren Klassenerhalt", "url": "https://www.tagesschau.de/inland/regional/hessen/hr-2-bundesliga-sv-wehen-wiesbaden-verpasst-sicheren-klassenerhalt-102.html", "thumbnailUrl": "https://images.tagesschau.de/image/4e847a19-f5d7-44a2-a1ed-2875d1943d4f/AAABj20A54A/AAABjwnlKNc/16x9-512.jpg", "date": "2024-05-12T15:26:29.766+02:00", "lat": 52.2689, "lon": 10.5294, "intensity": 0.8, "source": "Tagesschau"}, {"title": "Kommentar zum Aufstieg des FC St. Pauli: Fu\u00dfball-Deutschland darf sich freuen", "url": "https://www.tagesschau.de/inland/regional/hamburg/ndr-kommentar-zum-aufstieg-des-fc-st-pauli-fussball-deutschland-darf-sich-freuen-106.html", "thumbnailUrl": "https://images.tagesschau.de/image/1e5f614c-2034-4f77-97e3-0d245f2d3e90/AAABj262jqA/AAABjwnlKNc/16x9-512.jpg", "date": "2024-05-12T15:25:00.000+02:00", "lat": 53.551, "lon": 9.982, "intensity": 0.8, "source": "Tagesschau"}, {"title": "Pistorius erinnert an Ende der Berliner Luftbr\u00fccke", "url": "https://www.tagesschau.de/inland/regional/berlin/gedenken-berliner-luftbruecke-pistorius-100.html", "thumbnailUrl": "https://images.tagesschau.de/image/73e93331-9313-4814-865a-e9970d97b283/AAABj2z2GmI/AAABjwnlKNc/16x9-512.jpg", "date": "2024-05-12T15:19:39.000+02:00", "lat": 52.520008, "lon": 13.404954, "intensity": 0.8, "source": "Tagesschau"}, {"title": "Polizeieinsatz in Potsdam: Mann wirft M\u00f6bel aus dem achten Stock", "url": "https://www.tagesschau.de/inland/regional/brandenburg/rbb-polizeieinsatz-in-potsdam-mann-wirft-moebel-aus-dem-achten-stock-100.html", "thumbnailUrl": "https://images.tagesschau.de/image/5a92eceb-4826-456b-b1f7-df3bd2a0a7dd/AAABj2z2Cyg/AAABjwnlKNc/16x9-512.jpg", "date": "2024-05-12T15:18:01.000+02:00", "lat": 52.3906, "lon": 13.0657, "intensity": 0.7, "source": "Tagesschau"}, {"title": "Mehr als 300 Tote bei Sturzfluten in Afghanistan", "url": "https://www.tagesschau.de/ausland/asien/afghanistan-hochwasser-100.html", "thumbnailUrl": "https://images.tagesschau.de/image/860c8c9c-f3ef-4c29-aba2-d8be4b6621ba/AAABj2zFzCM/AAABjwnlKNc/16x9-512.jpg", "date": "2024-05-12T15:15:16.064+02:00", "lat": 34.5333, "lon": 69.3451, "intensity": 1, "source": "Tagesschau"}, {"title": "Kleine Kiebitze werden gro\u00df: Landesweit erste Kiebitz-Aufzuchtstation im Zoo Landau", "url": "https://www.tagesschau.de/inland/regional/rheinlandpfalz/swr-kleine-kiebitze-werden-gross-landesweit-erste-kiebitz-aufzuchtstation-im-zoo-landau-100.html", "thumbnailUrl": "https://images.tagesschau.de/image/4bbfb864-a9cb-47e3-9352-101ddb501a82/AAABj2zszx0/AAABjwnlKNc/16x9-512.jpg", "date": "2024-05-12T14:59:41.000+02:00", "lat": 49.195, "lon": 8.1175, "intensity": 0.8, "source": "Tagesschau"}, {"title": "Rund 26.000 Liter G\u00fclle ausgelaufen - Lkw-Fahrer zu schnell", "url": "https://www.tagesschau.de/inland/regional/niedersachsen/ndr-rund-26-000-liter-guelle-ausgelaufen-lkw-fahrer-zu-schnell-100.html", "thumbnailUrl": "https://images.tagesschau.de/image/6dd2fd98-754d-4f14-b6ff-a1e2536ea30f/AAABj2zlbQE/AAABjwnlKNc/16x9-512.jpg", "date": "2024-05-12T14:49:00.000+02:00", "lat": 52.729351, "lon": 8.278799, "intensity": 0.7, "source": "Tagesschau"}, {"title": "Pl\u00fcschtier-Schlange sorgt in Mainz-Kostheim f\u00fcr Polizeieinsatz", "url": "https://www.tagesschau.de/inland/regional/rheinlandpfalz/swr-plueschtier-schlange-sorgt-in-mainz-kostheim-fuer-polizeieinsatz-100.html", "thumbnailUrl": "https://images.tagesschau.de/image/32ba1935-39a7-4c17-bc4c-6db34c60b220/AAABj2zs6lc/AAABjwnlKNc/16x9-512.jpg", "date": "2024-05-12T14:46:45.000+02:00", "lat": 50.0086, "lon": 8.2529, "intensity": 0.4, "source": "Tagesschau"}, {"title": "Reiseverkehr in NRW: R\u00fcckreise am Sonntag", "url": "https://www.tagesschau.de/inland/regional/nordrheinwestfalen/wdr-reiseverkehr-in-nrw-viele-staus-und-volle-zuege-zu-christi-himmelfahrt-102.html", "thumbnailUrl": "https://images.tagesschau.de/image/839dae1e-5d9a-431d-813f-1d88a2c40c60/AAABj2zaXgw/AAABjwnlKNc/16x9-512.jpg", "date": "2024-05-12T14:42:00.000+02:00", "lat": 51.4818, "lon": 7.6261, "intensity": 0.2, "source": "Tagesschau"}, {"title": "F\u00fcnf Verletzte nach Br\u00e4nden in Aalen", "url": "https://www.tagesschau.de/inland/regional/badenwuerttemberg/swr-fuenf-verletzte-nach-braenden-in-aalen-100.html", "thumbnailUrl": "https://images.tagesschau.de/image/8b153baf-47af-49cd-8b11-6743ddc872f0/AAABj2zWtfU/AAABjwnlKNc/16x9-512.jpg", "date": "2024-05-12T14:41:00.000+02:00", "lat": 48.8379, "lon": 10.093, "intensity": 0.7, "source": "Tagesschau"}, {"title": "Einfamilienhaus-Keller in Flammen: Toter bei Brand in Stockstadt", "url": "https://www.tagesschau.de/inland/regional/hessen/hr-einfamilienhaus-keller-in-flammen-toter-bei-brand-in-stockstadt-100.html", "thumbnailUrl": "https://images.tagesschau.de/image/1c0b035d-4ce7-4b8d-b89b-13ecc1959375/AAABj2zTEnE/AAABjwnlKNc/16x9-512.jpg", "date": "2024-05-12T14:40:26.620+02:00", "lat": 49.8958, "lon": 8.425, "intensity": 0.8, "source": "Tagesschau"}, {"title": "Reiten: Brasilianer Mansur gewinnt Gro\u00dfen Preis - Schwerer Sturz in Hamburg", "url": "https://www.tagesschau.de/inland/regional/hamburg/ndr-reiten-brasilianer-mansur-gewinnt-grossen-preis-schwerer-sturz-in-hamburg-102.html", "thumbnailUrl": "https://images.tagesschau.de/image/ae359fa3-ccdb-4510-b537-1a0b6327b7e7/AAABj25tRCc/AAABjwnlKNc/16x9-512.jpg", "date": "2024-05-12T14:36:00.000+02:00", "lat": 53.5511, "lon": 9.8234, "intensity": 0.8, "source": "Tagesschau"}, {"title": "24 Stunden wandern um Pforzheim: Familie Wolf stellte sich Herausforderung im Schwarzwald", "url": "https://www.tagesschau.de/inland/regional/badenwuerttemberg/swr-24-stunden-wandern-um-pforzheim-herausforderung-fuer-familie-wolf-im-schwarzwald-100.html", "thumbnailUrl": "https://images.tagesschau.de/image/b93b541b-943d-4675-83f1-6af51564f70e/AAABj2u1eAc/AAABjwnlKNc/16x9-512.jpg", "date": "2024-05-12T14:32:00.000+02:00", "lat": 48.892834, "lon": 8.694726, "intensity": 0.7, "source": "Tagesschau"}, {"title": "\"Nichts funktioniert in diesem Land\"", "url": "https://www.tagesschau.de/ausland/afrika/senegal-migranten-herkunft-100.html", "thumbnailUrl": "https://images.tagesschau.de/image/987bf272-209f-4ba5-ac50-893022122360/AAABj2zI-oo/AAABjwnlKNc/16x9-512.jpg", "date": "2024-05-12T14:31:02.092+02:00", "lat": 14.4974, "lon": -14.4524, "intensity": 0.8, "source": "Tagesschau"}, {"title": "Fall Helin: Was tun, wenn das eigene Kind verschwindet?", "url": "https://www.tagesschau.de/inland/regional/nordrheinwestfalen/wdr-fall-helin-was-tun-wenn-das-eigene-kind-verschwindet-100.html", "thumbnailUrl": "https://images.tagesschau.de/image/48034b60-11aa-4347-b469-2786ad1470d8/AAABj25OEMw/AAABjwnlKNc/16x9-512.jpg", "date": "2024-05-12T13:58:00.000+02:00", "lat": 50.9375, "lon": 6.9603, "intensity": 0.8, "source": "Tagesschau"}, {"title": "Blo\u00df nicht politisch werden - eine vertane Chance", "url": "https://www.tagesschau.de/kommentar/schweden-esc-kommentar-100.html", "thumbnailUrl": "https://images.tagesschau.de/image/0b84c898-ddbf-43a4-9a07-0483784dba22/AAABj2yCHG0/AAABjwnlKNc/16x9-512.jpg", "date": "2024-05-12T13:56:08.132+02:00", "lat": 59.3293, "lon": 15.2551, "intensity": 0.7, "source": "Tagesschau"}, {"title": "Vorentscheidung verpasst: Turbine muss um Aufstieg zittern", "url": "https://www.tagesschau.de/inland/regional/berlin/rbb-vorentscheidung-verpasst-turbine-muss-um-aufstieg-zittern-100.html", "thumbnailUrl": "https://images.tagesschau.de/image/80916c34-72e0-44b4-bb93-0caaf504dc05/AAABj2x9A4Y/AAABjwnlKNc/16x9-512.jpg", "date": "2024-05-12T13:53:17.000+02:00", "lat": 52.3989, "lon": 13.0611, "intensity": 0.6, "source": "Tagesschau"}, {"title": "Rund 200.000 Euro Schaden bei Brand in Oyten", "url": "https://www.tagesschau.de/inland/regional/niedersachsen/ndr-rund-200-000-euro-schaden-bei-brand-in-oyten-100.html", "thumbnailUrl": "https://images.tagesschau.de/image/eb2f45d0-1c5b-4755-9eed-7837a4d4e5d4/AAABj2x-7Js/AAABjwnlKNc/16x9-512.jpg", "date": "2024-05-12T13:03:00.000+02:00", "lat": 53.0964, "lon": 9.0708, "intensity": 0.7, "source": "Tagesschau"}, {"title": "Experten: Hochwasser wie zum Jahreswechsel k\u00fcnftig wohl h\u00e4ufiger", "url": "https://www.tagesschau.de/inland/regional/niedersachsen/ndr-experten-hochwasser-wie-zum-jahreswechsel-kuenftig-wohl-haeufiger-100.html", "thumbnailUrl": "https://images.tagesschau.de/image/e283609d-3439-4b98-9ab5-4391015486d4/AAABj2yLr4Y/AAABjwnlKNc/16x9-512.jpg", "date": "2024-05-12T12:43:00.000+02:00", "lat": 52.3957, "lon": 9.9846, "intensity": 0.8, "source": "Tagesschau"}, {"title": "Wie man sich vor Liebesbetr\u00fcgern im Internet sch\u00fctzen kann", "url": "https://www.tagesschau.de/inland/regional/saarland/sr-wie-man-sich-vor-liebesbetruegern-im-internet-schuetzen-kann-100.html", "thumbnailUrl": "https://images.tagesschau.de/image/89afc68a-fceb-4525-ba3e-aa1049390c60/AAABj2xcBdw/AAABjwnlKNc/16x9-512.jpg", "date": "2024-05-12T12:29:00.000+02:00", "lat": 49.3964, "lon": 6.9694, "intensity": 0.8, "source": "Tagesschau"}, {"title": "Ein Sieg f\u00fcr die Vielfalt", "url": "https://www.tagesschau.de/kultur/esc-nemo-104.html", "thumbnailUrl": "https://images.tagesschau.de/image/f180a980-1b26-424c-be99-0d3a9d1bbac1/AAABj2xE1pg/AAABjwnlKNc/16x9-512.jpg", "date": "2024-05-12T12:27:49.379+02:00", "lat": 46.8182, "lon": 8.2319, "intensity": 0.8, "source": "Tagesschau"}, {"title": "Kaltes klares Wasser: Qualit\u00e4t von Brandenburger Badeseen meist ausgezeichnet", "url": "https://www.tagesschau.de/inland/regional/brandenburg/rbb-start-der-badesaison-brandenburger-badeseen-haben-sehr-gute-wasserqualitaet-100.html", "thumbnailUrl": "https://images.tagesschau.de/image/87b85f47-0efb-4a9f-8d71-aec7adfe8acb/AAABj2wH4zA/AAABjwnlKNc/16x9-512.jpg", "date": "2024-05-12T12:22:51.000+02:00", "lat": 52.5013, "lon": 13.4803, "intensity": 0.8, "source": "Tagesschau"}, {"title": "Eintracht Frankfurt Frauen: Nur noch ein Schrittchen nach Europa", "url": "https://www.tagesschau.de/inland/regional/hessen/hr-eintracht-frankfurt-frauen-nur-noch-ein-schrittchen-nach-europa-102.html", "thumbnailUrl": "https://images.tagesschau.de/image/cd5131b3-4f9d-4783-b1f5-e7d3f0de79bf/AAABj2xskm4/AAABjwnlKNc/16x9-512.jpg", "date": "2024-05-12T12:15:34.909+02:00", "lat": 50.052918, "lon": 8.682127, "intensity": 0.8, "source": "Tagesschau"}, {"title": "Zwei Tote bei Motorradunfall auf L232 zwischen Merxheim und Meddersheim", "url": "https://www.tagesschau.de/inland/regional/rheinlandpfalz/swr-zwei-tote-bei-motorradunfall-auf-l232-zwischen-merxheim-und-meddersheim-100.html", "thumbnailUrl": "https://images.tagesschau.de/image/0c0dbaf6-a854-47a5-a973-515309e971b2/AAABj2xd49Y/AAABjwnlKNc/16x9-512.jpg", "date": "2024-05-12T11:59:32.000+02:00", "lat": 49.8764, "lon": 7.5765, "intensity": 0.8, "source": "Tagesschau"}, {"title": "Schuh-Klau und Straftraining - Die KSV Holstein wird zum Kieler Spa\u00df-Verein ", "url": "https://www.tagesschau.de/inland/regional/schleswigholstein/ndr-schuh-klau-und-straftraining-die-ksv-holstein-wird-zum-kieler-spass-verein-106.html", "thumbnailUrl": "https://images.tagesschau.de/image/f545e204-cb81-4c5b-9c92-809d73d1ae65/AAABj25gk0c/AAABjwnlKNc/16x9-512.jpg", "date": "2024-05-12T11:55:00.000+02:00", "lat": 54.3233, "lon": 10.1228, "intensity": 0.7, "source": "Tagesschau"}, {"title": "Ludwigslust: Auto bringt Denkmal \"Reitende Alexandrine\" zu Fall", "url": "https://www.tagesschau.de/inland/regional/mecklenburgvorpommern/ndr-ludwigslust-auto-bringt-denkmal-reitende-alexandrine-zu-fall-100.html", "thumbnailUrl": "https://images.tagesschau.de/image/36bf8b9a-ab8c-477f-9ffd-51ac0789a096/AAABj2w1lQ8/AAABjwnlKNc/16x9-512.jpg", "date": "2024-05-12T11:51:00.000+02:00", "lat": 53.3239, "lon": 11.4978, "intensity": 0.7, "source": "Tagesschau"}, {"title": "Messerangriff: Mann in Berlin-Friedrichshain niedergestochen", "url": "https://www.tagesschau.de/inland/regional/berlin/rbb-messerangriff-mann-in-berlin-friedrichshain-niedergestochen-100.html", "thumbnailUrl": "https://images.tagesschau.de/image/8b8e6705-60c2-4faf-9f81-97bdec42adac/AAABj2wqncg/AAABjwnlKNc/16x9-512.jpg", "date": "2024-05-12T11:46:23.000+02:00", "lat": 52.5159, "lon": 13.4467, "intensity": 0.8, "source": "Tagesschau"}, {"title": "Israel k\u00e4mpft auch im Norden wieder", "url": "https://www.tagesschau.de/ausland/asien/israel-gazastreifen-136.html", "thumbnailUrl": "https://images.tagesschau.de/image/12c75b92-5236-4a17-993f-19f9beea2d17/AAABj2wxr_o/AAABjwnlKNc/16x9-512.jpg", "date": "2024-05-12T11:45:47.028+02:00", "lat": 31.8994, "lon": 34.3361, "intensity": 0.8, "source": "Tagesschau"}, {"title": "Hanf-Start-up gibt Staatsanwaltschaft Fulda Schuld an Insolvenz", "url": "https://www.tagesschau.de/inland/regional/hessen/hr-hanf-start-up-gibt-staatsanwaltschaft-fulda-schuld-an-insolvenz-100.html", "thumbnailUrl": "https://images.tagesschau.de/image/5bd7ce2e-aa97-4807-b303-33937c10eae3/AAABj2wuRqQ/AAABjwnlKNc/16x9-512.jpg", "date": "2024-05-12T11:41:44.285+02:00", "lat": 50.5511, "lon": 9.6773, "intensity": 0.7, "source": "Tagesschau"}, {"title": "Wie zeitgem\u00e4\u00df ist der Muttertag noch?", "url": "https://www.tagesschau.de/inland/regional/nordrheinwestfalen/wdr-wie-zeitgemaess-ist-der-muttertag-noch-100.html", "thumbnailUrl": "https://images.tagesschau.de/image/55e62d85-e72e-4355-99a6-97b1b80a83bb/AAABj232Lac/AAABjwnlKNc/16x9-512.jpg", "date": "2024-05-12T11:38:00.000+02:00", "lat": 51.9607, "lon": 7.6261, "intensity": 0.4, "source": "Tagesschau"}, {"title": "\"Pop-up-Trauung\" in Marburg: Gro\u00dfer Andrang beim Ja-Wort f\u00fcr Kurzentschlossene", "url": "https://www.tagesschau.de/inland/regional/hessen/hr-pop-up-trauung-in-marburg-grosser-andrang-beim-ja-wort-fuer-kurzentschlossene-100.html", "thumbnailUrl": "https://images.tagesschau.de/image/80af0840-5dce-4a8d-9b70-41dfa7080ff1/AAABj2wuX8s/AAABjwnlKNc/16x9-512.jpg", "date": "2024-05-12T11:34:48.598+02:00", "lat": 50.802125, "lon": 8.768821, "intensity": 0.6, "source": "Tagesschau"}, {"title": "Saarl\u00e4ndische Ringer sind nicht bei den Olympischen Spielen dabei", "url": "https://www.tagesschau.de/inland/regional/saarland/sr-saarlaendische-ringer-sind-nicht-bei-den-olympischen-spielen-dabei-100.html", "thumbnailUrl": "https://images.tagesschau.de/image/87a1b69b-30d0-4982-8013-df7c1c4dc28f/AAABj2wm624/AAABjwnlKNc/16x9-512.jpg", "date": "2024-05-12T11:33:00.000+02:00", "lat": 49.2461, "lon": 6.9467, "intensity": 0.5, "source": "Tagesschau"}, {"title": "Streit an Waschanlage: 18-J\u00e4hriger schl\u00e4gt Mann ins Gesicht", "url": "https://www.tagesschau.de/inland/regional/niedersachsen/ndr-streit-in-waschanlage-18-jaehriger-schlaegt-mann-ins-gesicht-100.html", "thumbnailUrl": "https://images.tagesschau.de/image/727dcba6-ac88-4df8-82af-54be1d2418f9/AAABj2xCiAk/AAABjwnlKNc/16x9-512.jpg", "date": "2024-05-12T11:22:00.000+02:00", "lat": 51.8704, "lon": 10.0303, "intensity": 0.7, "source": "Tagesschau"}, {"title": "FC St. Pauli empf\u00e4ngt Osnabr\u00fcck: Alles bereit f\u00fcr die Aufstiegsfeier", "url": "https://www.tagesschau.de/inland/regional/hamburg/ndr-fc-st-pauli-empfaengt-osnabrueck-alles-bereit-fuer-die-aufstiegsfeier-102.html", "thumbnailUrl": "https://images.tagesschau.de/image/9ff53568-b98b-440e-99f6-9b51665f116a/AAABj20lSHg/AAABjwnlKNc/16x9-512.jpg", "date": "2024-05-12T11:17:00.000+02:00", "lat": 53.5714, "lon": 10.0184, "intensity": 0.8, "source": "Tagesschau"}, {"title": "Holstein Kiel steigt auf: Fans im Feier-Rausch", "url": "https://www.tagesschau.de/inland/regional/schleswigholstein/ndr-holstein-kiel-steigt-auf-fans-im-feier-rausch-100.html", "thumbnailUrl": "https://images.tagesschau.de/image/b0e512c0-1d6c-4c08-97b9-f3208c011196/AAABj25Kl6s/AAABjwnlKNc/16x9-512.jpg", "date": "2024-05-12T10:58:00.000+02:00", "lat": 54.3222, "lon": 10.1266, "intensity": 0.8, "source": "Tagesschau"}, {"title": "Ein Hesse in Malm\u00f6: Wieso Bernd Ochs das 20. Mal als Fan beim ESC war", "url": "https://www.tagesschau.de/inland/regional/hessen/hr-ein-hesse-in-malmoe-wieso-bernd-ochs-das-20-mal-beim-esc-dabei-ist-100.html", "thumbnailUrl": "https://images.tagesschau.de/image/2da7a484-2ea9-4cf9-9c3d-fcf4f71b8223/AAABj2wEKYE/AAABjwnlKNc/16x9-512.jpg", "date": "2024-05-12T10:54:31.746+02:00", "lat": 55.6761, "lon": 13.0878, "intensity": 0.7, "source": "Tagesschau"}, {"title": "Erneut Polarlichter am Himmel \u00fcber MV", "url": "https://www.tagesschau.de/inland/regional/mecklenburgvorpommern/ndr-polarlichter-lassen-himmel-ueber-mv-strahlen-102.html", "thumbnailUrl": "https://images.tagesschau.de/image/20fb68c7-a2a2-4cda-b2f7-e06409c9afcb/AAABj2yukek/AAABjwnlKNc/16x9-512.jpg", "date": "2024-05-12T10:47:00.000+02:00", "lat": 53.6127, "lon": 12.5796, "intensity": 0.6, "source": "Tagesschau"}, {"title": "Nesselgift und Brennhaare: Gefahr durch Eichenprozessionsspinner in BW steigt", "url": "https://www.tagesschau.de/inland/regional/badenwuerttemberg/swr-nesselgift-gefahr-durch-eichenprozessionsspinner-in-bw-steigt-100.html", "thumbnailUrl": "https://images.tagesschau.de/image/4df895af-5ca7-4e7e-a06f-cf6f385ce5f2/AAABj2wCTN0/AAABjwnlKNc/16x9-512.jpg", "date": "2024-05-12T10:42:44.000+02:00", "lat": 48.6616, "lon": 9.4866, "intensity": 0.8, "source": "Tagesschau"}, {"title": "Bad Doberan: Hoher Schaden bei Brand eines Wohnhauses", "url": "https://www.tagesschau.de/inland/regional/mecklenburgvorpommern/ndr-bad-doberan-hoher-schaden-bei-brand-eines-wohnhauses-100.html", "thumbnailUrl": "https://images.tagesschau.de/image/da16a2a5-e9e3-4c0b-aacb-08d65963d5a7/AAABj2wPKjo/AAABjwnlKNc/16x9-512.jpg", "date": "2024-05-12T10:41:00.000+02:00", "lat": 54.1064, "lon": 11.9374, "intensity": 0.8, "source": "Tagesschau"}, {"title": "Klima und Verkehr: So kann der Umstieg auf E-Lkw gelingen", "url": "https://www.tagesschau.de/inland/regional/hamburg/ndr-klima-und-verkehr-so-kann-der-umstieg-auf-e-lkw-gelingen-100.html", "thumbnailUrl": "https://images.tagesschau.de/image/9faffcd6-602c-4d74-98a3-8b7c9fcf3031/AAABj2wseAI/AAABjwnlKNc/16x9-512.jpg", "date": "2024-05-12T10:23:00.000+02:00", "lat": 53.5511, "lon": 9.9937, "intensity": 0.8, "source": "Tagesschau"}, {"title": "\u00dcber 101.000 Saarl\u00e4nder sind Mitglied in einem Fu\u00dfballverein", "url": "https://www.tagesschau.de/inland/regional/saarland/sr-ueber-101-000-saarlaender-sind-mitglied-in-einem-fussballverein-100.html", "thumbnailUrl": "https://images.tagesschau.de/image/8f0fc759-828e-41eb-93e2-006b9959f5d4/AAABj20Wyu8/AAABjwnlKNc/16x9-512.jpg", "date": "2024-05-12T10:17:00.000+02:00", "lat": 49.3964, "lon": 6.9107, "intensity": 0.7, "source": "Tagesschau"}, {"title": "Immer weniger Referendare an Niedersachsens Schulen", "url": "https://www.tagesschau.de/inland/regional/niedersachsen/ndr-immer-weniger-referendare-an-niedersachsens-schulen-100.html", "thumbnailUrl": "https://images.tagesschau.de/image/e376b6c1-473f-4898-b990-b23aba0458c4/AAABj2wAnqI/AAABjwnlKNc/16x9-512.jpg", "date": "2024-05-12T10:06:00.000+02:00", "lat": 52.3759, "lon": 9.7533, "intensity": 0.6, "source": "Tagesschau"}, {"title": "\"Jetzt liegt es an uns\": Der FSV Mainz 05 ist fast am Ziel", "url": "https://www.tagesschau.de/inland/regional/rheinlandpfalz/swr-jetzt-liegt-es-an-uns-der-fsv-mainz-05-ist-fast-am-ziel-102.html", "thumbnailUrl": "https://images.tagesschau.de/image/81315dd4-58b3-4fb9-a5df-82925c318777/AAABj2vzqeY/AAABjwnlKNc/16x9-512.jpg", "date": "2024-05-12T10:04:16.000+02:00", "lat": 49.9929, "lon": 8.2583, "intensity": 0.8, "source": "Tagesschau"}, {"title": "Ist der Islamunterricht in NRW gescheitert?", "url": "https://www.tagesschau.de/inland/regional/nordrheinwestfalen/wdr-ist-der-islamunterricht-gescheitert-100.html", "thumbnailUrl": "https://images.tagesschau.de/image/04ad482c-58da-43f5-b32e-3ad707441bde/AAABj2yNgxY/AAABjwnlKNc/16x9-512.jpg", "date": "2024-05-12T10:00:00.000+02:00", "lat": 51.9607, "lon": 7.6261, "intensity": 0.4, "source": "Tagesschau"}, {"title": "FDP-Politiker fordern Einschr\u00e4nkung der Rente mit 63", "url": "https://www.tagesschau.de/inland/innenpolitik/debatte-rente-100.html", "thumbnailUrl": "https://images.tagesschau.de/image/0e084c9a-881a-45e4-bafc-2c15b079f8bb/AAABjwZuylk/AAABjwnlKNc/16x9-512.jpg", "date": "2024-05-12T09:36:27.942+02:00", "lat": 53.5511, "lon": 9.9937, "intensity": 0.6, "source": "Tagesschau"}, {"title": "Tag der Pflegenden: Pflegerat fordert 4.000 Euro f\u00fcr Fachkr\u00e4fte", "url": "https://www.tagesschau.de/inland/regional/niedersachsen/ndr-tag-der-pflegenden-pflegerat-fordert-4-000-euro-fuer-fachkraefte-100.html", "thumbnailUrl": "https://images.tagesschau.de/image/91d67209-703a-4e2e-a03c-fec0e8e08c6b/AAABj2zcdo8/AAABjwnlKNc/16x9-512.jpg", "date": "2024-05-12T09:24:00.000+02:00", "lat": 52.3759, "lon": 10.4515, "intensity": 0.8, "source": "Tagesschau"}, {"title": "Polarlichter \u00fcber BW: Himmelsspektakel schw\u00e4cht sich ab", "url": "https://www.tagesschau.de/inland/regional/badenwuerttemberg/swr-polarlichter-ueber-bw-moeglich-hier-stehen-die-chancen-gut-100.html", "thumbnailUrl": "https://images.tagesschau.de/image/ed2749ea-5c8c-44d6-8c61-2f227f0ea34d/AAABj237rcg/AAABjwnlKNc/16x9-512.jpg", "date": "2024-05-12T09:10:00.000+02:00", "lat": 48.6616, "lon": 9.6815, "intensity": 0.7, "source": "Tagesschau"}, {"title": "Wie steht es um den Bach in Ihrer N\u00e4he?", "url": "https://www.tagesschau.de/wissen/klima/ard-mitmachaktion-fluesse-100.html", "thumbnailUrl": "https://images.tagesschau.de/image/c9ef23d6-723f-4ba9-8f8c-5597136be706/AAABj1J0I94/AAABjwnlKNc/16x9-512.jpg", "date": "2024-05-12T09:06:30.124+02:00", "lat": 51.501, "lon": 7.1153, "intensity": 0.7, "source": "Tagesschau"}, {"title": "Polarlichter: Extremer Sonnensturm l\u00e4sst den Himmel leuchten", "url": "https://www.tagesschau.de/inland/regional/niedersachsen/ndr-polarlichter-extremer-sonnensturm-laesst-den-himmel-leuchten-100.html", "thumbnailUrl": "https://images.tagesschau.de/image/3948e28d-ccb4-44e7-b5b9-dc039b1a6721/AAABj2yujfI/AAABjwnlKNc/16x9-512.jpg", "date": "2024-05-12T09:03:00.000+02:00", "lat": 52.6367, "lon": 10.4515, "intensity": 0.7, "source": "Tagesschau"}, {"title": "Theatertreffen-Kritik | \"Die Vaterlosen\": Schauspielkunst der Spitzenklasse", "url": "https://www.tagesschau.de/inland/regional/berlin/rbb-theatertreffen-kritik--die-vaterlosen-schauspielkunst-der-spitzenklasse-100.html", "thumbnailUrl": "https://images.tagesschau.de/image/3b6a5b50-e28a-4b52-8639-eaa8327a4d13/AAABj2udqZo/AAABjwnlKNc/16x9-512.jpg", "date": "2024-05-12T09:02:50.000+02:00", "lat": 52.520008, "lon": 13.404954, "intensity": 0.8, "source": "Tagesschau"}, {"title": "Holsteins Aufstiegs-Trainer Rapp: Der \"Bessermacher\" von Kiel", "url": "https://www.tagesschau.de/inland/regional/schleswigholstein/ndr-holstein-trainer-rapp-der-kopf-des-kieler-aufstiegscoups-106.html", "thumbnailUrl": "https://images.tagesschau.de/image/c1278ae1-6811-471a-a2b0-6c7f472d4eb5/AAABj25gopc/AAABjwnlKNc/16x9-512.jpg", "date": "2024-05-12T09:02:00.000+02:00", "lat": 54.3222, "lon": 10.1302, "intensity": 0.8, "source": "Tagesschau"}, {"title": "Polarlichter tanzen \u00fcber den hessischen Himmel ", "url": "https://www.tagesschau.de/inland/regional/hessen/hr-polarlichter-in-hessen-seltenes-naturschauspiel-in-der-nacht-zum-samstag-100.html", "thumbnailUrl": "https://images.tagesschau.de/image/b7d4dc95-efe0-4aa9-aceb-a34177d62591/AAABj2ub1GU/AAABjwnlKNc/16x9-512.jpg", "date": "2024-05-12T09:01:49.023+02:00", "lat": 50.652, "lon": 9.429, "intensity": 0.7, "source": "Tagesschau"}, {"title": "Nemo aus der Schweiz gewinnt", "url": "https://www.tagesschau.de/ausland/europa/esc-230.html", "thumbnailUrl": "https://images.tagesschau.de/image/64f1b2e6-e678-4bcd-9da9-5f6176390412/AAABj2uVvVs/AAABjwnlKNc/16x9-512.jpg", "date": "2024-05-12T08:55:27.224+02:00", "lat": 47.3833, "lon": 13.2167, "intensity": 0.7, "source": "Tagesschau"}, {"title": "Wuppertal feiert den \"Tag der Industriekultur\"", "url": "https://www.tagesschau.de/inland/regional/nordrheinwestfalen/wdr-wuppertal-feiert-den-tag-der-industriekultur-100.html", "thumbnailUrl": "https://images.tagesschau.de/image/56ec3558-e333-4ff2-96fc-e962240a2932/AAABj2uhQCA/AAABjwnlKNc/16x9-512.jpg", "date": "2024-05-12T08:52:00.000+02:00", "lat": 51.2646, "lon": 7.1761, "intensity": 0.5, "source": "Tagesschau"}, {"title": "Luxemburgische S\u00e4ngerin Tali belegt 13. Platz beim ESC-Finale", "url": "https://www.tagesschau.de/inland/regional/saarland/sr-luxemburgische-saengerin-tali-belegt-13-platz-beim-esc-finale-100.html", "thumbnailUrl": "https://images.tagesschau.de/image/1c287ae3-5f32-44fe-a573-a68dd94c2827/AAABj2udlnM/AAABjwnlKNc/16x9-512.jpg", "date": "2024-05-12T08:50:00.000+02:00", "lat": 49.3964, "lon": 0.8254, "intensity": 0.6, "source": "Tagesschau"}, {"title": "Rostock: Vermisster F\u00fcnfj\u00e4hriger wohlbehalten aufgefunden", "url": "https://www.tagesschau.de/inland/regional/mecklenburgvorpommern/ndr-rostock-vermisster-vierjaehriger-wohlbehalten-aufgefunden-100.html", "thumbnailUrl": "https://images.tagesschau.de/image/54f2a69c-ba44-4f62-b0fc-b543d5dfa96e/AAABj2t61S8/AAABjwnlKNc/16x9-512.jpg", "date": "2024-05-12T08:38:00.000+02:00", "lat": 54.0834, "lon": 12.0991, "intensity": 0.7, "source": "Tagesschau"}, {"title": "Kultur: +++ Frankfurt feiert mit Nina Chuba in der Jahrhunderthalle +++ Br\u00fcder-Grimm-Festspiele in Hanau gestartet +++ 170 Ch\u00f6re und Ensembles in Limburg +++ ", "url": "https://www.tagesschau.de/inland/regional/hessen/hr--schauspiel-frankfurt-bringt-putin-und-macbeth-zusammen--die-filmfestival-saison-2023-startet--lichter-filmfest-zum-thema-liebe-startet-am-dienstag-100.html", "thumbnailUrl": "https://images.tagesschau.de/image/fdbbbe09-b9bb-4847-8822-5353f9bf08bd/AAABj2uHx5Y/AAABjwnlKNc/16x9-512.jpg", "date": "2024-05-12T08:37:21.129+02:00", "lat": 50.1109, "lon": 8.5683, "intensity": 0.4, "source": "Tagesschau"}, {"title": "Dauernd ersch\u00f6pft wegen ME/CFS: Liegend-Demo in Freiburg f\u00fcr mehr Hilfen", "url": "https://www.tagesschau.de/inland/regional/badenwuerttemberg/swr-dauernd-erschoepft-wegen-mecfs-liegend-demo-in-freiburg-fuer-mehr-hilfen-100.html", "thumbnailUrl": "https://images.tagesschau.de/image/06c7f0c9-b420-4029-bccb-8e112e2979ff/AAABj2fKA_A/AAABjwnlKNc/16x9-512.jpg", "date": "2024-05-12T08:27:00.000+02:00", "lat": 47.996, "lon": 7.849, "intensity": 0.8, "source": "Tagesschau"}, {"title": "Jilou Rasul: Berlins Breakdance-Hoffnung f\u00fcr die Olympischen Spiele in Paris", "url": "https://www.tagesschau.de/inland/regional/berlin/rbb-jilou-rasul-berlins-breakdance-hoffnung-fuer-die-olympischen-spiele-in-paris-102.html", "thumbnailUrl": "https://images.tagesschau.de/image/77e189af-c15a-471c-8110-89e2d936f6a9/AAABj2uGctM/AAABjwnlKNc/16x9-512.jpg", "date": "2024-05-12T08:25:00.000+02:00", "lat": 52.520008, "lon": 13.404954, "intensity": 0.8, "source": "Tagesschau"}, {"title": "Kunst am Bau: Wie eine K\u00fcnstlerin ein Wandgem\u00e4lde f\u00fcr eine Grundschule entwickelt", "url": "https://www.tagesschau.de/inland/regional/berlin/rbb-kunst-am-bau-wie-eine-kuenstlerin-ein-wandgemaelde-fuer-eine-grundschule-entwickelt-100.html", "thumbnailUrl": "https://images.tagesschau.de/image/b0c2f0a8-28e0-4997-b8ee-3b5586b4eaa6/AAABj2uF4HU/AAABjwnlKNc/16x9-512.jpg", "date": "2024-05-12T08:15:59.000+02:00", "lat": 52.520008, "lon": 13.404954, "intensity": 0.6, "source": "Tagesschau"}, {"title": "Kataloniens heikle Wahl", "url": "https://www.tagesschau.de/ausland/europa/katalonien-regionalwahl-110.html", "thumbnailUrl": "https://images.tagesschau.de/image/5c046ad3-a893-4eee-894f-82a1679da7e5/AAABj2tjXq8/AAABjwnlKNc/16x9-512.jpg", "date": "2024-05-12T08:00:25.808+02:00", "lat": 41.3851, "lon": 2.1774, "intensity": 0.8, "source": "Tagesschau"}, {"title": "Eintracht Frankfurt vor Kr\u00f6nung einer seltsamen Saison", "url": "https://www.tagesschau.de/inland/regional/hessen/hr-eintracht-frankfurt-vor-kroenung-einer-seltsamen-saison-102.html", "thumbnailUrl": "https://images.tagesschau.de/image/fae7f95f-30e7-46e1-8771-d1b5248a88f6/AAABj2u67mo/AAABjwnlKNc/16x9-512.jpg", "date": "2024-05-12T07:58:46.483+02:00", "lat": 50.1109, "lon": 8.6333, "intensity": 0.7, "source": "Tagesschau"}, {"title": "Polarlichter \u00fcber NRW: Spektakul\u00e4re Bilder", "url": "https://www.tagesschau.de/inland/regional/nordrheinwestfalen/wdr-samstagfrueh-polarlichter-ueber-nrw-moeglich-100.html", "thumbnailUrl": "https://images.tagesschau.de/image/5509ce64-b1d8-4c08-8a54-e4e05d506820/AAABj2tWLps/AAABjwnlKNc/16x9-512.jpg", "date": "2024-05-12T07:40:00.000+02:00", "lat": 51.4332, "lon": 7.6261, "intensity": 0.7, "source": "Tagesschau"}, {"title": "Verb\u00e4nde: Es wird immer schwieriger, einen Pflegedienst in MV zu finden", "url": "https://www.tagesschau.de/inland/regional/mecklenburgvorpommern/ndr-verbaende-es-wird-immer-schwieriger-einen-pflegedienst-in-mv-zu-finden-100.html", "thumbnailUrl": "https://images.tagesschau.de/image/91d67209-703a-4e2e-a03c-fec0e8e08c6b/AAABj2zcdo8/AAABjwnlKNc/16x9-512.jpg", "date": "2024-05-12T07:12:00.000+02:00", "lat": 53.6127, "lon": 12.5156, "intensity": 0.8, "source": "Tagesschau"}, {"title": "Energiewende in BW: Wie viel Potenzial hat die Wasserkraft?", "url": "https://www.tagesschau.de/inland/regional/badenwuerttemberg/swr-energiewende-in-bw-wie-viel-potenzial-hat-die-wasserkraft-100.html", "thumbnailUrl": "https://images.tagesschau.de/image/2f1542cc-b7ea-451e-9b49-de0102896147/AAABj2sfQ48/AAABjwnlKNc/16x9-512.jpg", "date": "2024-05-12T06:43:00.000+02:00", "lat": 48.7758, "lon": 9.376, "intensity": 0.6, "source": "Tagesschau"}, {"title": "Fliegende Hochleistungssportler: Brieftauben in MV", "url": "https://www.tagesschau.de/inland/regional/mecklenburgvorpommern/ndr-fliegende-hochleistungssportler-brieftauben-in-mv-100.html", "thumbnailUrl": "https://images.tagesschau.de/image/a943a3cb-935d-4bac-acfc-80038b0487d4/AAABj2sbmZ4/AAABjwnlKNc/16x9-512.jpg", "date": "2024-05-12T06:38:00.000+02:00", "lat": 53.6127, "lon": 13.5049, "intensity": 0.6, "source": "Tagesschau"}, {"title": "\"Rabenmutter vs. \u00dcberglucke\": Schulze \u00fcber Mutterschaft und Job", "url": "https://www.tagesschau.de/inland/regional/bayern/br-rabenmutter-vs-ueberglucke-schulze-ueber-mutterschaft-und-job-102.html", "thumbnailUrl": "https://images.tagesschau.de/image/6a2669e3-7248-4dc9-bc16-504b9095db53/AAABj2sOy3Y/AAABjwnlKNc/16x9-512.jpg", "date": "2024-05-12T06:27:20.915+02:00", "lat": 48.135125, "lon": 11.581981, "intensity": 0.5, "source": "Tagesschau"}, {"title": "So geht es den Fl\u00fcssen in Rheinland-Pfalz", "url": "https://www.tagesschau.de/inland/regional/rheinlandpfalz/swr-so-geht-es-den-fluessen-in-rheinland-pfalz-100.html", "thumbnailUrl": "https://images.tagesschau.de/image/34cd1daf-90d7-4c3d-825f-5f2c8ba0c6c8/AAABj2rLGfw/AAABjwnlKNc/16x9-512.jpg", "date": "2024-05-12T05:13:39.000+02:00", "lat": 50.1425, "lon": 7.2662, "intensity": 0.4, "source": "Tagesschau"}, {"title": "Wie sauber ist der Rhein bei Karlsruhe?", "url": "https://www.tagesschau.de/inland/regional/badenwuerttemberg/swr-wie-sauber-ist-der-rhein-bei-karlsruhe-102.html", "thumbnailUrl": "https://images.tagesschau.de/image/ab1bf1ac-acd9-4f13-96dd-05ef513b5c94/AAABj2tmrho/AAABjwnlKNc/16x9-512.jpg", "date": "2024-05-12T05:13:33.000+02:00", "lat": 49.0069, "lon": 8.4037, "intensity": 0.7, "source": "Tagesschau"}, {"title": "Wieder Massenprotest gegen \"russisches Gesetz\" in Tiflis", "url": "https://www.tagesschau.de/ausland/europa/georgien-158.html", "thumbnailUrl": "https://images.tagesschau.de/image/f34309ee-04cf-40c1-8838-60fe3f6650cc/AAABj2pGT3g/AAABjwnlKNc/16x9-512.jpg", "date": "2024-05-12T04:09:48.072+02:00", "lat": 41.6941, "lon": 44.793, "intensity": 0.8, "source": "Tagesschau"}, {"title": "So ausgelassen feiert Espelkamp den ESC-Kandidaten Isaak", "url": "https://www.tagesschau.de/inland/regional/nordrheinwestfalen/wdr-so-ausgelassen-feiert-espelkamp-esc-kandidat-isaak-100.html", "thumbnailUrl": "https://images.tagesschau.de/image/3372a7c4-a3cf-47a6-92d5-b124d2239755/AAABj2vx0x8/AAABjwnlKNc/16x9-512.jpg", "date": "2024-05-12T01:46:00.000+02:00", "lat": 52.381, "lon": 8.6255, "intensity": 0.8, "source": "Tagesschau"}, {"title": "Bundesliga ahoi! Holstein Kiel ist aufgestiegen", "url": "https://www.tagesschau.de/inland/regional/schleswigholstein/ndr-aufstieg-holstein-kiel-ist-bundesligist-st-pauli-muss-noch-warten-104.html", "thumbnailUrl": "https://images.tagesschau.de/image/67129b12-908c-4bb7-ac8e-905681cb9620/AAABj25gpUY/AAABjwnlKNc/16x9-512.jpg", "date": "2024-05-12T00:53:00.000+02:00", "lat": 54.3346, "lon": 10.1228, "intensity": 0.8, "source": "Tagesschau"}, {"title": "Eintracht Braunschweig: Klassenerhalt-Party im \"perfekten Rahmen\"?", "url": "https://www.tagesschau.de/inland/regional/niedersachsen/ndr-eintracht-braunschweig-klassenerhalt-party-im-perfekten-rahmen-102.html", "thumbnailUrl": "https://images.tagesschau.de/image/f29958cf-c228-44b4-9ac0-443122c4b311/AAABj20lRYA/AAABjwnlKNc/16x9-512.jpg", "date": "2024-05-12T00:32:00.000+02:00", "lat": 52.26891, "lon": 10.52677, "intensity": 0.8, "source": "Tagesschau"}, {"title": "Rentenstreit in der Koalition geht weiter", "url": "https://www.br.de/nachrichten/meldungen/index.html#n1", "thumbnailUrl": null, "date": "2024-05-13T02:49:21+02:00", "lat": 30.0444, "lon": 31.2357, "intensity": 0.8, "source": "Bayrischer Rundfunk"}, {"title": "Israel er\u00f6ffnet neuen Grenz\u00fcbergang in den Gazastreifen", "url": "https://www.br.de/nachrichten/meldungen/index.html#n2", "thumbnailUrl": null, "date": "2024-05-13T02:49:21+02:00", "lat": 33.5138, "lon": 36.2021, "intensity": 0.8, "source": "Bayrischer Rundfunk"}, {"title": "Russland setzt Offensive in der Region Charkiw fort", "url": "https://www.br.de/nachrichten/meldungen/index.html#n3", "thumbnailUrl": null, "date": "2024-05-13T02:49:21+02:00", "lat": 39.9334, "lon": 32.8597, "intensity": 0.8, "source": "Bayrischer Rundfunk"}, {"title": "Putin entl\u00e4sst Verteidigungsminister Schoigu", "url": "https://www.br.de/nachrichten/meldungen/index.html#n4", "thumbnailUrl": null, "date": "2024-05-13T02:49:21+02:00", "lat": 52.520008, "lon": 13.404954, "intensity": 0.7, "source": "Bayrischer Rundfunk"}, {"title": "Litauer entscheiden in Stichwahl \u00fcber neuen Pr\u00e4sidenten", "url": "https://www.br.de/nachrichten/meldungen/index.html#n5", "thumbnailUrl": null, "date": "2024-05-13T02:49:21+02:00", "lat": 52.520008, "lon": 13.404954, "intensity": 0.6, "source": "Bayrischer Rundfunk"}, {"title": "Separatisten verlieren bei Regionalwahl in Katalonien", "url": "https://www.br.de/nachrichten/meldungen/index.html#n6", "thumbnailUrl": null, "date": "2024-05-13T02:49:21+02:00", "lat": 48.135125, "lon": 11.581981, "intensity": 0.6, "source": "Bayrischer Rundfunk"}, {"title": "Bad Br\u00fcckenau bekommt einen SPD-B\u00fcrgermeister", "url": "https://www.br.de/nachrichten/meldungen/index.html#n7", "thumbnailUrl": null, "date": "2024-05-13T02:49:21+02:00", "lat": 50.110922, "lon": 8.682127, "intensity": 0.8, "source": "Bayrischer Rundfunk"}, {"title": "Leverkusen verl\u00e4ngert Rekordserie in der Bundesliga", "url": "https://www.br.de/nachrichten/meldungen/index.html#n8", "thumbnailUrl": null, "date": "2024-05-13T02:49:21+02:00", "lat": 47.8684, "lon": 12.6394, "intensity": 0.8, "source": "Bayrischer Rundfunk"}, {"title": "Das Wetter: In der Nacht klar, am Tag wieder sonnig", "url": "https://www.br.de/nachrichten/meldungen/index.html#n9", "thumbnailUrl": null, "date": "2024-05-13T02:49:21+02:00", "lat": 48.5844, "lon": 13.6722, "intensity": 0.8, "source": "Bayrischer Rundfunk"}, {"title": "Video | Fu\u00dfball-Bundesliga: Union kassiert Last-Minute-K.o. in K\u00f6ln", "url": "https://www.rbb24.de/sport/beitrag/av7/video-fussball-bundesliga-spielbericht-1-fc-koeln-1-fc-union-berlin-sportschau.html", "thumbnailUrl": null, "date": "Mon, 13 May 2024 00:01:00 +0200", "lat": 50.9358, "lon": 6.9571, "intensity": 0.7, "source": "RBB"}, {"title": "Video | Ein Fest zum 100. Geburtstag des st\u00e4hlernen Riesen", "url": "https://www.rbb24.de/panorama/beitrag/av7/video-brandenburg-kulturverein-plessa.html", "thumbnailUrl": null, "date": "Sun, 12 May 2024 21:42:29 +0200", "lat": 48.374, "lon": 11.9085, "intensity": 0.7, "source": "RBB"}, {"title": "Video | Vor Europawahl: Politisches \"Speeddating\" an Schule im Barnim", "url": "https://www.rbb24.de/panorama/beitrag/av7/video-brandenburg-dating-schulen-politik.html", "thumbnailUrl": null, "date": "Sun, 12 May 2024 21:07:42 +0200", "lat": 52.7709, "lon": 13.6455, "intensity": 0.6, "source": "RBB"}, {"title": "Tesla-Gegner k\u00fcndigen weitere Proteste an", "url": "https://www.rbb24.de/wirtschaft/beitrag/2024/05/tesla-gruenheide-protest-aktionstage-beendet-weitere-aktionen.html", "thumbnailUrl": null, "date": "Sun, 12 May 2024 20:44:31 +0200", "lat": 52.3587, "lon": 13.7468, "intensity": 0.8, "source": "RBB"}, {"title": "Werteunion gr\u00fcndet Landesverband in Brandenburg", "url": "https://www.rbb24.de/politik/wahl/Landtagswahl/2024/werteunion-gruendung-landesverband-brandenburg.html", "thumbnailUrl": null, "date": "Sun, 12 May 2024 20:27:58 +0200", "lat": 52.52, "lon": 13.3533, "intensity": 0.6, "source": "RBB"}, {"title": "Video | 2. Fu\u00dfball-Bundesliga: Hertha feiert Sieg gegen Kaiserslautern im letzten Heimspiel der Saison", "url": "https://www.rbb24.de/sport/beitrag/av7/video-fussball-2-liga-hertha-bsc-kaiserslautern-spielbericht-sportschau.html", "thumbnailUrl": null, "date": "Sun, 12 May 2024 19:52:14 +0200", "lat": 52.520008, "lon": 13.206362, "intensity": 0.8, "source": "RBB"}, {"title": "Formel E auf Ex-Flughafen Tempelhof: Wehrlein verliert in Berlin an Boden", "url": "https://www.rbb24.de/sport/beitrag/2024/05/motorsport-formel-e-berlin-tempelhofer-feld-pascal-wehrlein.html", "thumbnailUrl": null, "date": "Sun, 12 May 2024 19:12:53 +0200", "lat": 52.4778, "lon": 13.4075, "intensity": 0.6, "source": "RBB"}, {"title": "Basketball-Bundesliga: Alba Berlin schickt Crailsheim in die zweite Liga", "url": "https://www.rbb24.de/sport/beitrag/2024/05/basketball-bundesliga-alba-berlin-gewinnt-in-crailsheim-abstieg-hauptrundenabschluss.html", "thumbnailUrl": null, "date": "Sun, 12 May 2024 18:04:34 +0200", "lat": 52.52, "lon": 13.4386, "intensity": 0.8, "source": "RBB"}, {"title": "Vierte Tarifverhandlungsrunde: Verdi ruft zu Warnstreiks im Telekom-Kundenservice auf", "url": "https://www.rbb24.de/wirtschaft/beitrag/2024/05/tarifrunde-deutsche-telekom-verdi-ruft-zu-warnstreiks-kundenservice-auf.html", "thumbnailUrl": null, "date": "Sun, 12 May 2024 17:40:00 +0200", "lat": 48.1351, "lon": 11.582, "intensity": 0.7, "source": "RBB"}, {"title": "Nach Pro-Pal\u00e4stina-Demo: Polizei leitet 39 Verfahren gegen Randalierer in Neuk\u00f6lln ein", "url": "https://www.rbb24.de/politik/beitrag/2024/05/ausschreitungen-randale-neukoelln.html", "thumbnailUrl": null, "date": "Sun, 12 May 2024 17:39:10 +0200", "lat": 52.48115, "lon": 13.44047, "intensity": 0.9, "source": "RBB"}, {"title": "Regionalliga Nordost: Union Berlin holt Titel und erwartet Aufstiegsspiele", "url": "https://www.rbb24.de/sport/beitrag/2024/05/frauen-regionalliga-viktoria-hertha-turbine-ii-union-berlin.html", "thumbnailUrl": null, "date": "Sun, 12 May 2024 17:26:54 +0200", "lat": 52.52, "lon": 13.4132, "intensity": 0.8, "source": "RBB"}, {"title": "Regionalliga Nordost: Babelsberg gewinnt, Absteiger BAK verliert hoch, BFC nur Remis", "url": "https://www.rbb24.de/sport/beitrag/2024/05/fussball-regionalliga-viktoria-babelsberg-hertha-ii-bfc-bak.html", "thumbnailUrl": null, "date": "Sun, 12 May 2024 16:06:40 +0200", "lat": 52.3912, "lon": 13.0629, "intensity": 0.7, "source": "RBB"}, {"title": "Aufstiegs-Entscheidung vertagt: Energie Cottbus spielt nur 3:3 gegen Luckenwalde", "url": "https://www.rbb24.de/sport/beitrag/2024/05/fussball-regionalliga-nordost-fc-energie-cottbus-fsv-luckenwalde-spielbericht.html", "thumbnailUrl": null, "date": "Sun, 12 May 2024 16:06:00 +0200", "lat": 51.768732, "lon": 13.749605, "intensity": 0.8, "source": "RBB"}, {"title": "Lilablassblau bis aliengr\u00fcn: Polarlichter leuchten \u00fcber Berlin und Brandenburg", "url": "https://www.rbb24.de/panorama/beitrag/2024/05/bildergalerie-polarlichter-berlin-brandenburg-phaenomen-sonnensturm-magnetfeld-erde.html", "thumbnailUrl": null, "date": "Sun, 12 May 2024 16:06:00 +0200", "lat": 52.520008, "lon": 13.404954, "intensity": 0.8, "source": "RBB"}, {"title": "75 Jahre Ende der Luftbr\u00fccke: Blockadehaltung", "url": "https://www.rbb24.de/politik/beitrag/2024/05/75-jahre-ende-luftbruecke-west-berlin-frontstadt-rosinenbomber.html", "thumbnailUrl": null, "date": "Sun, 12 May 2024 15:21:25 +0200", "lat": 52.520008, "lon": 13.404954, "intensity": 0.8, "source": "RBB"}, {"title": "Gedenkveranstaltung: Ende der Berlin-Blockade: Pistorius mahnt Solidarit\u00e4t an", "url": "https://www.rbb24.de/politik/beitrag/2024/05/berlin-blockade-luftbruecke-ende-vor-75-jahren-gedenken-wegner-pistorius-gail-halvorsen-rosinenbomber.html", "thumbnailUrl": null, "date": "Sun, 12 May 2024 15:19:39 +0200", "lat": 52.520008, "lon": 13.38886, "intensity": 0.8, "source": "RBB"}, {"title": "Polizeieinsatz in Potsdam: Mann wirft M\u00f6bel aus dem achten Stock", "url": "https://www.rbb24.de/panorama/beitrag/2024/05/potsdam-mann-wirft-gegenstaende-aus-8-stock.html", "thumbnailUrl": null, "date": "Sun, 12 May 2024 15:18:01 +0200", "lat": 52.3906, "lon": 13.0645, "intensity": 0.7, "source": "RBB"}, {"title": "Kaltes klares Wasser: Qualit\u00e4t von Brandenburger Badeseen meist ausgezeichnet", "url": "https://www.rbb24.de/panorama/beitrag/2024/05/badesee-wasserqualitaet-brandenburg-gesundheitsaemter-badesaison.html", "thumbnailUrl": null, "date": "Sun, 12 May 2024 12:22:00 +0200", "lat": 52.286, "lon": 13.192, "intensity": 0.3, "source": "RBB"}, {"title": "Messerangriff: Mann in Berlin-Friedrichshain niedergestochen", "url": "https://www.rbb24.de/panorama/beitrag/2024/05/messer-angriff-friedrichshain-berlin.html", "thumbnailUrl": null, "date": "Sun, 12 May 2024 11:46:23 +0200", "lat": 52.5159, "lon": 13.4499, "intensity": 0.8, "source": "RBB"}, {"title": "Eishockey: Deutschland verliert zweites WM-Spiel gegen die USA deutlich", "url": "https://www.rbb24.de/sport/beitrag/2024/05/eishockey-deb-wm-usa-deutschland-aubin-eisbaeren.html", "thumbnailUrl": null, "date": "Sun, 12 May 2024 10:51:13 +0200", "lat": 37.0902, "lon": -95.7129, "intensity": 0.8, "source": "RBB"}, {"title": "Kunst am Bau: Wie eine K\u00fcnstlerin ein Wandgem\u00e4lde f\u00fcr eine Grundschule entwickelt", "url": "https://www.rbb24.de/kultur/beitrag/2024/05/kunst-am-bau-berlin-anna-ingerfurth-grundschule-am-blockdammweg-lichtenberg.html", "thumbnailUrl": null, "date": "Sun, 12 May 2024 08:15:59 +0200", "lat": 52.5285, "lon": 13.5036, "intensity": 0.4, "source": "RBB"}, {"title": "\"Die Idee war, dass ich gerne Spiele darstellen wollte\": Bildergalerie | Kunst f\u00fcr Grundschule in Karlshorst", "url": "https://www.rbb24.de/kultur/beitrag/2024/05/bildergalerie-kunst-am-bau-anna-ingerfurth-grundschule-am-blockdammweg-lichtenberg.html", "thumbnailUrl": null, "date": "Sun, 12 May 2024 08:15:34 +0200", "lat": 52.4828, "lon": 13.5141, "intensity": 0.4, "source": "RBB"}, {"title": "Video | Lausitzer Dampflok-Club: Mit der Dampflok nach Prag und zur\u00fcck", "url": "https://www.rbb24.de/panorama/beitrag/av7/video-brandenburg-lausitzer-dampflok-club-reise-baruth-prag-.html", "thumbnailUrl": null, "date": "Sat, 11 May 2024 21:44:43 +0200", "lat": 50.08804, "lon": 14.4205, "intensity": 0.3, "source": "RBB"}, {"title": "Video | Berlin-Spandau: Anwohner f\u00fcrchten schlechtere Lebensqualit\u00e4t durch Umspannwerk", "url": "https://www.rbb24.de/panorama/beitrag/av7/video-berlin-kladower-damm-umspannwerk-sorgen.html", "thumbnailUrl": null, "date": "Sat, 11 May 2024 20:45:57 +0200", "lat": 52.5348, "lon": 13.1985, "intensity": 0.7, "source": "RBB"}, {"title": "Video | Liegend-Demo: ME/CFS-Betroffene fordern, geh\u00f6rt zu werden", "url": "https://www.rbb24.de/panorama/beitrag/av7/video-berlin-demo-liegend-long-covid-betroffene-me-cfs.html", "thumbnailUrl": null, "date": "Sat, 11 May 2024 20:40:52 +0200", "lat": 53.5511, "lon": 9.9937, "intensity": 0.6, "source": "RBB"}, {"title": "Video | \"Eure Pal\u00e4ste sind leer\" - Klimaneutrale Kunst im Hans-Otto-Theater", "url": "https://www.rbb24.de/kultur/beitrag/av7/video-brandenburg-potsdam-hans-otto-theater-klimaneutral-kunst.html", "thumbnailUrl": null, "date": "Sat, 11 May 2024 20:39:07 +0200", "lat": 52.3946, "lon": 13.0627, "intensity": 0.5, "source": "RBB"}, {"title": "German Football League: Potsdam Royals starten gegen Aufsteiger Hildesheim erfolgreich in die Saison", "url": "https://www.rbb24.de/sport/beitrag/2024/05/football-gfl-potsdam-royals-hildesheim-invaders-spielbericht.html", "thumbnailUrl": null, "date": "Sat, 11 May 2024 20:08:19 +0200", "lat": 52.3916, "lon": 13.0645, "intensity": 0.7, "source": "RBB"}, {"title": "Aus f\u00fcr Hertha-Trainer Dardai: Konstant war in dieser Saison nur die Inkonstanz", "url": "https://www.rbb24.de/sport/beitrag/2024/05/fussball-zweite-liga-hertha-bsc-trennung-pal-dardai-kommentar.html", "thumbnailUrl": null, "date": "Sat, 11 May 2024 18:29:56 +0200", "lat": 52.52, "lon": 13.3715, "intensity": 0.8, "source": "RBB"}, {"title": "Formel E auf Tempelhofer Feld: Wehrlein verliert bei Heimspiel die WM-F\u00fchrung", "url": "https://www.rbb24.de/sport/beitrag/2024/05/formel-e-berlin-tempelhofer-feld-pascal-wherlein.html", "thumbnailUrl": null, "date": "Sat, 11 May 2024 17:44:00 +0200", "lat": 52.4783, "lon": 13.4075, "intensity": 0.6, "source": "RBB"}, {"title": "Starke Sonnenst\u00fcrme: Polarlichter f\u00e4rben Himmel \u00fcber Berlin und Brandenburg", "url": "https://www.rbb24.de/panorama/beitrag/2024/05/polarlichter-nachthimmel-sonnensturm-berlin-brandenburg.html", "thumbnailUrl": null, "date": "Sat, 11 May 2024 17:08:37 +0200", "lat": 52.520008, "lon": 13.404954, "intensity": 0.7, "source": "RBB"}, {"title": "Hertha BSC: Pal Dardai ab Sommer nicht mehr Trainer der Profimannschaft", "url": "https://www.rbb24.de/sport/beitrag/2024/05/fussball-berlin-hertha-bsc-trainer-pal-dardai-aus.html", "thumbnailUrl": null, "date": "Sat, 11 May 2024 16:49:59 +0200", "lat": 52.52, "lon": 13.3136, "intensity": 0.7, "source": "RBB"}, {"title": "Skalitzer / Ecke Mariannenstra\u00dfe: Gr\u00fcnfl\u00e4che in Kreuzberg nach Maueropfer \u00c7etin Mert benannt", "url": "https://www.rbb24.de/panorama/beitrag/2024/05/berlin-kreuzberg-grenflaeche-eingeweiht-maueropfer-cetin-mert.html", "thumbnailUrl": null, "date": "Sat, 11 May 2024 16:41:00 +0200", "lat": 52.5003, "lon": 13.4206, "intensity": 0.6, "source": "RBB"}, {"title": "12 Verletzte nach Brand in Berlin-Friedrichshain - Mann festgenommen", "url": "https://www.rbb24.de/panorama/beitrag/2024/05/berlin-brand-friedrichshain-verletzte-platz-der-vereinten-nationen.html", "thumbnailUrl": null, "date": "Sat, 11 May 2024 14:37:00 +0200", "lat": 52.515, "lon": 13.444, "intensity": 0.8, "source": "RBB"}, {"title": "Berlin-Biesdorf: Feuerwehr rettet Frau aus Biesdorfer Baggersee", "url": "https://www.rbb24.de/panorama/beitrag/2024/05/biesdorfer-baggersee-rettung-feuerwehr.html", "thumbnailUrl": null, "date": "Sat, 11 May 2024 12:01:06 +0200", "lat": 52.5084, "lon": 13.5744, "intensity": 0.7, "source": "RBB"}, {"title": "Festakt am Sonntag: Berlin-Blockade endete vor 75 Jahren", "url": "https://www.rbb24.de/politik/beitrag/2024/05/berlin-blockade-luftbruecke-ende-vor-75-jahren.html", "thumbnailUrl": null, "date": "Sat, 11 May 2024 09:54:01 +0200", "lat": 52.4823, "lon": 13.4067, "intensity": 0.7, "source": "RBB"}, {"title": "Werder (Havel) : Fu\u00dfg\u00e4nger stirbt bei Unfall mit Regionalzug", "url": "https://www.rbb24.de/panorama/beitrag/2024/05/bahn-unfall-bahnuebergang.html", "thumbnailUrl": null, "date": "Sat, 11 May 2024 08:58:52 +0200", "lat": 52.4474, "lon": 12.9129, "intensity": 0.8, "source": "RBB"}, {"title": "Mann aus Teltowkanal in Berlin-Neuk\u00f6lln gerettet", "url": "https://www.rbb24.de/panorama/beitrag/2024/05/berlin-britz-mann-aus-teltowkanal-gerettet-.html", "thumbnailUrl": null, "date": "Fri, 10 May 2024 21:05:20 +0200", "lat": 52.4707, "lon": 13.4344, "intensity": 0.7, "source": "RBB"}, {"title": "Deutsche Eishockey-Nationalmannschaft gewinnt WM-Auftakt mit 6:4 gegen Slowakei", "url": "https://www.rbb24.de/sport/beitrag/2024/05/eishockey-weltmeisterschaft-deutschland-slowakei.html", "thumbnailUrl": null, "date": "Fri, 10 May 2024 19:37:15 +0200", "lat": 48.148, "lon": 19.699, "intensity": 0.7, "source": "RBB"}, {"title": "Pro-israelische Demonstranten verurteilen Brief von Berliner Uni-Dozenten", "url": "https://www.rbb24.de/politik/beitrag/2024/05/berlin-protest-gegen-antisemitismus-humboldt-universitaet.html", "thumbnailUrl": null, "date": "Fri, 10 May 2024 18:43:00 +0200", "lat": 52.52, "lon": 13.4064, "intensity": 0.7, "source": "RBB"}, {"title": "Sechs Menschen bei Zusammensto\u00df von PKW und Transporter in F\u00fcrstenwalde verletzt", "url": "https://www.rbb24.de/panorama/beitrag/2024/05/sechs-verletzte-unfall-fuerstenwalde-oder-spree-transporter-pkw.html", "thumbnailUrl": null, "date": "Fri, 10 May 2024 17:03:00 +0200", "lat": 52.3667, "lon": 13.8333, "intensity": 0.8, "source": "RBB"}, {"title": "Bundeswehr-Gel\u00f6bnis vor Berliner Abgeordnetenhaus l\u00f6st geteiltes Echo aus", "url": "https://www.rbb24.de/politik/beitrag/2024/05/geloebnis-bundeswehr-berlin-parlament-abgeordnetenhaus.html", "thumbnailUrl": null, "date": "Fri, 10 May 2024 16:32:00 +0200", "lat": 52.516275, "lon": 13.376997, "intensity": 0.6, "source": "RBB"}, {"title": "Paraglider und Fallschirmspringer: Zwei Flugsportler auf Flugpl\u00e4tzen in Cottbus abgest\u00fcrzt", "url": "https://www.rbb24.de/panorama/beitrag/2024/05/fallschirmspringer-paraglider-auf-flugplatz-abgestuerzt-cottbus-brandenburg.html", "thumbnailUrl": null, "date": "Fri, 10 May 2024 15:45:00 +0200", "lat": 51.7562, "lon": 14.3256, "intensity": 0.8, "source": "RBB"}, {"title": "Berlin-Pankow: Sperrung der A114 nach schwerem Verkehrsunfall wieder aufgehoben", "url": "https://www.rbb24.de/panorama/beitrag/2024/05/autounfall-a114-berlin-pankow-gesperrt.html", "thumbnailUrl": null, "date": "Fri, 10 May 2024 15:04:40 +0200", "lat": 52.5799, "lon": 13.4154, "intensity": 0.7, "source": "RBB"}, {"title": "Mann st\u00fcrzt bei Polizeikontrolle in Wittenberge \u00fcber Br\u00fcckengel\u00e4nder und stirbt", "url": "https://www.rbb24.de/panorama/beitrag/2024/05/brandenburg-polizei-kontrolle-wittenberge-radfahrer-tot-gelaender-sturz.html", "thumbnailUrl": null, "date": "Fri, 10 May 2024 13:30:00 +0200", "lat": 52.9963, "lon": 11.865, "intensity": 0.8, "source": "RBB"}, {"title": "Hoher Schaden durch Brandstiftung im Rathaus Tiergarten entstanden - Zusammenhang mit Gaza-Konflikt", "url": "https://www.rbb24.de/panorama/beitrag/2024/05/berlin-tiergarten-rathaus-sachschaden-brand-schmierereien-gaza.html", "thumbnailUrl": null, "date": "Fri, 10 May 2024 11:49:00 +0200", "lat": 52.5246, "lon": 13.3506, "intensity": 0.8, "source": "RBB"}, {"title": "Hafengeburtstag 2024 endet mit der gro\u00dfen Auslaufparade", "url": "https://www.ndr.de/nachrichten/hamburg/Hafengeburtstag-2024-endet-mit-der-grossen-Auslaufparade,hafengeburtstag3798.html", "thumbnailUrl": "https://www.ndr.de/nachrichten/hamburg/hafengeburtstag3784_v-contentwidescreen.jpg", "date": "2024-05-12T21:12:55.438+02:00", "lat": 53.5511, "lon": 9.9937, "intensity": 0.8, "source": "NDR"}, {"title": "Aufstieg perfekt! St. Pauli ist zur\u00fcck in der Bundesliga", "url": "https://www.ndr.de/sport/fussball/Aufstieg-perfekt-St-Pauli-ist-zurueck-in-der-Bundesliga,pauli7948.html", "thumbnailUrl": "https://www.ndr.de/sport/fussball/zweitebundesliga/stpauliosnabrueck144_v-contentwidescreen.jpg", "date": "2024-05-12T23:29:45.139+02:00", "lat": 53.5511, "lon": 9.9614, "intensity": 0.8, "source": "NDR"}, {"title": "Kommentar zum St.-Pauli-Aufstieg: Fu\u00dfball-Deutschland darf sich freuen", "url": "https://www.ndr.de/sport/fussball/Kommentar-zum-Aufstieg-des-FC-St-Pauli-Fussball-Deutschland-darf-sich-freuen,pauli7922.html", "thumbnailUrl": "https://www.ndr.de/sport/fussball/zweitebundesliga/stpauliosnabrueck122_v-contentwidescreen.jpg", "date": "2024-05-12T23:28:39.293+02:00", "lat": 53.5511, "lon": 9.9613, "intensity": 0.8, "source": "NDR"}, {"title": "Klein Flottbek: J\u00fcngel siegt erneut im Deutschen Spring-Derby", "url": "https://www.ndr.de/sport/mehr_sport/Klein-Flottbek-Juengel-siegt-erneut-im-Deutschen-Spring-Derby,derby2910.html", "thumbnailUrl": "https://www.ndr.de/sport/mehr_sport/reiten1322_v-contentwidescreen.jpg", "date": "2024-05-12T22:39:38.079+02:00", "lat": 53.5525, "lon": 9.8656, "intensity": 0.6, "source": "NDR"}, {"title": "Schweiz gewinnt den Eurovision Song Contest 2024", "url": "https://www.eurovision.de/news/Nemo-aus-der-Schweiz-gewinnt-den-Eurovision-Song-Contest-2024,gewinner524.html", "thumbnailUrl": "https://www.eurovision.de/news/alleseurovision238_v-contentwidescreen.jpg", "date": "2024-05-12T14:56:36.747+02:00", "lat": 55.605, "lon": 13.0878, "intensity": 0.8, "source": "NDR"}, {"title": "Stau und stockender Verkehr: Kurzurlauber brauchen viel Geduld", "url": "https://www.ndr.de/nachrichten/niedersachsen/Stau-und-stockender-Verkehr-Kurzurlauber-brauchen-viel-Geduld,verkehr1284.html", "thumbnailUrl": "https://www.ndr.de/nachrichten/niedersachsen/stau1676_v-contentwidescreen.jpg", "date": "2024-05-12T18:42:09.772+02:00", "lat": 53.5511, "lon": 9.9872, "intensity": 0.7, "source": "NDR"}, {"title": "Forschungsschiff \"Polarstern\" ist wieder in Bremerhaven", "url": "https://www.ndr.de/nachrichten/niedersachsen/oldenburg_ostfriesland/Forschungsschiff-Polarstern-ist-wieder-in-Bremerhaven,polarstern494.html", "thumbnailUrl": "https://www.ndr.de/kultur/film/videos/polarstern492_v-contentwidescreen.jpg", "date": "2024-05-12T19:45:24.925+02:00", "lat": 53.539584, "lon": 8.570555, "intensity": 0.7, "source": "NDR"}, {"title": "Experten: Hochwasser wie zum Jahreswechsel k\u00fcnftig wohl h\u00e4ufiger", "url": "https://www.ndr.de/nachrichten/niedersachsen/Experten-Hochwasser-wie-zum-Jahreswechsel-kuenftig-wohl-haeufiger,hochwasser6044.html", "thumbnailUrl": "https://www.ndr.de/nachrichten/niedersachsen/hochwasser5904_v-contentwidescreen.jpg", "date": "2024-05-12T13:20:54.986+02:00", "lat": 52.1548, "lon": 10.2265, "intensity": 0.8, "source": "NDR"}, {"title": "Polarlichter: Extremer Sonnensturm l\u00e4sst den Himmel leuchten", "url": "https://www.ndr.de/nachrichten/niedersachsen/Polarlichter-Extremer-Sonnensturm-laesst-Himmel-leuchten,polarlichter374.html", "thumbnailUrl": "https://www.ndr.de/nachrichten/niedersachsen/oldenburg_ostfriesland/polarlichter440_v-contentwidescreen.jpg", "date": "2024-05-12T10:52:16.955+02:00", "lat": 52.3759, "lon": 9.7439, "intensity": 0.7, "source": "NDR"}, {"title": "Ludwigslust: Auto bringt Denkmal \"Reitende Alexandrine\" zu Fall", "url": "https://www.ndr.de/nachrichten/mecklenburg-vorpommern/Ludwigslust-Auto-bringt-Denkmal-Reitende-Alexandrine-zu-Fall,reitendealexandrine102.html", "thumbnailUrl": "https://www.ndr.de/nachrichten/mecklenburg-vorpommern/reitendealexandrine100_v-contentwidescreen.png", "date": "2024-05-12T14:06:13.491+02:00", "lat": 53.3282, "lon": 11.4955, "intensity": 0.7, "source": "NDR"}, {"title": "Rostock: Vermisster F\u00fcnfj\u00e4hriger wohlbehalten aufgefunden", "url": "https://www.ndr.de/nachrichten/mecklenburg-vorpommern/Rostock-Vermisster-Fuenfjaehriger-wohlbehalten-aufgefunden,vermissterjunge124.html", "thumbnailUrl": "https://www.ndr.de/nachrichten/mecklenburg-vorpommern/vermissterjunge126_v-contentwidescreen.jpg", "date": "2024-05-12T21:19:21.620+02:00", "lat": 54.080353, "lon": 12.099803, "intensity": 0.8, "source": "NDR"}, {"title": "Rostock: Vermisster F\u00fcnfj\u00e4hriger wohlbehalten aufgefunden", "url": "https://www.ndr.de/fernsehen/sendungen/nordmagazin/Rostock-Vermisster-Fuenfjaehriger-wohlbehalten-aufgefunden,nordmagazin118124.html", "thumbnailUrl": "https://www.ndr.de/fernsehen/screenshot1747926_v-contentwidescreen.jpg", "date": "2024-05-12T22:43:43.924+02:00", "lat": 54.0892, "lon": 12.1055, "intensity": 0.3, "source": "NDR"}, {"title": "Delfin \"Delle\": Saltos in der Trave \u2013 Experte in Sorge", "url": "https://www.ndr.de/fernsehen/sendungen/schleswig-holstein_magazin/Delfin-Delle-Saltos-in-der-Trave-Experte-in-Sorge,shmag116460.html", "thumbnailUrl": "https://www.ndr.de/fernsehen/screenshot1747816_v-contentwidescreen.jpg", "date": "2024-05-12T21:36:51.917+02:00", "lat": 53.865, "lon": 10.6858, "intensity": 0.4, "source": "NDR"}, {"title": "Lotto King Karl er\u00f6ffnet Konzertsaison im Hamburger Stadtpark", "url": "https://www.ndr.de/fernsehen/sendungen/hamburg_journal/Lotto-King-Karl-eroeffnet-Konzertsaison-im-Hamburger-Stadtpark,hamj147114.html", "thumbnailUrl": "https://www.ndr.de/fernsehen/screenshot1747840_v-contentwidescreen.jpg", "date": "2024-05-12T20:23:07.980+02:00", "lat": 53.590908, "lon": 9.978027, "intensity": 0.7, "source": "NDR"}, {"title": "Kommentar zum Eurovision Song Contest: \"Chaostage in Malm\u00f6\"", "url": "https://www.ndr.de/nachrichten/info/sendungen/kommentare/Kommentar-zum-Eurovision-Song-Contest-Chaostage-in-Malmoe,audio1632848.html", "thumbnailUrl": "https://www.eurovision.de/news/schweiz1300_v-contentwidescreen.jpg", "date": "2024-05-12T12:43:26.430+02:00", "lat": 55.605, "lon": 13.0878, "intensity": 0.6, "source": "NDR"}, {"title": "Hensel: \"Kitt, der diese Leute zusammenh\u00e4lt, ist Hass auf Israel\"", "url": "https://www.ndr.de/nachrichten/info/Hensel-Kitt-der-diese-Leute-zusammenhaelt-ist-Hass-auf-Israel,audio1632796.html", "thumbnailUrl": "https://www.ndr.de/nachrichten/info/hensel146_v-contentwidescreen.jpg", "date": "2024-05-12T10:39:09.076+02:00", "lat": 53.551086, "lon": 9.993682, "intensity": 0.7, "source": "NDR"}, {"title": "Klima und Verkehr: So kann der Umstieg auf E-Lkw gelingen", "url": "https://www.ndr.de/nachrichten/info/Klima-und-Verkehr-So-kann-der-Umstieg-auf-E-Lkw-gelingen,elkw134.html", "thumbnailUrl": "https://www.ndr.de/nachrichten/hamburg/elektrolkw104_v-contentwidescreen.jpg", "date": "2024-05-12T11:39:04.221+02:00", "lat": 53.551085, "lon": 9.993682, "intensity": 0.8, "source": "NDR"}, {"title": "Altes Land: Forschende und Obstbauern heben Datenschatz im Boden", "url": "https://www.ndr.de/nachrichten/hamburg/Altes-Land-Forschende-und-Obstbauern-heben-Datenschatz-im-Boden-,bodenkunde106.html", "thumbnailUrl": "https://www.ndr.de/nachrichten/info/bodenkunde100_v-contentwidescreen.jpg", "date": "2024-05-12T14:00:00.052+02:00", "lat": 53.5074, "lon": 9.6434, "intensity": 0.8, "source": "NDR"}, {"title": "Europawahl 2024: Alle Informationen f\u00fcr den Norden", "url": "https://www.ndr.de/nachrichten/info/Europawahl-2024-Alle-Informationen-fuer-Norden,europawahlindex104.html", "thumbnailUrl": "https://www.ndr.de/nachrichten/info/europawahl932_v-contentwidescreen.jpg", "date": "2024-05-12T11:14:34.624+02:00", "lat": 52.3759, "lon": 9.6869, "intensity": 0.5, "source": "NDR"}, {"title": "Gaspreis Dashboard", "url": "https://www.ndr.de/home/gaspreis176.html", "thumbnailUrl": null, "date": "2023-04-06T14:49:06.409+02:00", "lat": 51.3426, "lon": 9.9976, "intensity": 0.7, "source": "NDR"}, {"title": "NDR Radioprogramme", "url": "https://www.ndr.de/radio/radiologobox100.html", "thumbnailUrl": null, "date": "2020-12-01T14:04:26.700+01:00", "lat": 53.5511, "lon": 9.9937, "intensity": 0.3, "source": "NDR"}, {"title": "Podcast: \"Wir Weltmeister\" - Auf der Suche nach 2014", "url": "https://www.ardaudiothek.de/sendung/wir-weltmeister-auf-der-suche-nach-2014/13360445/", "thumbnailUrl": "https://www.ndr.de/sport/fussball/fifawm2014/wirweltmeister108_v-contentwidescreen.jpg", "date": "2024-05-06T22:39:08.340+02:00", "lat": 53.5511, "lon": 9.9876, "intensity": 0.4, "source": "NDR"}, {"title": "Streitkr\u00e4fte und Strategien", "url": "https://www.ndr.de/nachrichten/info/podcast2998.html", "thumbnailUrl": "https://www.ndr.de/mediathek/mediathekbild652_v-contentwidescreen.jpg", "date": "2024-05-10T16:32:06.971+02:00", "lat": 53.5511, "lon": 9.9937, "intensity": 0.8, "source": "NDR"}, {"title": "Raus aus der Depression", "url": "https://www.ndr.de/nachrichten/info/podcast5110.html", "thumbnailUrl": "https://www.ndr.de/mediathek/podcast5112_v-contentwidescreen.jpg", "date": "2024-05-12T22:24:22.832+02:00", "lat": 53.5511, "lon": 9.9937, "intensity": 0.8, "source": "NDR"}, {"title": "Unsere Comedy \"Die Kur-Oase\"!", "url": "https://www.ndr.de/ndr2/podcasts/podcast5816.html", "thumbnailUrl": "https://www.ndr.de/ndr2/podcasts/podcast5812_v-contentwidescreen.jpg", "date": "2024-05-10T07:15:12.973+02:00", "lat": 54.9069, "lon": 8.7386, "intensity": 0.2, "source": "NDR"}, {"title": "Podcast: \"Gerichtssaal 237. True Crime aus dem Strafgericht\"", "url": "https://www.ndr.de/podcast/Podcast-Gerichtssaal-237-True-Crime-aus-dem-Strafgericht,gerichtssaalzweidreisieben104.html", "thumbnailUrl": "https://www.ndr.de/podcast/gerichtssaalzweidreisieben100_v-contentwidescreen.jpg", "date": "2024-05-08T08:30:02.362+02:00", "lat": 53.550341, "lon": 10.000348, "intensity": 0.3, "source": "NDR"}, {"title": "Krieg und Terror - Die Lage im Nahen Osten und in der Ukraine", "url": "https://www.ndr.de/nachrichten/info/podcast5342.html", "thumbnailUrl": "https://www.ndr.de/nachrichten/info/podcastbild412_v-contentwidescreen.jpg", "date": "2024-05-12T19:05:42.433+02:00", "lat": 46.79651, "lon": 30.739834, "intensity": 0.8, "source": "NDR"}, {"title": "Standpunkte", "url": "https://www.ndr.de/nachrichten/info/podcast4700.html", "thumbnailUrl": "https://www.ndr.de/mediathek/podcast5332_v-contentwidescreen.jpg", "date": "2024-05-13T00:05:22.924+02:00", "lat": 53.5511, "lon": 9.9937, "intensity": 0.5, "source": "NDR"}, {"title": "eat.READ.sleep. B\u00fccher f\u00fcr dich", "url": "https://www.ndr.de/kultur/sendungen/eat_read_sleep/index.html", "thumbnailUrl": "https://www.ndr.de/mediathek/podcastbild434_v-contentwidescreen.jpg", "date": "2024-05-10T06:00:36.109+02:00", "lat": 53.5511, "lon": 9.9937, "intensity": 0.2, "source": "NDR"}, {"title": "Die Ern\u00e4hrungs-Docs - Essen als Medizin", "url": "https://www.ndr.de/fernsehen/sendungen/die-ernaehrungsdocs/audio-podcast/index.html", "thumbnailUrl": "https://www.ndr.de/fernsehen/sendungen/die-ernaehrungsdocs/podcastbild338_v-contentwidescreen.jpg", "date": "2024-05-08T08:00:10.109+02:00", "lat": 53.5511, "lon": 9.9876, "intensity": 0.3, "source": "NDR"}, {"title": "Mein Einsatz - der Feuerwehr-Podcast von NDR Niedersachsen", "url": "https://www.ndr.de/ndr1niedersachsen/podcast5774.html", "thumbnailUrl": "https://www.ndr.de/ndr1niedersachsen/podcasts/podcastbild364_v-contentwidescreen.jpg", "date": "2024-05-09T04:00:08.209+02:00", "lat": 52.3759, "lon": 9.7345, "intensity": 0.7, "source": "NDR"}, {"title": "\"Feel Hamburg\" - alle Folgen", "url": "https://www.ndr.de/903/podcasts/podcast5108.html", "thumbnailUrl": "https://www.ndr.de/mediathek/mediathekbild514_v-contentwidescreen.jpg", "date": "2024-04-23T16:10:34.282+02:00", "lat": 53.55, "lon": 10.0, "intensity": 0.4, "source": "NDR"}, {"title": "Intensiv-Station - Satire von NDR Info", "url": "https://www.ndr.de/nachrichten/info/podcast4274.html", "thumbnailUrl": "https://www.ndr.de/nachrichten/info/programm/intensivstation3272_v-contentwidescreen.jpg", "date": "2024-04-29T21:03:04.134+02:00", "lat": 54.3706, "lon": 10.5038, "intensity": 0.8, "source": "NDR"}, {"title": "Amerika, wir m\u00fcssen reden!", "url": "https://www.ndr.de/nachrichten/info/podcast4932.html", "thumbnailUrl": "https://www.ndr.de/nachrichten/info/podcastbild488_v-contentwidescreen.jpg", "date": "2024-04-29T20:25:57.775+02:00", "lat": 39.78373, "lon": -100.445882, "intensity": 0.7, "source": "NDR"}, {"title": "Dreij\u00e4hrige in K\u00f6ln gefunden - 70-J\u00e4hriger freigelassen", "url": "https://www1.wdr.de/nachrichten/regionalnachrichten/koeln/helin-koeln-vermisst-kind-100.html", "thumbnailUrl": null, "date": "2024-05-12T13:53:56Z", "lat": 50.9264, "lon": 7.0319, "intensity": 0.8, "source": "WDR"}, {"title": "Ist der Islamunterricht in NRW gescheitert?", "url": "https://www1.wdr.de/nachrichten/landespolitik/islamunterricht-nrw-gescheitert-100.html", "thumbnailUrl": null, "date": "2024-05-12T11:08:49Z", "lat": 51.9607, "lon": 7.6261, "intensity": 0.8, "source": "WDR"}, {"title": "Fall Helin: Wenn Kinder verschwinden", "url": "https://www1.wdr.de/nachrichten/kind-entfuehrung-statistik-warnzeichen-100.html", "thumbnailUrl": null, "date": "2024-05-12T19:35:07Z", "lat": 50.9375, "lon": 6.9584, "intensity": 0.8, "source": "WDR"}, {"title": "Muttertag: Warum er gefeiert wird", "url": "https://www1.wdr.de/nachrichten/muttertag-ursprung-kritik-100.html", "thumbnailUrl": null, "date": "2024-05-12T17:59:55Z", "lat": 52.375892, "lon": 9.73201, "intensity": 0.3, "source": "WDR"}, {"title": "Wir bleiben drin: Fan-Marsch des VfL Bochum", "url": "https://www1.wdr.de/nachrichten/fan-marsch-vfl-bochum-100.html", "thumbnailUrl": null, "date": "2024-05-12T17:10:23Z", "lat": 51.485664, "lon": 7.214615, "intensity": 0.6, "source": "WDR"}, {"title": "Gewalt im Wahlkampf \u2013 Wie gef\u00e4hrdet ist die Demokratie?", "url": "https://www1.wdr.de/nachrichten/nah-dran-gewalt-im-wahlkampf-100.html", "thumbnailUrl": null, "date": "2024-05-10T19:09:21Z", "lat": 51.1657, "lon": 10.4515, "intensity": 0.7, "source": "WDR"}, {"title": "Wahl-O-Mat zur Europawahl ist online: Wen soll ich am 9. Juni w\u00e4hlen?", "url": "https://www1.wdr.de/nachrichten/europawahl-2024/wahlomat-eu-wahl-100.html", "thumbnailUrl": null, "date": "2024-05-07T09:23:25Z", "lat": 52.52, "lon": 13.4002, "intensity": 0.6, "source": "WDR"}, {"title": "\u00dcbersicht: Europawahl 2024 in NRW", "url": "https://www1.wdr.de/nachrichten/europawahl-2024/europawahl-2024-uebersicht-100.html", "thumbnailUrl": null, "date": "2024-05-10T12:04:19Z", "lat": 51.4818, "lon": 7.6261, "intensity": 0.3, "source": "WDR"}, {"title": "Polizei r\u00fcckt mit Gro\u00dfaufgebot zu Kreisligaspiel in Essen aus", "url": "https://www1.wdr.de/nachrichten/ruhrgebiet/auseinandersetzung-kreisligaspiel-essen-100.html", "thumbnailUrl": null, "date": "2024-05-12T18:12:02Z", "lat": 51.4556, "lon": 7.0087, "intensity": 0.8, "source": "WDR"}, {"title": "Deutsche Scrabble-Meisterschaften in Minden", "url": "https://www1.wdr.de/nachrichten/scrabble-meisterschaften-minden-100.html", "thumbnailUrl": null, "date": "2024-05-12T15:54:12Z", "lat": 52.2833, "lon": 8.9167, "intensity": 0.7, "source": "WDR"}, {"title": "ESC-Kandidat Isaak: So ausgelassen feiert Espelkamp ihn", "url": "https://www1.wdr.de/nachrichten/westfalen-lippe/isaak-esc-party-espelkamp-100.html", "thumbnailUrl": null, "date": "2024-05-12T08:42:54Z", "lat": 52.3829, "lon": 8.6227, "intensity": 0.8, "source": "WDR"}, {"title": "Polarlichter \u00fcber NRW: Spektakul\u00e4re Bilder", "url": "https://www1.wdr.de/nachrichten/polarlichter-nrw-sonnensturm-chancen-100.html", "thumbnailUrl": null, "date": "2024-05-12T05:45:33Z", "lat": 51.9607, "lon": 7.6261, "intensity": 0.4, "source": "WDR"}, {"title": "Nahost-Krieg: Nahost-Liveblog: ++ \u00c4gypten will sich V\u00f6lkermord-Klage anschlie\u00dfen ++", "url": "https://www.tagesschau.de/newsticker/liveblog-nahost-sonntag-140.html", "thumbnailUrl": null, "date": "2024-05-12T20:18:02Z", "lat": 31.7683, "lon": 35.2137, "intensity": 0.8, "source": "WDR"}, {"title": "Antisemitismus an Unis: Wie umgehen mit Pro-Pal\u00e4stina-Camps?", "url": "https://www1.wdr.de/nachrichten/landespolitik/proteste-nrw-unis-pro-palaestina-100.html", "thumbnailUrl": null, "date": "2024-05-11T11:22:37Z", "lat": 51.9607, "lon": 7.6261, "intensity": 0.8, "source": "WDR"}, {"title": "Verhandlungen im Nahen Osten: Wie die Hamas um ihr politisches \u00dcberleben k\u00e4mpft", "url": "https://www.tagesschau.de/ausland/asien/hamas-verhandlungstaktik-100.html", "thumbnailUrl": null, "date": "2024-05-10T17:42:02Z", "lat": 31.5, "lon": 34.267, "intensity": 0.8, "source": "WDR"}, {"title": "ESC in Malm\u00f6: Israel trotz Protesten im Finale", "url": "https://www1.wdr.de/nachrichten/esc-malmoe-halbfinale-israel-hurricane-100.html", "thumbnailUrl": null, "date": "2024-05-10T10:59:09Z", "lat": 55.604, "lon": 13.0878, "intensity": 0.7, "source": "WDR"}, {"title": "Reiseverkehr in NRW: R\u00fcckreise am Sonntag", "url": "https://www1.wdr.de/verkehr/nrw/verkehrsthemen/verkehrslage-christi-himmelfahrt-100.html", "thumbnailUrl": null, "date": "2024-05-12T12:46:49Z", "lat": 51.8134, "lon": 7.6261, "intensity": 0.7, "source": "WDR"}, {"title": "Pflegepreis NRW geht nach Bielefeld", "url": "https://www1.wdr.de/nachrichten/westfalen-lippe/pflegepreis-nrw-bielefeld-100.html", "thumbnailUrl": null, "date": "2024-05-12T16:35:47Z", "lat": 52.0302, "lon": 8.5325, "intensity": 0.7, "source": "WDR"}, {"title": "\"Werteunion\" gr\u00fcndet NRW-Landesverband", "url": "https://www1.wdr.de/nachrichten/landespolitik/werteunion-nrw-landesverband-gruendung-100.html", "thumbnailUrl": null, "date": "2024-05-11T17:52:56Z", "lat": 51.9607, "lon": 7.6276, "intensity": 0.6, "source": "WDR"}, {"title": "Sternfahrt f\u00fcr verletzte Ratinger Rettungskr\u00e4fte: \"Es kann jedem von uns passieren\"", "url": "https://www1.wdr.de/nachrichten/rheinland/ein-jahr-sternfahrt-brandanschlag-ratingen-100.html", "thumbnailUrl": null, "date": "2024-05-11T19:24:58Z", "lat": 51.2971, "lon": 6.8624, "intensity": 0.8, "source": "WDR"}, {"title": "Liegender Protest: Demos f\u00fcr Fatigue-Syndrom-Betroffene in K\u00f6ln und Bielefeld", "url": "https://www1.wdr.de/nachrichten/liegenddemo-aufruf-fatigue-syndrom-longcovid-100.html", "thumbnailUrl": null, "date": "2024-05-12T18:20:20Z", "lat": 50.9385, "lon": 7.0116, "intensity": 0.8, "source": "WDR"}, {"title": "CDU-Parteichef Merz im WDR-Interview: \"Wir leben in einer neuen Zeit\"", "url": "https://www1.wdr.de/nachrichten/friedrich-merz-interview-cdu-parteitag-100.html", "thumbnailUrl": null, "date": "2024-05-08T18:16:13Z", "lat": 51.481845, "lon": 7.588576, "intensity": 0.6, "source": "WDR"}, {"title": "Luxus-Schleuser spendeten mehr als 50.000 Euro an die CDU", "url": "https://www1.wdr.de/nachrichten/luxus-schleuser-durchsuchungen-cdu-parteispende-100.html", "thumbnailUrl": null, "date": "2024-05-09T17:17:38Z", "lat": 51.0303, "lon": 6.8451, "intensity": 0.7, "source": "WDR"}, {"title": "NRW-St\u00e4dtetag: Bochums Oberb\u00fcrgermeister neuer Vorsitzender", "url": "https://www1.wdr.de/nachrichten/landespolitik/staedtetag-nrw-neuer-vorsitzender-bochums-ob-eiskirch-100.html", "thumbnailUrl": null, "date": "2024-05-10T10:36:09Z", "lat": 51.481845, "lon": 7.216236, "intensity": 0.8, "source": "WDR"}, {"title": "Beschwerde aus der Justiz: In NRW fehlen mehr als 400 Staatsanw\u00e4lte", "url": "https://www1.wdr.de/nachrichten/landespolitik/juristen-brandbrief-wuest-100.html", "thumbnailUrl": null, "date": "2024-05-07T17:08:25Z", "lat": 51.9607, "lon": 7.6261, "intensity": 0.8, "source": "WDR"}, {"title": "Bestenauslese oder Vetternwirtschaft: Opposition will Untersuchungsausschuss im Fall Limbach", "url": "https://www1.wdr.de/nachrichten/landespolitik/untersuchungsausschuss-limbach-100.html", "thumbnailUrl": null, "date": "2024-05-07T13:14:31Z", "lat": 51.4614, "lon": 7.5986, "intensity": 0.8, "source": "WDR"}, {"title": "Krieg gegen die Ukraine: Ukraine-Liveblog: ++ Selenskyj berichtet von Ausweitung der K\u00e4mpfe ++", "url": "https://www.tagesschau.de/newsticker/liveblog-ukraine-sonntag-426.html", "thumbnailUrl": null, "date": "2024-05-12T20:54:02Z", "lat": 49.988358, "lon": 36.231389, "intensity": 1, "source": "WDR"}, {"title": "K\u00e4mpfe bei Charkiw und Donezk: Russland meldet Einnahme von sechs D\u00f6rfern", "url": "https://www.tagesschau.de/ausland/europa/ukraine-russische-offensive-charkiw-106.html", "thumbnailUrl": null, "date": "2024-05-11T15:33:01Z", "lat": 49.98081, "lon": 36.25, "intensity": 1, "source": "WDR"}, {"title": "Offensive in der Region Charkiw: Russland setzt Angriffe im Grenzgebiet bei Charkiw fort", "url": "https://www.tagesschau.de/ausland/europa/ukraine-russische-offensive-charkiw-104.html", "thumbnailUrl": null, "date": "2024-05-11T10:21:01Z", "lat": 49.9935, "lon": 36.230383, "intensity": 0.8, "source": "WDR"}, {"title": "Schulze in der Ukraine: Schulze in der Ukraine: \"\u00c4rzte sind genauso wichtig wie Panzer\"", "url": "https://www.tagesschau.de/ausland/europa/schulze-kiew-112.html", "thumbnailUrl": null, "date": "2024-05-11T06:48:02Z", "lat": 50.4501, "lon": 30.5238, "intensity": 0.7, "source": "WDR"}, {"title": "M\u00f6gliche Anschlagspl\u00e4ne: M\u00f6gliche Anschlagspl\u00e4ne: Selenskyj entl\u00e4sst Chef der Leibgarde", "url": "https://www.tagesschau.de/ausland/europa/ukraine-selenskyj-leibgarde-100.html", "thumbnailUrl": null, "date": "2024-05-10T06:36:02Z", "lat": 50.4501, "lon": 30.5234, "intensity": 0.8, "source": "WDR"}, {"title": "Wuppertal feiert den \"Tag der Industriekultur\"", "url": "https://www1.wdr.de/nachrichten/rheinland/tag-industriekultur-wuppertal-100.html", "thumbnailUrl": null, "date": "2024-05-12T17:57:41Z", "lat": 51.2562, "lon": 7.1774, "intensity": 0.7, "source": "WDR"}, {"title": "Polarlichter \u00fcber NRW: Buntes Schauspiel am Himmel", "url": "https://www1.wdr.de/nachrichten/nrw-polarlichter-106.html", "thumbnailUrl": null, "date": "2024-05-11T14:18:16Z", "lat": 51.4818, "lon": 7.6261, "intensity": 0.8, "source": "WDR"},