[{"title": "++ Netanyahu: \"Iran soll nerv\u00f6s warten m\u00fcssen\" ++", "url": "https://www.tagesschau.de/newsticker/liveblog-nahost-dienstag-128.html", "thumbnailUrl": "https://images.tagesschau.de/image/e365725b-db56-4c07-9bf6-67c7b59cc4a7/AAABhnRDex8/AAABjcWesUg/16x9-512.jpg", "date": "2024-04-16T02:43:56.949+02:00", "lat": 31.7767, "lon": 35.2354, "intensity": 0.7, "source": "Tagesschau"}, {"title": "++ Selenskyj fordert gleiche Einigkeit wie bei Israel ++", "url": "https://www.tagesschau.de/newsticker/liveblog-ukraine-dienstag-340.html", "thumbnailUrl": "https://images.tagesschau.de/image/5b073b67-29bf-4703-b6b1-71469e4c25bb/AAABizMn-kk/AAABjcWesUg/16x9-512.jpg", "date": "2024-04-16T02:06:36.052+02:00", "lat": 50.4501, "lon": 30.5234, "intensity": 0.8, "source": "Tagesschau"}, {"title": "Unwetter: B\u00e4ume umgest\u00fcrzt, D\u00e4cher abgedeckt und Bahnverkehr beeintr\u00e4chtigt", "url": "https://www.tagesschau.de/inland/regional/badenwuerttemberg/swr-typisches-aprilwetter-wetterumsturz-bringt-kaelte-und-regen-nach-bw-100.html", "thumbnailUrl": "https://images.tagesschau.de/image/d167747e-e7bd-4ac5-b8e2-7727e8006e8b/AAABjuNPPWs/AAABjcWesUg/16x9-512.jpg", "date": "2024-04-16T00:49:00.000+02:00", "lat": 48.7758, "lon": 9.0233, "intensity": 0.8, "source": "Tagesschau"}, {"title": "Teure \"Gorch Fock\"-Reparatur: Prozess um Elsflether Werft beginnt", "url": "https://www.tagesschau.de/inland/regional/schleswigholstein/ndr-korruptionsskandal-gorch-fock-prozess-um-elsflether-werft-100.html", "thumbnailUrl": "https://images.tagesschau.de/image/dbb9dc43-4240-49b8-82a9-25e7b2eaf1ad/AAABjuKyP3s/AAABjcWesUg/16x9-512.jpg", "date": "2024-04-16T00:01:00.000+02:00", "lat": 53.493892, "lon": 8.230069, "intensity": 0.8, "source": "Tagesschau"}, {"title": "Berlin-Friedrichsfelde: Frau nach Wohnungsbrand wiederbelebt", "url": "https://www.tagesschau.de/inland/regional/berlin/rbb-berlin-friedrichsfelde-frau-nach-wohnungsbrand-wiederbelebt-100.html", "thumbnailUrl": "https://images.tagesschau.de/image/523a8ffc-94f8-4379-93e5-69d357fb8dd0/AAABjuOXBJE/AAABjcWesUg/16x9-512.jpg", "date": "2024-04-15T23:05:01.000+02:00", "lat": 52.5016, "lon": 13.5138, "intensity": 0.8, "source": "Tagesschau"}, {"title": "Unwetter \u00fcber Hessen: B\u00e4ume umgest\u00fcrzt, D\u00e4cher abgedeckt, Verkehr lahmgelegt", "url": "https://www.tagesschau.de/inland/regional/hessen/hr-unwetter-ueber-hessen-baeume-umgestuerzt-daecher-abgedeckt-verkehr-lahmgelegt-100.html", "thumbnailUrl": "https://images.tagesschau.de/image/74e221ce-38b2-47c0-a822-ba37d0a9dab9/AAABjuOWxdI/AAABjcWesUg/16x9-512.jpg", "date": "2024-04-15T23:03:42.840+02:00", "lat": 50.6293, "lon": 8.6753, "intensity": 0.7, "source": "Tagesschau"}, {"title": "Neues Stadion f\u00fcr VfB Oldenburg: Stadtrat gibt gr\u00fcnes Licht", "url": "https://www.tagesschau.de/inland/regional/niedersachsen/ndr-neues-stadion-fuer-vfb-oldenburg-stadtrat-stimmt-heute-ab-100.html", "thumbnailUrl": "https://images.tagesschau.de/image/5f08f13e-54f9-4d3e-8476-d73c0e595617/AAABjuMjyNU/AAABjcWesUg/16x9-512.jpg", "date": "2024-04-15T22:29:00.000+02:00", "lat": 53.1447, "lon": 8.2176, "intensity": 0.6, "source": "Tagesschau"}, {"title": "Wall Street dreht ins Minus", "url": "https://www.tagesschau.de/wirtschaft/finanzen/marktberichte/marktbericht-dax-iran-israel-konflikt-kurse-dow-gold-oel-apple-aktien-borse-100.html", "thumbnailUrl": "https://images.tagesschau.de/image/ed4a91f2-be33-4328-a794-78f92d8c679c/AAABi_E7U2Y/AAABjcWesUg/16x9-512.jpg", "date": "2024-04-15T22:13:31.807+02:00", "lat": 40.7128, "lon": -74.0097, "intensity": 0.7, "source": "Tagesschau"}, {"title": "N\u00e4hrstoffbericht: Niedersachsens Landwirte d\u00fcngen weniger", "url": "https://www.tagesschau.de/inland/regional/niedersachsen/ndr-naehrstoffbericht-niedersachsens-landwirte-duengen-weniger-100.html", "thumbnailUrl": "https://images.tagesschau.de/image/9c9fa16f-e4ce-48a6-9815-9949eb4ab840/AAABjuLeSUE/AAABjcWesUg/16x9-512.jpg", "date": "2024-04-15T22:13:00.000+02:00", "lat": 52.6367, "lon": 10.4515, "intensity": 0.4, "source": "Tagesschau"}, {"title": "++ Iran k\u00f6nnten EU-Sanktionen drohen ++", "url": "https://www.tagesschau.de/newsticker/liveblog-nahost-montag-128.html", "thumbnailUrl": "https://images.tagesschau.de/image/63b86a9a-db2a-497b-9475-250a92761f66/AAABjuMYzZ4/AAABjcWesUg/16x9-512.jpg", "date": "2024-04-15T22:08:06.019+02:00", "lat": 31.7683, "lon": 35.2137, "intensity": 0.8, "source": "Tagesschau"}, {"title": "Volleyball: BR Volleys verlieren F\u00fcnf-Satz-Krimi im ersten Finalspiel gegen Friedrichshafen", "url": "https://www.tagesschau.de/inland/regional/berlin/rbb-volleyball-br-volleys-verlieren-fuenf-satz-krimi-im-ersten-finalspiel-gegen-friedrichshafen-102.html", "thumbnailUrl": "https://images.tagesschau.de/image/e30c169d-d493-4c7f-a3e6-3a49e654e442/AAABjuNjqZg/AAABjcWesUg/16x9-512.jpg", "date": "2024-04-15T22:08:00.000+02:00", "lat": 52.520008, "lon": 13.404954, "intensity": 0.7, "source": "Tagesschau"}, {"title": "Bekifft Autofahren: Ein Selbstversuch mit Cannabis", "url": "https://www.tagesschau.de/inland/regional/niedersachsen/ndr-bekifft-autofahren-ein-selbstversuch-mit-cannabis-100.html", "thumbnailUrl": "https://images.tagesschau.de/image/4cf40d08-4d6a-47c5-840c-6cf05a565065/AAABjuFlAT0/AAABjcWesUg/16x9-512.jpg", "date": "2024-04-15T22:00:00.000+02:00", "lat": 52.3759, "lon": 9.7344, "intensity": 0.7, "source": "Tagesschau"}, {"title": "++ Tote bei russischem Beschuss ++", "url": "https://www.tagesschau.de/newsticker/liveblog-ukraine-montag-356.html", "thumbnailUrl": "https://images.tagesschau.de/image/6c36a9f3-a6b5-4093-b613-e2a8b9672f4a/AAABjuJUatk/AAABjcWesUg/16x9-512.jpg", "date": "2024-04-15T21:56:43.877+02:00", "lat": 50.4501, "lon": 30.5234, "intensity": 0.8, "source": "Tagesschau"}, {"title": "Erstaufnahme und Verfahrensbeginn in Gie\u00dfen - Hoffnung auf ein besseres Leben in Hessen", "url": "https://www.tagesschau.de/inland/regional/hessen/hr-erstaufnahme-und-verfahrensbeginn-in-giessen-hoffnung-auf-ein-besseres-leben-in-hessen-100.html", "thumbnailUrl": "https://images.tagesschau.de/image/efbc92b5-5eb6-44f6-8245-0a9a88495bb4/AAABjuNS_Ts/AAABjcWesUg/16x9-512.jpg", "date": "2024-04-15T21:52:30.075+02:00", "lat": 50.5857, "lon": 8.6715, "intensity": 0.7, "source": "Tagesschau"}, {"title": "Ab Herbst noch weniger Fl\u00fcge: Sundair streicht Kassel Airport aus dem Angebot", "url": "https://www.tagesschau.de/inland/regional/hessen/hr-ab-herbst-noch-weniger-fluege-sundair-streicht-kassel-airport-aus-dem-angebot-100.html", "thumbnailUrl": "https://images.tagesschau.de/image/53e27ae3-ae96-4c9d-a359-fa6f14de65cb/AAABjuNRKlg/AAABjcWesUg/16x9-512.jpg", "date": "2024-04-15T21:50:58.892+02:00", "lat": 51.312, "lon": 9.402, "intensity": 0.8, "source": "Tagesschau"}, {"title": "\"Mir gef\u00e4llt es, wenn meine Tage so getaktet sind\"", "url": "https://www.tagesschau.de/inland/regional/berlin/rbb-mir-gefaellt-es-wenn-meine-tage-so-getaktet-sind-100.html", "thumbnailUrl": "https://images.tagesschau.de/image/19307587-a64c-4218-9c8a-881270ead1c5/AAABjuNPc0k/AAABjcWesUg/16x9-512.jpg", "date": "2024-04-15T21:49:50.000+02:00", "lat": 52.520008, "lon": 13.404954, "intensity": 0.3, "source": "Tagesschau"}, {"title": "Gro\u00dfbrand in Stade - Feuerwehr r\u00fcckt mit allen Kr\u00e4ften aus", "url": "https://www.tagesschau.de/inland/regional/niedersachsen/ndr-grossbrand-in-stade-feuerwehr-rueckt-mit-allen-kraeften-aus-100.html", "thumbnailUrl": "https://images.tagesschau.de/image/3749e67c-678a-4fff-b51a-4650ce093891/AAABjuKYgmQ/AAABjcWesUg/16x9-512.jpg", "date": "2024-04-15T21:44:00.000+02:00", "lat": 53.5939, "lon": 9.4786, "intensity": 0.8, "source": "Tagesschau"}, {"title": "Bislang mehr als 70 Eins\u00e4tze wegen Sturm im Saarland", "url": "https://www.tagesschau.de/inland/regional/saarland/sr-mehr-als-40-einsaetze-wegen-sturm-im-saarland-100.html", "thumbnailUrl": "https://images.tagesschau.de/image/c94b90d0-3d2d-4b95-bbea-d69506fb384a/AAABjuLfirQ/AAABjcWesUg/16x9-512.jpg", "date": "2024-04-15T21:36:00.000+02:00", "lat": 49.3964, "lon": 6.9984, "intensity": 0.8, "source": "Tagesschau"}, {"title": "Unfall auf A2 bei Herrenhausen: Pkw zwischen zwei Lkw eingeklemmt", "url": "https://www.tagesschau.de/inland/regional/niedersachsen/ndr-unfall-auf-a2-bei-herrenhausen-auto-zwischen-zwei-lkw-eingeklemmt-100.html", "thumbnailUrl": "https://images.tagesschau.de/image/bcd996e1-1b5f-4e86-bd3f-ac953dcd8b8c/AAABjuKU3nA/AAABjcWesUg/16x9-512.jpg", "date": "2024-04-15T21:31:00.000+02:00", "lat": 52.3906, "lon": 9.7426, "intensity": 0.8, "source": "Tagesschau"}, {"title": "Ampel-Koalition einigt sich auf Klimaschutzgesetz-Reform und Solarpaket", "url": "https://www.tagesschau.de/inland/regional/badenwuerttemberg/swr-ampel-koalition-einigt-sich-auf-klimaschutzgesetz-reform-und-solarpaket-100.html", "thumbnailUrl": "https://images.tagesschau.de/image/6efe8d85-9345-4813-a7af-e7ad3c4eccab/AAABjuNAkIs/AAABjcWesUg/16x9-512.jpg", "date": "2024-04-15T21:29:33.000+02:00", "lat": 48.7758, "lon": 9.2038, "intensity": 0.7, "source": "Tagesschau"}, {"title": "Abschied auf dem Platz? Eintracht-Kapit\u00e4n Rode ist \"sehr zuversichtlich\"", "url": "https://www.tagesschau.de/inland/regional/hessen/hr-abschied-auf-dem-platz-eintracht-kapitaen-rode-ist-sehr-zuversichtlich-102.html", "thumbnailUrl": "https://images.tagesschau.de/image/7e8183f9-c387-4eba-8b8e-9bca146d714a/AAABjuNNmmc/AAABjcWesUg/16x9-512.jpg", "date": "2024-04-15T21:24:47.551+02:00", "lat": 50.1109, "lon": 8.6812, "intensity": 0.6, "source": "Tagesschau"}, {"title": "Wissenswertes zur DEL-Final-Serie der Eisb\u00e4ren Berlin gegen Fischtown Pinguins Bremerhaven", "url": "https://www.tagesschau.de/inland/regional/berlin/rbb-wissenswertes-zur-del-final-serie-der-eisbaeren-berlin-gegen-fischtown-pinguins-bremerhaven-102.html", "thumbnailUrl": "https://images.tagesschau.de/image/52cb3f63-ffc9-4ae9-9154-465b1e328058/AAABjuMyT_w/AAABjcWesUg/16x9-512.jpg", "date": "2024-04-15T21:17:20.000+02:00", "lat": 52.520008, "lon": 13.404954, "intensity": 0.8, "source": "Tagesschau"}, {"title": "Unfall am Tunnel: Bauarbeiter wird von Radlader erfasst und stirbt", "url": "https://www.tagesschau.de/inland/regional/niedersachsen/ndr-unfall-am-tunnel-bauarbeiter-wird-von-radlader-erfasst-und-stirbt-100.html", "thumbnailUrl": "https://images.tagesschau.de/image/71510e9a-ed53-4b13-9ee4-b4ff008830f5/AAABjuHm9nI/AAABjcWesUg/16x9-512.jpg", "date": "2024-04-15T21:15:00.000+02:00", "lat": 51.4973, "lon": 9.9354, "intensity": 0.8, "source": "Tagesschau"}, {"title": "Bahnrad-Olympiasiegerin Kristina Vogel nach Lungenembolie in Berlin notoperiert", "url": "https://www.tagesschau.de/inland/regional/brandenburg/rbb-bahnrad-olympiasiegerin-kristina-vogel-nach-lungenembolie-in-berlin-notoperiert-102.html", "thumbnailUrl": "https://images.tagesschau.de/image/007ecd03-784f-4283-ad4d-6800ed47fcf7/AAABjuMubiM/AAABjcWesUg/16x9-512.jpg", "date": "2024-04-15T21:13:44.000+02:00", "lat": 52.520008, "lon": 13.404954, "intensity": 0.8, "source": "Tagesschau"}, {"title": "Niedersachsens Gesundheitsminister f\u00fcr legale Fr\u00fch-Abtreibungen", "url": "https://www.tagesschau.de/inland/regional/niedersachsen/ndr-niedersachsens-gesundheitsminister-fuer-legale-frueh-abtreibungen-100.html", "thumbnailUrl": "https://images.tagesschau.de/image/fc6ba4f6-e8c2-4610-bd3d-2c12eadbd9b3/AAABjuM0ODw/AAABjcWesUg/16x9-512.jpg", "date": "2024-04-15T21:09:00.000+02:00", "lat": 51.1657, "lon": 10.4515, "intensity": 0.7, "source": "Tagesschau"}, {"title": "FC St. Pauli: Die erste Saisonkrise kommt zur Unzeit", "url": "https://www.tagesschau.de/inland/regional/hamburg/ndr-fc-st-pauli-die-erste-saisonkrise-kommt-zur-unzeit-100.html", "thumbnailUrl": "https://images.tagesschau.de/image/39983b4e-aae6-4751-bc98-97e221c6d5dc/AAABjuEoXOc/AAABjcWesUg/16x9-512.jpg", "date": "2024-04-15T21:06:00.000+02:00", "lat": 53.5511, "lon": 10.0049, "intensity": 0.7, "source": "Tagesschau"}, {"title": "HSV: Zu wenig Disziplin f\u00fcr den Bundesliga-Aufstieg", "url": "https://www.tagesschau.de/inland/regional/hamburg/ndr-hsv-zu-wenig-disziplin-fuer-den-bundesliga-aufstieg-102.html", "thumbnailUrl": "https://images.tagesschau.de/image/739e44f8-f702-41a5-9ef3-4f3a4cd447e2/AAABjuGD-Mo/AAABjcWesUg/16x9-512.jpg", "date": "2024-04-15T21:05:00.000+02:00", "lat": 53.55, "lon": 10.0, "intensity": 0.7, "source": "Tagesschau"}, {"title": "Verz\u00f6gerte Politik-Abipr\u00fcfung: Ministerium k\u00fcndigt Konsequenzen an", "url": "https://www.tagesschau.de/inland/regional/niedersachsen/ndr-verzoegerte-politik-abipruefung-ministerium-kuendigt-konsequenzen-an-100.html", "thumbnailUrl": "https://images.tagesschau.de/image/8cf5d2df-cdea-47c3-86c1-cd6535714859/AAABjuMA-94/AAABjcWesUg/16x9-512.jpg", "date": "2024-04-15T20:57:00.000+02:00", "lat": 52.3555, "lon": 9.6856, "intensity": 0.6, "source": "Tagesschau"}, {"title": "Scholz wirbt f\u00fcr offene M\u00e4rkte und fairen Handel", "url": "https://www.tagesschau.de/wirtschaft/scholz-china-114.html", "thumbnailUrl": "https://images.tagesschau.de/image/9fea9509-3d8b-4abc-9380-67813390dcac/AAABjuL58o4/AAABjcWesUg/16x9-512.jpg", "date": "2024-04-15T20:52:09.773+02:00", "lat": 39.9042, "lon": 116.4074, "intensity": 0.7, "source": "Tagesschau"}, {"title": "Iran schaden, aber keinen Krieg ausl\u00f6sen", "url": "https://www.tagesschau.de/ausland/asien/israel-kriegskabinett-iran-reaktion-angriff-100.html", "thumbnailUrl": "https://images.tagesschau.de/image/c5782200-50de-4e7f-bb85-51708dc2e089/AAABjuMNzQk/AAABjcWesUg/16x9-512.jpg", "date": "2024-04-15T20:49:31.644+02:00", "lat": 51.3963, "lon": 35.6895, "intensity": 0.8, "source": "Tagesschau"}, {"title": "Nach Angriff auf Israel: Solidarit\u00e4tsdemo in Hamburg", "url": "https://www.tagesschau.de/inland/regional/hamburg/ndr-nach-angriff-auf-israel-solidaritaetsdemonstration-in-hamburg-100.html", "thumbnailUrl": "https://images.tagesschau.de/image/569ca83b-da28-4516-bb9e-29f230929f9c/AAABjuD4w-E/AAABjcWesUg/16x9-512.jpg", "date": "2024-04-15T20:40:00.000+02:00", "lat": 53.5511, "lon": 10.0006, "intensity": 0.7, "source": "Tagesschau"}, {"title": "Eintracht: +++ Rode bei der Reha \"im Plan\" +++ N'Dicka aus Krankenhaus entlassen +++ Rode zu Gast im heimspiel! +++", "url": "https://www.tagesschau.de/inland/regional/hessen/hr--eintracht-wohl-mit-chaibi-einig--glasner-fast-nur-kolo-muani-der-tore-erzielt--bericht-eintracht-sagt-aouar-ab-100.html", "thumbnailUrl": "https://images.tagesschau.de/image/ee26647b-d5c4-45f6-a575-9384ff6e22e2/AAABjuMPSR4/AAABjcWesUg/16x9-512.jpg", "date": "2024-04-15T20:39:27.239+02:00", "lat": 50.110922, "lon": 8.682127, "intensity": 0.6, "source": "Tagesschau"}, {"title": "Datenschutzbericht 2023: Beschwerden in Hamburg nehmen zu", "url": "https://www.tagesschau.de/inland/regional/hamburg/ndr-datenschutzbericht-2023-rund-2-500-beschwerden-in-hamburg-100.html", "thumbnailUrl": "https://images.tagesschau.de/image/ab90e876-7abf-4e8e-8daa-4869f69bfd31/AAABjuJS7J8/AAABjcWesUg/16x9-512.jpg", "date": "2024-04-15T20:31:00.000+02:00", "lat": 53.55, "lon": 10.0, "intensity": 0.8, "source": "Tagesschau"}, {"title": "Fernw\u00e4rme aus Abf\u00e4llen: Anlage Borsigstra\u00dfe vollst\u00e4ndig in Betrieb", "url": "https://www.tagesschau.de/inland/regional/hamburg/ndr-fernwaerme-aus-abfaellen-anlage-borsigstrasse-vollstaendig-in-betrieb-100.html", "thumbnailUrl": "https://images.tagesschau.de/image/92b42897-d58a-4fcc-ad04-61baa5758ca3/AAABjuHLX_8/AAABjcWesUg/16x9-512.jpg", "date": "2024-04-15T20:21:00.000+02:00", "lat": 53.551086, "lon": 9.994889, "intensity": 0.8, "source": "Tagesschau"}, {"title": "Der Neubau der Schleibr\u00fccke bei Lindaunis verz\u00f6gert sich", "url": "https://www.tagesschau.de/inland/regional/schleswigholstein/ndr-der-neubau-der-schleibruecke-bei-lindaunis-verzoegert-sich-100.html", "thumbnailUrl": "https://images.tagesschau.de/image/ee87e67c-17b7-436c-ab75-b74d3bb6403b/AAABjuL7Ym4/AAABjcWesUg/16x9-512.jpg", "date": "2024-04-15T20:14:00.000+02:00", "lat": 54.6165, "lon": 9.6696, "intensity": 0.7, "source": "Tagesschau"}, {"title": "Frau von Gaskartusche erschlagen - Polizei sucht m\u00f6gliche T\u00e4ter", "url": "https://www.tagesschau.de/inland/regional/badenwuerttemberg/swr-frau-in-karlsruhe-durch-herabfallenden-gegenstand-toedlich-verletzt-100.html", "thumbnailUrl": "https://images.tagesschau.de/image/a8779ddb-17a7-4b1a-a0d1-4f4db801bc38/AAABjuLHzlY/AAABjcWesUg/16x9-512.jpg", "date": "2024-04-15T20:10:00.000+02:00", "lat": 49.00689, "lon": 8.403653, "intensity": 0.8, "source": "Tagesschau"}, {"title": "Nach Helme-Hochwasser: Letzte Sands\u00e4cke sollen verschwinden", "url": "https://www.tagesschau.de/inland/regional/sachsenanhalt/mdr-nach-helme-hochwasser-letzte-sandsaecke-sollen-verschwinden-100.html", "thumbnailUrl": "https://images.tagesschau.de/image/e7389ed0-7f15-4165-9530-93c7d779ef24/AAABjuQOES8/AAABjcWesUg/16x9-512.jpg", "date": "2024-04-15T20:01:59.000+02:00", "lat": 51.5858, "lon": 11.1956, "intensity": 0.5, "source": "Tagesschau"}, {"title": "Verfassungsschutzbericht: Wovor Herrmann besonders warnt", "url": "https://www.tagesschau.de/inland/regional/bayern/br-verfassungsschutzbericht-wovor-herrmann-besonders-warnt-102.html", "thumbnailUrl": "https://images.tagesschau.de/image/582bfaf2-45fe-4474-8be7-32fb4cc3b800/AAABjuMAxag/AAABjcWesUg/16x9-512.jpg", "date": "2024-04-15T20:01:28.874+02:00", "lat": 48.1351, "lon": 11.582, "intensity": 0.7, "source": "Tagesschau"}, {"title": "Abi-Pr\u00fcfungsaufgaben in Solingen - eine technische Herausforderung gelingt", "url": "https://www.tagesschau.de/inland/regional/nordrheinwestfalen/wdr-problemloses-freischalten-der-abi-pruefungsaufgaben-in-solingen-100.html", "thumbnailUrl": "https://images.tagesschau.de/image/6c163588-b132-48b5-99e5-69898196daed/AAABjuMoutk/AAABjcWesUg/16x9-512.jpg", "date": "2024-04-15T19:52:00.000+02:00", "lat": 51.173, "lon": 7.083, "intensity": 0.6, "source": "Tagesschau"}, {"title": "So wollen St\u00e4dte in den Vogesen gegen den Bev\u00f6lkerungsschwund vorgehen", "url": "https://www.tagesschau.de/inland/regional/saarland/sr-so-wollen-staedte-in-den-vogesen-gegen-den-bevoelkerungsschwund-vorgehen-100.html", "thumbnailUrl": "https://images.tagesschau.de/image/fc82bc87-57bc-4d75-835a-4a4f47943863/AAABjuLm0Fg/AAABjcWesUg/16x9-512.jpg", "date": "2024-04-15T19:51:00.000+02:00", "lat": 48.0417, "lon": 6.9075, "intensity": 0.7, "source": "Tagesschau"}, {"title": "Wetter in NRW: Ab heute wird es k\u00fchl, nass und windig", "url": "https://www.tagesschau.de/inland/regional/nordrheinwestfalen/wdr-wetter-in-nrw-am-samstag-noch-mal-die-sonne-geniessen-100.html", "thumbnailUrl": "https://images.tagesschau.de/image/534cf932-c79f-4325-9c93-3e8089c4f693/AAABjuNJsQo/AAABjcWesUg/16x9-512.jpg", "date": "2024-04-15T19:44:00.000+02:00", "lat": 51.4332, "lon": 7.6261, "intensity": 0.5, "source": "Tagesschau"}, {"title": "Rund 200 Besch\u00e4ftigte beteiligten sich an Streik bei Telekom in Saarbr\u00fccken", "url": "https://www.tagesschau.de/inland/regional/saarland/sr-streik-bei-deutscher-telekom-in-saarbruecken-am-montag-100.html", "thumbnailUrl": "https://images.tagesschau.de/image/d42db0e2-591b-4303-a29f-33a6af7031d9/AAABjuFgzlk/AAABjcWesUg/16x9-512.jpg", "date": "2024-04-15T19:39:00.000+02:00", "lat": 49.2402, "lon": 6.9969, "intensity": 0.8, "source": "Tagesschau"}, {"title": "Mieterverein: Diese Rechte haben Mieter, wenn ihr Wohnhaus einsturzgef\u00e4hrdet ist", "url": "https://www.tagesschau.de/inland/regional/berlin/rbb-mieterverein-diese-rechte-haben-mieter-wenn-ihr-wohnhaus-einsturzgefaehrdet-ist-100.html", "thumbnailUrl": "https://images.tagesschau.de/image/d347d6b1-de26-4898-9a7d-19a430baa686/AAABjuLaZtY/AAABjcWesUg/16x9-512.jpg", "date": "2024-04-15T19:38:08.000+02:00", "lat": 52.4837, "lon": 13.35187, "intensity": 0.8, "source": "Tagesschau"}, {"title": "Zwei Milliarden Euro Hilfe f\u00fcr den Sudan", "url": "https://www.tagesschau.de/ausland/sudan-konferenz-100.html", "thumbnailUrl": "https://images.tagesschau.de/image/0a80606d-bef1-4b91-b969-f165b48c3a76/AAABjuLO_W0/AAABjcWesUg/16x9-512.jpg", "date": "2024-04-15T19:30:00.190+02:00", "lat": 15.5007, "lon": 32.5599, "intensity": 0.8, "source": "Tagesschau"}, {"title": "Darboven Kaffee: Von der Hamburger Idee zu einer gro\u00dfen Marke", "url": "https://www.tagesschau.de/inland/regional/hamburg/ndr-darboven-kaffee-von-der-hamburger-idee-zu-einer-grossen-marke-100.html", "thumbnailUrl": "https://images.tagesschau.de/image/d8543abf-5208-46cf-ae6f-065ea682712c/AAABjt_03ZE/AAABjcWesUg/16x9-512.jpg", "date": "2024-04-15T19:30:00.000+02:00", "lat": 53.551086, "lon": 9.993682, "intensity": 0.6, "source": "Tagesschau"}, {"title": "Speed Week in NRW: Polizei blitzt Tempos\u00fcnder", "url": "https://www.tagesschau.de/inland/regional/nordrheinwestfalen/wdr-speed-week-in-nrw-polizei-jagt-ab-montag-wieder-raser-100.html", "thumbnailUrl": "https://images.tagesschau.de/image/2027334c-3e8f-45a4-84a5-f2998b738679/AAABjuMsaLw/AAABjcWesUg/16x9-512.jpg", "date": "2024-04-15T19:28:00.000+02:00", "lat": 51.1657, "lon": 7.6261, "intensity": 0.6, "source": "Tagesschau"}, {"title": "Brokstedt-Prozess: Weitere Psychiater sagen aus", "url": "https://www.tagesschau.de/inland/regional/schleswigholstein/ndr-brokstedt-prozess-weiterer-psychiater-sagt-aus-100.html", "thumbnailUrl": "https://images.tagesschau.de/image/1dc060d5-1162-43a2-b824-6e472d8e711d/AAABjuLPdKQ/AAABjcWesUg/16x9-512.jpg", "date": "2024-04-15T19:27:00.000+02:00", "lat": 53.9863, "lon": 9.8914, "intensity": 0.7, "source": "Tagesschau"}, {"title": "Berlin-Friedenau: Kein Haftbefehl nach t\u00f6dlicher Messerstecherei - Polizei pr\u00fcft Notwehr", "url": "https://www.tagesschau.de/inland/regional/berlin/rbb-polizeieinsatz-102.html", "thumbnailUrl": "https://images.tagesschau.de/image/acedefce-28a7-4f76-ba45-2e8706f4a246/AAABjuLGPlI/AAABjcWesUg/16x9-512.jpg", "date": "2024-04-15T19:19:38.000+02:00", "lat": 52.4714, "lon": 13.3386, "intensity": 0.8, "source": "Tagesschau"}, {"title": "Th\u00fcringen will fast 100 Millionen Euro in Landesfeuerwehrschule investieren", "url": "https://www.tagesschau.de/inland/regional/thueringen/mdr-thueringen-will-fast-100-millionen-euro-in-landesfeuerwehrschule-investieren-100.html", "thumbnailUrl": "https://images.tagesschau.de/image/ef166f7c-2119-458a-bb0c-a2122c8bc9b1/AAABjuQL9VM/AAABjcWesUg/16x9-512.jpg", "date": "2024-04-15T19:17:41.000+02:00", "lat": 50.9148, "lon": 12.1029, "intensity": 0.7, "source": "Tagesschau"}, {"title": "Fuhrpark verbrannt: Staatsschutz ermittelt nach Feuer in Firma von AfD-Politiker", "url": "https://www.tagesschau.de/inland/regional/sachsenanhalt/mdr-fuhrpark-verbrannt-staatsschutz-ermittelt-nach-feuer-in-firma-von-afd-politiker-100.html", "thumbnailUrl": "https://images.tagesschau.de/image/bca2d7f5-d2c6-4bca-87b1-c93832554993/AAABjuQN984/AAABjcWesUg/16x9-512.jpg", "date": "2024-04-15T19:04:34.000+02:00", "lat": 51.58982, "lon": 11.85349, "intensity": 0.8, "source": "Tagesschau"}, {"title": "\"F\u00fcr den Iran war das ein Testlauf\"", "url": "https://www.tagesschau.de/israel-iran-nach-eskalation-100.html", "thumbnailUrl": "https://images.tagesschau.de/image/c9f0e2e0-54c8-41b6-9b5e-0d5532374d7f/AAABjuJX-sk/AAABjcWesUg/16x9-512.jpg", "date": "2024-04-15T19:01:16.590+02:00", "lat": 51.3963, "lon": 35.6895, "intensity": 0.8, "source": "Tagesschau"}, {"title": "BRB schie\u00dft gegen Deutsche Bahn: \"Das System ist am Ende\"", "url": "https://www.tagesschau.de/inland/regional/bayern/br-brb-schiesst-gegen-deutsche-bahn-das-system-ist-am-ende-102.html", "thumbnailUrl": "https://images.tagesschau.de/image/cf544024-0f7f-48fe-948e-a7c8a93672a0/AAABjuL9Hgk/AAABjcWesUg/16x9-512.jpg", "date": "2024-04-15T19:00:11.655+02:00", "lat": 48.135125, "lon": 11.581981, "intensity": 0.8, "source": "Tagesschau"}, {"title": "Berlin-Mitte: Polizeieinsatz bei propal\u00e4stinensischem Protestcamp - mehrere Verletzte", "url": "https://www.tagesschau.de/inland/regional/berlin/rbb-berlin-mitte-polizeieinsatz-bei-propalaestinensischem-protestcamp-mehrere-verletzte-100.html", "thumbnailUrl": "https://images.tagesschau.de/image/0511caa6-0e5d-4fe1-aa1a-e8f3b1bc4e5d/AAABjuKd8d4/AAABjcWesUg/16x9-512.jpg", "date": "2024-04-15T18:40:59.000+02:00", "lat": 52.52, "lon": 13.3946, "intensity": 0.8, "source": "Tagesschau"}, {"title": "FBI ermittelt nach Br\u00fcckeneinsturz in Baltimore", "url": "https://www.tagesschau.de/ausland/amerika/baltimore-bruecke-fbi-100.html", "thumbnailUrl": "https://images.tagesschau.de/image/4f9e4f57-1acc-499e-bba7-07c6c8a609d6/AAABjuKe0gk/AAABjcWesUg/16x9-512.jpg", "date": "2024-04-15T18:37:23.343+02:00", "lat": 39.2904, "lon": -76.6122, "intensity": 0.8, "source": "Tagesschau"}, {"title": "Mehr Macht f\u00fcr Ministerpr\u00e4sidentin Meloni ", "url": "https://www.tagesschau.de/ausland/europa/italien-meloni-verfassungsaenderung-100.html", "thumbnailUrl": "https://images.tagesschau.de/image/de4e6bed-3b21-423f-9254-beeef1771b08/AAABjuKbAWU/AAABjcWesUg/16x9-512.jpg", "date": "2024-04-15T18:33:13.358+02:00", "lat": 41.8719, "lon": 12.5674, "intensity": 0.8, "source": "Tagesschau"}, {"title": "Prozessauftakt mit Schlappe f\u00fcr Trump", "url": "https://www.tagesschau.de/ausland/amerika/trump-prozess-schweigegeld-102.html", "thumbnailUrl": "https://images.tagesschau.de/image/8836ba59-5b33-4967-8516-79596e6dbf0f/AAABjuJwLck/AAABjcWesUg/16x9-512.jpg", "date": "2024-04-15T18:30:34.069+02:00", "lat": 38.9072, "lon": -77.0369, "intensity": 0.8, "source": "Tagesschau"}, {"title": "foodwatch wirft Lidl bei Energydrinks \"Doppelmoral\" vor", "url": "https://www.tagesschau.de/inland/regional/badenwuerttemberg/swr-foodwatch-wirft-lidl-bei-energydrinks-doppelmoral-vor-100.html", "thumbnailUrl": "https://images.tagesschau.de/image/4f96a85d-6a6a-4f09-a2dd-df7d07b3f308/AAABjuLS0Gg/AAABjcWesUg/16x9-512.jpg", "date": "2024-04-15T18:30:00.000+02:00", "lat": 48.74076, "lon": 9.35686, "intensity": 0.6, "source": "Tagesschau"}, {"title": "Tesla will offenbar Arbeitspl\u00e4tze in Gr\u00fcnheide streichen - jeden zehnten weltweit", "url": "https://www.tagesschau.de/inland/regional/brandenburg/rbb-elektroautohersteller-tesla-chef-elon-musk-will-offenbar-weltweit-jeden-zehnten-arbeitsplatz-streichen-100.html", "thumbnailUrl": "https://images.tagesschau.de/image/2c2f2db6-fa48-4129-9a83-4a72fc97b551/AAABjuKWbZI/AAABjcWesUg/16x9-512.jpg", "date": "2024-04-15T18:27:29.000+02:00", "lat": 52.3717, "lon": 13.8406, "intensity": 0.8, "source": "Tagesschau"}, {"title": "15-J\u00e4hriger klaut Feuerwehrauto in Geilenkirchen", "url": "https://www.tagesschau.de/inland/regional/nordrheinwestfalen/wdr-15-jaehriger-klaut-feuerwehrauto-in-geilenkirchen-100.html", "thumbnailUrl": "https://images.tagesschau.de/image/3b77186a-4710-4e2b-becb-27d2a66e1a23/AAABjuL3g7A/AAABjcWesUg/16x9-512.jpg", "date": "2024-04-15T18:27:00.000+02:00", "lat": 50.9807, "lon": 6.1174, "intensity": 0.7, "source": "Tagesschau"}, {"title": "Holocaust-\u00dcberlebende spricht mit Schulklasse aus Ingelheim ", "url": "https://www.tagesschau.de/inland/regional/rheinlandpfalz/swr-holocaust-ueberlebende-spricht-mit-schulklasse-aus-ingelheim-100.html", "thumbnailUrl": "https://images.tagesschau.de/image/118ee243-05e6-46b1-b96d-3c6bf166fa54/AAABjuMH2ds/AAABjcWesUg/16x9-512.jpg", "date": "2024-04-15T18:20:03.000+02:00", "lat": 49.9744, "lon": 8.0732, "intensity": 0.8, "source": "Tagesschau"}, {"title": "Kreistag Holzminden ist gegen Austritt von Bodenwerder-Polle", "url": "https://www.tagesschau.de/inland/regional/niedersachsen/ndr-kreistag-holzminden-ist-gegen-austritt-von-bodenwerder-polle-100.html", "thumbnailUrl": "https://images.tagesschau.de/image/dd2778ed-c967-4bb4-84d5-4f5ecd0d6a2a/AAABjuKTDAw/AAABjcWesUg/16x9-512.jpg", "date": "2024-04-15T18:16:00.000+02:00", "lat": 51.9936, "lon": 9.5333, "intensity": 0.6, "source": "Tagesschau"}, {"title": "Wetterlage und Temperaturen", "url": "https://www.tagesschau.de/wetter/europa-welt", "thumbnailUrl": "https://images.tagesschau.de/image/6e7d3b16-79c8-4308-822b-20c3035236b5/AAABjuFLPb0/AAABjcWesUg/16x9-512.jpg", "date": "2024-04-15T18:13:37.681+02:00", "lat": 51.1657, "lon": 10.4515, "intensity": 0.3, "source": "Tagesschau"}, {"title": "Bund und Land wollen im Saarland Millionen in Stra\u00dfen investieren", "url": "https://www.tagesschau.de/inland/regional/saarland/sr-bund-und-land-wollen-im-saarland-millionen-in-strassen-investieren-100.html", "thumbnailUrl": "https://images.tagesschau.de/image/ac729c4b-3cc9-4ce1-bc56-6aeaef119bee/AAABjuKARv0/AAABjcWesUg/16x9-512.jpg", "date": "2024-04-15T18:00:00.000+02:00", "lat": 49.3964, "lon": 6.9536, "intensity": 0.8, "source": "Tagesschau"}, {"title": "Darmstadt 98: +++ Kreuzbandriss bei Holland +++ Streich muntert Lilien auf +++ Lilien-Pleite im Video +++", "url": "https://www.tagesschau.de/inland/regional/hessen/hr--tietz-vermisst-fehlende-gier--lilien-fans-liefern-sich-raststaetten-pruegelei--die-niederlage-der-lilien-in-der-video-zusammenfassung-102.html", "thumbnailUrl": "https://images.tagesschau.de/image/50dd56c8-42b6-463e-961f-ea006e532300/AAABjuJ7Fo8/AAABjcWesUg/16x9-512.jpg", "date": "2024-04-15T17:57:26.339+02:00", "lat": 49.878, "lon": 8.6536, "intensity": 0.6, "source": "Tagesschau"}, {"title": "Hallenbad in Schwalbach \u00f6ffnet ab Mai wieder ", "url": "https://www.tagesschau.de/inland/regional/saarland/sr-hallenbad-in-schwalbach-oeffnet-ab-mai-wieder-100.html", "thumbnailUrl": "https://images.tagesschau.de/image/5a643919-0e41-4154-b3c1-e25f9ea79522/AAABjuKQwcA/AAABjcWesUg/16x9-512.jpg", "date": "2024-04-15T17:56:00.000+02:00", "lat": 49.2833, "lon": 6.8667, "intensity": 0.6, "source": "Tagesschau"}, {"title": "Mobilisierung f\u00fcr den \"gro\u00dfen Knall\"", "url": "https://www.tagesschau.de/investigativ/kontraste/proteste-unterkunft-fluechtlinge-100.html", "thumbnailUrl": "https://images.tagesschau.de/image/d49cc53c-5032-49a8-bc85-fb4a7f199b62/AAABjtFbekw/AAABjcWesUg/16x9-512.jpg", "date": "2024-04-15T17:48:51.218+02:00", "lat": 47.804, "lon": 11.7304, "intensity": 0.8, "source": "Tagesschau"}, {"title": "Campus Golm: 420 neue Wohnheimpl\u00e4tze f\u00fcr Studierende in Potsdam", "url": "https://www.tagesschau.de/inland/regional/brandenburg/rbb-campus-golm-420-neue-wohnheimplaetze-fuer-studierende-in-potsdam-100.html", "thumbnailUrl": "https://images.tagesschau.de/image/90dbbf0f-b4fc-4275-8ff8-072db1a83919/AAABjuJx5bg/AAABjcWesUg/16x9-512.jpg", "date": "2024-04-15T17:45:38.000+02:00", "lat": 52.4055, "lon": 13.0818, "intensity": 0.8, "source": "Tagesschau"}, {"title": "Nach Brand: Neubau von \"Twister\"-Disco in Sande wird konkret", "url": "https://www.tagesschau.de/inland/regional/niedersachsen/ndr-nach-brand-in-disco-steht-schon-2025-ein-neuer-twister-in-sande-100.html", "thumbnailUrl": "https://images.tagesschau.de/image/083a0d72-d2b5-4169-a5ab-404161e4ab94/AAABjuHNUgY/AAABjcWesUg/16x9-512.jpg", "date": "2024-04-15T17:44:00.000+02:00", "lat": 53.4645, "lon": 8.0319, "intensity": 0.7, "source": "Tagesschau"}, {"title": "Erster gr\u00f6\u00dferer Waldbrand in Spanien", "url": "https://www.tagesschau.de/ausland/europa/waldbrand-spanien-costa-blanca-loeschflugzeug-100.html", "thumbnailUrl": "https://images.tagesschau.de/image/3e86d28f-ffa9-4cdd-9c34-dbb9ee5193fb/AAABjuJtt1c/AAABjcWesUg/16x9-512.jpg", "date": "2024-04-15T17:43:45.552+02:00", "lat": 40.4637, "lon": -4.4206, "intensity": 0.8, "source": "Tagesschau"}, {"title": "GEW-Umfrage: Digitalisierung an Schulen in BW schreitet voran", "url": "https://www.tagesschau.de/inland/regional/badenwuerttemberg/swr-gew-umfrage-digitalisierung-an-schulen-in-bw-schreitet-voran-100.html", "thumbnailUrl": "https://images.tagesschau.de/image/5ea26489-e565-4946-8fb6-27d0dde4a7c8/AAABjuJAPPo/AAABjcWesUg/16x9-512.jpg", "date": "2024-04-15T17:42:00.000+02:00", "lat": 48.661, "lon": 9.489, "intensity": 0.8, "source": "Tagesschau"}, {"title": "Deutschland in der China-Falle", "url": "https://www.tagesschau.de/wirtschaft/weltwirtschaft/china-dumping-deutschland-exporte-konjunktur-de-risking-100.html", "thumbnailUrl": "https://images.tagesschau.de/image/90eb42a1-0f26-4e55-9a87-25303e2a6107/AAABi0FI2_Y/AAABjcWesUg/16x9-512.jpg", "date": "2024-04-15T17:38:44.256+02:00", "lat": 51.5074, "lon": 9.9937, "intensity": 0.7, "source": "Tagesschau"}, {"title": "Bad Cannstatt: S-Bahn-Ausf\u00e4lle ausgerechnet zum Fr\u00fchlingsfest", "url": "https://www.tagesschau.de/inland/regional/badenwuerttemberg/swr-bad-cannstatt-s-bahn-ausfaelle-ausgerechnet-zum-fruehlingsfest-100.html", "thumbnailUrl": "https://images.tagesschau.de/image/420d76af-1b78-48e3-b887-7378d35b9a36/AAABjuJ63L8/AAABjcWesUg/16x9-512.jpg", "date": "2024-04-15T17:34:00.000+02:00", "lat": 48.7939, "lon": 9.1842, "intensity": 0.7, "source": "Tagesschau"}, {"title": "Wird die Eizellspende bald erlaubt? Eine Betroffene aus BW berichtet", "url": "https://www.tagesschau.de/inland/regional/badenwuerttemberg/swr-wird-die-eizellspende-bald-erlaubt-eine-betroffene-aus-bw-berichtet-100.html", "thumbnailUrl": "https://images.tagesschau.de/image/24beb682-8431-4ff0-bc08-066046d405c9/AAABjuJk1pU/AAABjcWesUg/16x9-512.jpg", "date": "2024-04-15T17:32:00.000+02:00", "lat": 48.661, "lon": 9.143, "intensity": 0.7, "source": "Tagesschau"}, {"title": "Ist Freiburg tats\u00e4chlich die Blitzer-Hauptstadt?", "url": "https://www.tagesschau.de/inland/regional/badenwuerttemberg/swr-ist-freiburg-tatsaechlich-die-blitzer-hauptstadt-100.html", "thumbnailUrl": "https://images.tagesschau.de/image/e97952b1-dffe-4cac-9c7b-7fae58e0c395/AAABjuLLbzs/AAABjcWesUg/16x9-512.jpg", "date": "2024-04-15T17:29:15.000+02:00", "lat": 47.999, "lon": 7.849, "intensity": 0.8, "source": "Tagesschau"}, {"title": "Geldautomaten-Sprenger zu fast sechs Jahren Haft verurteilt", "url": "https://www.tagesschau.de/inland/regional/brandenburg/rbb-geldautomaten-sprenger-zu-fast-sechs-jahren-haft-verurteilt-102.html", "thumbnailUrl": "https://images.tagesschau.de/image/3842fa5b-07bf-486e-be10-4361cea09df3/AAABjuJfg2Y/AAABjcWesUg/16x9-512.jpg", "date": "2024-04-15T17:26:03.000+02:00", "lat": 52.4125, "lon": 13.3005, "intensity": 0.8, "source": "Tagesschau"}, {"title": "Kanufahrer ziehen leblose Person aus der Hunte", "url": "https://www.tagesschau.de/inland/regional/niedersachsen/ndr-kanufahrer-ziehen-leblose-person-aus-der-hunte-100.html", "thumbnailUrl": "https://images.tagesschau.de/image/bd141232-e77a-4b97-82da-39b06be2fb5c/AAABjuJaSkI/AAABjcWesUg/16x9-512.jpg", "date": "2024-04-15T17:18:00.000+02:00", "lat": 52.8881, "lon": 8.2325, "intensity": 0.8, "source": "Tagesschau"}, {"title": "Erstmals App gegen Grabschen auf Stuttgarter Fr\u00fchlingsfest", "url": "https://www.tagesschau.de/inland/regional/badenwuerttemberg/swr-erstmals-app-gegen-grabschen-auf-stuttgarter-fruehlingsfest-100.html", "thumbnailUrl": "https://images.tagesschau.de/image/267d71a9-775c-4906-ad3f-0348f6ee8dfe/AAABjuKUcGI/AAABjcWesUg/16x9-512.jpg", "date": "2024-04-15T17:15:54.000+02:00", "lat": 48.7758, "lon": 9.1829, "intensity": 0.8, "source": "Tagesschau"}, {"title": "Gericht entscheidet \u00fcber Trennungsverm\u00f6gen: Paar in Scheidung gilt trotz gemeinsamer Wohnung als getrennt", "url": "https://www.tagesschau.de/inland/regional/hessen/hr-gericht-entscheidet-ueber-trennungsvermoegen-paar-in-scheidung-gilt-trotz-gemeinsamer-wohnung-als-getrennt-100.html", "thumbnailUrl": "https://images.tagesschau.de/image/bf3bc552-0cd0-4bb6-9393-43a3f4888266/AAABjuJd0yo/AAABjcWesUg/16x9-512.jpg", "date": "2024-04-15T17:12:36.610+02:00", "lat": 50.116242, "lon": 8.676337, "intensity": 0.7, "source": "Tagesschau"}, {"title": "Zwischen Angst und Kampfeswillen", "url": "https://www.tagesschau.de/ausland/iran-israel-teheran-kriegsgefahr-100.html", "thumbnailUrl": "https://images.tagesschau.de/image/1ddb6335-0b90-42d2-8de7-7f6d938d761f/AAABjuI48sw/AAABjcWesUg/16x9-512.jpg", "date": "2024-04-15T17:08:52.133+02:00", "lat": 35.6895, "lon": 51.389, "intensity": 0.7, "source": "Tagesschau"}, {"title": "Angreifer attackierte offenbar gezielt Frauen", "url": "https://www.tagesschau.de/ausland/ozeanien/angriff-sydney-motiv-100.html", "thumbnailUrl": "https://images.tagesschau.de/image/89c7650e-78a3-4d32-bf78-3ed278ec68c6/AAABjuCUhro/AAABjcWesUg/16x9-512.jpg", "date": "2024-04-15T17:05:09.591+02:00", "lat": -33.8688, "lon": 151.2093, "intensity": 0.7, "source": "Tagesschau"}, {"title": "Keine Neuanschl\u00fcsse mehr: In Oranienburg wird der Strom knapp", "url": "https://www.tagesschau.de/inland/regional/brandenburg/rbb-keine-neuanschluesse-mehr-in-oranienburg-wird-der-strom-knapp-100.html", "thumbnailUrl": "https://images.tagesschau.de/image/51e4668b-942c-46d2-b169-cf7dc45ad381/AAABjuJNKgM/AAABjcWesUg/16x9-512.jpg", "date": "2024-04-15T17:05:06.000+02:00", "lat": 52.75349, "lon": 13.23876, "intensity": 0.7, "source": "Tagesschau"}, {"title": "Hochburgen, Einnahmen, Blitzer-Apps: Das sollten Sie zum \"Blitzermarathon\" in BW wissen", "url": "https://www.tagesschau.de/inland/regional/badenwuerttemberg/swr-hochburgen-einnahmen-blitzer-apps-das-sollten-sie-zum-blitzermarathon-in-bw-wissen-100.html", "thumbnailUrl": "https://images.tagesschau.de/image/0128657e-58c5-4a3b-bf9e-84bb044f4e0b/AAABjuLLd2I/AAABjcWesUg/16x9-512.jpg", "date": "2024-04-15T17:05:00.000+02:00", "lat": 48.7904, "lon": 9.0232, "intensity": 0.7, "source": "Tagesschau"}, {"title": "Leichenfund und \"Spa\u00df-Anruf\" - Zeitgleiche Eins\u00e4tze f\u00fcr Wasserschutzpolizei", "url": "https://www.tagesschau.de/inland/regional/rheinlandpfalz/swr-wasserschutzpolizei-holt-leiche-aus-dem-rhein-bei-mainz-100.html", "thumbnailUrl": "https://images.tagesschau.de/image/f4528d71-398f-41f3-a8e5-a9a0aeb1e9ea/AAABjuDxImQ/AAABjcWesUg/16x9-512.jpg", "date": "2024-04-15T16:58:00.000+02:00", "lat": 50.0014, "lon": 8.2755, "intensity": 0.7, "source": "Tagesschau"}, {"title": "Wer im Aufstiegsrennen der Regionalliga Nordost die besten Chancen hat", "url": "https://www.tagesschau.de/inland/regional/brandenburg/rbb-wer-im-aufstiegsrennen-der-regionalliga-nordost-die-besten-chancen-hat-102.html", "thumbnailUrl": "https://images.tagesschau.de/image/e7dec9c1-7afb-4c55-8342-f438b3357499/AAABjuJAhzU/AAABjcWesUg/16x9-512.jpg", "date": "2024-04-15T16:51:55.000+02:00", "lat": 52.519171, "lon": 13.394635, "intensity": 0.8, "source": "Tagesschau"}, {"title": "Ein Spielball \u00e4u\u00dferer Interessen", "url": "https://www.tagesschau.de/kommentar/sudan-krieg-102.html", "thumbnailUrl": "https://images.tagesschau.de/image/fee916d7-2360-46c0-8a8e-d20de5852726/AAABjuIobdI/AAABjcWesUg/16x9-512.jpg", "date": "2024-04-15T16:49:10.614+02:00", "lat": 15.6342, "lon": 31.4452, "intensity": 0.8, "source": "Tagesschau"}, {"title": "Berlin auf der Suche nach neuen Quellen", "url": "https://www.tagesschau.de/inland/gesellschaft/trinkwasser-berlin-duerre-100.html", "thumbnailUrl": "https://images.tagesschau.de/image/fa47bd69-2aec-4cf5-a1a8-d7ab06f737b6/AAABjuI23xU/AAABjcWesUg/16x9-512.jpg", "date": "2024-04-15T16:43:50.981+02:00", "lat": 52.52, "lon": 13.405, "intensity": 0.8, "source": "Tagesschau"}, {"title": "ver.di ruft f\u00fcr Donnerstag und Freitag zu Streiks im \u00d6PNV in BW auf - Abipr\u00fcfungen betroffen", "url": "https://www.tagesschau.de/inland/regional/badenwuerttemberg/swr-ver-di-ruft-fuer-donnerstag-und-freitag-zu-streiks-im-oepnv-in-bw-auf-100.html", "thumbnailUrl": "https://images.tagesschau.de/image/c3104d92-0afe-426d-a1e1-9a1b8e588e80/AAABjuHg_WE/AAABjcWesUg/16x9-512.jpg", "date": "2024-04-15T16:40:00.000+02:00", "lat": 48.7374, "lon": 9.9937, "intensity": 0.8, "source": "Tagesschau"}, {"title": "Einreiseverbot: Stadt Potsdam nimmt langen Rechtsstreit mit Rechtsextremist Sellner in Kauf", "url": "https://www.tagesschau.de/inland/regional/brandenburg/rbb-einreiseverbot-stadt-potsdam-nimmt-langen-rechtsstreit-mit-rechtsextremist-sellner-in-kauf-100.html", "thumbnailUrl": "https://images.tagesschau.de/image/36c138af-9cfa-4aad-ab2f-eb358cf68a54/AAABjuI1h00/AAABjcWesUg/16x9-512.jpg", "date": "2024-04-15T16:38:14.000+02:00", "lat": 52.3906, "lon": 13.0645, "intensity": 0.7, "source": "Tagesschau"}, {"title": "Kultur: +++ Fritzlar sucht Hessentags-Helfer +++ Genderverbot - Lehrkr\u00e4fte und Menschen im Abitur \u00fcben Kritik +++ Lichter Filmfest und andere Filmfestivals +++ ", "url": "https://www.tagesschau.de/inland/regional/hessen/hr--schauspiel-frankfurt-bringt-putin-und-macbeth-zusammen--die-filmfestival-saison-2023-startet--lichter-filmfest-zum-thema-liebe-startet-am-dienstag-100.html", "thumbnailUrl": "https://images.tagesschau.de/image/b280e9bd-7cc9-4994-ad84-56f773c3ace0/AAABjuIsPzs/AAABjcWesUg/16x9-512.jpg", "date": "2024-04-15T16:31:59.722+02:00", "lat": 50.110922, "lon": 8.682127, "intensity": 0.7, "source": "Tagesschau"}, {"title": "AfA Trier: Technischer Defekt k\u00f6nnte Brand ausgel\u00f6st haben", "url": "https://www.tagesschau.de/inland/regional/rheinlandpfalz/swr-vier-verletzte-bei-brand-in-der-afa-in-trier-nord-100.html", "thumbnailUrl": "https://images.tagesschau.de/image/e0317ba0-f9dd-4b8c-a70d-578847f7b143/AAABjuJxr3g/AAABjcWesUg/16x9-512.jpg", "date": "2024-04-15T16:31:00.000+02:00", "lat": 49.7561, "lon": 6.6519, "intensity": 0.8, "source": "Tagesschau"}, {"title": "Sichergestellte Drogen: Stralsunder Polizei best\u00e4tigt \"Blue Punisher\"", "url": "https://www.tagesschau.de/inland/regional/mecklenburgvorpommern/ndr-sichergestellte-drogen-stralsunder-polizei-bestaetigt-blue-punisher-100.html", "thumbnailUrl": "https://images.tagesschau.de/image/2ad02215-225b-49a3-bca4-ec6661890112/AAABjuIqSTc/AAABjcWesUg/16x9-512.jpg", "date": "2024-04-15T16:28:00.000+02:00", "lat": 54.3122, "lon": 13.0833, "intensity": 0.8, "source": "Tagesschau"}, {"title": "Israel ringt um die richtige Antwort", "url": "https://www.tagesschau.de/ausland/asien/israel-reaktion-angriff-iran-100.html", "thumbnailUrl": "https://images.tagesschau.de/image/0d2733f1-a44a-48b3-a44a-cd072ff64863/AAABjuIKAXs/AAABjcWesUg/16x9-512.jpg", "date": "2024-04-15T16:24:19.685+02:00", "lat": 31.046051, "lon": 34.851612, "intensity": 0.8, "source": "Tagesschau"}, {"title": "Schweriner J\u00fcrgen Schult verliert Uralt-Weltrekord an Mykolas Alekna", "url": "https://www.tagesschau.de/inland/regional/mecklenburgvorpommern/ndr-schweriner-juergen-schult-verliert-uralt-weltrekord-an-mykolas-alekna-102.html", "thumbnailUrl": "https://images.tagesschau.de/image/dcfbd5c1-b1fd-4414-b4b7-ed85c23bc2d9/AAABjuI1Rb4/AAABjcWesUg/16x9-512.jpg", "date": "2024-04-15T16:24:00.000+02:00", "lat": 53.6297, "lon": 11.4136, "intensity": 0.8, "source": "Tagesschau"}, {"title": "Warum Horrorszenarien ausgeblieben sind", "url": "https://www.tagesschau.de/inland/innenpolitik/akw-abschaltung-100.html", "thumbnailUrl": "https://images.tagesschau.de/image/1b31ae8c-9f40-4455-8d65-2d502221ea9d/AAABh4myZU8/AAABjcWesUg/16x9-512.jpg", "date": "2024-04-15T16:14:09.182+02:00", "lat": 51.1657, "lon": 10.4515, "intensity": 0.7, "source": "Tagesschau"}, {"title": "Nach Unfall an Eisdiele in Gro\u00df Reken: Busfahrer macht Aussage", "url": "https://www.tagesschau.de/inland/regional/nordrheinwestfalen/wdr-in-reken-ist-ein-bus-in-die-terrasse-einer-eisdiele-gefahren-100.html", "thumbnailUrl": "https://images.tagesschau.de/image/e4cc189d-aa9c-4474-8d8e-4b7634e9753e/AAABjuI43TA/AAABjcWesUg/16x9-512.jpg", "date": "2024-04-15T16:12:00.000+02:00", "lat": 51.9723, "lon": 7.1328, "intensity": 0.8, "source": "Tagesschau"}, {"title": "\"Longing for tomorrow\u201c: Programm der Ruhrtriennale vorgestellt", "url": "https://www.tagesschau.de/inland/regional/nordrheinwestfalen/wdr-longing-for-tomorrow-programm-der-ruhrtriennale-vorgestellt-100.html", "thumbnailUrl": "https://images.tagesschau.de/image/0b0330b5-4477-41d7-b8f5-180219af1df8/AAABjuJofY0/AAABjcWesUg/16x9-512.jpg", "date": "2024-04-15T16:08:00.000+02:00", "lat": 51.48073, "lon": 7.61296, "intensity": 0.7, "source": "Tagesschau"}, {"title": "Rei\u00dfleine oder weiterf\u00fchren? Zoff um Radweg am Blauen Wunder", "url": "https://www.tagesschau.de/inland/regional/sachsen/mdr-reissleine-oder-weiterfuehren-zoff-um-radweg-am-blauen-wunder-100.html", "thumbnailUrl": "https://images.tagesschau.de/image/f1d0a32b-e430-48e9-be60-39384e17ef84/AAABjuQKP9Y/AAABjcWesUg/16x9-512.jpg", "date": "2024-04-15T16:02:45.000+02:00", "lat": 51.0208, "lon": 13.8225, "intensity": 0.6, "source": "Tagesschau"}, {"title": "Prozess um Schockanrufe in Koblenz: Sieben Jahre Haft", "url": "https://www.tagesschau.de/inland/regional/rheinlandpfalz/swr-prozess-um-schockanrufe-in-koblenz-sieben-jahre-haft-100.html", "thumbnailUrl": "https://images.tagesschau.de/image/2540f409-8ee0-44a6-a92f-1cc4e57187a4/AAABjuIZ25o/AAABjcWesUg/16x9-512.jpg", "date": "2024-04-15T15:53:00.000+02:00", "lat": 50.3569, "lon": 7.5946, "intensity": 0.8, "source": "Tagesschau"}, {"title": "\u00c4rztemangel in Niedersachsen: Zahl der Haus\u00e4rzte weiter gesunken", "url": "https://www.tagesschau.de/inland/regional/niedersachsen/ndr-aerztemangel-in-niedersachsen-zahl-der-hausaerzte-weiter-gesunken-100.html", "thumbnailUrl": "https://images.tagesschau.de/image/b4385fad-7480-4a53-a3fe-4d382794b9d3/AAABjuIjcGk/AAABjcWesUg/16x9-512.jpg", "date": "2024-04-15T15:47:00.000+02:00", "lat": 52.6367, "lon": 10.4515, "intensity": 0.8, "source": "Tagesschau"}, {"title": "Blitzermarathon f\u00e4llt in einigen Bundesl\u00e4ndern aus", "url": "https://www.tagesschau.de/inland/blitzermarathon-aktionswoche-flickenteppich-100.html", "thumbnailUrl": "https://images.tagesschau.de/image/fa8e2a10-5af8-47db-b598-2124f522beb6/AAABjuCEyfc/AAABjcWesUg/16x9-512.jpg", "date": "2024-04-15T15:43:25.233+02:00", "lat": 51.3403, "lon": 9.9937, "intensity": 0.6, "source": "Tagesschau"}, {"title": "Wetter in Berlin und Brandenburg: Gewitter, Sturmb\u00f6en und kalte N\u00e4chte verdr\u00e4ngen Fr\u00fchling zeitweise", "url": "https://www.tagesschau.de/inland/regional/brandenburg/rbb-wetter-in-berlin-und-brandenburg-gewitter-sturmboeen-und-kalte-naechte-verdraengen-fruehling-zeitweise-100.html", "thumbnailUrl": "https://images.tagesschau.de/image/88badd11-93d1-4b72-b589-47f0cc64fe61/AAABjuH7GeE/AAABjcWesUg/16x9-512.jpg", "date": "2024-04-15T15:34:43.000+02:00", "lat": 52.520008, "lon": 13.404954, "intensity": 0.7, "source": "Tagesschau"}, {"title": "Geplante Privatisierung der Klimaschutz-Stiftung kommt voran", "url": "https://www.tagesschau.de/inland/regional/mecklenburgvorpommern/ndr-geplante-privatisierung-der-klimaschutz-stiftung-kommt-voran-100.html", "thumbnailUrl": "https://images.tagesschau.de/image/f87f4813-013e-4211-9050-711fadc8d91f/AAABjuIqV0o/AAABjcWesUg/16x9-512.jpg", "date": "2024-04-15T15:33:00.000+02:00", "lat": 53.6127, "lon": 13.0518, "intensity": 0.6, "source": "Tagesschau"}, {"title": "Streiks im Nahverkehr haben begonnen - bei Rheinbahn, Bogestra und SWK mobil", "url": "https://www.tagesschau.de/inland/regional/nordrheinwestfalen/wdr-ab-montag-neue-streiks-im-oepnv-100.html", "thumbnailUrl": "https://images.tagesschau.de/image/1932194a-5a49-4a68-aa39-e7749d1d1b00/AAABjuMwDh4/AAABjcWesUg/16x9-512.jpg", "date": "2024-04-15T15:32:00.000+02:00", "lat": 51.2277, "lon": 6.7735, "intensity": 0.8, "source": "Tagesschau"}, {"title": "Streit um Entkriminalisierung von fr\u00fchen Schwangerschafts-Abbr\u00fcchen ", "url": "https://www.tagesschau.de/inland/regional/saarland/sr-cdu-und-afd-gegen-entkriminalisierung-von-fruehen-schwangerschaftsabbruechen-100.html", "thumbnailUrl": "https://images.tagesschau.de/image/6d2c692d-5665-4ba6-aa5c-4c4224b40711/AAABjuIB75I/AAABjcWesUg/16x9-512.jpg", "date": "2024-04-15T15:17:00.000+02:00", "lat": 49.3964, "lon": 6.9469, "intensity": 0.7, "source": "Tagesschau"}, {"title": "Linke in BW stellt Volksantrag gegen hohe Mietpreise im Land", "url": "https://www.tagesschau.de/inland/regional/badenwuerttemberg/swr-linke-in-bw-stellt-volksantrag-gegen-hohe-mietpreise-im-land-100.html", "thumbnailUrl": "https://images.tagesschau.de/image/476f899c-112f-4112-b5e3-decd813c3cb7/AAABjuHoYWI/AAABjcWesUg/16x9-512.jpg", "date": "2024-04-15T15:15:20.000+02:00", "lat": 48.661, "lon": 9.991, "intensity": 0.6, "source": "Tagesschau"}, {"title": "Nach Gesetzes\u00e4nderung: Windparkbetreiber wollen Gemeinden h\u00e4ufig nicht an Gewinnen beteiligen", "url": "https://www.tagesschau.de/inland/regional/brandenburg/rbb-nach-gesetzesaenderung-windparkbetreiber-wollen-gemeinden-haeufig-nicht-an-gewinnen-beteiligen-100.html", "thumbnailUrl": "https://images.tagesschau.de/image/4d927683-6569-46a8-9e81-ce698d424e86/AAABjuJNMOE/AAABjcWesUg/16x9-512.jpg", "date": "2024-04-15T15:13:37.000+02:00", "lat": 52.5695, "lon": 13.6295, "intensity": 0.8, "source": "Tagesschau"}, {"title": "Zu wenige Ehrenamtliche in Kinder- und Jugendhospizen", "url": "https://www.tagesschau.de/inland/regional/schleswigholstein/ndr-zu-wenig-ehrenamtler-in-kinder-und-jugendhospizen-100.html", "thumbnailUrl": "https://images.tagesschau.de/image/9c924a43-dfdb-4a67-a8dc-74add3047fd1/AAABjuJPS_o/AAABjcWesUg/16x9-512.jpg", "date": "2024-04-15T15:12:00.000+02:00", "lat": 54.3326, "lon": 9.7467, "intensity": 0.7, "source": "Tagesschau"}, {"title": "10,3 Prozent weniger Holz aus den W\u00e4ldern geholt", "url": "https://www.tagesschau.de/wirtschaft/holszeinschlag-wald-schadholz-100.html", "thumbnailUrl": "https://images.tagesschau.de/image/d1e2150a-73e4-49a0-9ff5-76bceda7de8e/AAABjuHfPGM/AAABjcWesUg/16x9-512.jpg", "date": "2024-04-15T15:08:07.722+02:00", "lat": 51.1657, "lon": 10.4515, "intensity": 0.7, "source": "Tagesschau"}, {"title": "Rettungswagen in Neuk\u00f6lln von Menschenmenge gestoppt \u2013 Vorfall Thema im Innenausschuss", "url": "https://www.tagesschau.de/inland/regional/berlin/rbb-rettungswagen-in-neukoelln-von-menschenmenge-gestoppt--vorfall-thema-im-innenausschuss-100.html", "thumbnailUrl": "https://images.tagesschau.de/image/57698d7d-bf2c-489b-a3fa-393e687f5d8d/AAABjuHdryo/AAABjcWesUg/16x9-512.jpg", "date": "2024-04-15T15:03:16.000+02:00", "lat": 52.481, "lon": 13.443, "intensity": 0.7, "source": "Tagesschau"}, {"title": "Altschulden: Saar-CDU wehrt sich gegen Lindner-Vorw\u00fcrfe", "url": "https://www.tagesschau.de/inland/regional/saarland/sr-altschulden-saar-cdu-wehrt-sich-gegen-lindner-vorwuerfe-100.html", "thumbnailUrl": "https://images.tagesschau.de/image/c8e0cd51-5fc5-441b-b6ca-17bf009d3eae/AAABjuHqIi0/AAABjcWesUg/16x9-512.jpg", "date": "2024-04-15T15:02:00.000+02:00", "lat": 49.3964, "lon": 6.9588, "intensity": 0.6, "source": "Tagesschau"}, {"title": "Tesla will offenbar Tausende Stellen streichen", "url": "https://www.tagesschau.de/wirtschaft/unternehmen/tesla-stellenabbau-104.html", "thumbnailUrl": "https://images.tagesschau.de/image/041988ef-d491-4ff3-b7ae-e29ab2dbd6b0/AAABjjaZKqk/AAABjcWesUg/16x9-512.jpg", "date": "2024-04-15T14:53:24.501+02:00", "lat": 52.5015, "lon": 13.7264, "intensity": 0.8, "source": "Tagesschau"}, {"title": "Kaputte R\u00e4der: Probleme bei der Fahrradflotte der Berliner Polizei", "url": "https://www.tagesschau.de/inland/regional/berlin/rbb-kaputte-raeder-bei-berliner-polizei-anzeigenhauptmeister-uebernehmen-sie-100.html", "thumbnailUrl": "https://images.tagesschau.de/image/7e3104d0-8ea4-4e46-a743-fc2933b67d5f/AAABjuHQ9zM/AAABjcWesUg/16x9-512.jpg", "date": "2024-04-15T14:50:44.000+02:00", "lat": 52.520008, "lon": 13.404954, "intensity": 0.6, "source": "Tagesschau"}, {"title": "Jahrestag des Atomausstiegs: So geht es mit Isar 2 weiter", "url": "https://www.tagesschau.de/inland/regional/bayern/br-jahrestag-des-atomausstiegs-so-geht-es-mit-isar-2-weiter-102.html", "thumbnailUrl": "https://images.tagesschau.de/image/8aff5143-c57c-4e18-8211-73dd09c8caf1/AAABjuHNJG0/AAABjcWesUg/16x9-512.jpg", "date": "2024-04-15T14:46:53.172+02:00", "lat": 48.2206, "lon": 12.5278, "intensity": 0.5, "source": "Tagesschau"}, {"title": "Vepuffung am Grill: Jugendliche in Mainz erleiden Verbrennungen ", "url": "https://www.tagesschau.de/inland/regional/rheinlandpfalz/swr-vepuffung-am-grill-jugendliche-in-mainz-erleiden-verbrennungen-100.html", "thumbnailUrl": "https://images.tagesschau.de/image/cb5aa5fe-491a-462e-b566-8e6cfbf01c57/AAABjuHbmFU/AAABjcWesUg/16x9-512.jpg", "date": "2024-04-15T14:34:42.000+02:00", "lat": 49.992, "lon": 8.239, "intensity": 0.7, "source": "Tagesschau"}, {"title": "Abtreibung entkriminalisieren: Hilft das ungewollt Schwangeren?", "url": "https://www.tagesschau.de/inland/regional/nordrheinwestfalen/wdr-abtreibung-entkriminalisieren-hilft-das-ungewollt-schwangeren-100.html", "thumbnailUrl": "https://images.tagesschau.de/image/03bb325a-c12a-489d-af6d-b87a9deb630c/AAABjuH2_qA/AAABjcWesUg/16x9-512.jpg", "date": "2024-04-15T14:26:00.000+02:00", "lat": 51.8133, "lon": 7.6261, "intensity": 0.8, "source": "Tagesschau"}, {"title": "Nord-Ostsee-Kanal: Meilenstein des Ausbaus in Sicht", "url": "https://www.tagesschau.de/inland/regional/schleswigholstein/ndr-nord-ostsee-kanal-meilenstein-des-ausbaus-in-sicht-100.html", "thumbnailUrl": "https://images.tagesschau.de/image/f78f7ed7-0c74-40a7-9c3b-5c094a6ee935/AAABjuED5EA/AAABjcWesUg/16x9-512.jpg", "date": "2024-04-15T14:23:00.000+02:00", "lat": 54.3123, "lon": 9.6903, "intensity": 0.7, "source": "Tagesschau"}, {"title": "Rostocker Studierendenwerk muss Angebot einschr\u00e4nken", "url": "https://www.tagesschau.de/inland/regional/mecklenburgvorpommern/ndr-rostocker-studierendenwerk-muss-angebot-einschraenken-100.html", "thumbnailUrl": "https://images.tagesschau.de/image/d8e68b91-d39c-46e1-9403-c60af0b5f9ba/AAABjuHAGgg/AAABjcWesUg/16x9-512.jpg", "date": "2024-04-15T14:15:00.000+02:00", "lat": 54.0834, "lon": 12.159, "intensity": 0.7, "source": "Tagesschau"}, {"title": "Toter bei Brand in Barmbek - jetzt ermittelt die Mordkommission", "url": "https://www.tagesschau.de/inland/regional/hamburg/ndr-toter-bei-brand-in-barmbek-jetzt-ermittelt-die-mordkommission-100.html", "thumbnailUrl": "https://images.tagesschau.de/image/bedff49a-7d03-451a-9d48-0871a58b03f8/AAABjuGO9cA/AAABjcWesUg/16x9-512.jpg", "date": "2024-04-15T14:14:00.000+02:00", "lat": 53.5863, "lon": 10.0396, "intensity": 0.8, "source": "Tagesschau"}, {"title": "18-j\u00e4hriger Motorradfahrer bei Unfall auf L140 schwer verletzt", "url": "https://www.tagesschau.de/inland/regional/saarland/sr-18-jaehriger-motorradfahrer-bei-unfall-auf-l140-schwer-verletzt-100.html", "thumbnailUrl": "https://images.tagesschau.de/image/2d0bec7d-1f9f-43fa-9f04-69df75c9ce9f/AAABjuGr6DY/AAABjcWesUg/16x9-512.jpg", "date": "2024-04-15T14:09:00.000+02:00", "lat": 49.2406, "lon": 15.6833, "intensity": 0.8, "source": "Tagesschau"}, {"title": "\u00dcberfall auf Uhrengesch\u00e4ft: Ermittler suchen mit Videos nach T\u00e4ter", "url": "https://www.tagesschau.de/inland/regional/niedersachsen/ndr-ueberfall-auf-uhrengeschaeft-ermittler-suchen-mit-videos-nach-taeter-100.html", "thumbnailUrl": "https://images.tagesschau.de/image/f901a0cd-28aa-4821-8ca7-37a8f1828e89/AAABjuGjNsY/AAABjcWesUg/16x9-512.jpg", "date": "2024-04-15T14:01:00.000+02:00", "lat": 53.0793, "lon": 8.8017, "intensity": 0.6, "source": "Tagesschau"}, {"title": "Raser mit Koblenzer Kennzeichen verliert f\u00fcr einen Tag sein Auto in \u00d6sterreich", "url": "https://www.tagesschau.de/inland/regional/rheinlandpfalz/swr-raser-mit-koblenzer-kennzeichen-verliert-fuer-einen-tag-sein-auto-in-oesterreich-100.html", "thumbnailUrl": "https://images.tagesschau.de/image/33982fa4-ef41-48b2-9a9e-fb786d877ad0/AAABjuHFkXk/AAABjcWesUg/16x9-512.jpg", "date": "2024-04-15T14:00:00.000+02:00", "lat": 47.2688, "lon": 13.0657, "intensity": 0.7, "source": "Tagesschau"}, {"title": "Zu viel Hundekot: F\u00e4hnchen-Aktion in Gro\u00dfenhain zeigt Wirkung", "url": "https://www.tagesschau.de/inland/regional/sachsen/mdr-zu-viel-hundekot-faehnchen-aktion-in-grossenhain-zeigt-wirkung-100.html", "thumbnailUrl": "https://images.tagesschau.de/image/bf3dca61-84db-44d0-a951-fa0f95c2968c/AAABjuQKtns/AAABjcWesUg/16x9-512.jpg", "date": "2024-04-15T13:50:04.000+02:00", "lat": 51.2933, "lon": 13.5528, "intensity": 0.7, "source": "Tagesschau"}, {"title": "Obdachloser in Wohnung in Peine offenbar stundenlang gequ\u00e4lt", "url": "https://www.tagesschau.de/inland/regional/niedersachsen/ndr-obdachloser-in-wohnung-in-peine-offenbar-stundenlang-gequaelt-100.html", "thumbnailUrl": "https://images.tagesschau.de/image/6d5f7b1f-2738-4bb8-8d04-f674f40add99/AAABjuHLiJE/AAABjcWesUg/16x9-512.jpg", "date": "2024-04-15T13:50:00.000+02:00", "lat": 52.3194, "lon": 10.2267, "intensity": 0.8, "source": "Tagesschau"}, {"title": "Hass auf Israel ist seit 45 Jahren Gebot", "url": "https://www.tagesschau.de/ausland/asien/chronik-konflikt-iran-israel-100.html", "thumbnailUrl": "https://images.tagesschau.de/image/ead97f5c-a7df-4175-b7b0-d1dcf4419a30/AAABjuGT9VE/AAABjcWesUg/16x9-512.jpg", "date": "2024-04-15T13:45:54.322+02:00", "lat": 31.0461, "lon": 35.6895, "intensity": 0.8, "source": "Tagesschau"}, {"title": "Ein Jahr ohne Atomstrom ", "url": "https://www.tagesschau.de/inland/regional/badenwuerttemberg/swr-ein-jahr-ohne-atomstrom-100.html", "thumbnailUrl": "https://images.tagesschau.de/image/4093d57f-76de-4da5-a323-c40993b04a72/AAABjuGxcUw/AAABjcWesUg/16x9-512.jpg", "date": "2024-04-15T13:43:01.000+02:00", "lat": 48.78, "lon": 9.33, "intensity": 0.8, "source": "Tagesschau"}, {"title": "Berlin: Rettungssanit\u00e4ter k\u00f6nnen weiter bei einfachen Eins\u00e4tzen der Feuerwehr aushelfen", "url": "https://www.tagesschau.de/inland/regional/berlin/rbb-berlin-rettungssanitaeter-koennen-weiter-bei-einfachen-einsaetzen-der-feuerwehr-aushelfen-100.html", "thumbnailUrl": "https://images.tagesschau.de/image/42e506d4-1fa9-40bf-92bd-db4efe40edce/AAABjuGJqlE/AAABjcWesUg/16x9-512.jpg", "date": "2024-04-15T13:32:27.000+02:00", "lat": 52.520008, "lon": 13.404954, "intensity": 0.4, "source": "Tagesschau"}, {"title": "Winsen beschwert sich \u00fcber den R\u00fcckbau von Pendlerparkpl\u00e4tzen", "url": "https://www.tagesschau.de/inland/regional/niedersachsen/ndr-winsen-beschwert-sich-ueber-den-rueckbau-von-pendlerparkplaetzen-100.html", "thumbnailUrl": "https://images.tagesschau.de/image/21aa4125-b896-450d-b223-cc47cd2b4a90/AAABjuHnCqo/AAABjcWesUg/16x9-512.jpg", "date": "2024-04-15T13:29:00.000+02:00", "lat": 53.3639, "lon": 10.2077, "intensity": 0.6, "source": "Tagesschau"}, {"title": "80-J\u00e4hriger st\u00fcrzt und wird vom eigenen Bruder \u00fcberfahren", "url": "https://www.tagesschau.de/inland/regional/niedersachsen/ndr-80-jaehriger-stuerzt-und-wird-vom-eigenen-bruder-ueberfahren-100.html", "thumbnailUrl": "https://images.tagesschau.de/image/8aee214f-5858-4a0a-9ef5-cd83dc9993f4/AAABjuHGFtU/AAABjcWesUg/16x9-512.jpg", "date": "2024-04-15T13:28:00.000+02:00", "lat": 52.624, "lon": 10.0805, "intensity": 0.8, "source": "Tagesschau"}, {"title": "Schwesig-Vertrauter Dahlemann l\u00e4sst SPD links liegen", "url": "https://www.tagesschau.de/inland/regional/mecklenburgvorpommern/ndr-schwesig-vertrauter-dahlemann-laesst-spd-links-liegen-100.html", "thumbnailUrl": "https://images.tagesschau.de/image/e94c5cc7-1c9c-4bf0-94d1-1614785be795/AAABjuGg6x8/AAABjcWesUg/16x9-512.jpg", "date": "2024-04-15T13:27:00.000+02:00", "lat": 53.612, "lon": 13.263, "intensity": 0.5, "source": "Tagesschau"}, {"title": "Wie funktionieren Eizellspende und Leihmutterschaft?", "url": "https://www.tagesschau.de/inland/regional/badenwuerttemberg/swr-wie-funktionieren-eizellspende-und-leihmutterschaft-106.html", "thumbnailUrl": "https://images.tagesschau.de/image/f5ee0402-7df4-474c-98b0-552fb2664934/AAABjuJk2FA/AAABjcWesUg/16x9-512.jpg", "date": "2024-04-15T13:25:00.000+02:00", "lat": 48.7758, "lon": 9.236, "intensity": 0.8, "source": "Tagesschau"}, {"title": "A100: Britzer Tunnel nach Unfall gesperrt", "url": "https://www.tagesschau.de/inland/regional/berlin/rbb-a100-britzer-tunnel-nach-unfall-gesperrt-100.html", "thumbnailUrl": "https://images.tagesschau.de/image/b17fd1ca-721e-4d45-b917-f484c3c9c98f/AAABjuFzsD8/AAABjcWesUg/16x9-512.jpg", "date": "2024-04-15T13:07:25.000+02:00", "lat": 52.475, "lon": 13.4529, "intensity": 0.8, "source": "Tagesschau"}, {"title": "\"Blitzermarathon\" in Hessen 2024: Polizei k\u00fcndigt Radarkontrollen gegen Raser an", "url": "https://www.tagesschau.de/inland/regional/hessen/hr-blitzermarathon-in-hessen-2024-polizei-kuendigt-radarkontrollen-gegen-raser-an-100.html", "thumbnailUrl": "https://images.tagesschau.de/image/c1e3c1c0-580a-42d0-821b-fd94a8acb48a/AAABjuFsDNA/AAABjcWesUg/16x9-512.jpg", "date": "2024-04-15T13:01:39.392+02:00", "lat": 50.6521, "lon": 9.1625, "intensity": 0.6, "source": "Tagesschau"}, {"title": "30 Jahre F\u00e4hre Welles auf der Saarschleife", "url": "https://www.tagesschau.de/inland/regional/saarland/sr-30-jahre-faehre-welles-auf-der-saarschleife-100.html", "thumbnailUrl": "https://images.tagesschau.de/image/6d768c34-d941-49a6-b829-4601ce9fde86/AAABjuF09QM/AAABjcWesUg/16x9-512.jpg", "date": "2024-04-15T13:01:00.000+02:00", "lat": 49.5203, "lon": 6.5444, "intensity": 0.4, "source": "Tagesschau"}, {"title": "Au\u00dfergew\u00f6hnlich fr\u00fch: Die Obstb\u00e4ume am Bodensee bl\u00fchen", "url": "https://www.tagesschau.de/inland/regional/bayern/br-aussergewoehnlich-frueh-die-obstbaeume-am-bodensee-bluehen-102.html", "thumbnailUrl": "https://images.tagesschau.de/image/c5dd1a86-bdd8-4186-9e27-4fb385ff0b97/AAABjuHJfW0/AAABjcWesUg/16x9-512.jpg", "date": "2024-04-15T13:00:53.129+02:00", "lat": 47.5833, "lon": 9.5667, "intensity": 0.7, "source": "Tagesschau"}, {"title": "Eintracht Frankfurt wankt: Luft f\u00fcr Dino Toppm\u00f6ller wird d\u00fcnner", "url": "https://www.tagesschau.de/inland/regional/hessen/hr-eintracht-frankfurt-wankt-luft-fuer-dino-toppmoeller-wird-duenner-100.html", "thumbnailUrl": "https://images.tagesschau.de/image/134663b9-3dee-477b-a931-41f615c10e71/AAABjuGJQD0/AAABjcWesUg/16x9-512.jpg", "date": "2024-04-15T12:59:12.205+02:00", "lat": 48.777, "lon": 9.177, "intensity": 0.8, "source": "Tagesschau"}, {"title": "Auto f\u00e4hrt auf Roller auf: 61-J\u00e4hriger stirbt", "url": "https://www.tagesschau.de/inland/regional/niedersachsen/ndr-auto-faehrt-auf-roller-auf-61-jaehriger-stirbt-100.html", "thumbnailUrl": "https://images.tagesschau.de/image/6cec4840-5fe2-4324-a146-884476872fd9/AAABjuF8244/AAABjcWesUg/16x9-512.jpg", "date": "2024-04-15T12:59:00.000+02:00", "lat": 53.2286, "lon": 8.8019, "intensity": 0.8, "source": "Tagesschau"}, {"title": "Schwarz-Rot einig \u00fcber Einsparungen im Haushalt f\u00fcr 2024", "url": "https://www.tagesschau.de/inland/regional/berlin/rbb-schwarz-rot-einig-ueber-einsparungen-im-haushalt-fuer-2024-100.html", "thumbnailUrl": "https://images.tagesschau.de/image/c58c05a4-ad07-4bf6-8034-1d5222b80f6c/AAABjuFsQhY/AAABjcWesUg/16x9-512.jpg", "date": "2024-04-15T12:58:00.000+02:00", "lat": 52.520008, "lon": 13.404954, "intensity": 0.8, "source": "Tagesschau"}, {"title": "Manuela Schwesig bleibt Vorsitzende der SPD in MV", "url": "https://www.tagesschau.de/inland/regional/mecklenburgvorpommern/ndr-wiedergewaehlt-schwesig-bleibt-an-der-spitze-der-landes-spd-100.html", "thumbnailUrl": "https://images.tagesschau.de/image/c5f38713-4d2e-4afd-ba79-f24ace666799/AAABjuGg-LI/AAABjcWesUg/16x9-512.jpg", "date": "2024-04-15T12:58:00.000+02:00", "lat": 53.6127, "lon": 12.4964, "intensity": 0.6, "source": "Tagesschau"}, {"title": "Hundebiss auf Supermarkt-Parkplatz: Elfj\u00e4hriger verletzt", "url": "https://www.tagesschau.de/inland/regional/niedersachsen/ndr-hundebiss-auf-supermarkt-parkplatz-elfjaehriger-verletzt-100.html", "thumbnailUrl": "https://images.tagesschau.de/image/dcaac820-a206-4c9a-85cd-3b202ba26126/AAABjuGS1i8/AAABjcWesUg/16x9-512.jpg", "date": "2024-04-15T12:57:00.000+02:00", "lat": 53.0904, "lon": 9.8143, "intensity": 0.3, "source": "Tagesschau"}, {"title": "Besch\u00e4digte Autos in Neuk\u00f6lln: 15-J\u00e4hriger fl\u00fcchtet in Mietwagen vor Polizei ", "url": "https://www.tagesschau.de/inland/regional/berlin/rbb-beschaedigte-autos-in-neukoelln-15-jaehriger-fluechtet-in-mietwagen-vor-polizei-100.html", "thumbnailUrl": "https://images.tagesschau.de/image/4c98102e-d9f8-4572-b9e3-42a7a04ed94a/AAABjuFmrbM/AAABjcWesUg/16x9-512.jpg", "date": "2024-04-15T12:54:49.000+02:00", "lat": 52.4815, "lon": 13.4434, "intensity": 0.7, "source": "Tagesschau"}, {"title": "Besch\u00e4ftigte von privaten Busbetrieben in Rheinland-Pfalz streiken wieder ", "url": "https://www.tagesschau.de/inland/regional/saarland/sr-streik-bei-privaten-busbetrieben-in-rheinland-pfalz-ab-montag-100.html", "thumbnailUrl": "https://images.tagesschau.de/image/06c6c50b-bbec-4591-bdcc-37187fdde0d3/AAABjuB77Bs/AAABjcWesUg/16x9-512.jpg", "date": "2024-04-15T12:48:00.000+02:00", "lat": 49.9935, "lon": 7.252, "intensity": 0.7, "source": "Tagesschau"}, {"title": "Saarlouiser Sch\u00fcler erarbeiten Schulwegkonzept f\u00fcr mehr Sicherheit", "url": "https://www.tagesschau.de/inland/regional/saarland/sr-saarlouiser-schueler-erarbeiten-schulwegkonzept-fuer-mehr-sicherheit-100.html", "thumbnailUrl": "https://images.tagesschau.de/image/c9177955-f59b-4dc5-bd4b-fbb18b8fc3e3/AAABjuF8RDo/AAABjcWesUg/16x9-512.jpg", "date": "2024-04-15T12:40:00.000+02:00", "lat": 49.3074, "lon": 6.9754, "intensity": 0.7, "source": "Tagesschau"}, {"title": "Sulzbach muss diverse Projekte vor\u00fcbergehend auf Eis legen", "url": "https://www.tagesschau.de/inland/regional/saarland/sr-sulzbach-muss-diverse-projekte-voruebergehend-auf-eis-legen-100.html", "thumbnailUrl": "https://images.tagesschau.de/image/188a5928-67df-46fc-b0f3-5c72c2a295f1/AAABjuGOk8w/AAABjcWesUg/16x9-512.jpg", "date": "2024-04-15T12:30:00.000+02:00", "lat": 49.3236, "lon": 6.9974, "intensity": 0.7, "source": "Tagesschau"}, {"title": "Steine auf Gleise gelegt? Polizei stellt mehrere Jugendliche", "url": "https://www.tagesschau.de/inland/regional/niedersachsen/ndr-steine-auf-gleise-gelegt-polizei-stellt-mehrere-jugendliche-100.html", "thumbnailUrl": "https://images.tagesschau.de/image/88a08b93-b20d-4bbf-8251-c2243f1e4e56/AAABjuFYRhM/AAABjcWesUg/16x9-512.jpg", "date": "2024-04-15T12:26:00.000+02:00", "lat": 52.3551, "lon": 9.6822, "intensity": 0.6, "source": "Tagesschau"}, {"title": "T\u00f6dlicher Unfall bei Heppenheim: Mann stirbt bei Reifenwechsel auf A5", "url": "https://www.tagesschau.de/inland/regional/hessen/hr-toedlicher-unfall-auf-a5-bei-hemsbach-fahrbahn-richtung-darmstadt-gesperrt-100.html", "thumbnailUrl": "https://images.tagesschau.de/image/153b3eac-18b1-48af-ad69-cc8909f53347/AAABjuGJZQc/AAABjcWesUg/16x9-512.jpg", "date": "2024-04-15T12:25:53.448+02:00", "lat": 49.6448, "lon": 8.6354, "intensity": 0.7, "source": "Tagesschau"}, {"title": "Nach Sch\u00fcssen in Rinteln: 20-J\u00e4hriger im Krankenhaus gestorben", "url": "https://www.tagesschau.de/inland/regional/niedersachsen/ndr-schuesse-in-rinteln-junger-mann-lebensgefaehrlich-verletzt-100.html", "thumbnailUrl": "https://images.tagesschau.de/image/a3af0deb-0515-4592-855f-30017f7af17f/AAABjuE1Vno/AAABjcWesUg/16x9-512.jpg", "date": "2024-04-15T12:24:00.000+02:00", "lat": 52.1852, "lon": 9.081, "intensity": 0.8, "source": "Tagesschau"}, {"title": "Sanierung des Saar-Radwegs entlang der Saarschleife verz\u00f6gert sich", "url": "https://www.tagesschau.de/inland/regional/saarland/sr-sanierung-des-saar-radwegs-entlang-der-saarschleife-verzoegert-sich-100.html", "thumbnailUrl": "https://images.tagesschau.de/image/fab38a07-1aad-47d2-871d-969ac06e791d/AAABjuMwHAU/AAABjcWesUg/16x9-512.jpg", "date": "2024-04-15T12:13:00.000+02:00", "lat": 49.5058, "lon": 6.5184, "intensity": 0.6, "source": "Tagesschau"}, {"title": "Einsatz verweigert - Ke\u00efta bei Werder Bremen vor dem Aus?", "url": "https://www.tagesschau.de/inland/regional/niedersachsen/ndr-einsatz-verweigert-keta-bei-werder-bremen-vor-dem-aus-100.html", "thumbnailUrl": "https://images.tagesschau.de/image/c61684ba-d056-4daa-b8df-e415754dbebd/AAABjuE5cks/AAABjcWesUg/16x9-512.jpg", "date": "2024-04-15T12:02:00.000+02:00", "lat": 52.3759, "lon": 8.8017, "intensity": 0.8, "source": "Tagesschau"}, {"title": "Ibbenb\u00fcren: Zug kollidiert mit verlassenem Auto", "url": "https://www.tagesschau.de/inland/regional/nordrheinwestfalen/wdr-ibbenbueren-zug-kollidiert-mit-verlassenem-auto-102.html", "thumbnailUrl": "https://images.tagesschau.de/image/5fc284ec-3f60-4599-ae4d-32adcc72704b/AAABjuFfJ78/AAABjcWesUg/16x9-512.jpg", "date": "2024-04-15T11:57:00.000+02:00", "lat": 52.2833, "lon": 7.7167, "intensity": 0.8, "source": "Tagesschau"}, {"title": "Betrunken hinterm Steuer: Alkoholmissbrauch bei M\u00fcllentsorger aha?", "url": "https://www.tagesschau.de/inland/regional/niedersachsen/ndr-betrunken-hinterm-steuer-alkoholmissbrauch-bei-muellentsorger-aha-100.html", "thumbnailUrl": "https://images.tagesschau.de/image/24e3817d-e9cb-43a4-b73c-30f6fff07887/AAABjuGGKZ8/AAABjcWesUg/16x9-512.jpg", "date": "2024-04-15T11:55:00.000+02:00", "lat": 52.3759, "lon": 9.7332, "intensity": 0.8, "source": "Tagesschau"}, {"title": "\"Ich kenne keine Frau, die sich leichtfertig f\u00fcr eine Abtreibung entschieden hat\"", "url": "https://www.tagesschau.de/inland/regional/rheinlandpfalz/swr-mareike-ich-kenne-keine-frau-die-sich-leichtfertig-fuer-eine-abtreibung-entschieden-hat-100.html", "thumbnailUrl": "https://images.tagesschau.de/image/8b26bc0f-d70d-48bc-a3cc-790f663e8f47/AAABjuIOzrg/AAABjcWesUg/16x9-512.jpg", "date": "2024-04-15T11:49:00.000+02:00", "lat": 50.001249, "lon": 7.266155, "intensity": 0.8, "source": "Tagesschau"}, {"title": "Eintracht Frankfurt: Sebastian Rode blickt im heimspiel! auf seine Karriere zur\u00fcck", "url": "https://www.tagesschau.de/inland/regional/hessen/hr-eintracht-frankfurt-sebastian-rode-blickt-im-heimspiel-auf-seine-karriere-zurueck-102.html", "thumbnailUrl": "https://images.tagesschau.de/image/7c71808e-14d6-4a18-ae03-1fbeaad1e4f1/AAABjuLd8ew/AAABjcWesUg/16x9-512.jpg", "date": "2024-04-15T11:48:32.870+02:00", "lat": 50.1155, "lon": 8.6753, "intensity": 0.5, "source": "Tagesschau"}, {"title": "Streit um Abtreibung: Sozialministerin K\u00f6pping weiter f\u00fcr Beratungspflicht", "url": "https://www.tagesschau.de/inland/regional/sachsen/mdr-streit-um-abtreibung-sozialministerin-koepping-weiter-fuer-beratungspflicht-100.html", "thumbnailUrl": "https://images.tagesschau.de/image/3379d474-021d-4227-8ef0-9896a2d6b8c3/AAABjuQKnsY/AAABjcWesUg/16x9-512.jpg", "date": "2024-04-15T11:43:26.000+02:00", "lat": 52.52, "lon": 13.4085, "intensity": 0.7, "source": "Tagesschau"}, {"title": "Bremen erwartet \"typisches Aprilwetter\" mit viel Regen und Wind", "url": "https://www.tagesschau.de/inland/regional/bremen/rb-tschuess-sommergefuehle-jetzt-wird-es-kaelter-in-bremen-und-bremerhaven-100.html", "thumbnailUrl": "https://images.tagesschau.de/image/caff0ff9-6a0d-4561-b4ad-7d7756b1a807/AAABjuFFh6A/AAABjcWesUg/16x9-512.jpg", "date": "2024-04-15T11:35:00.000+02:00", "lat": 53.079296, "lon": 8.801694, "intensity": 0.6, "source": "Tagesschau"}, {"title": "Gr\u00fcne und CDU einigen sich auf Paket f\u00fcr Sprachf\u00f6rderung in dreistelliger Millionenh\u00f6he", "url": "https://www.tagesschau.de/inland/regional/badenwuerttemberg/swr-spitzen-von-gruenen-und-cdu-bw-entscheiden-ueber-millionenschwere-bildungsreformen-100.html", "thumbnailUrl": "https://images.tagesschau.de/image/773e912a-1b15-43b9-bb55-7ff89c1afc05/AAABjuEbSo0/AAABjcWesUg/16x9-512.jpg", "date": "2024-04-15T11:32:00.000+02:00", "lat": 48.7758, "lon": 9.1895, "intensity": 0.8, "source": "Tagesschau"}, {"title": "Trotz Erziehermangels: 315 neue Pl\u00e4tze an Osnabr\u00fccker Kitas", "url": "https://www.tagesschau.de/inland/regional/niedersachsen/ndr-trotz-erziehermangels-315-neue-plaetze-an-osnabruecker-kitas-100.html", "thumbnailUrl": "https://images.tagesschau.de/image/4693317d-2f62-4bcb-9c7c-8168bfa44bf9/AAABjuE8q_I/AAABjcWesUg/16x9-512.jpg", "date": "2024-04-15T11:32:00.000+02:00", "lat": 52.2799, "lon": 8.0476, "intensity": 0.6, "source": "Tagesschau"}, {"title": "Befreiung des KZ Bergen-Belsen: Briten finden das Grauen vor", "url": "https://www.tagesschau.de/inland/regional/niedersachsen/ndr-befreiung-des-kz-bergen-belsen-briten-finden-das-grauen-vor-100.html", "thumbnailUrl": "https://images.tagesschau.de/image/c1f1e821-fb87-4293-aae2-82f13275fda7/AAABjuAZkFQ/AAABjcWesUg/16x9-512.jpg", "date": "2024-04-15T11:25:00.000+02:00", "lat": 52.6356, "lon": 9.9217, "intensity": 0.9, "source": "Tagesschau"}, {"title": "Hamburg: Rekord bei Wohnungslosigkeit - Aktionsplan gefordert ", "url": "https://www.tagesschau.de/inland/regional/hamburg/ndr-hamburg-rekord-bei-wohnungslosigkeit-aktionsplan-gefordert-100.html", "thumbnailUrl": "https://images.tagesschau.de/image/0222468c-5965-4ee4-a233-60e0a8daf27b/AAABjuEX3i0/AAABjcWesUg/16x9-512.jpg", "date": "2024-04-15T11:21:00.000+02:00", "lat": 53.5511, "lon": 9.9937, "intensity": 0.8, "source": "Tagesschau"}, {"title": "Darts: Gl\u00fcckstr\u00e4nen bei Martin Schindler nach Turniersieg", "url": "https://www.tagesschau.de/inland/regional/hessen/hr-darts-glueckstraenen-bei-martin-schindler-nach-turniersieg-100.html", "thumbnailUrl": "https://images.tagesschau.de/image/2b64b3d6-8b50-4f43-8800-6af6710a0b38/AAABjuESSKw/AAABjcWesUg/16x9-512.jpg", "date": "2024-04-15T11:20:26.533+02:00", "lat": 51.293562, "lon": 13.297954, "intensity": 0.7, "source": "Tagesschau"}, {"title": "Blitzermarathon: Polizei blitzt verst\u00e4rkt in elf Bundesl\u00e4ndern", "url": "https://www.tagesschau.de/inland/regional/brandenburg/rbb-blitzermarathon-polizei-blitzt-verstaerkt-in-fuenf-bundeslaendern-100.html", "thumbnailUrl": "https://images.tagesschau.de/image/a3e46a00-f720-4032-aa5f-fbc5f75a3fb4/AAABjuEQg1I/AAABjcWesUg/16x9-512.jpg", "date": "2024-04-15T11:20:11.000+02:00", "lat": 52.520008, "lon": 13.404954, "intensity": 0.8, "source": "Tagesschau"}, {"title": "Wetter in Hessen: Mit dem Sommer ist's erstmal vorbei", "url": "https://www.tagesschau.de/inland/regional/hessen/hr-wetter-in-hessen-mit-dem-sommer-ists-erstmal-vorbei-100.html", "thumbnailUrl": "https://images.tagesschau.de/image/1d4e489a-073e-4737-a3b9-ceed4263e6fe/AAABjuEJDyE/AAABjcWesUg/16x9-512.jpg", "date": "2024-04-15T11:12:27.254+02:00", "lat": 50.6521, "lon": 9.6752, "intensity": 0.3, "source": "Tagesschau"}, {"title": "Ahrtal Flut: Klagt Staatsanwaltschaft den ehemaligen Landrat an?", "url": "https://www.tagesschau.de/inland/regional/rheinlandpfalz/swr-ahrtal-flut-klagt-staatsanwaltschaft-den-ehemaligen-landrat-an-100.html", "thumbnailUrl": "https://images.tagesschau.de/image/6b4efdfd-fd87-485f-9ac5-219f5da0b3db/AAABjuEWDWw/AAABjcWesUg/16x9-512.jpg", "date": "2024-04-15T11:08:59.000+02:00", "lat": 50.5487, "lon": 7.103535, "intensity": 0.8, "source": "Tagesschau"}, {"title": "Nach Hubschrauber-Absturz: Baumf\u00e4llarbeiten werden im Herbst fortgesetzt", "url": "https://www.tagesschau.de/inland/regional/thueringen/mdr-nach-hubschrauber-absturz-baumfaellarbeiten-werden-im-herbst-fortgesetzt-100.html", "thumbnailUrl": "https://images.tagesschau.de/image/41efdaca-b823-4e31-8f57-32822843156c/AAABjuQMEu8/AAABjcWesUg/16x9-512.jpg", "date": "2024-04-15T11:02:00.000+02:00", "lat": 50.3801, "lon": 11.1659, "intensity": 0.7, "source": "Tagesschau"}, {"title": "Stadt Pasewalk betreibt Wochenm\u00e4rkte k\u00fcnftig selbst", "url": "https://www.tagesschau.de/inland/regional/mecklenburgvorpommern/ndr-stadt-pasewalk-betreibt-wochenmaerkte-kuenftig-selbst-100.html", "thumbnailUrl": "https://images.tagesschau.de/image/2ad90d51-3f46-45a0-ab45-8999fd17762b/AAABjuEgviw/AAABjcWesUg/16x9-512.jpg", "date": "2024-04-15T11:00:00.000+02:00", "lat": 53.5197, "lon": 13.9867, "intensity": 0.6, "source": "Tagesschau"}, {"title": "Drei Viertel der 25- bis 64-j\u00e4hrigen Saarl\u00e4nder leben von eigener Arbeit", "url": "https://www.tagesschau.de/inland/regional/saarland/sr-drei-viertel-der-25-bis-64-jaehrigen-saarlaender-leben-von-eigener-arbeit-100.html", "thumbnailUrl": "https://images.tagesschau.de/image/dbe9e861-68dd-4ab1-a8ab-3eb3e2846a1b/AAABjuEdDmU/AAABjcWesUg/16x9-512.jpg", "date": "2024-04-15T10:59:00.000+02:00", "lat": 49.3964, "lon": 6.9969, "intensity": 0.7, "source": "Tagesschau"}, {"title": "Totalschaden: 27-J\u00e4hriger bei Unfall in Berlin-Pankow schwer verletzt ", "url": "https://www.tagesschau.de/inland/regional/berlin/rbb-totalschaden-55-jaehriger-bei-unfall-in-berlin-pankow-schwer-verletzt-100.html", "thumbnailUrl": "https://images.tagesschau.de/image/1db66778-07b1-42f2-8bb6-77e89e313a8a/AAABjuD1E0g/AAABjcWesUg/16x9-512.jpg", "date": "2024-04-15T10:51:51.000+02:00", "lat": 52.5667, "lon": 13.4115, "intensity": 0.8, "source": "Tagesschau"}, {"title": "\u00dcberlebende von Anschlag verklagen Geheimdienst", "url": "https://www.tagesschau.de/ausland/manchester-attentat-ariana-grande-100.html", "thumbnailUrl": "https://images.tagesschau.de/image/164f8c63-fde7-4265-8168-8348dfb264c6/AAABjuDuKmY/AAABjcWesUg/16x9-512.jpg", "date": "2024-04-15T10:44:48.915+02:00", "lat": 53.4808, "lon": -2.2426, "intensity": 0.8, "source": "Tagesschau"}, {"title": "Welche falschen Bilder und Videos kursieren", "url": "https://www.tagesschau.de/faktenfinder/angriff-iran-israel-fakes-100.html", "thumbnailUrl": "https://images.tagesschau.de/image/9618b86d-0596-4b6d-a693-292c43da3c06/AAABjuDv_K4/AAABjcWesUg/16x9-512.jpg", "date": "2024-04-15T10:42:28.459+02:00", "lat": 51.389, "lon": 35.6895, "intensity": 0.7, "source": "Tagesschau"}, {"title": "SG Flensburg-Handewitt: Aufbruchstimmung und Titelhoffnung", "url": "https://www.tagesschau.de/inland/regional/schleswigholstein/ndr-sg-flensburg-handewitt-aufbruchstimmung-und-titelhoffnung-102.html", "thumbnailUrl": "https://images.tagesschau.de/image/7320fd52-06d7-409e-a913-29acc631aab9/AAABjuKLpVw/AAABjcWesUg/16x9-512.jpg", "date": "2024-04-15T10:41:00.000+02:00", "lat": 54.7937, "lon": 9.4366, "intensity": 0.5, "source": "Tagesschau"}, {"title": "Fahrstuhl bleibt stecken: Feuerwehr befreit Person in Aurich", "url": "https://www.tagesschau.de/inland/regional/niedersachsen/ndr-fahrstuhl-bleibt-stecken-feuerwehr-befreit-person-in-aurich-100.html", "thumbnailUrl": "https://images.tagesschau.de/image/c2799f94-f5c3-4b88-ac20-62845543cab9/AAABjuCkrso/AAABjcWesUg/16x9-512.jpg", "date": "2024-04-15T10:37:00.000+02:00", "lat": 53.4717, "lon": 7.4884, "intensity": 0.7, "source": "Tagesschau"}, {"title": "Helmstedt: Feuerwehr rettet f\u00fcnf Menschen per Drehleiter", "url": "https://www.tagesschau.de/inland/regional/niedersachsen/ndr-helmstedt-feuerwehr-rettet-fuenf-menschen-per-drehleiter-100.html", "thumbnailUrl": "https://images.tagesschau.de/image/2d38bcb7-2413-431a-99d1-285cf969efbb/AAABjuBfILc/AAABjcWesUg/16x9-512.jpg", "date": "2024-04-15T10:34:00.000+02:00", "lat": 52.2285, "lon": 11.0108, "intensity": 0.8, "source": "Tagesschau"}, {"title": "Vuitton-Fake, versandt aus dem Taunus", "url": "https://www.tagesschau.de/wirtschaft/verbraucher/luxus-fakes-100.html", "thumbnailUrl": "https://images.tagesschau.de/image/f21f4dd4-96bd-436e-bc02-286d0bf08972/AAABjuDdI80/AAABjcWesUg/16x9-512.jpg", "date": "2024-04-15T10:32:40.516+02:00", "lat": 50.1833, "lon": 8.4167, "intensity": 0.7, "source": "Tagesschau"}, {"title": "Hessen am Morgen: +++ Motorradfahrer stirbt bei Auffahrunfall auf A66 +++ E-Busse starten in Kassel +++ Warnungen vor Sturmb\u00f6en +++", "url": "https://www.tagesschau.de/inland/regional/hessen/hr-hessen-am-morgen--motorradfahrer-stirbt-bei-auffahrunfall-auf-a66-100.html", "thumbnailUrl": "https://images.tagesschau.de/image/4b284e2d-1c12-454e-aa8b-f27227ff76b1/AAABjuDryvY/AAABjcWesUg/16x9-512.jpg", "date": "2024-04-15T10:31:36.493+02:00", "lat": 50.1109, "lon": 9.1622, "intensity": 0.8, "source": "Tagesschau"}, {"title": "Pferd steckte im Schlamm fest: Feuerwehr Dortmund im Einsatz", "url": "https://www.tagesschau.de/inland/regional/nordrheinwestfalen/wdr-pferd-steckte-im-schlamm-fest-feuerwehr-dortmund-im-einsatz-100.html", "thumbnailUrl": "https://images.tagesschau.de/image/dfc8b6a2-96c2-4744-b72a-3a1f68509d8e/AAABjuJhJW8/AAABjcWesUg/16x9-512.jpg", "date": "2024-04-15T10:30:00.000+02:00", "lat": 51.5136, "lon": 7.4653, "intensity": 0.6, "source": "Tagesschau"}, {"title": "Darts: Strausberger Martin Schindler holt \u00fcberraschenden Titel auf der European Tour", "url": "https://www.tagesschau.de/inland/regional/brandenburg/rbb-darts-strausberger-martin-schindler-holt-ueberraschenden-titel-auf-der-european-tour-102.html", "thumbnailUrl": "https://images.tagesschau.de/image/f86b34e7-ef37-43a3-ad9c-611aefcd44e8/AAABjuDi5DY/AAABjcWesUg/16x9-512.jpg", "date": "2024-04-15T10:26:58.000+02:00", "lat": 52.4399, "lon": 13.8883, "intensity": 0.6, "source": "Tagesschau"}, {"title": "Wie Paulchen Panther: MT Melsungen sieht Final-Pleite als Ansporn", "url": "https://www.tagesschau.de/inland/regional/hessen/hr-wie-paulchen-panther-mt-melsungen-sieht-final-pleite-als-ansporn-102.html", "thumbnailUrl": "https://images.tagesschau.de/image/303ef708-eda0-4c11-ad36-75f404e8d433/AAABjuHzeio/AAABjcWesUg/16x9-512.jpg", "date": "2024-04-15T10:25:20.392+02:00", "lat": 51.3127, "lon": 9.6753, "intensity": 0.8, "source": "Tagesschau"}, {"title": "Unfallflucht und versagte Hilfe: Zu wenig Solidarit\u00e4t am Berg?", "url": "https://www.tagesschau.de/inland/regional/bayern/br-unfallflucht-und-versagte-hilfe-zu-wenig-solidaritaet-am-berg-102.html", "thumbnailUrl": "https://images.tagesschau.de/image/b7f82aca-e99e-40ba-9bc4-51eeb94ddadf/AAABjuDdSzk/AAABjcWesUg/16x9-512.jpg", "date": "2024-04-15T10:25:09.322+02:00", "lat": 47.1147, "lon": 11.1094, "intensity": 0.8, "source": "Tagesschau"}, {"title": "Millionenschaden nach Brand im Neutorturm in Arnstadt - Durchfahrt gesperrt", "url": "https://www.tagesschau.de/inland/regional/thueringen/mdr-millionenschaden-nach-brand-im-neutorturm-in-arnstadt-100.html", "thumbnailUrl": "https://images.tagesschau.de/image/33b0ebf0-3b80-43ac-b8bb-6180bbd8fe80/AAABjuIv-Mo/AAABjcWesUg/16x9-512.jpg", "date": "2024-04-15T10:18:00.000+02:00", "lat": 50.8363, "lon": 10.9393, "intensity": 0.8, "source": "Tagesschau"}, {"title": "Bayer Leverkusen nach Sieg gegen Werder Bremen erstmals deutscher Meister", "url": "https://www.tagesschau.de/inland/regional/niedersachsen/ndr-bayer-leverkusen-nach-sieg-gegen-werder-bremen-erstmals-deutscher-meister-104.html", "thumbnailUrl": "https://images.tagesschau.de/image/c3c40095-6526-427e-86ac-d802a3c1b740/AAABjuE5eNo/AAABjcWesUg/16x9-512.jpg", "date": "2024-04-15T10:09:00.000+02:00", "lat": 52.3759, "lon": 9.7332, "intensity": 0.9, "source": "Tagesschau"}, {"title": "BW-Newsticker am Montagmorgen: Ab heute \"Blitzermarathon\" in BW, Oberleitungen von S21-Baustelle geklaut, Verbindliche Sprachf\u00f6rderung in Kitas soll kommen", "url": "https://www.tagesschau.de/inland/regional/badenwuerttemberg/swr-bw-newsticker-am-morgen-ab-heute-blitzermarathon-in-bw-verbindliche-sprachfoerderung-in-kitas-soll-kommen-100.html", "thumbnailUrl": "https://images.tagesschau.de/image/d92ab75f-ffbf-4eb4-9592-a1c6455747d7/AAABjt_rVAU/AAABjcWesUg/16x9-512.jpg", "date": "2024-04-15T10:00:00.000+02:00", "lat": 48.7904, "lon": 9.0238, "intensity": 0.7, "source": "Tagesschau"}, {"title": "61-j\u00e4hrige Autofahrerin stirbt bei Zusammenprall mit Baum in M\u00e4rkisch-Oderland", "url": "https://www.tagesschau.de/inland/regional/brandenburg/rbb-61-jaehrige-autofahrerin-stirbt-bei-zusammenprall-mit-baum-in-maerkisch-oderland-100.html", "thumbnailUrl": "https://images.tagesschau.de/image/59be4bc4-86b0-47e1-b318-3dcd456d24e6/AAABjuDFfjQ/AAABjcWesUg/16x9-512.jpg", "date": "2024-04-15T09:58:33.000+02:00", "lat": 52.5763, "lon": 13.8786, "intensity": 0.7, "source": "Tagesschau"}, {"title": "Brandenburg: Was ehrenamtliche B\u00fcrgermeister antreibt", "url": "https://www.tagesschau.de/inland/regional/brandenburg/rbb-brandenburg-was-ehrenamtliche-buergermeister-antreibt-100.html", "thumbnailUrl": "https://images.tagesschau.de/image/374eff5b-59c3-4b0d-9278-b4c009a6e812/AAABjuDBsuQ/AAABjcWesUg/16x9-512.jpg", "date": "2024-04-15T09:56:03.000+02:00", "lat": 52.533, "lon": 12.765, "intensity": 0.5, "source": "Tagesschau"}, {"title": "Kritik an der Landesregierung wegen Genderverbots: \"Es gibt tausend andere Baustellen in Schulen!\"", "url": "https://www.tagesschau.de/inland/regional/hessen/hr-kritik-an-der-landesregierung-wegen-genderverbots-es-gibt-tausend-andere-baustellen-in-schulen-100.html", "thumbnailUrl": "https://images.tagesschau.de/image/354c867e-73c6-4322-8bec-bac223cb3a55/AAABjuE6hcA/AAABjcWesUg/16x9-512.jpg", "date": "2024-04-15T09:54:14.324+02:00", "lat": 50.5524, "lon": 9.6939, "intensity": 0.8, "source": "Tagesschau"}, {"title": "40 Jahre \"Flash\" in St. Wendel - Geburtstag einer Disco-Legende", "url": "https://www.tagesschau.de/inland/regional/saarland/sr-40-jahre-flash-in-st-wendel-geburtstag-einer-disco-legende-100.html", "thumbnailUrl": "https://images.tagesschau.de/image/bae3f803-3644-43d4-88bc-91c0f79be2ff/AAABjuDG_pw/AAABjcWesUg/16x9-512.jpg", "date": "2024-04-15T09:54:00.000+02:00", "lat": 49.4627, "lon": 7.1712, "intensity": 0.8, "source": "Tagesschau"}, {"title": "Scholz gibt in China besorgtem Studenten Tipps zum Umgang mit Cannabis in Berlin", "url": "https://www.tagesschau.de/inland/regional/berlin/rbb-scholz-gibt-in-china-besorgtem-studenten-tipps-zum-umgang-mit-cannabis-in-berlin-100.html", "thumbnailUrl": "https://images.tagesschau.de/image/e1a6806e-cdac-4c1f-a98b-f94d4705b60c/AAABjuC1EJw/AAABjcWesUg/16x9-512.jpg", "date": "2024-04-15T09:40:58.000+02:00", "lat": 52.52, "lon": 13.405, "intensity": 0.7, "source": "Tagesschau"}, {"title": "Iran greift Israel an: Hessische Politik und Kirchen best\u00fcrzt nach Angriff", "url": "https://www.tagesschau.de/inland/regional/hessen/hr-iranischer-angriff-hessische-politik-und-kirchen-bestuerzt-nach-angriff-auf-israel-100.html", "thumbnailUrl": "https://images.tagesschau.de/image/ccf5b0dc-8564-4d43-b68a-3ffd67e8e830/AAABjuCoDJk/AAABjcWesUg/16x9-512.jpg", "date": "2024-04-15T09:27:17.512+02:00", "lat": 50.6521, "lon": 9.6752, "intensity": 0.8, "source": "Tagesschau"}, {"title": "Immer weniger Floristen in Sachsen-Anhalt: \"Nach dieser Zeit zu schlie\u00dfen, ist traurig\"", "url": "https://www.tagesschau.de/inland/regional/sachsenanhalt/mdr-immer-weniger-floristen-in-sachsen-anhalt-nach-dieser-zeit-zu-schliessen-ist-traurig-100.html", "thumbnailUrl": "https://images.tagesschau.de/image/5b2b2136-74d9-4670-9d84-0c2ec34ac5a7/AAABjuCi3kQ/AAABjcWesUg/16x9-512.jpg", "date": "2024-04-15T09:21:28.000+02:00", "lat": 52.1508, "lon": 11.6276, "intensity": 0.8, "source": "Tagesschau"}, {"title": "Ex-Regierender B\u00fcrgermeister: Michael M\u00fcller zeigt Verst\u00e4ndnis f\u00fcr Kritik an Corona-Ma\u00dfnahmen", "url": "https://www.tagesschau.de/inland/regional/berlin/rbb-ex-regierender-buergermeister-michael-mueller-zeigt-verstaendnis-fuer-kritik-an-corona-massnahmen-100.html", "thumbnailUrl": "https://images.tagesschau.de/image/2b43fe2a-f0ff-4390-99da-79b8fd167467/AAABjuCXwTs/AAABjcWesUg/16x9-512.jpg", "date": "2024-04-15T09:07:16.000+02:00", "lat": 52.520008, "lon": 13.404954, "intensity": 0.7, "source": "Tagesschau"}, {"title": "Samsung wieder Marktf\u00fchrer bei Smartphones", "url": "https://www.tagesschau.de/wirtschaft/unternehmen/samsung-apple-smartphones-absatz-transsion-xiaomi-iphones-galaxy-100.html", "thumbnailUrl": "https://images.tagesschau.de/image/21e46cf1-a5a5-4bb9-934f-2fa9784f48f5/AAABjuBLvs4/AAABjcWesUg/16x9-512.jpg", "date": "2024-04-15T08:59:24.085+02:00", "lat": 37.5665, "lon": 126.978, "intensity": 0.8, "source": "Tagesschau"}, {"title": "Personalmangel in Kitas: Brandbriefe aus Stade ans Ministerium", "url": "https://www.tagesschau.de/inland/regional/niedersachsen/ndr-personalmangel-in-kitas-brandbriefe-aus-stade-ans-ministerium-100.html", "thumbnailUrl": "https://images.tagesschau.de/image/9edc3495-b944-4001-a9d9-e172319279d3/AAABjuE8sXk/AAABjcWesUg/16x9-512.jpg", "date": "2024-04-15T08:59:00.000+02:00", "lat": 53.6127, "lon": 9.4778, "intensity": 0.8, "source": "Tagesschau"}, {"title": "Polizei in BW will beim \"Blitzermarathon\" viele Geschwindigkeitskontrollen durchf\u00fchren", "url": "https://www.tagesschau.de/inland/regional/badenwuerttemberg/swr-polizei-in-bw-will-beim-blitzermarathon-temposuender-kontrollieren-100.html", "thumbnailUrl": "https://images.tagesschau.de/image/7a945668-bae7-4190-bb9c-960f6bdadfba/AAABjuLLeMU/AAABjcWesUg/16x9-512.jpg", "date": "2024-04-15T08:58:00.000+02:00", "lat": 48.7276, "lon": 9.4867, "intensity": 0.8, "source": "Tagesschau"}, {"title": "Nordhorn: 1.100 Menschen bei Musikfest gegen Rechtsextremismus", "url": "https://www.tagesschau.de/inland/regional/niedersachsen/ndr-nordhorn-1-100-menschen-bei-musikfest-gegen-rechtsextremismus-100.html", "thumbnailUrl": "https://images.tagesschau.de/image/b4fa6b93-0873-49be-957c-4c9879e99a85/AAABjuCWCSc/AAABjcWesUg/16x9-512.jpg", "date": "2024-04-15T08:57:00.000+02:00", "lat": 52.435, "lon": 7.073056, "intensity": 0.9, "source": "Tagesschau"}, {"title": "\"Speed-Week\" im Norden: Aktionswoche gegen Raser startet", "url": "https://www.tagesschau.de/inland/regional/mecklenburgvorpommern/ndr-speed-week-aktionswoche-gegen-raser-startet-100.html", "thumbnailUrl": "https://images.tagesschau.de/image/3efb5d59-1fdc-42de-bda9-66c390d35b88/AAABjuD1HZ8/AAABjcWesUg/16x9-512.jpg", "date": "2024-04-15T08:54:00.000+02:00", "lat": 53.6127, "lon": 11.3398, "intensity": 0.7, "source": "Tagesschau"}, {"title": "Hilfe f\u00fcr die Menschen in der Ukraine", "url": "https://www.tagesschau.de/spendenkonten/spendenkonten-133.html", "thumbnailUrl": "https://images.tagesschau.de/image/af005073-bb3d-428a-b6f8-a685c725811f/AAABh4VRChA/AAABjcWesUg/16x9-512.jpg", "date": "2024-04-15T08:53:53.161+02:00", "lat": 50.4501, "lon": 30.5234, "intensity": 0.8, "source": "Tagesschau"}, {"title": "Scholz mahnt Wettbewerbsgleichheit f\u00fcr Autobauer an", "url": "https://www.tagesschau.de/ausland/china-shanghai-scholz-100.html", "thumbnailUrl": "https://images.tagesschau.de/image/f2770646-8ca8-4cc8-ab25-7c3c22dc74a0/AAABjuBwtbg/AAABjcWesUg/16x9-512.jpg", "date": "2024-04-15T08:53:23.751+02:00", "lat": 31.2304, "lon": 121.4737, "intensity": 0.8, "source": "Tagesschau"}, {"title": "E-Auto f\u00e4hrt gegen Baum und geht in Flammen auf - zwei Tote", "url": "https://www.tagesschau.de/inland/regional/niedersachsen/ndr-auto-faengt-feuer-zwei-menschen-bei-verkehrsunfall-gestorben-100.html", "thumbnailUrl": "https://images.tagesschau.de/image/2f019d1d-b3a6-4435-8867-13ec21e9bf41/AAABjuCzZuM/AAABjcWesUg/16x9-512.jpg", "date": "2024-04-15T08:52:00.000+02:00", "lat": 52.2799, "lon": 9.7384, "intensity": 0.8, "source": "Tagesschau"}, {"title": "Bundespolizei findet Rucksack voller Drogen", "url": "https://www.tagesschau.de/inland/regional/niedersachsen/ndr-bundespolizei-findet-rucksack-voller-drogen-100.html", "thumbnailUrl": "https://images.tagesschau.de/image/0c0538cd-b7bc-4e59-8769-92e2447ba503/AAABjuCFutg/AAABjcWesUg/16x9-512.jpg", "date": "2024-04-15T08:50:00.000+02:00", "lat": 52.374, "lon": 9.732, "intensity": 0.8, "source": "Tagesschau"}, {"title": "Massives Polizeiaufgebot bei SPD-Treffen auf Norderney", "url": "https://www.tagesschau.de/inland/regional/niedersachsen/ndr-massives-polizeiaufgebot-bei-spd-treffen-auf-norderney-100.html", "thumbnailUrl": "https://images.tagesschau.de/image/d9466dd5-cb58-48b5-9dab-8fdee4b3a027/AAABjuCJMGM/AAABjcWesUg/16x9-512.jpg", "date": "2024-04-15T08:50:00.000+02:00", "lat": 53.7067, "lon": 7.1574, "intensity": 0.8, "source": "Tagesschau"}, {"title": "Wohnhaus in Idar-Oberstein abgebrannt: 300.000 Euro Schaden", "url": "https://www.tagesschau.de/inland/regional/rheinlandpfalz/swr-wohnhaus-in-idar-oberstein-abgebrannt-300-000-euro-schaden-100.html", "thumbnailUrl": "https://images.tagesschau.de/image/f4187f93-1e63-45c6-9371-26142512e370/AAABjuA2ZCk/AAABjcWesUg/16x9-512.jpg", "date": "2024-04-15T08:36:00.000+02:00", "lat": 49.7121, "lon": 7.3069, "intensity": 0.8, "source": "Tagesschau"}, {"title": "Auf warmes Fr\u00fchlingswochenende folgt nass-kaltes Wetter", "url": "https://www.tagesschau.de/inland/regional/niedersachsen/ndr-auf-warmes-fruehlingswochenende-folgt-nass-kaltes-wetter-100.html", "thumbnailUrl": "https://images.tagesschau.de/image/253c6164-9fb2-49d8-addc-beae23748230/AAABjuCoZUI/AAABjcWesUg/16x9-512.jpg", "date": "2024-04-15T08:16:00.000+02:00", "lat": 52.6367, "lon": 10.4515, "intensity": 0.4, "source": "Tagesschau"}, {"title": "\"Sie waren Monster, keine Menschen\"", "url": "https://www.tagesschau.de/ausland/afrika/ein-jahr-krieg-sudan-100.html", "thumbnailUrl": "https://images.tagesschau.de/image/2ddf0d2e-0257-4192-9535-008bf74df92f/AAABjuBMVv4/AAABjcWesUg/16x9-512.jpg", "date": "2024-04-15T08:13:04.390+02:00", "lat": 12.8628, "lon": 30.2176, "intensity": 0.9, "source": "Tagesschau"}, {"title": "Aus Hamburger Gartenteich gerettet: Kind in Lebensgefahr ", "url": "https://www.tagesschau.de/inland/regional/hamburg/ndr-aus-hamburger-gartenteich-gerettet-kind-in-lebensgefahr-100.html", "thumbnailUrl": "https://images.tagesschau.de/image/872dd4bf-9bf4-4d6f-b13b-e0cfefdf9050/AAABjuBirjE/AAABjcWesUg/16x9-512.jpg", "date": "2024-04-15T08:09:00.000+02:00", "lat": 53.5511, "lon": 10.0003, "intensity": 0.8, "source": "Tagesschau"}, {"title": "Brand an Grundschule in M\u00fclheim", "url": "https://www.tagesschau.de/inland/regional/nordrheinwestfalen/wdr-brand-an-grundschule-in-muelheim-100.html", "thumbnailUrl": "https://images.tagesschau.de/image/53ef8ded-a911-4f86-8608-7cb5fe9568d4/AAABjuBxMtE/AAABjcWesUg/16x9-512.jpg", "date": "2024-04-15T08:08:00.000+02:00", "lat": 51.4184, "lon": 6.8882, "intensity": 0.8, "source": "Tagesschau"}, {"title": "Berliner Verkehrsbetriebe: U6 f\u00e4hrt wieder bis zum Kurt-Schumacher-Platz - ohne Halt in Seestra\u00dfe", "url": "https://www.tagesschau.de/inland/regional/berlin/rbb-nach-kabelbrand-wochenlang-unterbrochen-u6-faehrt-ab-montag-wieder-bis-zur-reinickendorfer-strasse-100.html", "thumbnailUrl": "https://images.tagesschau.de/image/780e6be4-153c-4f27-982e-b4650471507f/AAABjuBSKLs/AAABjcWesUg/16x9-512.jpg", "date": "2024-04-15T07:52:46.000+02:00", "lat": 52.55099, "lon": 13.35114, "intensity": 0.7, "source": "Tagesschau"}, {"title": "Jan Marsaleks Spionage-Netzwerke ", "url": "https://www.tagesschau.de/wirtschaft/11km-marsalek-100.html", "thumbnailUrl": "https://images.tagesschau.de/image/ae183d8a-e70c-4a16-87d3-e399343dad03/AAABjuD7AKQ/AAABjcWesUg/16x9-512.jpg", "date": "2024-04-15T07:49:44.605+02:00", "lat": 55.7558, "lon": 37.6173, "intensity": 0.8, "source": "Tagesschau"}, {"title": "SV Darmstadt 98: Und t\u00e4glich gr\u00fc\u00dft die Niederlage", "url": "https://www.tagesschau.de/inland/regional/hessen/hr-sv-darmstadt-98-und-taeglich-gruesst-die-niederlage-102.html", "thumbnailUrl": "https://images.tagesschau.de/image/81472667-b7c2-400e-9517-ac4298f06bb7/AAABjuBMf2A/AAABjcWesUg/16x9-512.jpg", "date": "2024-04-15T07:44:59.197+02:00", "lat": 49.8728, "lon": 8.6546, "intensity": 0.6, "source": "Tagesschau"}, {"title": "Zug kollidiert mit Auto - Unfallverursacher fl\u00fcchten", "url": "https://www.tagesschau.de/inland/regional/niedersachsen/ndr-zug-kollidiert-mit-auto-unfallverursacher-fluechten-100.html", "thumbnailUrl": "https://images.tagesschau.de/image/25b5a407-7774-4a86-9ab2-50730d1d8138/AAABjuBFcPc/AAABjcWesUg/16x9-512.jpg", "date": "2024-04-15T07:37:00.000+02:00", "lat": 52.2798, "lon": 7.4458, "intensity": 0.7, "source": "Tagesschau"}, {"title": "Streit um Energiepark in M\u00fcnster", "url": "https://www.tagesschau.de/inland/regional/nordrheinwestfalen/wdr-streit-um-energiepark-in-muenster-102.html", "thumbnailUrl": "https://images.tagesschau.de/image/074b376a-a9f5-4c4c-8089-9924c1a94cb5/AAABjuBxDWA/AAABjcWesUg/16x9-512.jpg", "date": "2024-04-15T07:32:00.000+02:00", "lat": 51.9607, "lon": 7.6295, "intensity": 0.8, "source": "Tagesschau"}, {"title": "Z\u00fcge des RE1 zwischen Frankfurt (Oder) und Cottbus fallen drei Wochen aus", "url": "https://www.tagesschau.de/inland/regional/brandenburg/rbb-wegen-bauarbeiten-zuege-des-re1-zwischen-frankfurt-oder-und-cottbus-fallen-drei-wochen-aus-100.html", "thumbnailUrl": "https://images.tagesschau.de/image/e24e04f0-a835-4b8c-b6e7-33c2289436b2/AAABjuGJdb8/AAABjcWesUg/16x9-512.jpg", "date": "2024-04-15T07:11:00.000+02:00", "lat": 51.7675, "lon": 14.3833, "intensity": 0.6, "source": "Tagesschau"}, {"title": "Nach Zusammenbruch: Erste Entwarnung bei N'Dicka", "url": "https://www.tagesschau.de/inland/regional/hessen/hr-sorgen-um-ex-frankfurter-ndicka-bricht-auf-platz-zusammen-102.html", "thumbnailUrl": "https://images.tagesschau.de/image/c47c14ff-894a-45dd-9c59-0c57ed0e9911/AAABjuArqs0/AAABjcWesUg/16x9-512.jpg", "date": "2024-04-15T07:10:46.204+02:00", "lat": 50.1109, "lon": 8.6821, "intensity": 0.8, "source": "Tagesschau"}, {"title": "Antonsen und Mar\u00edn holen Badminton-EM-Titel", "url": "https://www.tagesschau.de/inland/regional/saarland/sr-antonsen-und-marin-holen-badminton-em-titel-102.html", "thumbnailUrl": "https://images.tagesschau.de/image/bcbcf021-b9a3-4f8b-9d7a-f1f3470320eb/AAABjt2Srys/AAABjcWesUg/16x9-512.jpg", "date": "2024-04-15T07:00:00.000+02:00", "lat": 49.2402, "lon": 6.9969, "intensity": 0.6, "source": "Tagesschau"}, {"title": "Historischer Prozess gegen Trump beginnt", "url": "https://www.tagesschau.de/ausland/amerika/trump-prozess-108.html", "thumbnailUrl": "https://images.tagesschau.de/image/c021693a-e8e3-469d-b6bd-0527adcac1c8/AAABjuDOSKA/AAABjcWesUg/16x9-512.jpg", "date": "2024-04-15T06:57:09.712+02:00", "lat": 38.9072, "lon": -77.0369, "intensity": 0.8, "source": "Tagesschau"}, {"title": "ADAC \u00fcbt mit Rettungshubschrauber Eins\u00e4tze in Mainz und Bingen", "url": "https://www.tagesschau.de/inland/regional/rheinlandpfalz/swr-adac-uebt-mit-rettungshubschrauber-einsaetze-in-mainz-und-bingen-100.html", "thumbnailUrl": "https://images.tagesschau.de/image/0bc832b1-9300-447d-99ac-6ebc85baacd4/AAABjuArZ1U/AAABjcWesUg/16x9-512.jpg", "date": "2024-04-15T06:48:37.000+02:00", "lat": 50.0028, "lon": 8.27111, "intensity": 0.5, "source": "Tagesschau"}, {"title": "Guten Morgen, NRW!", "url": "https://www.tagesschau.de/inland/regional/nordrheinwestfalen/wdr-guten-morgen-nrw-448.html", "thumbnailUrl": "https://images.tagesschau.de/image/a38bdbd4-2d21-471f-8dd2-048cc536592f/AAABjuBP-O4/AAABjcWesUg/16x9-512.jpg", "date": "2024-04-15T06:45:00.000+02:00", "lat": 51.4556, "lon": 7.0935, "intensity": 0.7, "source": "Tagesschau"}, {"title": "An jeder f\u00fcnften Grundschule in Baden-W\u00fcrttemberg kein Schwimmunterricht: DLRG warnt vor Folgen", "url": "https://www.tagesschau.de/inland/regional/badenwuerttemberg/swr-an-jeder-fuenften-grundschule-in-baden-wuerttemberg-kein-schwimmunterricht-dlrg-warnt-vor-folgen-100.html", "thumbnailUrl": "https://images.tagesschau.de/image/102731c1-413a-4785-9ffe-a0a05ce07ca5/AAABjuBxISI/AAABjcWesUg/16x9-512.jpg", "date": "2024-04-15T06:44:57.000+02:00", "lat": 48.6616, "lon": 9.3677, "intensity": 0.8, "source": "Tagesschau"}, {"title": "Schulden machen oder sparen? Wie die Bremer Parteien dazu stehen", "url": "https://www.tagesschau.de/inland/regional/bremen/rb-schulden-machen-oder-sparen-wie-die-bremer-parteien-dazu-stehen-100.html", "thumbnailUrl": "https://images.tagesschau.de/image/6d6a21aa-d835-4487-a5ee-8d88691d6017/AAABjuAR1gs/AAABjcWesUg/16x9-512.jpg", "date": "2024-04-15T06:40:00.000+02:00", "lat": 53.0793, "lon": 8.8017, "intensity": 0.8, "source": "Tagesschau"}, {"title": "Das Dilemma des Ayatollah Khamenei", "url": "https://www.tagesschau.de/ausland/asien/israel-iran-khamenei-100.html", "thumbnailUrl": "https://images.tagesschau.de/image/60604b0e-9ea7-415c-b6a7-1c3c4d5174ed/AAABjZdfAJk/AAABjcWesUg/16x9-512.jpg", "date": "2024-04-15T06:38:27.495+02:00", "lat": 31.046051, "lon": 34.851612, "intensity": 0.8, "source": "Tagesschau"},