[{"title": "Motorradunf\u00e4lle in der Eifel - Mann aus NRW lebensgef\u00e4hrlich verletzt", "url": "https://www.tagesschau.de/inland/regional/rheinlandpfalz/swr-motorradunfaelle-in-der-eifel-mann-aus-nrw-lebensgefaehrlich-verletzt-100.html", "thumbnailUrl": "https://images.tagesschau.de/image/1784307d-57e2-41a9-9f1c-331d113eb8ce/AAABjycNG5A/AAABjwnlKNc/16x9-512.jpg", "date": "2024-04-29T01:24:04.000+02:00", "lat": 50.3795, "lon": 6.9447, "intensity": 0.8, "source": "Tagesschau"}, {"title": "Gefahr durch freilaufende Tiere: Hirsche in Mainhausen-Zellhausen ausgebrochen", "url": "https://www.tagesschau.de/inland/regional/hessen/hr-kreis-offenbach-meldet-gefahr-hirsche-in-mainhausen-zellhausen-ausgebrochen-100.html", "thumbnailUrl": "https://images.tagesschau.de/image/96bebd8d-6475-4c04-9182-b97f3977e253/AAABjya-YXI/AAABjwnlKNc/16x9-512.jpg", "date": "2024-04-29T00:05:59.391+02:00", "lat": 50.0132, "lon": 8.9286, "intensity": 0.7, "source": "Tagesschau"}, {"title": "Niederlage gegen Heidenheim: Darmstadt 98 steigt aus der Bundesliga ab ", "url": "https://www.tagesschau.de/inland/regional/hessen/hr-niederlage-gegen-heidenheim-darmstadt-98-steigt-aus-der-bundesliga-ab-102.html", "thumbnailUrl": "https://images.tagesschau.de/image/d182a1a8-9962-481a-a47e-7319b9d610a9/AAABjya8jDo/AAABjwnlKNc/16x9-512.jpg", "date": "2024-04-29T00:03:08.929+02:00", "lat": 49.8728, "lon": 8.6553, "intensity": 0.8, "source": "Tagesschau"}, {"title": "Darmstadt 98: +++ Fritsch: Sinnbild der Saison +++ Lieberknecht: \"Es wird dauern, das zu verarbeiten\" +++ Lilien verlieren gegen Heidenheim und steigen ab +++", "url": "https://www.tagesschau.de/inland/regional/hessen/hr--tietz-vermisst-fehlende-gier--lilien-fans-liefern-sich-raststaetten-pruegelei--die-niederlage-der-lilien-in-der-video-zusammenfassung-102.html", "thumbnailUrl": "https://images.tagesschau.de/image/01306138-8f89-4994-b751-0a311ea1f900/AAABjya48KQ/AAABjwnlKNc/16x9-512.jpg", "date": "2024-04-28T23:58:36.181+02:00", "lat": 49.8728, "lon": 8.6512, "intensity": 0.8, "source": "Tagesschau"}, {"title": "++ Biden bekr\u00e4ftigt Position gegen\u00fcber Netanyahu ++", "url": "https://www.tagesschau.de/newsticker/liveblog-nahost-sonntag-136.html", "thumbnailUrl": "https://images.tagesschau.de/image/cab9a075-26c4-4c12-aa75-f83911c81cd4/AAABjjN3eQU/AAABjwnlKNc/16x9-512.jpg", "date": "2024-04-28T22:58:47.824+02:00", "lat": 31.7683, "lon": 35.2137, "intensity": 0.7, "source": "Tagesschau"}, {"title": "2. Frauen-Bundesliga: Turbine Potsdam \u00fcbernimmt mit Sieg gegen Wolfsburg Tabellenf\u00fchrung", "url": "https://www.tagesschau.de/inland/regional/brandenburg/rbb-2-frauen-bundesliga-turbine-potsdam-uebernimmt-mit-sieg-gegen-wolfsburg-tabellenfuehrung-102.html", "thumbnailUrl": "https://images.tagesschau.de/image/01177c7b-d8f8-496a-a18b-b78170c782a5/AAABjyUbFBE/AAABjwnlKNc/16x9-512.jpg", "date": "2024-04-28T22:55:50.000+02:00", "lat": 52.4239, "lon": 13.0645, "intensity": 0.8, "source": "Tagesschau"}, {"title": "Volleyballerinnen des MTV Stuttgart erneut Deutsche Meister ", "url": "https://www.tagesschau.de/inland/regional/badenwuerttemberg/swr-volleyballerinnen-des-mtv-stuttgart-erneut-deutsche-meister-104.html", "thumbnailUrl": "https://images.tagesschau.de/image/0ee363aa-1e16-4ae4-bd60-226b8efbeb19/AAABjyZmeeM/AAABjwnlKNc/16x9-512.jpg", "date": "2024-04-28T22:46:00.000+02:00", "lat": 53.62906, "lon": 11.408057, "intensity": 0.8, "source": "Tagesschau"}, {"title": "Stimmen zum Lilien-Abstieg: \"Wir brauchen nicht besch\u00e4mt durch Darmstadt zu gehen\"\u00a0", "url": "https://www.tagesschau.de/inland/regional/hessen/hr-stimmen-zum-lilien-abstieg-wir-brauchen-nicht-beschaemt-durch-darmstadt-zu-gehen-102.html", "thumbnailUrl": "https://images.tagesschau.de/image/f44c69c1-265a-4532-9f59-51b605055776/AAABjya60Nw/AAABjwnlKNc/16x9-512.jpg", "date": "2024-04-28T22:35:47.339+02:00", "lat": 49.8667, "lon": 8.65, "intensity": 0.8, "source": "Tagesschau"}, {"title": "Darmstadt steht als erster Absteiger fest", "url": "https://www.tagesschau.de/sport/bundesliga-abstieg-darmstadt-100.html", "thumbnailUrl": "https://images.tagesschau.de/image/6a1279a8-7fbe-492a-b81f-54ad619bf3ae/AAABjyY8Jb0/AAABjwnlKNc/16x9-512.jpg", "date": "2024-04-28T21:43:47.381+02:00", "lat": 49.8728, "lon": 8.6512, "intensity": 0.8, "source": "Tagesschau"}, {"title": "80. Geburtstag von Martin Kind: Der ewig streitbare Fu\u00dfballfunktion\u00e4r", "url": "https://www.tagesschau.de/inland/regional/niedersachsen/ndr-der-ewig-streitbare-fussballfunktionaer-martin-kind-wird-80-102.html", "thumbnailUrl": "https://images.tagesschau.de/image/2a9e7a2c-403b-4a73-9284-93b0720610b8/AAABjyYmbfY/AAABjwnlKNc/16x9-512.jpg", "date": "2024-04-28T21:09:00.000+02:00", "lat": 52.3759, "lon": 9.7371, "intensity": 0.8, "source": "Tagesschau"}, {"title": "Suchaktion nach Arian stark ausgeweitet", "url": "https://www.ndr.de/nachrichten/niedersachsen/lueneburg_heide_unterelbe/Vermisster-Arian-aus-Bremervoerde-Bisher-groesste-Suchaktion-gestartet,vermisster554.html", "thumbnailUrl": "https://images.tagesschau.de/image/da7b6a3d-a045-4153-8c30-8db4f411db3d/AAABjyQumsk/AAABjwnlKNc/16x9-512.jpg", "date": "2024-04-28T20:58:30.491+02:00", "lat": 52.022, "lon": 10.543, "intensity": 0.8, "source": "Tagesschau"}, {"title": "Mann zieht bei Streit auf Fr\u00fchlingsfest eine Machete - Wie kam er bewaffnet aufs Gel\u00e4nde?", "url": "https://www.tagesschau.de/inland/regional/badenwuerttemberg/swr-mann-mit-machete-auf-stuttgarter-fruehlingsfest-festgenommen-100.html", "thumbnailUrl": "https://images.tagesschau.de/image/6d14bdac-b1b9-4b8d-a506-fbfdc3f89ced/AAABjyRtG74/AAABjwnlKNc/16x9-512.jpg", "date": "2024-04-28T20:48:00.000+02:00", "lat": 48.775845, "lon": 9.182932, "intensity": 0.7, "source": "Tagesschau"}, {"title": "Wenn Eltern ihre Kinder ins Waisenhaus geben m\u00fcssen", "url": "https://www.tagesschau.de/ausland/waisenhaus-libanon-wirtschaftskrise-100.html", "thumbnailUrl": "https://images.tagesschau.de/image/ca2d74a5-4cc5-426e-9c47-653b3555e3a2/AAABjyVyPjA/AAABjwnlKNc/16x9-512.jpg", "date": "2024-04-28T20:40:50.930+02:00", "lat": 33.8547, "lon": 35.8623, "intensity": 0.6, "source": "Tagesschau"}, {"title": "Wehen Wiesbaden trennt sich von Trainer Markus Kauczinski ", "url": "https://www.tagesschau.de/inland/regional/hessen/hr-wehen-wiesbaden-trennt-sich-von-trainer-markus-kauczinski-102.html", "thumbnailUrl": "https://images.tagesschau.de/image/98c28e1f-6519-4f62-9a40-a84224fbb0ee/AAABjyYHYKU/AAABjwnlKNc/16x9-512.jpg", "date": "2024-04-28T20:26:24.432+02:00", "lat": 50.078218, "lon": 8.247243, "intensity": 0.8, "source": "Tagesschau"}, {"title": "Sieg in Augsburg - Werder Bremen kann f\u00fcr Bundesliga planen", "url": "https://www.tagesschau.de/inland/regional/niedersachsen/ndr-sieg-in-augsburg-werder-bremen-kann-fuer-bundesliga-planen-102.html", "thumbnailUrl": "https://images.tagesschau.de/image/ed1a7081-7494-436d-894b-e983a0884a43/AAABjyBDgbE/AAABjwnlKNc/16x9-512.jpg", "date": "2024-04-28T20:12:00.000+02:00", "lat": 48.3705, "lon": 10.8978, "intensity": 0.8, "source": "Tagesschau"}, {"title": "Netanyahu f\u00fcrchtet Haftbefehl durch Strafgerichtshof", "url": "https://www.tagesschau.de/ausland/netanyahu-fuerchtet-haftbefehl-100.html", "thumbnailUrl": "https://images.tagesschau.de/image/2a17ca5e-20aa-40c6-9793-361ae5223889/AAABjwFCaEA/AAABjwnlKNc/16x9-512.jpg", "date": "2024-04-28T20:08:09.466+02:00", "lat": 31.046051, "lon": 34.851612, "intensity": 0.8, "source": "Tagesschau"}, {"title": "Analyse zu Union Berlins Punktgewinn in M\u00f6nchengladbach: Die Harmlosen", "url": "https://www.tagesschau.de/inland/regional/berlin/rbb-analyse-zu-union-berlins-punktgewinn-in-moenchengladbach-die-harmlosen-102.html", "thumbnailUrl": "https://images.tagesschau.de/image/edd0e8bd-d6a5-4351-b39d-429295b3cac8/AAABjyXmW_c/AAABjwnlKNc/16x9-512.jpg", "date": "2024-04-28T20:07:06.000+02:00", "lat": 51.1743, "lon": 6.4353, "intensity": 0.7, "source": "Tagesschau"}, {"title": "Volleyball: Stuttgart zu stark, SSC Schwerin verpasst Meistertitel", "url": "https://www.tagesschau.de/inland/regional/mecklenburgvorpommern/ndr-volleyball-stuttgart-zu-stark-ssc-schwerin-verpasst-meistertitel-100.html", "thumbnailUrl": "https://images.tagesschau.de/image/fc74ab0f-bac9-4cd3-bbd4-da9d9b025907/AAABjyWkZUA/AAABjwnlKNc/16x9-512.jpg", "date": "2024-04-28T19:52:00.000+02:00", "lat": 53.6355, "lon": 11.4142, "intensity": 0.8, "source": "Tagesschau"}, {"title": "\"M\u00fcssen von weiteren Enttarnungen ausgehen\"", "url": "https://www.tagesschau.de/inland/innenpolitik/buschmann-bericht-aus-berlin-100.html", "thumbnailUrl": "https://images.tagesschau.de/image/12db1d3c-8047-423b-963f-343e9f369e5f/AAABjyUOmFo/AAABjwnlKNc/16x9-512.jpg", "date": "2024-04-28T19:37:49.574+02:00", "lat": 52.520008, "lon": 13.404954, "intensity": 0.7, "source": "Tagesschau"}, {"title": "Von Asien loskommen lohnt sich - und dauert lange", "url": "https://www.tagesschau.de/inland/regional/thueringen/mdr-von-asien-loskommen-lohnt-sich-und-dauert-lange-100.html", "thumbnailUrl": "https://images.tagesschau.de/image/818dd654-36bc-4dcc-964d-789f19afd1c6/AAABjybJuqw/AAABjwnlKNc/16x9-512.jpg", "date": "2024-04-28T19:23:00.000+02:00", "lat": 51.0493, "lon": 11.582, "intensity": 0.7, "source": "Tagesschau"}, {"title": "Oder-Spree: 14-J\u00e4hriger attackiert mit Jugendlichen Linke-Kandidaten beim Plakatieren", "url": "https://www.tagesschau.de/inland/regional/brandenburg/rbb-oder-spree-linke-kandidaten-beim-plakatieren-fuer-die-wahl-attackiert-100.html", "thumbnailUrl": "https://images.tagesschau.de/image/f469e967-bc8d-4d30-9628-a7472da8d79f/AAABjyW2tZk/AAABjwnlKNc/16x9-512.jpg", "date": "2024-04-28T19:14:50.000+02:00", "lat": 52.181, "lon": 13.8884, "intensity": 0.7, "source": "Tagesschau"}, {"title": "19. rbb-Lauf in Potsdam: Heimsieg bei den Frauen, Berliner Triumph bei den Herren", "url": "https://www.tagesschau.de/inland/regional/brandenburg/rbb-19-rbb-lauf-in-potsdam-heimsieg-bei-den-frauen-berliner-triumph-bei-den-herren-102.html", "thumbnailUrl": "https://images.tagesschau.de/image/21b9e0d7-3bc0-4ffe-8e92-571d49589478/AAABjyWzDUA/AAABjwnlKNc/16x9-512.jpg", "date": "2024-04-28T19:09:50.000+02:00", "lat": 52.3906, "lon": 13.0645, "intensity": 0.6, "source": "Tagesschau"}, {"title": "Mit Hilfe von Oben: Traditionelle Motorradsegnung in Klausen", "url": "https://www.tagesschau.de/inland/regional/rheinlandpfalz/swr-mit-hilfe-von-oben-traditionelle-motorradsegnung-in-klausen-102.html", "thumbnailUrl": "https://images.tagesschau.de/image/30a8a179-308a-4e99-927e-1777a72d92ee/AAABjyWp5wo/AAABjwnlKNc/16x9-512.jpg", "date": "2024-04-28T19:02:03.000+02:00", "lat": 49.9346, "lon": 7.0446, "intensity": 0.7, "source": "Tagesschau"}, {"title": "Weinb\u00f6rse in Mainzer Rheingoldhalle feiert 50-j\u00e4hriges Jubil\u00e4um", "url": "https://www.tagesschau.de/inland/regional/rheinlandpfalz/swr-weinboerse-in-mainzer-rheingoldhalle-feiert-50-jaehriges-jubilaeum-102.html", "thumbnailUrl": "https://images.tagesschau.de/image/5594b5cb-68a9-469c-9ab5-8eda4a8d7121/AAABjyWe7rs/AAABjwnlKNc/16x9-512.jpg", "date": "2024-04-28T18:49:43.000+02:00", "lat": 49.992861, "lon": 8.247252, "intensity": 0.7, "source": "Tagesschau"}, {"title": "Linke will mit \"Brot- und Butter-Themen\" beim W\u00e4hler punkten", "url": "https://www.tagesschau.de/inland/regional/brandenburg/rbb-spitzenpersonal-der-linken-ringt-in-templin-um-strategie-fuer-landtagswahlen-im-osten-100.html", "thumbnailUrl": "https://images.tagesschau.de/image/0b1edf14-85eb-4060-9b6e-8c648f074312/AAABjyW2ucY/AAABjwnlKNc/16x9-512.jpg", "date": "2024-04-28T18:44:03.000+02:00", "lat": 52.5013, "lon": 13.4806, "intensity": 0.7, "source": "Tagesschau"}, {"title": "Mehrere Vertreter der Gr\u00fcnen in Sachsen angegriffen ", "url": "https://www.tagesschau.de/inland/regional/sachsen/mdr-mehrere-vertreter-der-gruenen-in-sachsen-angegriffen-100.html", "thumbnailUrl": "https://images.tagesschau.de/image/7f1f33c9-0b4b-46b9-8a32-553924691fa8/AAABjybLPSY/AAABjwnlKNc/16x9-512.jpg", "date": "2024-04-28T18:44:00.000+02:00", "lat": 52.1326, "lon": 13.4085, "intensity": 0.8, "source": "Tagesschau"}, {"title": "Wie fit m\u00fcssen Fu\u00dfballer sein? EM-Chefmediziner Meyer h\u00e4lt Kindervorlesung", "url": "https://www.tagesschau.de/inland/regional/saarland/sr-wie-fit-muessen-fussballer-sein-em-chefmediziner-meyer-haelt-kindervorlesung-100.html", "thumbnailUrl": "https://images.tagesschau.de/image/20dc5ba5-eaba-41c7-b6a7-ec5bf3568987/AAABjyWKvwg/AAABjwnlKNc/16x9-512.jpg", "date": "2024-04-28T18:27:00.000+02:00", "lat": 49.3964, "lon": 7.0231, "intensity": 0.5, "source": "Tagesschau"}, {"title": "55:64 in Keltern: Albas Basketballerinnen vergeben ersten Titel-Matchball", "url": "https://www.tagesschau.de/inland/regional/berlin/rbb-5564-in-keltern-albas-basketballerinnen-vergeben-ersten-titel-matchball-102.html", "thumbnailUrl": "https://images.tagesschau.de/image/73d2c501-2fc0-491e-ada7-58dd0a2ccd08/AAABjyWMpmY/AAABjwnlKNc/16x9-512.jpg", "date": "2024-04-28T18:26:48.000+02:00", "lat": 48.8825, "lon": 8.5398, "intensity": 0.8, "source": "Tagesschau"}, {"title": "81:90 in Braunschweig: Albas Siegesserie rei\u00dft", "url": "https://www.tagesschau.de/inland/regional/berlin/rbb-8190-in-braunschweig-albas-siegesserie-reisst-102.html", "thumbnailUrl": "https://images.tagesschau.de/image/d5c5ac56-df26-4eb6-9125-e1bdfbaa1079/AAABjyWMtgQ/AAABjwnlKNc/16x9-512.jpg", "date": "2024-04-28T18:25:25.000+02:00", "lat": 52.268874, "lon": 10.52677, "intensity": 0.7, "source": "Tagesschau"}, {"title": "Volleyball-Playoffs: BR Volleys gewinnen Finale und sind alleiniger Rekordmeister", "url": "https://www.tagesschau.de/inland/regional/berlin/rbb-volleyball-playoffs-br-volleys-gewinnen-finale-und-sind-alleiniger-rekordmeister-102.html", "thumbnailUrl": "https://images.tagesschau.de/image/de6c99b7-74be-49f0-a5bf-448473adfaf1/AAABjyWMuQc/AAABjwnlKNc/16x9-512.jpg", "date": "2024-04-28T18:18:02.000+02:00", "lat": 52.520008, "lon": 13.404954, "intensity": 0.9, "source": "Tagesschau"}, {"title": "Wetter im Norden: Fr\u00fchsommer im Anmarsch", "url": "https://www.tagesschau.de/inland/regional/hamburg/ndr-wetter-im-norden-fruehsommer-im-anmarsch-100.html", "thumbnailUrl": "https://images.tagesschau.de/image/a3010f89-bc76-4cb6-91b9-6cc4e556e918/AAABjx3193A/AAABjwnlKNc/16x9-512.jpg", "date": "2024-04-28T18:13:00.000+02:00", "lat": 53.5511, "lon": 9.9937, "intensity": 0.6, "source": "Tagesschau"}, {"title": "Kultur: +++ Aus f\u00fcr E-Kinos in Frankfurt am Sonntag +++ Candlelight-Konzerte \u2013 auch in Hessen +++ Eintrittsfreier Besuch in zahlreichen Museen am 27. April +++", "url": "https://www.tagesschau.de/inland/regional/hessen/hr--schauspiel-frankfurt-bringt-putin-und-macbeth-zusammen--die-filmfestival-saison-2023-startet--lichter-filmfest-zum-thema-liebe-startet-am-dienstag-100.html", "thumbnailUrl": "https://images.tagesschau.de/image/99ee9355-4e65-4b78-84d2-685799e02aa3/AAABjxrOeC4/AAABjwnlKNc/16x9-512.jpg", "date": "2024-04-28T18:12:54.980+02:00", "lat": 50.1109, "lon": 8.6821, "intensity": 0.6, "source": "Tagesschau"}, {"title": "Geplanter Staatsstreich: Prozessauftakt gegen \"Gruppe Reu\u00df\" in Stuttgart", "url": "https://www.tagesschau.de/inland/regional/badenwuerttemberg/swr-geplanter-staatsstreich-prozessauftakt-gegen-gruppe-reuss-in-stuttgart-100.html", "thumbnailUrl": "https://images.tagesschau.de/image/4af0a357-8ef9-4ae2-8427-8c61429da496/AAABjyV4cSc/AAABjwnlKNc/16x9-512.jpg", "date": "2024-04-28T18:05:33.000+02:00", "lat": 48.7758, "lon": 9.1829, "intensity": 0.8, "source": "Tagesschau"}, {"title": "Gestiegene Unfallzahlen: Intensive Motorradkontrollen vor Saisonstart im S\u00fcdschwarzwald", "url": "https://www.tagesschau.de/inland/regional/badenwuerttemberg/swr-gestiegene-unfallzahlen-intensive-motorradkontrollen-vor-saisonstart-im-suedschwarzwald-100.html", "thumbnailUrl": "https://images.tagesschau.de/image/37c792b7-d606-4c33-981f-0fe97d7bc529/AAABjyazaMo/AAABjwnlKNc/16x9-512.jpg", "date": "2024-04-28T18:00:10.000+02:00", "lat": 48.1223, "lon": 8.2529, "intensity": 0.8, "source": "Tagesschau"}, {"title": "Umsonst-Laden in Frankfurt: Wie die \"Teilerei\" funktioniert - und sich finanziert", "url": "https://www.tagesschau.de/inland/regional/hessen/hr-umsonst-laden-in-frankfurt-wie-die-teilerei-funktioniert-und-sich-finanziert-100.html", "thumbnailUrl": "https://images.tagesschau.de/image/06c23337-77c4-46e1-8918-b40759ad86cf/AAABjyVmKWo/AAABjwnlKNc/16x9-512.jpg", "date": "2024-04-28T17:49:51.931+02:00", "lat": 50.110922, "lon": 8.682127, "intensity": 0.7, "source": "Tagesschau"}, {"title": "Erneut russische Journalisten verhaftet", "url": "https://www.tagesschau.de/ausland/europa/russland-journalisten-verhaftet-100.html", "thumbnailUrl": "https://images.tagesschau.de/image/2c5f6094-b581-4fd1-bd6e-5ac1bd23e9a1/AAABjyU98so/AAABjwnlKNc/16x9-512.jpg", "date": "2024-04-28T17:48:19.720+02:00", "lat": 55.7558, "lon": 37.6176, "intensity": 0.8, "source": "Tagesschau"}, {"title": "Billigpreise im chinesischen Online-Shop - wegen fehlender EU-Standards?", "url": "https://www.tagesschau.de/inland/regional/badenwuerttemberg/swr-billigpreise-im-chinesischen-online-shop-wegen-fehlender-eu-standards-100.html", "thumbnailUrl": "https://images.tagesschau.de/image/535cf7e6-c987-4ae7-9945-9422f0d0fe9c/AAABjyavxDY/AAABjwnlKNc/16x9-512.jpg", "date": "2024-04-28T17:43:26.000+02:00", "lat": 48.6616, "lon": 9.9937, "intensity": 0.8, "source": "Tagesschau"}, {"title": "Zwei Verletzte nach Sch\u00fcssen in Hamburg-Jenfeld", "url": "https://www.tagesschau.de/inland/regional/hamburg/ndr-mindestens-zwei-verletzte-nach-schuessen-in-hamburg-jenfeld-100.html", "thumbnailUrl": "https://images.tagesschau.de/image/ab34aec7-1fd5-4ed8-8e63-e1c4fe801084/AAABjyVdCSM/AAABjwnlKNc/16x9-512.jpg", "date": "2024-04-28T17:37:00.000+02:00", "lat": 53.5706, "lon": 10.0678, "intensity": 0.8, "source": "Tagesschau"}, {"title": "M\u00f6gliches juristisches Nachspiel: Strafverfahren nach R\u00e4umung von Pal\u00e4stina-Protestcamp eingeleitet ", "url": "https://www.tagesschau.de/inland/regional/berlin/rbb-moegliches-juristisches-nachspiel-strafverfahren-nach-raeumung-von-palaestina-protestcamp-eingeleitet-100.html", "thumbnailUrl": "https://images.tagesschau.de/image/bcc43e52-40b4-43e1-923c-ac35489bb04a/AAABjyBJAB4/AAABjwnlKNc/16x9-512.jpg", "date": "2024-04-28T17:28:51.000+02:00", "lat": 52.5145, "lon": 13.3691, "intensity": 0.8, "source": "Tagesschau"}, {"title": "0:0 in M\u00f6nchengladbach: Union erk\u00e4mpft wichtigen Punkt im Abstiegskampf", "url": "https://www.tagesschau.de/inland/regional/berlin/rbb-jetzt-live-hoeren-und-im-ticker-holt-union-berlin-in-moenchengladbach-big-points-gegen-den-abstieg-102.html", "thumbnailUrl": "https://images.tagesschau.de/image/3ab42266-fefa-4726-9187-e9fb92c3a487/AAABjyXmX0s/AAABjwnlKNc/16x9-512.jpg", "date": "2024-04-28T17:23:26.000+02:00", "lat": 51.1808, "lon": 6.4353, "intensity": 0.6, "source": "Tagesschau"}, {"title": "Eintracht: +++ W\u00fcrdevolle Trauerfeier f\u00fcr Eintracht-Legende H\u00f6lzenbein  +++ Koch erkl\u00e4rt Ellenbogen-Szene +++ Heute Trauerfeier f\u00fcr H\u00f6lzenbein +++", "url": "https://www.tagesschau.de/inland/regional/hessen/hr--eintracht-wohl-mit-chaibi-einig--glasner-fast-nur-kolo-muani-der-tore-erzielt--bericht-eintracht-sagt-aouar-ab-100.html", "thumbnailUrl": "https://images.tagesschau.de/image/68f68c81-aedd-4436-a1e1-bad2d4ae2f0d/AAABjyVFWYs/AAABjwnlKNc/16x9-512.jpg", "date": "2024-04-28T17:13:20.730+02:00", "lat": 50.110922, "lon": 8.682127, "intensity": 0.6, "source": "Tagesschau"}, {"title": "Wetterlage und Temperaturen", "url": "https://www.tagesschau.de/wetter/europa-welt", "thumbnailUrl": "https://images.tagesschau.de/image/6e7d3b16-79c8-4308-822b-20c3035236b5/AAABjyW2Eoc/AAABjwnlKNc/16x9-512.jpg", "date": "2024-04-28T17:09:54.932+02:00", "lat": 51.1657, "lon": 10.4515, "intensity": 0.3, "source": "Tagesschau"}, {"title": "Eintracht Frankfurt verabschiedet Legende Bernd H\u00f6lzenbein", "url": "https://www.tagesschau.de/inland/regional/hessen/hr-eintracht-frankfurt-verabschiedet-legende-bernd-hoelzenbein-102.html", "thumbnailUrl": "https://images.tagesschau.de/image/ad742234-772a-4d1f-a87e-5f9e44660baa/AAABjyVBltY/AAABjwnlKNc/16x9-512.jpg", "date": "2024-04-28T17:05:05.423+02:00", "lat": 50.1109, "lon": 8.6817, "intensity": 0.7, "source": "Tagesschau"}, {"title": "E-Kinos in Frankfurt schlie\u00dfen am Sonntag", "url": "https://www.tagesschau.de/inland/regional/hessen/hr-e-kinos-in-frankfurt-schliessen-am-sonntag-100.html", "thumbnailUrl": "https://images.tagesschau.de/image/bef3887b-ab94-4db3-b355-194b34777a90/AAABjyU6OGY/AAABjwnlKNc/16x9-512.jpg", "date": "2024-04-28T17:01:34.677+02:00", "lat": 50.1155, "lon": 8.6792, "intensity": 0.8, "source": "Tagesschau"}, {"title": "Geiselnahme am Hamburger Flughafen: 35-J\u00e4hriger vor Gericht", "url": "https://www.tagesschau.de/inland/regional/hamburg/ndr-geiselnahme-am-hamburger-flughafen-35-jaehriger-vor-gericht-100.html", "thumbnailUrl": "https://images.tagesschau.de/image/423e1072-bdd8-429f-9be2-05f11994d544/AAABjyU4a-Y/AAABjwnlKNc/16x9-512.jpg", "date": "2024-04-28T16:58:00.000+02:00", "lat": 53.6309, "lon": 9.9885, "intensity": 0.8, "source": "Tagesschau"}, {"title": "VfL Osnabr\u00fcck holt einen Punkt beim 1. FC Magdeburg", "url": "https://www.tagesschau.de/inland/regional/niedersachsen/ndr-vfl-osnabrueck-holt-einen-punkt-beim-1-fc-magdeburg-102.html", "thumbnailUrl": "https://images.tagesschau.de/image/859e5d2a-f9b2-4075-b3a2-46443049fd57/AAABjyTy1dQ/AAABjwnlKNc/16x9-512.jpg", "date": "2024-04-28T16:53:00.000+02:00", "lat": 52.1205, "lon": 11.6119, "intensity": 0.7, "source": "Tagesschau"}, {"title": "A23 zwischen Tornesch und Elmshorn fr\u00fcher fertig als geplant", "url": "https://www.tagesschau.de/inland/regional/schleswigholstein/ndr-a23-am-wochenende-zwischen-tornesch-und-elmshorn-gesperrt-100.html", "thumbnailUrl": "https://images.tagesschau.de/image/6f0e8a6d-edc1-42a0-9924-bcab2a1f955d/AAABjyU6R_8/AAABjwnlKNc/16x9-512.jpg", "date": "2024-04-28T16:51:00.000+02:00", "lat": 53.7267, "lon": 9.7033, "intensity": 0.5, "source": "Tagesschau"}, {"title": "Hanseschau in Wismar verbucht Zuschauer-Plus zum Vorjahr", "url": "https://www.tagesschau.de/inland/regional/mecklenburgvorpommern/ndr-hanseschau-in-wismar-verbucht-zuschauer-plus-zum-vorjahr-100.html", "thumbnailUrl": "https://images.tagesschau.de/image/a8dd7b68-fcfd-4cd8-bc44-61726260606b/AAABjyUy3Yo/AAABjwnlKNc/16x9-512.jpg", "date": "2024-04-28T16:50:00.000+02:00", "lat": 53.8939, "lon": 11.4544, "intensity": 0.6, "source": "Tagesschau"}, {"title": "Regionalliga Nordost der Frauen: Union Berlin schl\u00e4gt Hertha BSC vor Rekordkulisse deutlich mit 5:0", "url": "https://www.tagesschau.de/inland/regional/berlin/rbb-regionalliga-nordost-der-frauen-102.html", "thumbnailUrl": "https://images.tagesschau.de/image/e1b5920c-c88c-4bbc-a203-6e1239340f4b/AAABjyXmYes/AAABjwnlKNc/16x9-512.jpg", "date": "2024-04-28T16:34:10.000+02:00", "lat": 52.52, "lon": 13.4061, "intensity": 0.9, "source": "Tagesschau"}, {"title": "Polizei warnt vor Einbruchsserie in Bernburg", "url": "https://www.tagesschau.de/inland/regional/sachsenanhalt/mdr-polizei-warnt-vor-einbruchsserie-in-bernburg-100.html", "thumbnailUrl": "https://images.tagesschau.de/image/ed1114c4-51a0-45d2-bc3e-ad2f2db04e67/AAABjybH4fU/AAABjwnlKNc/16x9-512.jpg", "date": "2024-04-28T16:26:27.000+02:00", "lat": 51.7979, "lon": 11.7321, "intensity": 0.8, "source": "Tagesschau"}, {"title": "Gef\u00e4hrdungsbewertung zu 1.-Mai-Demo: Berliner Polizei ermittelt intern wegen Verrats von Dienstgeheimnissen", "url": "https://www.tagesschau.de/inland/regional/berlin/rbb-gefaehrdungsbewertung-zu-1-mai-demo-berliner-polizei-ermittelt-intern-wegen-verrats-von-dienstgeheimnissen-100.html", "thumbnailUrl": "https://images.tagesschau.de/image/1ee57e41-880a-4333-a8d2-e13b0e958fac/AAABjyUbI1A/AAABjwnlKNc/16x9-512.jpg", "date": "2024-04-28T16:23:21.000+02:00", "lat": 52.520008, "lon": 13.404954, "intensity": 0.7, "source": "Tagesschau"}, {"title": "Falsche Polizisten erbeuten in Uelzen 26 Goldm\u00fcnzen", "url": "https://www.tagesschau.de/inland/regional/niedersachsen/ndr-falsche-polizisten-erbeuten-in-uelzen-26-goldmuenzen-100.html", "thumbnailUrl": "https://images.tagesschau.de/image/2f1ba036-6fa6-4f45-9fd6-8cd13de34c71/AAABjyUezQk/AAABjwnlKNc/16x9-512.jpg", "date": "2024-04-28T16:20:00.000+02:00", "lat": 52.9605, "lon": 10.5461, "intensity": 0.8, "source": "Tagesschau"}, {"title": "Nach Vollbremsung in Plochingen: Polizei ermittelt nun gegen Lokf\u00fchrer", "url": "https://www.tagesschau.de/inland/regional/badenwuerttemberg/swr-nach-vollbremsung-in-plochingen-polizei-ermittelt-nun-gegen-lokfuehrer-100.html", "thumbnailUrl": "https://images.tagesschau.de/image/bdf84463-c801-4045-b6af-4088bbfab4c8/AAABjyT9wm8/AAABjwnlKNc/16x9-512.jpg", "date": "2024-04-28T15:47:06.000+02:00", "lat": 48.6899, "lon": 9.3911, "intensity": 0.7, "source": "Tagesschau"}, {"title": "Lauter Knall: Versuchte Brandstiftung in Peiner Asylbewerberheim", "url": "https://www.tagesschau.de/inland/regional/niedersachsen/ndr-lauter-knall-versuchte-brandstiftung-in-peiner-asylbewerberheim-100.html", "thumbnailUrl": "https://images.tagesschau.de/image/2ce8ad0c-a268-461c-a789-9d6026d70bc5/AAABjyVDZs4/AAABjwnlKNc/16x9-512.jpg", "date": "2024-04-28T15:45:00.000+02:00", "lat": 52.3151, "lon": 10.2329, "intensity": 0.7, "source": "Tagesschau"}, {"title": "Zwei Monate nach Start: Tausende Online-Anzeigen gegen Verkehrss\u00fcnder in Frankfurt", "url": "https://www.tagesschau.de/inland/regional/hessen/hr-zwei-monate-nach-start-tausende-online-anzeigen-gegen-verkehrssuender-in-frankfurt-100.html", "thumbnailUrl": "https://images.tagesschau.de/image/f3dd85c1-b7e9-4397-a12f-315f106b68d5/AAABjyTtTFs/AAABjwnlKNc/16x9-512.jpg", "date": "2024-04-28T15:37:00.451+02:00", "lat": 50.1109, "lon": 8.6821, "intensity": 0.8, "source": "Tagesschau"}, {"title": "Container mit Lithium-Akkus brennt: Feuerwehrleute leicht verletzt", "url": "https://www.tagesschau.de/inland/regional/niedersachsen/ndr-container-mit-lithium-akkus-brennt-feuerwehrleute-leicht-verletzt-100.html", "thumbnailUrl": "https://images.tagesschau.de/image/519dea1c-c122-4251-97a7-5d5e6ee50a68/AAABjyUBikA/AAABjwnlKNc/16x9-512.jpg", "date": "2024-04-28T15:35:00.000+02:00", "lat": 53.2405, "lon": 7.4606, "intensity": 0.8, "source": "Tagesschau"}, {"title": "SVWW verliert Acht-Tore-Spektakel gegen Greuther F\u00fcrth", "url": "https://www.tagesschau.de/inland/regional/hessen/hr-svww-verliert-acht-tore-spektakel-gegen-greuther-fuerth-102.html", "thumbnailUrl": "https://images.tagesschau.de/image/20c670f6-ec0c-415a-9073-212d5ef87184/AAABjyUBeao/AAABjwnlKNc/16x9-512.jpg", "date": "2024-04-28T15:31:26.944+02:00", "lat": 50.0782, "lon": 8.2406, "intensity": 0.8, "source": "Tagesschau"}, {"title": "Hochschulen stellen KI-Ideen auf Hannover Messe vor", "url": "https://www.tagesschau.de/inland/regional/sachsenanhalt/mdr-hochschulen-stellen-ki-ideen-auf-hannover-messe-vor-100.html", "thumbnailUrl": "https://images.tagesschau.de/image/d1d706b1-dabb-4fc4-88ad-5fd353ac53bc/AAABjybHli8/AAABjwnlKNc/16x9-512.jpg", "date": "2024-04-28T15:30:38.000+02:00", "lat": 52.1205, "lon": 11.6276, "intensity": 0.8, "source": "Tagesschau"}, {"title": "Was eine Saar-Anwaltskanzlei mit dem True-Crime-Podcast \"Mordlust\" zu tun hat", "url": "https://www.tagesschau.de/inland/regional/saarland/sr-was-eine-saar-anwaltskanzlei-mit-dem-true-crime-podcast-mordlust-zu-tun-hat-100.html", "thumbnailUrl": "https://images.tagesschau.de/image/f2b76afa-fe7a-4cb6-846e-e9a72f08c855/AAABjyTpnEc/AAABjwnlKNc/16x9-512.jpg", "date": "2024-04-28T15:27:00.000+02:00", "lat": 49.25, "lon": 7.0, "intensity": 0.5, "source": "Tagesschau"}, {"title": "Regionalliga Nordost der M\u00e4nner: Greifswald bleibt durch Sieg gegen BAK an Cottbus dran, Viktoria schl\u00e4gt Hertha", "url": "https://www.tagesschau.de/inland/regional/berlin/rbb-regionalliga-nordost-der-maenner-greifswald-bleibt-durch-sieg-gegen-bak-an-cottbus-dran-viktoria-schlaegt-hertha-102.html", "thumbnailUrl": "https://images.tagesschau.de/image/38fcc1f0-4d8e-4f33-90d3-82b4908d6ec2/AAABjyTgh5M/AAABjwnlKNc/16x9-512.jpg", "date": "2024-04-28T15:21:32.000+02:00", "lat": 52.52, "lon": 13.4085, "intensity": 0.7, "source": "Tagesschau"}, {"title": "Urban Art Biennale in V\u00f6lklinger H\u00fctte gestartet", "url": "https://www.tagesschau.de/inland/regional/saarland/sr-150-werke-bei-urban-art-biennale-in-voelklinger-huette-100.html", "thumbnailUrl": "https://images.tagesschau.de/image/d3847cd9-ac35-4c80-b31e-fd7b47fae0fc/AAABjxYJOO4/AAABjwnlKNc/16x9-512.jpg", "date": "2024-04-28T15:19:00.000+02:00", "lat": 49.2353, "lon": 6.8536, "intensity": 0.7, "source": "Tagesschau"}, {"title": "Jetzt live: Die Sonntagspartien des 31. Spieltags", "url": "https://www.sportschau.de/live-und-ergebnisse/fussball/deutschland-bundesliga/ma9684938/borussia-moenchengladbach_1-fc-union-berlin/info/", "thumbnailUrl": "https://images.tagesschau.de/image/9f8165ba-ca30-4328-b2f7-799fe3637a8c/AAABiNkNSio/AAABjwnlKNc/16x9-512.jpg", "date": "2024-04-28T15:09:46.423+02:00", "lat": 51.4816, "lon": 7.227, "intensity": 0.6, "source": "Tagesschau"}, {"title": "\"Muslim Interaktiv\": Hunderte bei Demo in Hamburg", "url": "https://www.tagesschau.de/inland/regional/hamburg/ndr-muslim-interaktiv-hunderte-bei-demo-in-hamburg-100.html", "thumbnailUrl": "https://images.tagesschau.de/image/ac0513bc-1820-4ff5-b5bb-b8a84d7a4696/AAABjyPye50/AAABjwnlKNc/16x9-512.jpg", "date": "2024-04-28T15:07:00.000+02:00", "lat": 53.5511, "lon": 9.9833, "intensity": 0.7, "source": "Tagesschau"}, {"title": "M\u00e4dchen st\u00fcrzt in Zittau aus Fenster im f\u00fcnften Stock", "url": "https://www.tagesschau.de/inland/regional/sachsen/mdr-maedchen-stuerzt-in-zittau-aus-fenster-im-fuenften-stock-100.html", "thumbnailUrl": "https://images.tagesschau.de/image/785908e1-f4a4-4975-a43a-e312e8866ed7/AAABjybLeNQ/AAABjwnlKNc/16x9-512.jpg", "date": "2024-04-28T15:06:51.000+02:00", "lat": 50.8965, "lon": 14.8054, "intensity": 0.8, "source": "Tagesschau"}, {"title": "Buxtehude ist seit zehn Jahren Hansestadt", "url": "https://www.tagesschau.de/inland/regional/niedersachsen/ndr-buxtehude-ist-seit-zehn-jahren-hansestadt-100.html", "thumbnailUrl": "https://images.tagesschau.de/image/ef485906-ee4c-45f1-a740-269bd64b5686/AAABjyTOOxI/AAABjwnlKNc/16x9-512.jpg", "date": "2024-04-28T15:02:00.000+02:00", "lat": 53.4531, "lon": 9.701, "intensity": 0.3, "source": "Tagesschau"}, {"title": "Dieselskandal: US-Justiz stellt Ermittlungen gegen Mercedes-Benz ein", "url": "https://www.tagesschau.de/inland/regional/badenwuerttemberg/swr-dieselskandal-us-justiz-stellt-ermittlungen-gegen-mercedes-benz-ein-100.html", "thumbnailUrl": "https://images.tagesschau.de/image/0503d0b8-d129-4815-b154-62d22ce1ca98/AAABjyTMU4E/AAABjwnlKNc/16x9-512.jpg", "date": "2024-04-28T14:56:58.000+02:00", "lat": 48.7758, "lon": 9.6803, "intensity": 0.8, "source": "Tagesschau"}, {"title": "Schwerer Unfall zwischen Gondelsheim und Bretten", "url": "https://www.tagesschau.de/inland/regional/badenwuerttemberg/swr-schwerer-unfall-zwischen-gondelsheim-und-bretten-100.html", "thumbnailUrl": "https://images.tagesschau.de/image/4d05f814-62d4-4399-a0a2-5bb4dc2c726e/AAABjyTMhfk/AAABjwnlKNc/16x9-512.jpg", "date": "2024-04-28T14:52:00.000+02:00", "lat": 49.0395, "lon": 8.6993, "intensity": 0.8, "source": "Tagesschau"}, {"title": "Transat CIC gestartet: Herrmann mit Malizia auf dem Weg nach New York", "url": "https://www.tagesschau.de/inland/regional/hamburg/ndr-transat-cic-gestartet-herrmann-mit-malizia-auf-dem-weg-nach-new-york-102.html", "thumbnailUrl": "https://images.tagesschau.de/image/9ace7581-8426-4c3c-8965-11903f26f77a/AAABjyUTwhk/AAABjwnlKNc/16x9-512.jpg", "date": "2024-04-28T14:52:00.000+02:00", "lat": 53.5511, "lon": 9.9937, "intensity": 0.7, "source": "Tagesschau"}, {"title": "Was alles aus dem Automaten kommen kann", "url": "https://www.tagesschau.de/wirtschaft/verbraucher/automaten-berlin-100.html", "thumbnailUrl": "https://images.tagesschau.de/image/71fe30a6-077b-4230-afff-8347511d6cff/AAABjxqTpEg/AAABjwnlKNc/16x9-512.jpg", "date": "2024-04-28T14:49:36.134+02:00", "lat": 52.520008, "lon": 13.404954, "intensity": 0.5, "source": "Tagesschau"}, {"title": "Offene Strafverfahren: Hamburg hat den h\u00f6chsten Anstieg", "url": "https://www.tagesschau.de/inland/regional/hamburg/ndr-offene-strafverfahren-hamburg-hat-den-hoechsten-anstieg-100.html", "thumbnailUrl": "https://images.tagesschau.de/image/519592f7-9335-4643-a4f1-3d921cec0573/AAABjyS9tqE/AAABjwnlKNc/16x9-512.jpg", "date": "2024-04-28T14:38:00.000+02:00", "lat": 53.5511, "lon": 9.9937, "intensity": 0.7, "source": "Tagesschau"}, {"title": "80. Geburtstag: Schr\u00f6der feiert mit Kubicki, Gysi und Ramsauer nach", "url": "https://www.tagesschau.de/inland/regional/niedersachsen/ndr-80-geburtstag-schroeder-feiert-mit-kubicki-gysi-und-ramsauer-nach-100.html", "thumbnailUrl": "https://images.tagesschau.de/image/a529a9c9-d075-45c2-9775-7a8e9b7b502b/AAABjySw6Vs/AAABjwnlKNc/16x9-512.jpg", "date": "2024-04-28T14:29:00.000+02:00", "lat": 52.5174, "lon": 13.3701, "intensity": 0.5, "source": "Tagesschau"}, {"title": "HSV-Sportvorstand Boldt: \"Bin auch in Zukunft der Richtige\"", "url": "https://www.tagesschau.de/inland/regional/hamburg/ndr-hsv-sportvorstand-boldt-weiss-dass-ich-in-zukunft-der-richtige-bin-106.html", "thumbnailUrl": "https://images.tagesschau.de/image/0effe009-b475-4bc0-bf4d-3924c3315b95/AAABjyZDunM/AAABjwnlKNc/16x9-512.jpg", "date": "2024-04-28T14:21:00.000+02:00", "lat": 53.5511, "lon": 9.9937, "intensity": 0.8, "source": "Tagesschau"}, {"title": "Fliegerbombe in Laatzen entsch\u00e4rft - Sperrung aufgehoben", "url": "https://www.tagesschau.de/inland/regional/niedersachsen/ndr-weltkriegsbombe-bei-laatzen-evakuierung-in-oesselse-100.html", "thumbnailUrl": "https://images.tagesschau.de/image/49ececd4-5885-4c09-b4a8-763060eae4e5/AAABjyS2aj4/AAABjwnlKNc/16x9-512.jpg", "date": "2024-04-28T14:20:00.000+02:00", "lat": 52.3142, "lon": 9.8281, "intensity": 0.7, "source": "Tagesschau"}, {"title": "F\u00fcnf Menschen bei Zusammensto\u00df zweier Autos verletzt", "url": "https://www.tagesschau.de/inland/regional/niedersachsen/ndr-fuenf-menschen-bei-zusammenstoss-zweier-autos-verletzt-100.html", "thumbnailUrl": "https://images.tagesschau.de/image/53a614c6-5d70-4e52-811d-6f91f10de0ee/AAABjyTVjwM/AAABjwnlKNc/16x9-512.jpg", "date": "2024-04-28T14:15:00.000+02:00", "lat": 52.5264, "lon": 10.5581, "intensity": 0.8, "source": "Tagesschau"}, {"title": "Zwei Festnahmen nach \u00dcberfall auf Taxi in Ulm", "url": "https://www.tagesschau.de/inland/regional/badenwuerttemberg/swr-zwei-festnahmen-nach-ueberfall-auf-taxi-in-ulm-102.html", "thumbnailUrl": "https://images.tagesschau.de/image/8f1c0c41-0d29-4337-aa71-501b62aaa1b2/AAABjyTMbb0/AAABjwnlKNc/16x9-512.jpg", "date": "2024-04-28T13:52:50.000+02:00", "lat": 48.4011, "lon": 9.9937, "intensity": 0.8, "source": "Tagesschau"}, {"title": "18-j\u00e4hrige Motorradfahrerin bei Unfall schwer verletzt", "url": "https://www.tagesschau.de/inland/regional/niedersachsen/ndr-18-jaehrige-motorradfahrerin-bei-unfall-schwer-verletzt-100.html", "thumbnailUrl": "https://images.tagesschau.de/image/83f5a2fa-a436-430e-834e-9ddd8765739c/AAABjyS6IbQ/AAABjwnlKNc/16x9-512.jpg", "date": "2024-04-28T13:45:00.000+02:00", "lat": 52.1508, "lon": 9.958, "intensity": 0.8, "source": "Tagesschau"}, {"title": "\u00dcber 100.000 offene Verfahren bei den hessischen Staatsanwaltschaften ", "url": "https://www.tagesschau.de/inland/regional/hessen/hr-ueber-100-000-offene-verfahren-bei-den-hessischen-staatsanwaltschaften-100.html", "thumbnailUrl": "https://images.tagesschau.de/image/9cf3e94c-b2d6-4457-b823-0bf255383d10/AAABjyR70hU/AAABjwnlKNc/16x9-512.jpg", "date": "2024-04-28T13:32:35.760+02:00", "lat": 50.5866, "lon": 9.1625, "intensity": 0.7, "source": "Tagesschau"}, {"title": "\"Graue W\u00f6lfe\": CDU in BW verwehrt t\u00fcrkischen Extremisten die Mitgliedschaft", "url": "https://www.tagesschau.de/inland/regional/badenwuerttemberg/swr-diskussionen-in-cdu-und-spd-wie-umgehen-mit-tuerkischen-extremisten-100.html", "thumbnailUrl": "https://images.tagesschau.de/image/2929cac8-15e0-4636-a1ba-cee462ade6b8/AAABjyRwyQA/AAABjwnlKNc/16x9-512.jpg", "date": "2024-04-28T13:16:00.000+02:00", "lat": 48.6616, "lon": 9.6606, "intensity": 0.8, "source": "Tagesschau"}, {"title": "Einbrecherinnen erbeuten in Frankfurt \u00fcber 70.000 Euro", "url": "https://www.tagesschau.de/inland/regional/hessen/hr-einbrecherinnen-erbeuten-in-frankfurt-ueber-70-000-euro-100.html", "thumbnailUrl": "https://images.tagesschau.de/image/1c957cc9-2f18-4d46-b350-2484da677d15/AAABjyWBnCU/AAABjwnlKNc/16x9-512.jpg", "date": "2024-04-28T13:09:10.575+02:00", "lat": 50.0993, "lon": 8.6911, "intensity": 0.8, "source": "Tagesschau"}, {"title": "Unfallflucht in Berlin: Fu\u00dfg\u00e4ngerin in Charlottenburg von Auto angefahren - Verursacher flieht", "url": "https://www.tagesschau.de/inland/regional/berlin/rbb-unfallflucht-in-berlin-fussgaengerin-in-charlottenburg-von-auto-angefahren-verursacher-flieht-100.html", "thumbnailUrl": "https://images.tagesschau.de/image/378b9457-72a9-45ee-8d16-be5a0c8f9d42/AAABjySKfQ4/AAABjwnlKNc/16x9-512.jpg", "date": "2024-04-28T13:06:55.000+02:00", "lat": 52.5166, "lon": 13.3101, "intensity": 0.7, "source": "Tagesschau"}, {"title": "Norderelbbr\u00fccke: Bauarbeiten beendet - A1 in Hamburg wieder frei", "url": "https://www.tagesschau.de/inland/regional/hamburg/ndr-norderelbbruecke-100.html", "thumbnailUrl": "https://images.tagesschau.de/image/2119720b-227d-4b09-8231-ed268c71b979/AAABjyRl48k/AAABjwnlKNc/16x9-512.jpg", "date": "2024-04-28T13:06:00.000+02:00", "lat": 53.5511, "lon": 9.9869, "intensity": 0.6, "source": "Tagesschau"}, {"title": "Was geh\u00f6rt in die Toilette \u2013 und was nicht?", "url": "https://www.tagesschau.de/inland/regional/saarland/sr-was-gehoert-in-die-toilette--und-was-nicht-100.html", "thumbnailUrl": "https://images.tagesschau.de/image/f3f0958c-f02a-44d7-8d2c-0a4ce16d2ca9/AAABjyRgR_k/AAABjwnlKNc/16x9-512.jpg", "date": "2024-04-28T13:01:00.000+02:00", "lat": 49.3485, "lon": 6.9954, "intensity": 0.6, "source": "Tagesschau"}, {"title": "Transat CIC: Boris Herrmann startet in H\u00e4rtetest vor der Vend\u00e9e Globe", "url": "https://www.tagesschau.de/inland/regional/hamburg/ndr-transat-cic-boris-herrmann-startet-heute-in-haertetest-vor-der-vende-globe-102.html", "thumbnailUrl": "https://images.tagesschau.de/image/17d5145f-a957-45b8-a10a-cce51e5e175f/AAABjyRcwR8/AAABjwnlKNc/16x9-512.jpg", "date": "2024-04-28T13:00:00.000+02:00", "lat": 53.5511, "lon": 8.5477, "intensity": 0.6, "source": "Tagesschau"}, {"title": "Galeria Karstadt Kaufhof schlie\u00dft Filialen in Berlin-Lichtenberg, Spandau, Tempelhof und Potsdam", "url": "https://www.tagesschau.de/inland/regional/berlin/rbb-galeria-karstadt-kaufhof-will-16-filialen-schliessen-wohl-auch-berlin-betroffen-100.html", "thumbnailUrl": "https://images.tagesschau.de/image/cec8e902-c15b-4c4c-a6b9-333f88cf1083/AAABjyRMPX0/AAABjwnlKNc/16x9-512.jpg", "date": "2024-04-28T12:40:49.000+02:00", "lat": 52.520008, "lon": 13.404954, "intensity": 0.8, "source": "Tagesschau"}, {"title": "Kenianer Koech gewinnt Hamburg-Marathon zum zweiten Mal in Folge", "url": "https://www.tagesschau.de/inland/regional/hamburg/ndr-kenianer-koech-gewinnt-hamburg-marathon-zum-zweiten-mal-in-folge-102.html", "thumbnailUrl": "https://images.tagesschau.de/image/333a6e2a-6b16-4f13-997a-9be8cb8e6523/AAABjyQcsZQ/AAABjwnlKNc/16x9-512.jpg", "date": "2024-04-28T12:35:00.000+02:00", "lat": 53.5511, "lon": 9.9937, "intensity": 0.8, "source": "Tagesschau"}, {"title": "Ein Toter bei Sch\u00fcssen in D\u00fcsseldorf - Tatverd\u00e4chtiger festgenommen", "url": "https://www.tagesschau.de/inland/regional/nordrheinwestfalen/wdr-ein-toter-bei-schuessen-in-duesseldorf-100.html", "thumbnailUrl": "https://images.tagesschau.de/image/efef70b8-af9a-4078-b51c-2ddff7a9a08a/AAABjyWe45g/AAABjwnlKNc/16x9-512.jpg", "date": "2024-04-28T12:05:00.000+02:00", "lat": 51.2277, "lon": 6.7735, "intensity": 0.8, "source": "Tagesschau"}, {"title": "Premierenkritik | \"Le Nozze di Figaro\" an der Komischen Oper: Zu viel von allem", "url": "https://www.tagesschau.de/inland/regional/berlin/rbb-premierenkritik--le-nozze-di-figaro-an-der-komischen-oper-zu-viel-von-allem-100.html", "thumbnailUrl": "https://images.tagesschau.de/image/ae9eccfd-9f3a-494e-98c7-47ce0e0a5b19/AAABjyQtDiQ/AAABjwnlKNc/16x9-512.jpg", "date": "2024-04-28T12:04:03.000+02:00", "lat": 52.51704, "lon": 13.38987, "intensity": 0.7, "source": "Tagesschau"}, {"title": "Verbotene Symbole: Polizei kontrolliert bei Veranstaltung in L\u00fcbeck", "url": "https://www.tagesschau.de/inland/regional/schleswigholstein/ndr-verbotene-symbole-polizei-kontrolliert-bei-veranstaltung-in-luebeck-100.html", "thumbnailUrl": "https://images.tagesschau.de/image/ac794c64-ea20-4021-8cd6-13363262db68/AAABjyQ0Z80/AAABjwnlKNc/16x9-512.jpg", "date": "2024-04-28T11:53:00.000+02:00", "lat": 53.865467, "lon": 10.686559, "intensity": 0.5, "source": "Tagesschau"}, {"title": "Vermisste lag tot im Main in Frankfurt - Leiche des Ehemannes in der Schweiz entdeckt", "url": "https://www.tagesschau.de/inland/regional/hessen/hr-frau-im-main-bei-frankfurt-entdeckt-ehemann-von-wasserleiche-ebenfalls-tot-100.html", "thumbnailUrl": "https://images.tagesschau.de/image/1e5ed39d-0a71-427b-8e2b-96b80e134bd3/AAABjyQcobA/AAABjwnlKNc/16x9-512.jpg", "date": "2024-04-28T11:49:57.464+02:00", "lat": 50.107492, "lon": 8.682127, "intensity": 0.8, "source": "Tagesschau"}, {"title": "Rettungsinsel mit Livestream f\u00fcr bedrohte V\u00f6gel", "url": "https://www.tagesschau.de/inland/regional/schleswigholstein/ndr-rettungsinsel-mit-livestream-fuer-bedrohte-voegel-100.html", "thumbnailUrl": "https://images.tagesschau.de/image/979feda4-0315-4129-bca4-1e39a1ce7157/AAABjyUbOuI/AAABjwnlKNc/16x9-512.jpg", "date": "2024-04-28T11:49:00.000+02:00", "lat": 54.5519, "lon": 9.5569, "intensity": 0.7, "source": "Tagesschau"}, {"title": "Polizei ermittelt nach Leichenfund am Leipziger Hauptbahnhof", "url": "https://www.tagesschau.de/inland/regional/sachsen/mdr-polizei-ermittelt-nach-leichenfund-am-leipziger-hauptbahnhof-102.html", "thumbnailUrl": "https://images.tagesschau.de/image/dbcc503e-166d-452a-aeb2-fee6526389cf/AAABjybLZPs/AAABjwnlKNc/16x9-512.jpg", "date": "2024-04-28T11:48:33.000+02:00", "lat": 51.3402, "lon": 12.3815, "intensity": 0.8, "source": "Tagesschau"}, {"title": "ABC-Einsatz nach Einbruch in Geb\u00e4ude der Neunkircher Verkehrsbetriebe", "url": "https://www.tagesschau.de/inland/regional/saarland/sr-abc-einsatz-nach-einbruch-in-gebaeude-der-neunkircher-verkehrsbetriebe-100.html", "thumbnailUrl": "https://images.tagesschau.de/image/2adb28b3-694d-4584-a9a6-839ef1e3c0c1/AAABjyQ7qoo/AAABjwnlKNc/16x9-512.jpg", "date": "2024-04-28T11:48:00.000+02:00", "lat": 49.3443, "lon": 7.1808, "intensity": 0.7, "source": "Tagesschau"}, {"title": "Kreuzberg und Neuk\u00f6lln: Berliner Feuerwehr r\u00fcckt zu mehreren Autobr\u00e4nden aus", "url": "https://www.tagesschau.de/inland/regional/berlin/rbb-kreuzberg-und-neukoelln-berliner-feuerwehr-rueckt-zu-mehreren-autobraenden-aus-100.html", "thumbnailUrl": "https://images.tagesschau.de/image/0e6f6a04-19a4-4f9c-9ff7-29069a18ad85/AAABjyPBRMQ/AAABjwnlKNc/16x9-512.jpg", "date": "2024-04-28T11:34:13.000+02:00", "lat": 52.52, "lon": 13.4146, "intensity": 0.7, "source": "Tagesschau"}, {"title": "Eintracht Frankfurt: Niederlage bei den Bayern bleibt folgenlos", "url": "https://www.tagesschau.de/inland/regional/hessen/hr-eintracht-frankfurt-niederlage-bei-den-bayern-bleibt-folgenlos-102.html", "thumbnailUrl": "https://images.tagesschau.de/image/8c2b9580-a775-4cb8-b4c2-93f98f6e2f4a/AAABjyQOAG4/AAABjwnlKNc/16x9-512.jpg", "date": "2024-04-28T11:33:38.150+02:00", "lat": 50.1109, "lon": 11.6216, "intensity": 0.7, "source": "Tagesschau"}, {"title": "Platzmangel! Hessische Frauenh\u00e4user m\u00fcssen hunderte Schutzsuchende zur\u00fcckweisen", "url": "https://www.tagesschau.de/inland/regional/hessen/hr-platzmangel-hessische-frauenhaeuser-muessen-hunderte-schutzsuchende-zurueckweisen-100.html", "thumbnailUrl": "https://images.tagesschau.de/image/b62cd3c9-e9fd-456e-9d99-686cbccdeb17/AAABjyQIgj8/AAABjwnlKNc/16x9-512.jpg", "date": "2024-04-28T11:27:37.193+02:00", "lat": 50.8902, "lon": 9.7923, "intensity": 0.8, "source": "Tagesschau"}, {"title": "Wetteraussichten f\u00fcr Berlin und Brandenburg: Sommer, Sonne, Waldbrandgefahr", "url": "https://www.tagesschau.de/inland/regional/brandenburg/rbb-wetteraussichten-fuer-berlin-und-brandenburg-sommer-sonne-waldbrandgefahr-100.html", "thumbnailUrl": "https://images.tagesschau.de/image/fded7175-bc82-4cc6-8a1a-33ded3290791/AAABjyQIuKQ/AAABjwnlKNc/16x9-512.jpg", "date": "2024-04-28T11:24:40.000+02:00", "lat": 52.520008, "lon": 13.404954, "intensity": 0.7, "source": "Tagesschau"}, {"title": "Losheimer Stausee feiert 50-j\u00e4hriges Jubil\u00e4um", "url": "https://www.tagesschau.de/inland/regional/saarland/sr-losheimer-stausee-feiert-50-jaehriges-jubilaeum-100.html", "thumbnailUrl": "https://images.tagesschau.de/image/325f6393-9cb6-4736-baf3-b5921e7b10ef/AAABjwBORkQ/AAABjwnlKNc/16x9-512.jpg", "date": "2024-04-28T11:16:00.000+02:00", "lat": 49.579, "lon": 6.945, "intensity": 0.2, "source": "Tagesschau"}, {"title": "Kritik am Verbrenner-Aus: Warum Menschen auf Benzin- und Diesel-Pkw setzen", "url": "https://www.tagesschau.de/inland/regional/badenwuerttemberg/swr-kritik-am-verbrenner-aus-warum-menschen-auf-benzin-und-diesel-pkw-setzen-100.html", "thumbnailUrl": "https://images.tagesschau.de/image/a06ca034-0a15-4558-9fa2-0eacd952a424/AAABjyQRj4U/AAABjwnlKNc/16x9-512.jpg", "date": "2024-04-28T11:05:33.000+02:00", "lat": 48.6616, "lon": 9.4689, "intensity": 0.7, "source": "Tagesschau"}, {"title": "Mehr als 1.000 Einsatzkr\u00e4fte suchen nach Arian aus Bremerv\u00f6rde", "url": "https://www.tagesschau.de/inland/regional/bremen/rb-polizisten-suchen-in-ihrer-freizeit-nach-arian-bei-bremervoerde-100.html", "thumbnailUrl": "https://images.tagesschau.de/image/fa7c5f15-8dd9-4de3-9197-d62fa07cc4fc/AAABjyQciyQ/AAABjwnlKNc/16x9-512.jpg", "date": "2024-04-28T11:04:00.000+02:00", "lat": 53.277548, "lon": 8.805826, "intensity": 0.8, "source": "Tagesschau"}, {"title": "Aufstieg im Volkspark? St. Paulis \"perfektes Ende\" w\u00e4re der HSV-Horror", "url": "https://www.tagesschau.de/inland/regional/hamburg/ndr-aufstieg-im-volkspark-st-paulis-perfektes-ende-waere-der-hsv-horror-104.html", "thumbnailUrl": "https://images.tagesschau.de/image/9ff53568-b98b-440e-99f6-9b51665f116a/AAABjyZDwY0/AAABjwnlKNc/16x9-512.jpg", "date": "2024-04-28T11:00:00.000+02:00", "lat": 53.551086, "lon": 9.993682, "intensity": 0.9, "source": "Tagesschau"}, {"title": "Zwei Tote bei Verkehrsunfall in Kirchheimbolanden", "url": "https://www.tagesschau.de/inland/regional/rheinlandpfalz/swr-zwei-tote-bei-verkehrsunfall-in-kirchheimbolanden-102.html", "thumbnailUrl": "https://images.tagesschau.de/image/8a99ef14-2241-495e-90d8-f5a4734eef52/AAABjyPuxU8/AAABjwnlKNc/16x9-512.jpg", "date": "2024-04-28T10:52:26.000+02:00", "lat": 49.6482, "lon": 8.1292, "intensity": 0.8, "source": "Tagesschau"}, {"title": "Nach Br\u00e4nden vor Berliner Gef\u00e4ngnis: Gewerkschaften fordern mehr Schutz f\u00fcr Privatautos von JVA-Bediensteten", "url": "https://www.tagesschau.de/inland/regional/brandenburg/rbb-nach-braenden-vor-berliner-gefaengnis-gewerkschaften-fordern-mehr-schutz-fuer-privatautos-von-jva-bediensteten-100.html", "thumbnailUrl": "https://images.tagesschau.de/image/e9a1bb18-4e6f-41b9-b014-4d4836a1d7cd/AAABjyPXEIY/AAABjwnlKNc/16x9-512.jpg", "date": "2024-04-28T10:32:19.000+02:00", "lat": 52.52, "lon": 13.405, "intensity": 0.7, "source": "Tagesschau"}, {"title": "Gro\u00dfeinsatz f\u00fcr Feuerwehr: Millionenschaden nach Wohnhausbrand", "url": "https://www.tagesschau.de/inland/regional/niedersachsen/ndr-grosseinsatz-fuer-feuerwehr-millionenschaden-nach-wohnhausbrand-100.html", "thumbnailUrl": "https://images.tagesschau.de/image/04f185bb-e2e8-4bbd-9dcd-a075b091aa30/AAABjyQ2OHg/AAABjwnlKNc/16x9-512.jpg", "date": "2024-04-28T10:31:00.000+02:00", "lat": 51.9418, "lon": 10.0154, "intensity": 0.8, "source": "Tagesschau"}, {"title": "Gr\u00f6\u00dfere Nachfrage nach Deutschlandticket in Bremen und Niedersachsen", "url": "https://www.tagesschau.de/inland/regional/bremen/rb-ein-jahr-deutschlandticket-mehr-nachfrage-in-bremen-und-niedersachsen-102.html", "thumbnailUrl": "https://images.tagesschau.de/image/a3e1dbc5-9d63-43ab-95b9-14a84f76e4d2/AAABjyPVKkU/AAABjwnlKNc/16x9-512.jpg", "date": "2024-04-28T10:30:00.000+02:00", "lat": 53.0793, "lon": 8.8017, "intensity": 0.7, "source": "Tagesschau"}, {"title": "Kretinsky-Einstieg: Thyssenkrupp-Besch\u00e4ftigte k\u00fcndigen Protest an", "url": "https://www.tagesschau.de/inland/regional/nordrheinwestfalen/wdr-kretinsky-einstieg-thyssenkrupp-beschaeftigte-kuendigen-protest-an-100.html", "thumbnailUrl": "https://images.tagesschau.de/image/d4f926c6-83b0-45ab-be8b-e81cf768510e/AAABjyRKURI/AAABjwnlKNc/16x9-512.jpg", "date": "2024-04-28T10:16:00.000+02:00", "lat": 51.45564, "lon": 7.6061, "intensity": 0.8, "source": "Tagesschau"}, {"title": "Camping-Boom: Zahl der Wohnmobile in Berlin und Brandenburg rasant gestiegen", "url": "https://www.tagesschau.de/inland/regional/brandenburg/rbb-camping-boom-zahl-der-wohnmobile-in-berlin-und-brandenburg-rasant-gestiegen-100.html", "thumbnailUrl": "https://images.tagesschau.de/image/91db0fd3-4bf6-41cc-9211-857d199cb6b5/AAABjyPBWE8/AAABjwnlKNc/16x9-512.jpg", "date": "2024-04-28T10:06:25.000+02:00", "lat": 52.520008, "lon": 13.404954, "intensity": 0.7, "source": "Tagesschau"}, {"title": "Internationales Alphorntreffen am Rande des Sauerlandes", "url": "https://www.tagesschau.de/inland/regional/nordrheinwestfalen/wdr-internationales-alphorntreffen-am-rande-des-sauerlandes-100.html", "thumbnailUrl": "https://images.tagesschau.de/image/5c115f4c-ce6e-45b8-8f60-f5d6fe591625/AAABjyP2FPg/AAABjwnlKNc/16x9-512.jpg", "date": "2024-04-28T10:05:00.000+02:00", "lat": 51.4875, "lon": 8.3665, "intensity": 0.7, "source": "Tagesschau"}, {"title": "Immer mehr offene Ermittlungsverfahren im Saarland", "url": "https://www.tagesschau.de/inland/regional/saarland/sr-immer-mehr-offene-ermittlungsverfahren-im-saarland-100.html", "thumbnailUrl": "https://images.tagesschau.de/image/b40c343a-dd09-4c80-a7c1-8cddd6744448/AAABjyPTS0c/AAABjwnlKNc/16x9-512.jpg", "date": "2024-04-28T10:04:00.000+02:00", "lat": 49.3964, "lon": 6.9741, "intensity": 0.7, "source": "Tagesschau"}, {"title": "Zwei Verletzte bei Gro\u00dfbrand in fr\u00fcherer M\u00fchle in Me\u00dfkirch", "url": "https://www.tagesschau.de/inland/regional/badenwuerttemberg/swr-zwei-verletzte-bei-grossbrand-in-frueherer-muehle-in-messkirch-100.html", "thumbnailUrl": "https://images.tagesschau.de/image/114afa08-892f-47fa-8d98-2925ccde625c/AAABjyO9W28/AAABjwnlKNc/16x9-512.jpg", "date": "2024-04-28T10:01:09.000+02:00", "lat": 47.9778, "lon": 9.0347, "intensity": 0.8, "source": "Tagesschau"}, {"title": "Zeitreise: ADAC - mehr Mitglieder als die katholische Kirche", "url": "https://www.tagesschau.de/inland/regional/schleswigholstein/ndr-zeitreise-adac-mehr-mitglieder-als-die-katholische-kirche-100.html", "thumbnailUrl": "https://images.tagesschau.de/image/92cfefe3-fa2b-441d-b268-7dee01835531/AAABjyPKM8g/AAABjwnlKNc/16x9-512.jpg", "date": "2024-04-28T10:00:00.000+02:00", "lat": 54.3464, "lon": 9.6483, "intensity": 0.6, "source": "Tagesschau"}, {"title": "NRW-Trend: CDU baut Dominanz aus, AfD mit Verlusten", "url": "https://www.tagesschau.de/inland/regional/nordrheinwestfalen/wdr-nrw-trend-cdu-baut-dominanz-aus-afd-mit-verlusten-100.html", "thumbnailUrl": "https://images.tagesschau.de/image/56b2f113-2c04-4a54-8e33-ddf96a111128/AAABjyXUAlE/AAABjwnlKNc/16x9-512.jpg", "date": "2024-04-28T10:00:00.000+02:00", "lat": 51.9607, "lon": 7.6261, "intensity": 0.6, "source": "Tagesschau"}, {"title": "Schwerin: Polizei verhindert illegales Autorennen", "url": "https://www.tagesschau.de/inland/regional/mecklenburgvorpommern/ndr-schwerin-polizei-verhindert-illegales-autorennen-100.html", "thumbnailUrl": "https://images.tagesschau.de/image/1413ca67-7b33-415b-ba8c-0f8e168d8ba4/AAABjyRgXas/AAABjwnlKNc/16x9-512.jpg", "date": "2024-04-28T10:00:00.000+02:00", "lat": 53.635502, "lon": 11.409874, "intensity": 0.7, "source": "Tagesschau"}, {"title": "Tote nach Tornado in Guangzhou", "url": "https://www.tagesschau.de/ausland/china-tornado-102.html", "thumbnailUrl": "https://images.tagesschau.de/image/bb1956b3-b934-48fb-a70d-a424d6087436/AAABjyOqEpM/AAABjwnlKNc/16x9-512.jpg", "date": "2024-04-28T09:44:59.816+02:00", "lat": 23.118401, "lon": 113.261428, "intensity": 0.8, "source": "Tagesschau"}, {"title": "Polen hofft auf deutsche Kurs\u00e4nderung", "url": "https://www.tagesschau.de/ausland/europa/polen-aussenminister-taurus-100.html", "thumbnailUrl": "https://images.tagesschau.de/image/1de71be3-2a33-4378-a3c5-c70343f0054e/AAABjyOXkXU/AAABjwnlKNc/16x9-512.jpg", "date": "2024-04-28T09:33:49.384+02:00", "lat": 51.9194, "lon": 19.1451, "intensity": 0.7, "source": "Tagesschau"}, {"title": "Wetter in NRW: Am Sonntag unbest\u00e4ndig - am Mai-Feiertag bis zu 28 Grad", "url": "https://www.tagesschau.de/inland/regional/nordrheinwestfalen/wdr-wetter-in-nrw-am-wochenende-wird-es-deutlich-waermer-100.html", "thumbnailUrl": "https://images.tagesschau.de/image/49680651-f103-4ee6-bf48-798aa1dd6a0d/AAABjyUMZ7M/AAABjwnlKNc/16x9-512.jpg", "date": "2024-04-28T09:27:00.000+02:00", "lat": 51.1657, "lon": 7.6261, "intensity": 0.3, "source": "Tagesschau"}, {"title": "Feuerwehreinsatz bei Hochzeit in Bad Emstal - Partyg\u00e4ste feiern auf Parkplatz weiter", "url": "https://www.tagesschau.de/inland/regional/hessen/hr-feuerwehreinsatz-bei-hochzeit-in-bad-emstal-partygaeste-feiern-auf-parkplatz-weiter-100.html", "thumbnailUrl": "https://images.tagesschau.de/image/9182ce9a-16b5-48c1-98df-b1cc3e8ca041/AAABjyOYw2I/AAABjwnlKNc/16x9-512.jpg", "date": "2024-04-28T09:25:02.795+02:00", "lat": 51.255, "lon": 9.3225, "intensity": 0.7, "source": "Tagesschau"}, {"title": "Wohnmobil-Fans in BW vor allem am Bodensee und im Schwarzwald", "url": "https://www.tagesschau.de/inland/regional/badenwuerttemberg/swr-wohnmobil-fans-in-bw-vor-allem-am-bodensee-und-im-schwarzwald-100.html", "thumbnailUrl": "https://images.tagesschau.de/image/528a17e6-3941-427a-9cc7-a479ab0ca66d/AAABjyOgB9c/AAABjwnlKNc/16x9-512.jpg", "date": "2024-04-28T09:23:59.000+02:00", "lat": 48.7153, "lon": 9.2819, "intensity": 0.7, "source": "Tagesschau"}, {"title": "Hamburg-Marathon: Melderekord und Party-Stimmung", "url": "https://www.tagesschau.de/inland/regional/hamburg/ndr-hamburg-marathon-melderekord-und-party-stimmung-102.html", "thumbnailUrl": "https://images.tagesschau.de/image/f47d26ec-9118-481b-95b6-0f35937bb9ae/AAABjyORZ1Y/AAABjwnlKNc/16x9-512.jpg", "date": "2024-04-28T09:17:00.000+02:00", "lat": 53.5511, "lon": 9.9937, "intensity": 0.8, "source": "Tagesschau"}, {"title": "Viele Sperrungen f\u00fcr Hamburg-Marathon 2024 am Sonntag", "url": "https://www.tagesschau.de/inland/regional/hamburg/ndr-viele-sperrungen-fuer-hamburg-marathon-2024-am-sonntag-100.html", "thumbnailUrl": "https://images.tagesschau.de/image/3902c843-3b21-45dd-a479-1aab1cd53280/AAABjyRl5y8/AAABjwnlKNc/16x9-512.jpg", "date": "2024-04-28T09:03:00.000+02:00", "lat": 53.5511, "lon": 9.9937, "intensity": 0.7, "source": "Tagesschau"}, {"title": "Einsatz wohl nicht Ursache f\u00fcr den Tod eines Polizisten", "url": "https://www.tagesschau.de/inland/regional/thueringen/mdr-einsatz-zuvor-wohl-nicht-ursache-fuer-den-tod-eines-polizisten-100.html", "thumbnailUrl": "https://images.tagesschau.de/image/28236f2c-b6f1-48b0-97cb-5a3028d4ad9d/AAABjyHO9SQ/AAABjwnlKNc/16x9-512.jpg", "date": "2024-04-28T08:57:00.000+02:00", "lat": 51.361, "lon": 11.084, "intensity": 0.6, "source": "Tagesschau"}, {"title": "Zuwachs um Zehntausende F\u00e4lle: Staatsanwaltschaften verzeichnen rekordverd\u00e4chtig viele neue Verfahren", "url": "https://www.tagesschau.de/inland/regional/berlin/rbb-zuwachs-um-zehntausende-faelle-staatsanwaltschaften-verzeichnen-rekordverdaechtig-viele-neue-verfahren-100.html", "thumbnailUrl": "https://images.tagesschau.de/image/cf84393e-bb76-4f09-a3f0-919e936c493f/AAABjyN_HNk/AAABjwnlKNc/16x9-512.jpg", "date": "2024-04-28T08:49:15.000+02:00", "lat": 52.520008, "lon": 13.404954, "intensity": 0.8, "source": "Tagesschau"}, {"title": "Schule ohne Rassismus: Damit sich die Geschichte nicht wiederholt", "url": "https://www.tagesschau.de/inland/regional/rheinlandpfalz/swr-schule-ohne-rassismus-damit-sich-die-geschichte-nicht-wiederholt-100.html", "thumbnailUrl": "https://images.tagesschau.de/image/428f4f1f-62bb-4257-885d-a7d52f36d291/AAABjx1Utbc/AAABjwnlKNc/16x9-512.jpg", "date": "2024-04-28T08:46:00.000+02:00", "lat": 50.125, "lon": 7.868, "intensity": 0.7, "source": "Tagesschau"}, {"title": "Wandern im Sauerland statt Kurztrip nach London", "url": "https://www.tagesschau.de/wirtschaft/verbraucher/wandern-sport-wirtschaftsfaktor-100.html", "thumbnailUrl": "https://images.tagesschau.de/image/c3b80e3c-7204-4492-8021-1b2577dcd43b/AAABjxsAqjU/AAABjwnlKNc/16x9-512.jpg", "date": "2024-04-28T08:29:17.308+02:00", "lat": 51.1498, "lon": 8.4019, "intensity": 0.7, "source": "Tagesschau"}, {"title": "Biden mit Trump-Witzen und mahnenden Worten", "url": "https://www.tagesschau.de/ausland/amerika/biden-trump-correspondents-dinner-100.html", "thumbnailUrl": "https://images.tagesschau.de/image/13ffb5c0-c4ce-4b28-a2e1-7179a0bddcf4/AAABjyNUnZo/AAABjwnlKNc/16x9-512.jpg", "date": "2024-04-28T08:27:47.514+02:00", "lat": 38.9072, "lon": -77.0369, "intensity": 0.7, "source": "Tagesschau"}, {"title": "Das heikle Verh\u00e4ltnis zu Russland", "url": "https://www.tagesschau.de/ausland/europa/estland-sprache-russland-100.html", "thumbnailUrl": "https://images.tagesschau.de/image/8f66bf00-5ef5-4028-a190-0804ee88488c/AAABjyNWbug/AAABjwnlKNc/16x9-512.jpg", "date": "2024-04-28T08:13:38.975+02:00", "lat": 59.437, "lon": 24.7536, "intensity": 0.7, "source": "Tagesschau"}, {"title": "A270 in Bremen-Nord mehrere Tage voll gesperrt", "url": "https://www.tagesschau.de/inland/regional/bremen/rb-a270-in-bremen-nord-mehrere-tage-voll-gesperrt-100.html", "thumbnailUrl": "https://images.tagesschau.de/image/534f33dd-c2d9-4ec8-8721-eed63d2e2ff0/AAABjyNTIWs/AAABjwnlKNc/16x9-512.jpg", "date": "2024-04-28T08:02:00.000+02:00", "lat": 53.0793, "lon": 8.8017, "intensity": 0.6, "source": "Tagesschau"}, {"title": "Serie: \"Bau f\u00e4llig\" | Ehemaliges Kino L\u2018Aiglon - Der Vorhang ist noch ge\u00f6ffnet", "url": "https://www.tagesschau.de/inland/regional/berlin/rbb-serie-bau-faellig--ehemaliges-kino-laiglon-der-vorhang-ist-noch-geoeffnet-100.html", "thumbnailUrl": "https://images.tagesschau.de/image/16ddd6cf-69e7-431f-8780-bfcc54799518/AAABjyNIMh8/AAABjwnlKNc/16x9-512.jpg", "date": "2024-04-28T07:51:10.000+02:00", "lat": 52.520008, "lon": 13.404954, "intensity": 0.5, "source": "Tagesschau"}, {"title": "Darum sind Ehrenamtliche so wichtig f\u00fcr Bremen und Bremerhaven", "url": "https://www.tagesschau.de/inland/regional/bremen/rb-darum-sind-ehrenamtliche-so-wichtig-fuer-bremen-und-bremerhaven-100.html", "thumbnailUrl": "https://images.tagesschau.de/image/7d68e104-c256-4e81-b4ac-33418df8fb47/AAABjyNCrpU/AAABjwnlKNc/16x9-512.jpg", "date": "2024-04-28T07:44:00.000+02:00", "lat": 53.0793, "lon": 8.8017, "intensity": 0.7, "source": "Tagesschau"}, {"title": "Verhaltensauff\u00e4llige Jugendliche: Neue Chance f\u00fcr Systemsprenger im Odenwald", "url": "https://www.tagesschau.de/inland/regional/hessen/hr-verhaltensauffaellige-jugendliche-neue-chance-fuer-systemsprenger-im-odenwald-100.html", "thumbnailUrl": "https://images.tagesschau.de/image/80aa6955-246d-4b1a-8de5-22f4e6e909de/AAABjyM5goE/AAABjwnlKNc/16x9-512.jpg", "date": "2024-04-28T07:40:17.885+02:00", "lat": 49.6167, "lon": 8.973, "intensity": 0.5, "source": "Tagesschau"}, {"title": "Wahlplakate schm\u00fccken Stra\u00dfen in MV", "url": "https://www.tagesschau.de/inland/regional/mecklenburgvorpommern/ndr-wahlwerbung-in-mv-von-heute-an-erlaubt-100.html", "thumbnailUrl": "https://images.tagesschau.de/image/59a7b5e8-e032-4e5c-8759-874d4684c1e5/AAABjyXHOI0/AAABjwnlKNc/16x9-512.jpg", "date": "2024-04-28T07:31:00.000+02:00", "lat": 53.6127, "lon": 13.1995, "intensity": 0.5, "source": "Tagesschau"}, {"title": "Filialen von Galeria Karstadt Kaufhof in Mainz und Trier sollen schlie\u00dfen", "url": "https://www.tagesschau.de/inland/regional/rheinlandpfalz/swr-auch-karstadt-kaufhof-filialen-in-mainz-und-trier-sollen-geschlossen-werden-100.html", "thumbnailUrl": "https://images.tagesschau.de/image/71c60e91-f448-410e-bae0-a0d95b5c9834/AAABjyEHZhA/AAABjwnlKNc/16x9-512.jpg", "date": "2024-04-28T07:19:00.000+02:00", "lat": 49.9929, "lon": 8.2711, "intensity": 0.8, "source": "Tagesschau"}, {"title": "Immer mehr offene Verfahren bei Staatsanwaltschaften in MV", "url": "https://www.tagesschau.de/inland/regional/mecklenburgvorpommern/ndr-immer-mehr-offene-verfahren-bei-staatsanwaltschaften-in-mv-100.html", "thumbnailUrl": "https://images.tagesschau.de/image/519592f7-9335-4643-a4f1-3d921cec0573/AAABjyS9tqE/AAABjwnlKNc/16x9-512.jpg", "date": "2024-04-28T07:00:00.000+02:00", "lat": 53.6127, "lon": 13.5149, "intensity": 0.7, "source": "Tagesschau"}, {"title": "Volleyball-Finale: SSC Schwerin geht \"superstolz\" in Showdown gegen Stuttgart", "url": "https://www.tagesschau.de/inland/regional/mecklenburgvorpommern/ndr-volleyball-finale-ssc-schwerin-geht-superstolz-in-showdown-gegen-stuttgart-102.html", "thumbnailUrl": "https://images.tagesschau.de/image/55a3d55c-fc4b-4f75-a93e-be811e79d80e/AAABjyL-5ws/AAABjwnlKNc/16x9-512.jpg", "date": "2024-04-28T06:37:00.000+02:00", "lat": 53.6297, "lon": 11.4086, "intensity": 0.8, "source": "Tagesschau"}, {"title": "Immer mehr illegale M\u00fcllkippen rund um Bremerhaven", "url": "https://www.tagesschau.de/inland/regional/bremen/rb-immer-mehr-illegale-muellkippen-rund-um-bremerhaven-102.html", "thumbnailUrl": "https://images.tagesschau.de/image/993c5903-3251-48d3-80df-b85e94016894/AAABjyL7QRw/AAABjwnlKNc/16x9-512.jpg", "date": "2024-04-28T06:29:00.000+02:00", "lat": 53.551086, "lon": 8.801694, "intensity": 0.7, "source": "Tagesschau"}, {"title": "Einsatz gegen Raupenplage in Jessen wird fortgesetzt", "url": "https://www.tagesschau.de/inland/regional/sachsenanhalt/mdr-einsatz-gegen-raupenplage-in-jessen-wird-fortgesetzt-100.html", "thumbnailUrl": "https://images.tagesschau.de/image/c1dfdc6f-a29c-4074-aad6-391858276372/AAABjybIFRI/AAABjwnlKNc/16x9-512.jpg", "date": "2024-04-28T06:00:00.000+02:00", "lat": 51.8533, "lon": 12.9576, "intensity": 0.7, "source": "Tagesschau"}, {"title": "Streit um Windkraft-Gesetz: B\u00fcrgerbeteiligung aus Entwurf gestrichen", "url": "https://www.tagesschau.de/inland/regional/thueringen/mdr-streit-um-windkraft-gesetz-buergerbeteiligung-aus-entwurf-gestrichen-100.html", "thumbnailUrl": "https://images.tagesschau.de/image/177ba016-a59e-46b0-a78e-3e2b3d9e78f7/AAABjybJYmY/AAABjwnlKNc/16x9-512.jpg", "date": "2024-04-28T05:00:07.000+02:00", "lat": 50.9271, "lon": 11.582, "intensity": 0.8, "source": "Tagesschau"}, {"title": "Zahl unerledigter Verfahren steigt weiter", "url": "https://www.tagesschau.de/inland/gesellschaft/strafverfahren-justiz-100.html", "thumbnailUrl": "https://images.tagesschau.de/image/be6e4023-9de8-41d0-9aad-4bc25e1688c7/AAABjyJdUjw/AAABjwnlKNc/16x9-512.jpg", "date": "2024-04-28T04:02:06.683+02:00", "lat": 51.1657, "lon": 10.4515, "intensity": 0.8, "source": "Tagesschau"}, {"title": "Wann und wo die Freib\u00e4der in Rheinland-Pfalz im Mai \u00f6ffnen", "url": "https://www.tagesschau.de/inland/regional/rheinlandpfalz/swr-wann-und-wo-die-freibaeder-in-rheinland-pfalz-im-mai-oeffnen-100.html", "thumbnailUrl": "https://images.tagesschau.de/image/5a666282-a09b-47b7-b084-87fba9451464/AAABjyJ1l80/AAABjwnlKNc/16x9-512.jpg", "date": "2024-04-28T04:00:00.000+02:00", "lat": 50.443225, "lon": 7.625388, "intensity": 0.3, "source": "Tagesschau"}, {"title": "Irak stellt homosexuelle Beziehungen unter Strafe", "url": "https://www.tagesschau.de/ausland/asien/irak-haftstrafe-homosexualitaet-100.html", "thumbnailUrl": "https://images.tagesschau.de/image/8bc06c72-9977-45b6-823c-faaddc93671c/AAABjTuXRek/AAABjwnlKNc/16x9-512.jpg", "date": "2024-04-28T02:19:02.702+02:00", "lat": 33.3152, "lon": 44.3661, "intensity": 0.9, "source": "Tagesschau"}, {"title": "Buschmann bef\u00fcrchtet mehr Spionage", "url": "https://www.br.de/nachrichten/meldungen/index.html#n1", "thumbnailUrl": null, "date": "2024-04-29T03:08:34+02:00", "lat": 30.0444, "lon": 31.2357, "intensity": 0.8, "source": "Bayrischer Rundfunk"}, {"title": "Hamas-Mitarbeiter \u00e4u\u00dfert sich positiv \u00fcber Israels Verhandlungsangebot", "url": "https://www.br.de/nachrichten/meldungen/index.html#n2", "thumbnailUrl": null, "date": "2024-04-29T03:08:34+02:00", "lat": 33.5138, "lon": 36.2021, "intensity": 0.8, "source": "Bayrischer Rundfunk"}, {"title": "Nach Islamisten-Demo fordern Bundestags-Fraktionen Konsequenzen", "url": "https://www.br.de/nachrichten/meldungen/index.html#n3", "thumbnailUrl": null, "date": "2024-04-29T03:08:34+02:00", "lat": 39.9334, "lon": 32.8597, "intensity": 0.8, "source": "Bayrischer Rundfunk"}, {"title": "WHO-Mitgliedsl\u00e4nder ringen um Pandemieabkommen", "url": "https://www.br.de/nachrichten/meldungen/index.html#n4", "thumbnailUrl": null, "date": "2024-04-29T03:08:34+02:00", "lat": 52.520008, "lon": 13.404954, "intensity": 0.7, "source": "Bayrischer Rundfunk"}, {"title": "Proteste in Georgien gehen weiter", "url": "https://www.br.de/nachrichten/meldungen/index.html#n5", "thumbnailUrl": null, "date": "2024-04-29T03:08:34+02:00", "lat": 52.520008, "lon": 13.404954, "intensity": 0.6, "source": "Bayrischer Rundfunk"}, {"title": "Spaenle setzt auf Doppelstrategie gegen Antisemitismus", "url": "https://www.br.de/nachrichten/meldungen/index.html#n6", "thumbnailUrl": null, "date": "2024-04-29T03:08:34+02:00", "lat": 48.135125, "lon": 11.581981, "intensity": 0.6, "source": "Bayrischer Rundfunk"}, {"title": "Todesopfer von Murnau waren ukrainische Soldaten", "url": "https://www.br.de/nachrichten/meldungen/index.html#n7", "thumbnailUrl": null, "date": "2024-04-29T03:08:34+02:00", "lat": 50.110922, "lon": 8.682127, "intensity": 0.8, "source": "Bayrischer Rundfunk"}, {"title": "Arian bleibt auch nach gro\u00dfer Suchaktion verschwunden", "url": "https://www.br.de/nachrichten/meldungen/index.html#n8", "thumbnailUrl": null, "date": "2024-04-29T03:08:34+02:00", "lat": 47.8684, "lon": 12.6394, "intensity": 0.8, "source": "Bayrischer Rundfunk"}, {"title": "Darmstadt steht als Bundesliga-Absteiger fest", "url": "https://www.br.de/nachrichten/meldungen/index.html#n9", "thumbnailUrl": null, "date": "2024-04-29T03:08:34+02:00", "lat": 48.5844, "lon": 13.6722, "intensity": 0.8, "source": "Bayrischer Rundfunk"}, {"title": "Das Wetter in Bayern: In der Nacht teils wolkig, teils klar", "url": "https://www.br.de/nachrichten/meldungen/index.html#n10", "thumbnailUrl": null, "date": "2024-04-29T03:08:34+02:00", "lat": 53.5396, "lon": 8.5761, "intensity": 0.4, "source": "Bayrischer Rundfunk"}, {"title": "Video | Zweite Fu\u00dfball-Bundesliga: Hertha und die vielen \u00c4rgernisse gegen Hannover", "url": "https://www.rbb24.de/sport/beitrag/av7/video-fussball-zweite-bundesliga-spielbericht-hertha-bsc-hannover-96.html", "thumbnailUrl": null, "date": "Sun, 28 Apr 2024 21:59:26 +0200", "lat": 52.523496, "lon": 13.361389, "intensity": 0.6, "source": "RBB"}, {"title": "Volleyball-Playoffs: BR Volleys gewinnen Finale und sind alleiniger Rekordmeister", "url": "https://www.rbb24.de/sport/beitrag/2024/04/berlin-sport-volleyball-playoffs-finale-br-volleys-vfb-friedrichshafen-spiel-fuenf-spielbericht.html", "thumbnailUrl": null, "date": "Sun, 28 Apr 2024 21:28:28 +0200", "lat": 52.520008, "lon": 13.404954, "intensity": 0.8, "source": "RBB"}, {"title": "Analyse zu Union Berlins Punktgewinn in M\u00f6nchengladbach: Die Harmlosen", "url": "https://www.rbb24.de/sport/beitrag/2024/04/fussball-bundesliga-borussia-moenchengladbach-union-berlin-analyse.html", "thumbnailUrl": null, "date": "Sun, 28 Apr 2024 20:07:00 +0200", "lat": 51.177667, "lon": 6.435569, "intensity": 0.6, "source": "RBB"}, {"title": "Oder-Spree: 14-J\u00e4hriger attackiert mit Jugendlichen Linke-Kandidaten beim Plakatieren", "url": "https://www.rbb24.de/politik/wahl/kommunalwahlen/2024/oder-spree-schoeneiche-linke-wahlkampf-attacke.html", "thumbnailUrl": null, "date": "Sun, 28 Apr 2024 19:14:50 +0200", "lat": 52.373, "lon": 13.8841, "intensity": 0.7, "source": "RBB"}, {"title": "19. rbb-Lauf in Potsdam: Heimsieg bei den Frauen, Berliner Triumph bei den Herren", "url": "https://www.rbb24.de/sport/beitrag/2024/04/leichtathletik-rbb-lauf.html", "thumbnailUrl": null, "date": "Sun, 28 Apr 2024 19:09:50 +0200", "lat": 52.3906, "lon": 13.0645, "intensity": 0.7, "source": "RBB"}, {"title": "Linke will mit \"Brot- und Butter-Themen\" beim W\u00e4hler punkten", "url": "https://www.rbb24.de/politik/wahl/Landtagswahl/2024/die-linke-landtagswahlen-im-osten-janine-wissler-martin-schirdewan.html", "thumbnailUrl": null, "date": "Sun, 28 Apr 2024 18:44:03 +0200", "lat": 53.5511, "lon": 9.9937, "intensity": 0.4, "source": "RBB"}, {"title": "55:64 in Keltern: Albas Basketballerinnen vergeben ersten Titel-Matchball", "url": "https://www.rbb24.de/sport/beitrag/2024/04/berlin-sport-basketball-frauen-playoffs-finale-alba-keltern-spiel-vier-spielbericht.html", "thumbnailUrl": null, "date": "Sun, 28 Apr 2024 18:26:00 +0200", "lat": 48.9265, "lon": 8.5673, "intensity": 0.7, "source": "RBB"}, {"title": "81:90 in Braunschweig: Albas Siegesserie rei\u00dft", "url": "https://www.rbb24.de/sport/beitrag/2024/04/sport-basketball-bbl-braunschweig-alba-berlin-spielbericht.html", "thumbnailUrl": null, "date": "Sun, 28 Apr 2024 18:25:25 +0200", "lat": 52.2689, "lon": 10.5296, "intensity": 0.7, "source": "RBB"}, {"title": "Klausurtagung in Dresden: CDU will h\u00e4rter gegen Clankriminalit\u00e4t vorgehen", "url": "https://www.rbb24.de/politik/beitrag/2024/04/berlin-cdu-klausurtagung-dresden-clankriminalitaet.html", "thumbnailUrl": null, "date": "Sun, 28 Apr 2024 17:55:42 +0200", "lat": 51.050409, "lon": 13.737262, "intensity": 0.6, "source": "RBB"}, {"title": "M\u00f6gliches juristisches Nachspiel: Strafverfahren nach R\u00e4umung von Pal\u00e4stina-Protestcamp eingeleitet", "url": "https://www.rbb24.de/politik/beitrag/2024/04/berlin-palaestina-protestcamp-strafverfahren-eingeleitet.html", "thumbnailUrl": null, "date": "Sun, 28 Apr 2024 17:28:51 +0200", "lat": 52.5145, "lon": 13.3736, "intensity": 0.8, "source": "RBB"}, {"title": "0:0 in M\u00f6nchengladbach: Union erk\u00e4mpft wichtigen Punkt im Abstiegskampf", "url": "https://www.rbb24.de/sport/beitrag/2024/04/sport-fussball-bundesliga-union-berlin-borussia-moenchengladbach-liveticker-spielbericht.html", "thumbnailUrl": null, "date": "Sun, 28 Apr 2024 17:23:00 +0200", "lat": 51.1808, "lon": 6.435, "intensity": 0.7, "source": "RBB"}, {"title": "Landesparteitag in Berlin-Lichtenberg: Berliner Linke wirft Schwarz-Rot Klientelpolitik vor", "url": "https://www.rbb24.de/politik/beitrag/2024/04/berlin-parteitag-linke-oppositionsrolle-selbstverstaendnis.html", "thumbnailUrl": null, "date": "Sun, 28 Apr 2024 16:42:18 +0200", "lat": 52.521, "lon": 13.505, "intensity": 0.8, "source": "RBB"}, {"title": "Regionalliga Nordost der Frauen: Union Berlin schl\u00e4gt Hertha BSC vor Rekordkulisse deutlich mit 5:0", "url": "https://www.rbb24.de/sport/beitrag/2024/04/sport-fussball-frauen-regionalliga-nordost-union-berlin-hertha-bsc-derby-spielbericht.html", "thumbnailUrl": null, "date": "Sun, 28 Apr 2024 16:34:10 +0200", "lat": 52.5026, "lon": 13.4801, "intensity": 0.8, "source": "RBB"}, {"title": "Gef\u00e4hrdungsbewertung zu 1. Mai: Berliner Polizei ermittelt intern wegen Verrats von Dienstgeheimnissen", "url": "https://www.rbb24.de/panorama/beitrag/2024/04/revolutionaere-1--mai-demo-berlin-kreuzberg-neukoelln-polizei-interne-ermittlungen.html", "thumbnailUrl": null, "date": "Sun, 28 Apr 2024 16:23:00 +0200", "lat": 52.52, "lon": 13.405, "intensity": 0.7, "source": "RBB"}, {"title": "2. Frauen-Bundesliga: Turbine Potsdam \u00fcbernimmt mit Sieg gegen Wolfsburg Tabellenf\u00fchrung", "url": "https://www.rbb24.de/sport/beitrag/2024/04/brandenburg-sport-fussball-frauen-zweite-bundesliga-turbine-potsdam-vfl-wolfsburg-spielbericht.html", "thumbnailUrl": null, "date": "Sun, 28 Apr 2024 16:16:00 +0200", "lat": 52.3952, "lon": 13.0645, "intensity": 0.8, "source": "RBB"}, {"title": "Regionalliga Nordost der M\u00e4nner: Greifswald bleibt durch Sieg gegen BAK an Cottbus dran, Viktoria schl\u00e4gt Hertha", "url": "https://www.rbb24.de/sport/beitrag/2024/04/berlin-sport-fussball-regionalliga-nordost-hertha-bsc-viktoria-berliner-ak-greifswald.html", "thumbnailUrl": null, "date": "Sun, 28 Apr 2024 15:21:32 +0200", "lat": 52.1598, "lon": 13.4061, "intensity": 0.7, "source": "RBB"}, {"title": "Unfallflucht in Berlin: Fu\u00dfg\u00e4ngerin in Charlottenburg von Auto angefahren - Verursacher flieht", "url": "https://www.rbb24.de/panorama/beitrag/2024/04/unfall-berlin-kantstrasse-joachimsthaler-strasse-fussgaengerin-angefahren-unfallflucht.html", "thumbnailUrl": null, "date": "Sun, 28 Apr 2024 13:06:55 +0200", "lat": 52.5166, "lon": 13.306, "intensity": 0.8, "source": "RBB"}, {"title": "Galeria Karstadt Kaufhof schlie\u00dft Filialen in Berlin-Lichtenberg, Spandau, Tempelhof und Potsdam", "url": "https://www.rbb24.de/wirtschaft/beitrag/2024/04/berlin-galeria-kaufhof-16-filialen-schliessen.html", "thumbnailUrl": null, "date": "Sun, 28 Apr 2024 12:40:00 +0200", "lat": 52.520008, "lon": 13.404954, "intensity": 0.8, "source": "RBB"}, {"title": "Premierenkritik | \"Le Nozze di Figaro\" an der Komischen Oper: Zu viel von allem", "url": "https://www.rbb24.de/kultur/beitrag/2024/04/premierenkritik-le-nozze-di-figaro-komische-oper-berlin.html", "thumbnailUrl": null, "date": "Sun, 28 Apr 2024 12:04:03 +0200", "lat": 52.5058, "lon": 13.3394, "intensity": 0.7, "source": "RBB"}, {"title": "Kreuzberg und Neuk\u00f6lln: Berliner Feuerwehr r\u00fcckt zu mehreren Autobr\u00e4nden aus", "url": "https://www.rbb24.de/panorama/beitrag/2024/04/berlin-autobraende-friedrichshain-kreuzberg-neukoelln-columbiadamm-grossbeerenstrasse.html", "thumbnailUrl": null, "date": "Sun, 28 Apr 2024 11:34:13 +0200", "lat": 52.52, "lon": 13.4166, "intensity": 0.7, "source": "RBB"}, {"title": "Bis zu 29 Grad in den kommenden Tagen m\u00f6glich", "url": "https://www.rbb24.de/panorama/beitrag/2024/04/mai-sonnenschein-sommerliche-temperaturen-29-grad-waldbrandgefahr.html", "thumbnailUrl": null, "date": "Sun, 28 Apr 2024 11:24:00 +0200", "lat": 51.3563, "lon": 14.4008, "intensity": 0.7, "source": "RBB"}, {"title": "Nach Br\u00e4nden vor Berliner Gef\u00e4ngnis: Gewerkschaften fordern mehr Schutz f\u00fcr Privatautos von JVA-Bediensteten", "url": "https://www.rbb24.de/panorama/beitrag/2024/04/autobraende-mutmassliche-brandstiftungen-jva-heidering-ploetzensee-dpolg-bsbd.html", "thumbnailUrl": null, "date": "Sun, 28 Apr 2024 10:32:00 +0200", "lat": 52.5155, "lon": 13.4265, "intensity": 0.7, "source": "RBB"}, {"title": "Camping-Boom: Zahl der Wohnmobile in Berlin und Brandenburg rasant gestiegen", "url": "https://www.rbb24.de/wirtschaft/beitrag/2024/04/berlin-brandenburg-mehr-wohnmobile-camping-campingurlaub.html", "thumbnailUrl": null, "date": "Sun, 28 Apr 2024 10:06:00 +0200", "lat": 52.520008, "lon": 13.404954, "intensity": 0.7, "source": "RBB"}, {"title": "Perso, Flugpreise, Biodiesel: Das \u00e4ndert sich im Mai", "url": "https://www.rbb24.de/panorama/beitrag/2024/04/berlin-brandenburg-neu-im-mai-krankenhaus-atlas-perso-ticketsteuer-ki-warnhinweise-kfw-foerderung-rente.html", "thumbnailUrl": null, "date": "Sun, 28 Apr 2024 08:19:00 +0200", "lat": 52.3874, "lon": 13.0568, "intensity": 0.6, "source": "RBB"}, {"title": "Bildergalerie | Ehemaliges Kino L'Aiglon: Technik-Dinos im Vorf\u00fchrraum und bunte Ledersitze im Saal", "url": "https://www.rbb24.de/panorama/beitrag/2024/04/altes-kino-reinickendorf-bildergalerie.html", "thumbnailUrl": null, "date": "Sun, 28 Apr 2024 07:51:33 +0200", "lat": 52.5218, "lon": 13.4139, "intensity": 0.7, "source": "RBB"}, {"title": "Serie \"Bau f\u00e4llig\": Ehemaliges Kino L'Aiglon soll bald zum Leben erweckt werden", "url": "https://www.rbb24.de/panorama/beitrag/2024/04/serie-bau-faellig-kino-laiglon-berlin-geschichte-kaserne-franzos.html", "thumbnailUrl": null, "date": "Sun, 28 Apr 2024 07:51:00 +0200", "lat": 52.54386, "lon": 13.33153, "intensity": 0.8, "source": "RBB"}, {"title": "Handball: F\u00fcchse Berlin verlieren in Melsungen", "url": "https://www.rbb24.de/sport/beitrag/2024/04/handball-hbl-bundesliga-fuechse-berlin-mt-melsungen-spielbericht.html", "thumbnailUrl": null, "date": "Sat, 27 Apr 2024 22:39:40 +0200", "lat": 51.1325, "lon": 9.4102, "intensity": 0.6, "source": "RBB"}, {"title": "Video | Parteitag: Linke meldet mehr als 1.000 neue Mitglieder", "url": "https://www.rbb24.de/politik/beitrag/av7/video-berlin-parteitag-die-linke.html", "thumbnailUrl": null, "date": "Sat, 27 Apr 2024 21:33:09 +0200", "lat": 52.520008, "lon": 13.38886, "intensity": 0.6, "source": "RBB"}, {"title": "Video | Babelsberger Sehs\u00fcchte Festival wieder mit interessantem Programm", "url": "https://www.rbb24.de/panorama/beitrag/av7/video-filmfestival-sehsuechte-babelsberg.html", "thumbnailUrl": null, "date": "Sat, 27 Apr 2024 21:31:02 +0200", "lat": 52.3906, "lon": 13.0592, "intensity": 0.6, "source": "RBB"}, {"title": "Video |\u00a0Polnisch und deutsche Sch\u00fcler Schule in Gartz wiederbelebt", "url": "https://www.rbb24.de/panorama/beitrag/av7/video-brandenburg-polen-gartz.html", "thumbnailUrl": null, "date": "Sat, 27 Apr 2024 21:09:37 +0200", "lat": 53.0214, "lon": 14.2908, "intensity": 0.8, "source": "RBB"}, {"title": "Video | Feuerwehrleute in Oder-Spree trainieren f\u00fcr den Ernstfall", "url": "https://www.rbb24.de/panorama/beitrag/av7/video-brandenburg-feuerwehr-einsatz-uebung.html", "thumbnailUrl": null, "date": "Sat, 27 Apr 2024 21:02:20 +0200", "lat": 52.154, "lon": 13.884, "intensity": 0.6, "source": "RBB"}, {"title": "Rudern: Deutschland-Achter erk\u00e4mpft EM-Silber", "url": "https://www.rbb24.de/sport/beitrag/2024/04/berlin-brandenburg-rudern-deutschland-achter-europamiesterschaft-silber-szeged.html", "thumbnailUrl": null, "date": "Sat, 27 Apr 2024 17:18:00 +0200", "lat": 48.139128, "lon": 11.576124, "intensity": 0.3, "source": "RBB"}, {"title": "Berlin: Ein Verletzter nach Hochhausbrand in Marzahn", "url": "https://www.rbb24.de/panorama/beitrag/2024/04/berlin-brand-feuerwehr-hochhaus-marzahn-verletzter.html", "thumbnailUrl": null, "date": "Sat, 27 Apr 2024 17:12:11 +0200", "lat": 52.533, "lon": 13.582, "intensity": 0.8, "source": "RBB"}, {"title": "Berlin-Gropiusstadt: Frau und Elfj\u00e4hriger mit Messer bedroht und rassistisch beleidigt", "url": "https://www.rbb24.de/panorama/beitrag/2024/04/berlin-gropiusstadt-rassismus-bedrohung-polizei-staatsschutz.html", "thumbnailUrl": null, "date": "Sat, 27 Apr 2024 16:22:34 +0200", "lat": 52.419, "lon": 13.442, "intensity": 0.8, "source": "RBB"}, {"title": "Fragen und Antworten: Was beim Grillen in Berlin und Brandenburg erlaubt ist - und was nicht", "url": "https://www.rbb24.de/panorama/beitrag/2024/04/grillen-regeln-berlin-brandenburg-parks-balkon-erlaubt-verboten.html", "thumbnailUrl": null, "date": "Sat, 27 Apr 2024 15:55:27 +0200", "lat": 52.52, "lon": 13.405, "intensity": 0.7, "source": "RBB"}, {"title": "Berlin lehnt Verhandlungen mit Verdi zu besseren Arbeitsbedingungen an Kitas ab", "url": "https://www.rbb24.de/wirtschaft/beitrag/2024/04/tarifstreit-verdi-kita-beschaeftigte-berlin-lehnt-verhandlungen-ab.html", "thumbnailUrl": null, "date": "Sat, 27 Apr 2024 13:52:00 +0200", "lat": 52.520008, "lon": 13.404954, "intensity": 0.7, "source": "RBB"}, {"title": "Video | Spree-Nei\u00dfe: Kritik an Gaskraftwerkstrategie", "url": "https://www.rbb24.de/wirtschaft/beitrag/av7/video-brandenburg-spree-neisse-gaskraftwerk-strategie-leag.html", "thumbnailUrl": null, "date": "Sat, 27 Apr 2024 12:59:20 +0200", "lat": 51.7206, "lon": 14.4011, "intensity": 0.7, "source": "RBB"}, {"title": "Berlin-Kladow: Seniorin wird von BVG-Bus \u00fcberrollt und stirbt", "url": "https://www.rbb24.de/panorama/beitrag/2024/04/berlin-kladow-seniorin-stirbt-nach-busunfall-bvg.html", "thumbnailUrl": null, "date": "Sat, 27 Apr 2024 12:52:02 +0200", "lat": 52.4399, "lon": 13.1956, "intensity": 0.8, "source": "RBB"}, {"title": "Fl\u00fcchtlingsunterkunft in Berlin-Tegel: Zwei Personen erleiden Rauchgasvergiftung bei Brandl\u00f6schung", "url": "https://www.rbb24.de/panorama/beitrag/2024/04/berlin-tegel-brand-fluechtlingsunterkunft-zwei-verletzte.html", "thumbnailUrl": null, "date": "Sat, 27 Apr 2024 11:58:00 +0200", "lat": 52.588, "lon": 13.2877, "intensity": 0.6, "source": "RBB"}, {"title": "Antisemitismus: G\u00e4steb\u00fccher in KZ-Gedenkst\u00e4tte Sachsenhausen voll mit Hasskommentaren", "url": "https://www.rbb24.de/politik/beitrag/2024/04/kz-gedenkstaette-sachsenhausen-oranienburg-hass-antisemitismus.html", "thumbnailUrl": null, "date": "Sat, 27 Apr 2024 10:45:00 +0200", "lat": 52.7653, "lon": 13.2561, "intensity": 0.8, "source": "RBB"}, {"title": "Volksfest: Baumbl\u00fctenfest in Werder hat begonnen", "url": "https://www.rbb24.de/panorama/beitrag/2024/04/baumbluetenfest-werder-brandenburg.html", "thumbnailUrl": null, "date": "Sat, 27 Apr 2024 09:36:00 +0200", "lat": 52.394, "lon": 12.9249, "intensity": 0.7, "source": "RBB"}, {"title": "Regionalliga Nordost: BFC Dynamo verliert in Rostock und den Anschluss an die Tabellenspitze", "url": "https://www.rbb24.de/sport/beitrag/2024/04/fussball-regionalliga-nordost-rostock-bfc-dynamo-altglienicke-eilenburg-chemie-leipzig-babelsberg.html", "thumbnailUrl": null, "date": "Fri, 26 Apr 2024 22:21:24 +0200", "lat": 54.0834, "lon": 12.0991, "intensity": 0.7, "source": "RBB"}, {"title": "Video | \"Kenia\"-Bilanz: Was hat Koalition ein halbes Jahr vor der Wahl nicht geschafft?", "url": "https://www.rbb24.de/panorama/beitrag/av7/video-was-hat-koalition-ein-halbes-jahr-vor-der-wahl-alles-nicht.html", "thumbnailUrl": null, "date": "Fri, 26 Apr 2024 21:22:59 +0200", "lat": 0.0236, "lon": 37.9062, "intensity": 0.5, "source": "RBB"}, {"title": "Video | 850-Jahr-Feier J\u00fcterbog: Streit zwischen Kirche und B\u00fcrgermeister eskaliert", "url": "https://www.rbb24.de/panorama/beitrag/av7/video-streit-kirche-und-buergermeister-von-jueterbog.html", "thumbnailUrl": null, "date": "Fri, 26 Apr 2024 21:06:09 +0200", "lat": 52.0047, "lon": 13.2411, "intensity": 0.7, "source": "RBB"}, {"title": "Zweiter Sieg gegen Keltern: Albas Basketballerinnen stehen kurz vor dem ersten Titelgewinn", "url": "https://www.rbb24.de/sport/beitrag/2024/04/basketball-frauen-bundesliga-finale-alba-berlin-keltern-spiel-drei.html", "thumbnailUrl": null, "date": "Fri, 26 Apr 2024 21:03:00 +0200", "lat": 52.5622, "lon": 12.6561, "intensity": 0.8, "source": "RBB"}, {"title": "Berliner Sommerb\u00e4der starten in Saison - Ausweispflicht gilt weiterhin", "url": "https://www.rbb24.de/wirtschaft/beitrag/2024/04/berlin-sommerbaeder-saison-start-schwimmen-olympiastadion-kreuzberg.html", "thumbnailUrl": null, "date": "Fri, 26 Apr 2024 17:12:00 +0200", "lat": 52.52, "lon": 13.405, "intensity": 0.6, "source": "RBB"}, {"title": "Video | Rathenow und Wittenberge k\u00e4mpfen gegen sterbende Innenst\u00e4dte", "url": "https://www.rbb24.de/panorama/beitrag/av7/video-brandenburg-rathenow-innenstadt.html", "thumbnailUrl": null, "date": "Thu, 25 Apr 2024 22:28:46 +0200", "lat": 52.6023, "lon": 12.3167, "intensity": 0.7, "source": "RBB"}, {"title": "Wo gefeiert wird, wo demonstriert wird - und wo es leiser wird als sonst", "url": "https://www.rbb24.de/panorama/beitrag/2024/04/walpurgisnacht-1-mai-2024-berlin-brandenburg-proteste-strassenfeste.html", "thumbnailUrl": null, "date": "Thu, 25 Apr 2024 15:18:53 +0200", "lat": 52.52, "lon": 13.3986, "intensity": 0.8, "source": "RBB"}, {"title": "Geiselnahme am Hamburger Flughafen: 35-J\u00e4hriger vor Gericht", "url": "https://www.ndr.de/nachrichten/hamburg/Geiselnahme-am-Hamburger-Flughafen-35-Jaehriger-vor-Gericht,flughafen3080.html", "thumbnailUrl": "https://www.ndr.de/nachrichten/hamburg/flughafen2948_v-contentwidescreen.jpg", "date": "2024-04-29T00:00:03.824+02:00", "lat": 53.630389, "lon": 9.988609, "intensity": 0.8, "source": "NDR"}, {"title": "Vermisster Arian aus Bremerv\u00f6rde: Auch gr\u00f6\u00dfte Suche bislang erfolglos", "url": "https://www.ndr.de/nachrichten/niedersachsen/lueneburg_heide_unterelbe/Vermisster-Arian-aus-Bremervoerde-Auch-groesste-Suche-bislang-erfolglos,vermisster554.html", "thumbnailUrl": "https://www.ndr.de/nachrichten/niedersachsen/oldenburg_ostfriesland/vermisster718_v-contentwidescreen.jpg", "date": "2024-04-28T21:44:21.685+02:00", "lat": 53.4861, "lon": 9.1336, "intensity": 0.8, "source": "NDR"}, {"title": "Zwei Verletzte nach Sch\u00fcssen in Hamburg-Jenfeld", "url": "https://www.ndr.de/nachrichten/hamburg/Zwei-Verletzte-nach-Schuessen-in-Hamburg-Jenfeld,jenfeld712.html", "thumbnailUrl": "https://www.ndr.de/nachrichten/hamburg/screenshot1740070_v-contentwidescreen.jpg", "date": "2024-04-28T20:29:58.114+02:00", "lat": 53.5723, "lon": 10.1211, "intensity": 0.8, "source": "NDR"}, {"title": "Volleyball: Stuttgart zu stark, SSC Schwerin verpasst Meistertitel", "url": "https://www.ndr.de/sport/mehr_sport/Volleyball-Stuttgart-zu-stark-SSC-Schwerin-verpasst-Meistertitel,ssc1450.html", "thumbnailUrl": "https://www.ndr.de/sport/fussball/schwerin960_v-contentwidescreen.jpg", "date": "2024-04-28T21:29:28.201+02:00", "lat": 48.7758, "lon": 9.2323, "intensity": 0.8, "source": "NDR"}, {"title": "\"Muslim Interaktiv\": Hunderte bei Demo in Hamburg", "url": "https://www.ndr.de/nachrichten/hamburg/Muslim-Interaktiv-Hunderte-bei-Demo-in-Hamburg,musliminteraktiv102.html", "thumbnailUrl": "https://www.ndr.de/nachrichten/hamburg/steindamm126_v-contentwidescreen.jpg", "date": "2024-04-28T16:01:07.447+02:00", "lat": 53.5534, "lon": 10.0065, "intensity": 0.8, "source": "NDR"}, {"title": "A23 zwischen Tornesch und Elmshorn fr\u00fcher fertig als geplant", "url": "https://www.ndr.de/nachrichten/schleswig-holstein/A23-zwischen-Tornesch-und-Elmshorn-bis-Montag-gesperrt,sperrung778.html", "thumbnailUrl": "https://www.ndr.de/nachrichten/schleswig-holstein/baustelle1142_v-contentwidescreen.jpg", "date": "2024-04-28T17:00:46.580+02:00", "lat": 53.7397, "lon": 9.6879, "intensity": 0.6, "source": "NDR"}, {"title": "Wohnmobil-Boom: Vor allem Norddeutschland ist Camper-Land", "url": "https://www.ndr.de/nachrichten/niedersachsen/Wohnmobil-Boom-Vor-allem-Norddeutschland-ist-Camper-Land,wohnmobile128.html", "thumbnailUrl": "https://www.ndr.de/nachrichten/niedersachsen/wohnmobil320_v-contentwidescreen.jpg", "date": "2024-04-28T13:36:31.097+02:00", "lat": 54.7937, "lon": 9.4513, "intensity": 0.7, "source": "NDR"}, {"title": "Nach Zugunfall in Hamburg: S-Bahnen halten wieder am Hauptbahnhof", "url": "https://www.ndr.de/nachrichten/hamburg/Nach-Zugunfall-in-Hamburg-S-Bahnen-halten-wieder-am-Hauptbahnhof,hauptbahnhof702.html", "thumbnailUrl": "https://www.ndr.de/nachrichten/info/hauptbahnhof700_v-contentwidescreen.jpg", "date": "2024-04-28T14:50:03.358+02:00", "lat": 53.552, "lon": 9.984, "intensity": 0.7, "source": "NDR"}, {"title": "Falsche Polizisten erbeuten in Uelzen 26 Goldm\u00fcnzen", "url": "https://www.ndr.de/nachrichten/niedersachsen/lueneburg_heide_unterelbe/Falsche-Polizisten-erbeuten-in-Uelzen-26-Goldmuenzen,aktuelllueneburg10476.html", "thumbnailUrl": "https://www.ndr.de/nachrichten/niedersachsen/senioren580_v-contentwidescreen.jpg", "date": "2024-04-28T16:37:53.356+02:00", "lat": 52.9707, "lon": 10.5553, "intensity": 0.6, "source": "NDR"}, {"title": "Schwerin: Polizei verhindert illegales Autorennen", "url": "https://www.ndr.de/nachrichten/mecklenburg-vorpommern/Schwerin-Polizei-verhindert-illegales-Autorennen,kurzmeldungmv15124.html", "thumbnailUrl": "https://www.ndr.de/nachrichten/schleswig-holstein/tesla184_v-contentwidescreen.jpg", "date": "2024-04-28T14:35:41.227+02:00", "lat": 53.635, "lon": 11.412, "intensity": 0.7, "source": "NDR"}, {"title": "80. Geburtstag: Schr\u00f6der feiert mit Kubicki, Gysi und Ramsauer nach", "url": "https://www.ndr.de/nachrichten/niedersachsen/hannover_weser-leinegebiet/80-Geburtstag-Schroeder-feiert-mit-Kubicki-Gysi-und-Ramsauer-nach,schroeder2252.html", "thumbnailUrl": "https://www.ndr.de/nachrichten/niedersachsen/hannover_weser-leinegebiet/schroeder1874_v-contentwidescreen.jpg", "date": "2024-04-28T14:35:22.339+02:00", "lat": 52.52, "lon": 13.403, "intensity": 0.6, "source": "NDR"}, {"title": "Wetter im Norden: Fr\u00fchsommer im Anmarsch", "url": "https://www.ndr.de/nachrichten/info/Wetter-im-Norden-Fruehsommer-im-Anmarsch,maiwetter126.html", "thumbnailUrl": "https://www.ndr.de/nachrichten/schleswig-holstein/strandkorb758_v-contentwidescreen.jpg", "date": "2024-04-28T18:13:19.601+02:00", "lat": 54.4085, "lon": 9.6961, "intensity": 0.3, "source": "NDR"}, {"title": "Norderelbbr\u00fccke: Bauarbeiten beendet - A1 in Hamburg wieder frei", "url": "https://www.ndr.de/nachrichten/hamburg/Norderelbbruecke-Bauarbeiten-beendet-A1-in-Hamburg-wieder-frei,autobahn3560.html", "thumbnailUrl": "https://www.ndr.de/nachrichten/hamburg/autobahn3558_v-contentwidescreen.jpg", "date": "2024-04-28T13:10:28.794+02:00", "lat": 53.551086, "lon": 10.028009, "intensity": 0.7, "source": "NDR"}, {"title": "SPD-Europawahlkampfauftakt in Kiel mit Delara Burkhardt", "url": "https://www.ndr.de/fernsehen/sendungen/schleswig-holstein_magazin/SPD-Europawahlkampfauftakt-in-Kiel-mit-Delara-Burkhardt,shmag115996.html", "thumbnailUrl": "https://www.ndr.de/fernsehen/sendungen/schleswig-holstein_magazin/screenshot1740086_v-contentwidescreen.jpg", "date": "2024-04-28T18:41:26.434+02:00", "lat": 54.3233, "lon": 10.1349, "intensity": 0.4, "source": "NDR"}, {"title": "Aids-Hilfe Hannover feiert 40-j\u00e4hriges Gr\u00fcndungsjubil\u00e4um", "url": "https://www.ndr.de/fernsehen/sendungen/hallo_niedersachsen/Aids-Hilfe-Hannover-feiert-40-jaehriges-Gruendungsjubilaeum,hallonds87212.html", "thumbnailUrl": "https://www.ndr.de/fernsehen/screenshot1740346_v-contentwidescreen.jpg", "date": "2024-04-28T21:09:24.282+02:00", "lat": 52.3759, "lon": 9.7435, "intensity": 0.6, "source": "NDR"}, {"title": "Caspar-David-Friedrich-Ausstellung in Greifswald er\u00f6ffnet", "url": "https://www.ndr.de/fernsehen/sendungen/nordmagazin/Caspar-David-Friedrich-Ausstellung-in-Greifswald-eroeffnet,nordmagazin117684.html", "thumbnailUrl": "https://www.ndr.de/fernsehen/screenshot1740264_v-contentwidescreen.jpg", "date": "2024-04-28T20:44:21.310+02:00", "lat": 54.0952, "lon": 13.3936, "intensity": 0.8, "source": "NDR"}, {"title": "Rettungsinseln f\u00fcr Flussseeschwalben am Hemmelsdorfer See", "url": "https://www.ndr.de/fernsehen/sendungen/schleswig-holstein_magazin/Rettungsinseln-fuer-Flussseeschwalben-am-Hemmelsdorfer-See-,shmag115958.html", "thumbnailUrl": "https://www.ndr.de/fernsehen/screenshot1740168_v-contentwidescreen.jpg", "date": "2024-04-28T19:55:45.380+02:00", "lat": 53.9842, "lon": 10.7161, "intensity": 0.3, "source": "NDR"}, {"title": "1.200 Helfende suchen nach vermisstem Arian", "url": "https://www.ndr.de/fernsehen/sendungen/hallo_niedersachsen/1200-Helfende-suchen-nach-vermisstem-Arian,hallonds87204.html", "thumbnailUrl": "https://www.ndr.de/fernsehen/screenshot1740294_v-contentwidescreen.jpg", "date": "2024-04-28T21:07:35.412+02:00", "lat": 51.8261, "lon": 6.1933, "intensity": 0.8, "source": "NDR"}, {"title": "Zwei Schwerverletzte bei Schie\u00dferei in Jenfeld", "url": "https://www.ndr.de/fernsehen/sendungen/hamburg_journal/Zwei-Schwerverletzte-bei-Schiesserei-in-Jenfeld,hamj146586.html", "thumbnailUrl": "https://www.ndr.de/fernsehen/screenshot1740178_v-contentwidescreen.jpg", "date": "2024-04-28T20:29:55.340+02:00", "lat": 53.581, "lon": 10.1089, "intensity": 0.8, "source": "NDR"}, {"title": "Gaspreis Dashboard", "url": "https://www.ndr.de/home/gaspreis176.html", "thumbnailUrl": null, "date": "2023-04-06T14:49:06.409+02:00", "lat": 51.3426, "lon": 9.9976, "intensity": 0.7, "source": "NDR"}, {"title": "NDR Radioprogramme", "url": "https://www.ndr.de/radio/radiologobox100.html", "thumbnailUrl": null, "date": "2020-12-01T14:04:26.700+01:00", "lat": 53.5511, "lon": 9.9937, "intensity": 0.3, "source": "NDR"}, {"title": "Raus aus der Depression", "url": "https://www.ndr.de/nachrichten/info/podcast5110.html", "thumbnailUrl": "https://www.ndr.de/mediathek/podcast5112_v-contentwidescreen.jpg", "date": "2024-04-25T11:31:12.507+02:00", "lat": 53.5511, "lon": 9.9937, "intensity": 0.8, "source": "NDR"}, {"title": "Streitkr\u00e4fte und Strategien", "url": "https://www.ndr.de/nachrichten/info/podcast2998.html", "thumbnailUrl": "https://www.ndr.de/mediathek/mediathekbild652_v-contentwidescreen.jpg", "date": "2024-04-26T15:15:09.566+02:00", "lat": 53.5511, "lon": 9.9937, "intensity": 0.8, "source": "NDR"}, {"title": "Podcast: \"Gerichtssaal 237. True Crime aus dem Strafgericht\"", "url": "https://www.ndr.de/podcast/Podcast-Gerichtssaal-237-True-Crime-aus-dem-Strafgericht,gerichtssaalzweidreisieben104.html", "thumbnailUrl": "https://www.ndr.de/podcast/gerichtssaalzweidreisieben100_v-contentwidescreen.jpg", "date": "2024-04-24T18:38:08.865+02:00", "lat": 53.550341, "lon": 10.000348, "intensity": 0.3, "source": "NDR"}, {"title": "Krieg und Terror - Die Lage im Nahen Osten und in der Ukraine", "url": "https://www.ndr.de/nachrichten/info/podcast5342.html", "thumbnailUrl": "https://www.ndr.de/nachrichten/info/podcastbild412_v-contentwidescreen.jpg", "date": "2024-04-28T18:28:25.458+02:00", "lat": 46.79651, "lon": 30.739834, "intensity": 0.8, "source": "NDR"}, {"title": "Unsere Comedy \"Die Kur-Oase\"!", "url": "https://www.ndr.de/ndr2/podcasts/podcast5816.html", "thumbnailUrl": "https://www.ndr.de/ndr2/podcasts/podcast5812_v-contentwidescreen.jpg", "date": "2024-04-26T07:15:06.927+02:00", "lat": 54.9069, "lon": 8.7386, "intensity": 0.2, "source": "NDR"}, {"title": "Standpunkte", "url": "https://www.ndr.de/nachrichten/info/podcast4700.html", "thumbnailUrl": "https://www.ndr.de/mediathek/podcast5332_v-contentwidescreen.jpg", "date": "2024-04-29T00:06:00.390+02:00", "lat": 53.5511, "lon": 9.9937, "intensity": 0.5, "source": "NDR"}, {"title": "eat.READ.sleep. B\u00fccher f\u00fcr dich", "url": "https://www.ndr.de/kultur/sendungen/eat_read_sleep/index.html", "thumbnailUrl": "https://www.ndr.de/mediathek/podcastbild434_v-contentwidescreen.jpg", "date": "2024-04-26T06:00:24.550+02:00", "lat": 53.5511, "lon": 9.9937, "intensity": 0.2, "source": "NDR"}, {"title": "Die Ern\u00e4hrungs-Docs - Essen als Medizin", "url": "https://www.ndr.de/fernsehen/sendungen/die-ernaehrungsdocs/audio-podcast/index.html", "thumbnailUrl": "https://www.ndr.de/fernsehen/sendungen/die-ernaehrungsdocs/podcastbild338_v-contentwidescreen.jpg", "date": "2024-04-24T08:00:10.758+02:00", "lat": 53.5511, "lon": 9.9876, "intensity": 0.3, "source": "NDR"}, {"title": "Mein Einsatz - der Feuerwehr-Podcast von NDR Niedersachsen", "url": "https://www.ndr.de/ndr1niedersachsen/podcast5774.html", "thumbnailUrl": "https://www.ndr.de/ndr1niedersachsen/podcasts/podcastbild364_v-contentwidescreen.jpg", "date": "2024-04-25T04:00:08.575+02:00", "lat": 52.3759, "lon": 9.7345, "intensity": 0.7, "source": "NDR"}, {"title": "\"Feel Hamburg\" - alle Folgen", "url": "https://www.ndr.de/903/podcasts/podcast5108.html", "thumbnailUrl": "https://www.ndr.de/mediathek/mediathekbild514_v-contentwidescreen.jpg", "date": "2024-04-23T16:10:34.282+02:00", "lat": 53.55, "lon": 10.0, "intensity": 0.4, "source": "NDR"}, {"title": "Intensiv-Station - Satire von NDR Info", "url": "https://www.ndr.de/nachrichten/info/podcast4274.html", "thumbnailUrl": "https://www.ndr.de/nachrichten/info/programm/intensivstation3272_v-contentwidescreen.jpg", "date": "2024-04-22T19:03:40.804+02:00", "lat": 54.3706, "lon": 10.5038, "intensity": 0.8, "source": "NDR"}, {"title": "Amerika, wir m\u00fcssen reden!", "url": "https://www.ndr.de/nachrichten/info/podcast4932.html", "thumbnailUrl": "https://www.ndr.de/nachrichten/info/podcastbild488_v-contentwidescreen.jpg", "date": "2024-04-15T18:53:54.188+02:00", "lat": 39.78373, "lon": -100.445882, "intensity": 0.7, "source": "NDR"}, {"title": "NRW-Trend: CDU baut Dominanz aus, AfD mit Verlusten", "url": "https://www1.wdr.de/nachrichten/landespolitik/nrw-trend-april-2024-100.html", "thumbnailUrl": null, "date": "2024-04-28T17:46:57Z", "lat": 51.4818, "lon": 7.6261, "intensity": 0.7, "source": "WDR"}, {"title": "Fu\u00dfball-EM: Wie Fans noch an Tickets f\u00fcr die Euro 2024 kommen", "url": "https://www1.wdr.de/nachrichten/fussball-em-tickets-kaufen-100.html", "thumbnailUrl": null, "date": "2024-04-28T15:41:17Z", "lat": 51.5413, "lon": 9.9937, "intensity": 0.7, "source": "WDR"}, {"title": "Taschenuhr von \"Titanic\"-Passagier f\u00fcr Rekordsumme versteigert", "url": "https://www1.wdr.de/nachrichten/titanic-uhr-versteigerung-fundstuecke-100.html", "thumbnailUrl": null, "date": "2024-04-28T15:19:35Z", "lat": 51.5074, "lon": 0.1276, "intensity": 0.8, "source": "WDR"}, {"title": "Ein Toter bei Sch\u00fcssen in D\u00fcsseldorf - Tatverd\u00e4chtiger festgenommen", "url": "https://www1.wdr.de/nachrichten/rheinland/toter-schuesse-duesseldorf-100.html", "thumbnailUrl": null, "date": "2024-04-28T16:49:50Z", "lat": 51.2277, "lon": 6.7735, "intensity": 0.8, "source": "WDR"}, {"title": "Arian weiterhin vermisst: Bisher gr\u00f6\u00dfte Suchaktion erfolglos", "url": "https://www1.wdr.de/nachrichten/suche-vermisster-arian-100.html", "thumbnailUrl": null, "date": "2024-04-28T21:56:36Z", "lat": 53.486026, "lon": 9.127487, "intensity": 0.8, "source": "WDR"}, {"title": "Teneriffa, & Co.: Wie der Massentourismus den Einwohnern schadet", "url": "https://www1.wdr.de/nachrichten/kanaren-massentourismus-nah-dran-100.html", "thumbnailUrl": null, "date": "2024-04-27T06:52:39Z", "lat": 28.291563, "lon": -16.62913, "intensity": 0.8, "source": "WDR"}, {"title": "Hermannslauf: F\u00fcr viele etwas ganz Besonderes", "url": "https://www1.wdr.de/nachrichten/westfalen-lippe/hermannslauf-118.html", "thumbnailUrl": null, "date": "2024-04-28T16:59:48Z", "lat": 52.030228, "lon": 8.532471, "intensity": 0.6, "source": "WDR"}, {"title": "Thyssenkrupp-Besch\u00e4ftigte k\u00fcndigen Protest nach EPCG-Einstieg an", "url": "https://www1.wdr.de/nachrichten/ruhrgebiet/thyssen-krupp-stahl-arbeitnehmer-100.html", "thumbnailUrl": null, "date": "2024-04-28T10:39:43Z", "lat": 51.4584, "lon": 7.0364, "intensity": 0.7, "source": "WDR"}, {"title": "Internationales Alphorntreffen am Rande des Sauerlandes", "url": "https://www1.wdr.de/nachrichten/internationales-alphorntreffen-ruethen-100.html", "thumbnailUrl": null, "date": "2024-04-28T16:55:46Z", "lat": 51.4902, "lon": 8.3342, "intensity": 0.6, "source": "WDR"}, {"title": "Die Polizei sucht zwei vermisste M\u00e4dchen aus Schwelm", "url": "https://www1.wdr.de/nachrichten/fahndung-schwelm-maedchen-vermisst-100.html", "thumbnailUrl": null, "date": "2024-04-28T17:11:21Z", "lat": 51.2975, "lon": 7.3042, "intensity": 0.8, "source": "WDR"}, {"title": "Nahost-Krieg: Nahost-Liveblog: ++ Biden bekr\u00e4ftigt Position gegen\u00fcber Netanyahu ++", "url": "https://www.tagesschau.de/newsticker/liveblog-nahost-sonntag-136.html", "thumbnailUrl": null, "date": "2024-04-28T21:00:04Z", "lat": 31.7683, "lon": 35.2137, "intensity": 0.8, "source": "WDR"},