[{"title": "Nach Schlie\u00dfung von Notfallpraxen: Mehr Patienten wegen Bagatellen in der Notaufnahme", "url": "https://www.tagesschau.de/inland/regional/badenwuerttemberg/swr-nach-schliessung-von-notfallpraxen-mehr-patienten-wegen-bagatellen-in-der-notaufnahme-100.html", "thumbnailUrl": "https://images.tagesschau.de/image/d2a1b224-a2ba-4b96-acc2-e59375506068/AAABjq0HbnA/AAABjcWesUg/16x9-512.jpg", "date": "2024-04-05T08:38:00.000+02:00", "lat": 48.6616, "lon": 9.7356, "intensity": 0.7, "source": "Tagesschau"}, {"title": "BW-Newsticker am Morgen: Mutma\u00dflicher Messer-Angreifer von Wangen in U-Haft, Feuer in Asylbewerberunterkunft in Forchtenberg", "url": "https://www.tagesschau.de/inland/regional/badenwuerttemberg/swr-bw-newsticker-am-morgen-ermittlungen-nach-messerangriff-auf-vierjaehrige-bw-landwirtschaftsminister-will-problemwoelfe-schneller-abschiessen-lassen-100.html", "thumbnailUrl": "https://images.tagesschau.de/image/843dfaa5-7e9a-4c86-ad50-cbf01bbb349f/AAABjqxtqXY/AAABjcWesUg/16x9-512.jpg", "date": "2024-04-05T08:35:00.000+02:00", "lat": 49.2976, "lon": 9.4948, "intensity": 0.8, "source": "Tagesschau"}, {"title": "Hansa Rostock gegen Wehen Wiesbaden: Wer entfacht den Sturm?", "url": "https://www.tagesschau.de/inland/regional/mecklenburgvorpommern/ndr-hansa-rostock-gegen-wehen-wiesbaden-wer-entfacht-den-sturm-102.html", "thumbnailUrl": "https://images.tagesschau.de/image/9cbcfcce-324c-4039-b4bc-a8c0e5fc271d/AAABjqlsn7g/AAABjcWesUg/16x9-512.jpg", "date": "2024-04-05T08:34:00.000+02:00", "lat": 54.0834, "lon": 12.1141, "intensity": 0.7, "source": "Tagesschau"}, {"title": "Weniger Motorradl\u00e4rm im Schwarzwald? Zwei Gemeinden setzen auf neue Regeln", "url": "https://www.tagesschau.de/inland/regional/badenwuerttemberg/swr-weniger-motorradlaerm-im-schwarzwald-zwei-gemeinden-setzen-auf-neue-regeln-100.html", "thumbnailUrl": "https://images.tagesschau.de/image/affad5a3-8343-4fee-9400-4d88fcc910c1/AAABjqz4yGI/AAABjcWesUg/16x9-512.jpg", "date": "2024-04-05T08:30:00.000+02:00", "lat": 48.3953, "lon": 8.2319, "intensity": 0.6, "source": "Tagesschau"}, {"title": "Luxemburg-Pendler m\u00fcssen \u00dcberstunden nun doch in Deutschland versteuern", "url": "https://www.tagesschau.de/inland/regional/saarland/sr-luxemburg-pendler-muessen-ueberstunden-nun-doch-doppelt-versteuern-100.html", "thumbnailUrl": "https://images.tagesschau.de/image/681b7f70-511d-4338-80c0-ab3d6c8c8a06/AAABjqzxWIY/AAABjcWesUg/16x9-512.jpg", "date": "2024-04-05T08:25:00.000+02:00", "lat": 49.2323, "lon": 6.9969, "intensity": 0.7, "source": "Tagesschau"}, {"title": "\"Reichsb\u00fcrger\" besa\u00dfen illegale Waffen", "url": "https://www.tagesschau.de/inland/reichsbuerger-razzia-illegale-schusswaffen-101.html", "thumbnailUrl": "https://images.tagesschau.de/image/b6fcfbea-0a87-4dc9-933d-495af4962409/AAABhnSJB10/AAABjcWesUg/16x9-512.jpg", "date": "2024-04-05T08:17:52.520+02:00", "lat": 51.4, "lon": 9.9937, "intensity": 0.8, "source": "Tagesschau"}, {"title": "Hessen am Morgen: +++ Vater schl\u00e4gt Kind beim Fu\u00dfballspielen +++ Frankfurt hat so viele Einwohner wie noch nie +++ Polizei warnt Motorradfahrer zum Saisonstart +++", "url": "https://www.tagesschau.de/inland/regional/hessen/hr-hessen-am-morgen--vater-schlaegt-kind-beim-fussballspielen--polizei-warnt-motorradfahrer-zum-saisonstart-100.html", "thumbnailUrl": "https://images.tagesschau.de/image/b16b3028-681c-4e78-9585-1e544b98194b/AAABjqzmq5U/AAABjcWesUg/16x9-512.jpg", "date": "2024-04-05T08:15:49.869+02:00", "lat": 50.110922, "lon": 8.682127, "intensity": 0.7, "source": "Tagesschau"}, {"title": "Berlin-Tiergarten: Stra\u00dfensperrungen durch Berliner Halbmarathon", "url": "https://www.tagesschau.de/inland/regional/berlin/rbb-berlin-tiergarten-alle-strassensperrungen-durch-berliner-halbmarathon-100.html", "thumbnailUrl": "https://images.tagesschau.de/image/01571134-07b8-4cd1-bd93-8048faa04385/AAABjqzSnPQ/AAABjcWesUg/16x9-512.jpg", "date": "2024-04-05T08:05:22.000+02:00", "lat": 52.5145, "lon": 13.3655, "intensity": 0.7, "source": "Tagesschau"}, {"title": "++ CIA-Chef reist offenbar nach \u00c4gypten ++", "url": "https://www.tagesschau.de/newsticker/liveblog-nahost-freitag-124.html", "thumbnailUrl": "https://images.tagesschau.de/image/729d0c50-3d2e-4d3c-b1d8-9ec97294010f/AAABjqvuPeE/AAABjcWesUg/16x9-512.jpg", "date": "2024-04-05T08:03:08.886+02:00", "lat": 30.0444, "lon": 31.2357, "intensity": 0.8, "source": "Tagesschau"}, {"title": "Nach Messerangriff in Wangen im Allg\u00e4u: 34-J\u00e4hriger wegen versuchten Mordes in U-Haft", "url": "https://www.tagesschau.de/inland/regional/badenwuerttemberg/swr-wangen-im-allgaeu-mann-verletzt-kind-in-supermarkt-mit-messer-100.html", "thumbnailUrl": "https://images.tagesschau.de/image/865b49dc-7e9a-4093-bcc0-9b538df4791e/AAABjqzmgMs/AAABjcWesUg/16x9-512.jpg", "date": "2024-04-05T08:03:00.000+02:00", "lat": 47.6866, "lon": 9.8373, "intensity": 0.8, "source": "Tagesschau"}, {"title": "++ Luftabwehr in Rostow am Don aktiv ++", "url": "https://www.tagesschau.de/newsticker/liveblog-ukraine-freitag-374.html", "thumbnailUrl": "https://images.tagesschau.de/image/5b073b67-29bf-4703-b6b1-71469e4c25bb/AAABizMn-kk/AAABjcWesUg/16x9-512.jpg", "date": "2024-04-05T08:01:56.557+02:00", "lat": 47.235713, "lon": 39.701505, "intensity": 0.8, "source": "Tagesschau"}, {"title": "Rekordverd\u00e4chtig: Fr\u00fche Obstbaum-Bl\u00fcte im Alten Land", "url": "https://www.tagesschau.de/inland/regional/niedersachsen/ndr-rekordverdaechtig-fruehe-obstbaum-bluete-im-alten-land-100.html", "thumbnailUrl": "https://images.tagesschau.de/image/b3a8aea3-0724-4660-a2b0-2dbc7db9bfbc/AAABjqzZ9Ek/AAABjcWesUg/16x9-512.jpg", "date": "2024-04-05T08:00:00.000+02:00", "lat": 53.529, "lon": 9.643, "intensity": 0.7, "source": "Tagesschau"}, {"title": "52-J\u00e4hrige in Irish Pub mit Messer lebensgef\u00e4hrlich verletzt", "url": "https://www.tagesschau.de/inland/regional/niedersachsen/ndr-53-jaehrige-mit-messer-lebensgefaehrlich-verletzt-100.html", "thumbnailUrl": "https://images.tagesschau.de/image/3fed300a-ceef-426b-8828-4a3d5585c274/AAABjqzSu7o/AAABjcWesUg/16x9-512.jpg", "date": "2024-04-05T07:54:00.000+02:00", "lat": 52.9548, "lon": 9.4113, "intensity": 0.8, "source": "Tagesschau"}, {"title": "Feuer in Klein Bennebek: Ein Toter und drei Verletzte ", "url": "https://www.tagesschau.de/inland/regional/schleswigholstein/ndr-feuer-in-klein-bennebek-ein-toter-und-drei-verletzte-100.html", "thumbnailUrl": "https://images.tagesschau.de/image/91e2b79b-48aa-4163-9ce6-fd7d4b65eaf9/AAABjqzokkY/AAABjcWesUg/16x9-512.jpg", "date": "2024-04-05T07:53:00.000+02:00", "lat": 54.6586, "lon": 9.4644, "intensity": 0.8, "source": "Tagesschau"}, {"title": "Israel k\u00fcndigt \"sofortige\" Aufstockung von Hilfen an", "url": "https://www.tagesschau.de/ausland/asien/biden-netanyahu-zivilisten-104.html", "thumbnailUrl": "https://images.tagesschau.de/image/96f169b0-65d8-4a54-97d4-deff6a47116c/AAABjqvk-hY/AAABjcWesUg/16x9-512.jpg", "date": "2024-04-05T07:45:41.723+02:00", "lat": 31.9522, "lon": 34.9513, "intensity": 0.7, "source": "Tagesschau"}, {"title": "DAX vor Kursrutsch", "url": "https://www.tagesschau.de/wirtschaft/finanzen/marktberichte/marktbericht-dax-kursrutsch-gold-oel-aktien-dow-kurssturz-boerse-100.html", "thumbnailUrl": "https://images.tagesschau.de/image/40bb9fe2-c0ff-423e-95ba-8fc13edc8b5c/AAABhnP_c94/AAABjcWesUg/16x9-512.jpg", "date": "2024-04-05T07:42:00.224+02:00", "lat": 51.9607, "lon": 7.5986, "intensity": 0.8, "source": "Tagesschau"}, {"title": "Feuer in Asylbewerberunterkunft in Forchtenberg ausgebrochen", "url": "https://www.tagesschau.de/inland/regional/badenwuerttemberg/swr-feuer-in-asylbewerberunterkunft-in-forchtenberg-ausgebrochen-102.html", "thumbnailUrl": "https://images.tagesschau.de/image/4ce4bedc-0ccd-4f25-9ab8-633672e7a6f1/AAABjq0Hevk/AAABjcWesUg/16x9-512.jpg", "date": "2024-04-05T07:40:00.000+02:00", "lat": 49.2925, "lon": 9.5188, "intensity": 0.8, "source": "Tagesschau"}, {"title": "Hamburger Verfassungsschutz warnt vor Propaganda von Islamisten", "url": "https://www.tagesschau.de/inland/regional/hamburg/ndr-hamburger-verfassungsschutz-warnt-vor-propaganda-von-islamisten-100.html", "thumbnailUrl": "https://images.tagesschau.de/image/0c02729d-020f-41a9-80a5-30aaeda9769c/AAABjqzFuVk/AAABjcWesUg/16x9-512.jpg", "date": "2024-04-05T07:38:00.000+02:00", "lat": 53.5511, "lon": 9.9937, "intensity": 0.8, "source": "Tagesschau"}, {"title": "BW-St\u00e4dtetag: Ohne Ticket fahren sollte Straftatbestand bleiben", "url": "https://www.tagesschau.de/inland/regional/badenwuerttemberg/swr-ohne-ticket-bus-und-bahn-fahren-sollte-straftat-bleiben-100.html", "thumbnailUrl": "https://images.tagesschau.de/image/84ac892c-8419-4141-8792-2b9e848b4370/AAABjqz40nw/AAABjcWesUg/16x9-512.jpg", "date": "2024-04-05T07:37:58.000+02:00", "lat": 48.6616, "lon": 9.6605, "intensity": 0.5, "source": "Tagesschau"}, {"title": "Darmstadt 98: +++ Mainz-Trainer sieht \"ein Finale\" +++ Lilien haben nichts mehr zu verlieren +++ Skarke \"will unbedingt spielen\" +++", "url": "https://www.tagesschau.de/inland/regional/hessen/hr--tietz-vermisst-fehlende-gier--lilien-fans-liefern-sich-raststaetten-pruegelei--die-niederlage-der-lilien-in-der-video-zusammenfassung-102.html", "thumbnailUrl": "https://images.tagesschau.de/image/712abeb3-31bb-4ac0-b7bd-1b475ff2760c/AAABjqk-5Qg/AAABjcWesUg/16x9-512.jpg", "date": "2024-04-05T07:36:47.257+02:00", "lat": 49.8717, "lon": 8.65, "intensity": 0.5, "source": "Tagesschau"}, {"title": "Neues Buch: Was Nirvana-S\u00e4nger Kurt Cobain unsterblich macht ", "url": "https://www.tagesschau.de/inland/regional/hessen/hr-neues-buch-was-nirvana-saenger-kurt-cobain-unsterblich-macht-100.html", "thumbnailUrl": "https://images.tagesschau.de/image/6add6aae-32e4-4205-86c8-b0e8824a1fa6/AAABjqzmtBE/AAABjcWesUg/16x9-512.jpg", "date": "2024-04-05T07:34:22.757+02:00", "lat": 50.1167, "lon": 8.6833, "intensity": 0.6, "source": "Tagesschau"}, {"title": "Dem Pf\u00e4lzerwald geht es so gut wie lange nicht", "url": "https://www.tagesschau.de/inland/regional/rheinlandpfalz/swr-dem-pfaelzerwald-geht-es-so-gut-wie-lange-nicht-100.html", "thumbnailUrl": "https://images.tagesschau.de/image/e4994e5c-2b28-46f1-88dc-6fc9a196c1ea/AAABjqy4nds/AAABjcWesUg/16x9-512.jpg", "date": "2024-04-05T07:20:24.000+02:00", "lat": 49.2621, "lon": 7.9838, "intensity": 0.5, "source": "Tagesschau"}, {"title": "Eintracht: +++ Bremen Lieblingsgegner von G\u00f6tze +++ Eintracht-Schutzdeckel gegen K.o.-Tropfen +++ Toppm\u00f6ller appelliert an Fans +++ ", "url": "https://www.tagesschau.de/inland/regional/hessen/hr--eintracht-wohl-mit-chaibi-einig--glasner-fast-nur-kolo-muani-der-tore-erzielt--bericht-eintracht-sagt-aouar-ab-100.html", "thumbnailUrl": "https://images.tagesschau.de/image/c59129bf-4b70-4f59-ad19-8c7e6de2023b/AAABjqy-Qo0/AAABjcWesUg/16x9-512.jpg", "date": "2024-04-05T07:19:32.841+02:00", "lat": 50.1109, "lon": 8.6821, "intensity": 0.7, "source": "Tagesschau"}, {"title": "Wilhelmshaven: Versorger \"Bonn\" kehrt aus Nordatlantik zur\u00fcck", "url": "https://www.tagesschau.de/inland/regional/niedersachsen/ndr-wilhelmshaven-versorger-bonn-kehrt-aus-nordatlantik-zurueck-100.html", "thumbnailUrl": "https://images.tagesschau.de/image/271dbc3a-1f3e-4a2f-b607-b14a7f4e5fab/AAABjqpG2DE/AAABjcWesUg/16x9-512.jpg", "date": "2024-04-05T07:12:00.000+02:00", "lat": 53.5185, "lon": 8.1486, "intensity": 0.8, "source": "Tagesschau"}, {"title": "Russischer Gouverneur bei Messerattacke verletzt", "url": "https://www.tagesschau.de/ausland/europa/russischer-gouverneur-messerattacke-102.html", "thumbnailUrl": "https://images.tagesschau.de/image/d4d8bc1a-633c-4934-9fa9-efc27009dd6b/AAABjqyU5IE/AAABjcWesUg/16x9-512.jpg", "date": "2024-04-05T06:52:40.841+02:00", "lat": 55.7512, "lon": 38.0364, "intensity": 0.8, "source": "Tagesschau"}, {"title": "A1: Lkw mit Bierkisten kippt um - Autobahn bei Stuhr wieder frei", "url": "https://www.tagesschau.de/inland/regional/niedersachsen/ndr-a1-lkw-mit-bierkisten-kippt-um-autobahn-bei-stuhr-gesperrt-100.html", "thumbnailUrl": "https://images.tagesschau.de/image/bbd36dfe-1ac8-46c8-897c-b12498bdf800/AAABjqyWLaA/AAABjcWesUg/16x9-512.jpg", "date": "2024-04-05T06:47:00.000+02:00", "lat": 53.0426, "lon": 8.7863, "intensity": 0.8, "source": "Tagesschau"}, {"title": "Auf der Saarbr\u00fccker Metzer Stra\u00dfe drohen ab heute Staus", "url": "https://www.tagesschau.de/inland/regional/saarland/sr-auf-der-saarbruecker-metzer-strasse-drohen-am-wochenende-staus-100.html", "thumbnailUrl": "https://images.tagesschau.de/image/99abfc86-af9a-4c6f-af24-4cada2d3debe/AAABjqpA3dc/AAABjcWesUg/16x9-512.jpg", "date": "2024-04-05T06:43:00.000+02:00", "lat": 49.2401, "lon": 6.9911, "intensity": 0.6, "source": "Tagesschau"}, {"title": "A7 in Hamburg: Vollsperrung des Elbtunnels am Wochenende", "url": "https://www.tagesschau.de/inland/regional/hamburg/ndr-a7-in-hamburg-vollsperrung-des-elbtunnels-am-wochenende-100.html", "thumbnailUrl": "https://images.tagesschau.de/image/53194636-f72e-4972-81fe-472631c630a5/AAABjqyQsnQ/AAABjcWesUg/16x9-512.jpg", "date": "2024-04-05T06:40:00.000+02:00", "lat": 53.5511, "lon": 9.9526, "intensity": 0.7, "source": "Tagesschau"}, {"title": "Ausbau von S\u00fcdschnellweg: B3 ab heute Abend l\u00e4nger dicht", "url": "https://www.tagesschau.de/inland/regional/niedersachsen/ndr-ausbau-von-suedschnellweg-b3-in-hannover-heute-abend-gesperrt-100.html", "thumbnailUrl": "https://images.tagesschau.de/image/e5008b51-bcb4-430d-9aea-17af970de027/AAABjqySjmw/AAABjcWesUg/16x9-512.jpg", "date": "2024-04-05T06:34:00.000+02:00", "lat": 52.3759, "lon": 9.7332, "intensity": 0.6, "source": "Tagesschau"}, {"title": "Deutlich mehr E-Lades\u00e4ulen im Saarland als vor einem Jahr", "url": "https://www.tagesschau.de/inland/regional/saarland/sr-deutlich-mehr-e-ladesaeulen-im-saarland-als-vor-einem-jahr-100.html", "thumbnailUrl": "https://images.tagesschau.de/image/8af08229-7ba7-4ce9-b6c4-7a46d085d6c9/AAABjqyKzWY/AAABjcWesUg/16x9-512.jpg", "date": "2024-04-05T06:32:00.000+02:00", "lat": 49.3964, "lon": 6.9102, "intensity": 0.7, "source": "Tagesschau"}, {"title": "Fu\u00dfball-Bundesliga: Union Berlin muss gegen Tabellenf\u00fchrer Leverkusen \"Au\u00dferirdisches\" leisten", "url": "https://www.tagesschau.de/inland/regional/berlin/rbb-fussball-bundesliga-union-berlin-muss-gegen-tabellenfuehrer-leverkusen-ausserirdisches-leisten-102.html", "thumbnailUrl": "https://images.tagesschau.de/image/1cd665ff-daff-4944-a516-0d5ec6a22a8d/AAABjqyM9CQ/AAABjcWesUg/16x9-512.jpg", "date": "2024-04-05T06:31:06.000+02:00", "lat": 52.4724, "lon": 13.4894, "intensity": 0.8, "source": "Tagesschau"}, {"title": "A8 bei Neunkirchen Richtung Pirmasens bis Montag voll gesperrt", "url": "https://www.tagesschau.de/inland/regional/saarland/sr-a8-bei-neunkirchen-richtung-pirmasens-bis-montag-voll-gesperrt-100.html", "thumbnailUrl": "https://images.tagesschau.de/image/0ccda861-3c7e-43e7-ba5f-61559e6a4a16/AAABjq0HYL8/AAABjcWesUg/16x9-512.jpg", "date": "2024-04-05T06:31:00.000+02:00", "lat": 49.3436, "lon": 7.1814, "intensity": 0.8, "source": "Tagesschau"}, {"title": "Karlsberg-Mitarbeitende heute zum Streik aufgerufen", "url": "https://www.tagesschau.de/inland/regional/saarland/sr-karlsberg-mitarbeitende-zum-streik-aufgerufen-100.html", "thumbnailUrl": "https://images.tagesschau.de/image/f71ff4fb-6ad6-48c2-b11e-ff8f23ae2970/AAABjqjsSpo/AAABjcWesUg/16x9-512.jpg", "date": "2024-04-05T06:28:00.000+02:00", "lat": 49.3123, "lon": 7.3403, "intensity": 0.8, "source": "Tagesschau"}, {"title": "Poppenb\u00fcttel: Starker Rauch nach Brand in Tiefgarage", "url": "https://www.tagesschau.de/inland/regional/hamburg/ndr-poppenbuettel-starker-rauch-nach-brand-in-tiefgarage-100.html", "thumbnailUrl": "https://images.tagesschau.de/image/e228c4fd-a911-4c0b-bc5a-6d8013af4bf9/AAABjqmh5Cs/AAABjcWesUg/16x9-512.jpg", "date": "2024-04-05T06:23:00.000+02:00", "lat": 53.6467, "lon": 10.0903, "intensity": 0.8, "source": "Tagesschau"}, {"title": "Schwertransport im Emsland: Bahnhof Leschede gesperrt", "url": "https://www.tagesschau.de/inland/regional/niedersachsen/ndr-schwertransport-im-emsland-bahnhof-leschede-gesperrt-100.html", "thumbnailUrl": "https://images.tagesschau.de/image/53600d54-d610-444e-b338-ab5cf1975524/AAABjqyD2eE/AAABjcWesUg/16x9-512.jpg", "date": "2024-04-05T06:18:00.000+02:00", "lat": 52.2811, "lon": 7.3296, "intensity": 0.7, "source": "Tagesschau"}, {"title": "Ph\u00e4nomen der Feenkreise in Namibia entschl\u00fcsselt?", "url": "https://www.tagesschau.de/wissen/forschung/feenkreise-namibia-100.html", "thumbnailUrl": "https://images.tagesschau.de/image/55de1e36-10b6-4d83-865d-38c91f8c4e0f/AAABjqPIZjc/AAABjcWesUg/16x9-512.jpg", "date": "2024-04-05T06:13:25.533+02:00", "lat": -23.4213564, "lon": 15.9783487, "intensity": 0.8, "source": "Tagesschau"}, {"title": "Traditionssport Kegelbillard fehlt der Nachwuchs", "url": "https://www.tagesschau.de/inland/regional/brandenburg/rbb-traditionssport-kegelbillard-fehlt-der-nachwuchs-100.html", "thumbnailUrl": "https://images.tagesschau.de/image/095524f3-50e0-484a-80e5-01e6048bb041/AAABjqx4sdg/AAABjcWesUg/16x9-512.jpg", "date": "2024-04-05T06:09:22.000+02:00", "lat": 52.3007, "lon": 13.1619, "intensity": 0.6, "source": "Tagesschau"}, {"title": "Wetter am Wochenende: Temperatursprung auf \u00fcber 20 Grad im Norden", "url": "https://www.tagesschau.de/inland/regional/hamburg/ndr-wetter-am-wochenende-temperatursprung-auf-ueber-20-grad-im-norden-100.html", "thumbnailUrl": "https://images.tagesschau.de/image/b0583702-374e-475f-8e2f-51bf574cf4ce/AAABjqyk2jQ/AAABjcWesUg/16x9-512.jpg", "date": "2024-04-05T06:00:00.000+02:00", "lat": 53.5511, "lon": 9.9937, "intensity": 0.8, "source": "Tagesschau"}, {"title": "A42: Vollsperrung bei Herne wegen Br\u00fcckenbauarbeiten", "url": "https://www.tagesschau.de/inland/regional/nordrheinwestfalen/wdr-a42-vollsperrung-bei-herne-wegen-brueckenbauarbeiten-102.html", "thumbnailUrl": "https://images.tagesschau.de/image/34e99850-d2ef-4ea0-aac5-3633a79dd91e/AAABjqzdL8I/AAABjcWesUg/16x9-512.jpg", "date": "2024-04-05T06:00:00.000+02:00", "lat": 51.5366, "lon": 7.2286, "intensity": 0.5, "source": "Tagesschau"}, {"title": "GEW verurteilt Schwesigs Schoko-Werbeaktion an Schweriner Kitas", "url": "https://www.tagesschau.de/inland/regional/mecklenburgvorpommern/ndr-gew-verurteilt-schwesigs-schoko-werbeaktion-an-schweriner-kitas-100.html", "thumbnailUrl": "https://images.tagesschau.de/image/ccb31d2d-8404-4e91-a40d-e8ca3339e8af/AAABjqxtvA8/AAABjcWesUg/16x9-512.jpg", "date": "2024-04-05T05:25:00.000+02:00", "lat": 53.6297, "lon": 11.4036, "intensity": 0.7, "source": "Tagesschau"}, {"title": "Redderstorf: Vermutlich 19 Schafe von Wolf gerissen ", "url": "https://www.tagesschau.de/inland/regional/mecklenburgvorpommern/ndr-redderstorf-vermutlich-19-schafe-von-wolf-gerissen-100.html", "thumbnailUrl": "https://images.tagesschau.de/image/8a993395-e9c0-4c83-9c9d-500378a73246/AAABjqxtkUs/AAABjcWesUg/16x9-512.jpg", "date": "2024-04-05T05:22:00.000+02:00", "lat": 53.8385, "lon": 11.1769, "intensity": 0.8, "source": "Tagesschau"}, {"title": "Auftrag Naturschutz: Ranger an Schleswig-Holsteins Ostseek\u00fcste", "url": "https://www.tagesschau.de/inland/regional/schleswigholstein/ndr-auftrag-naturschutz-ranger-an-schleswig-holsteins-ostseekueste-100.html", "thumbnailUrl": "https://images.tagesschau.de/image/85c083e5-b511-45cc-b37c-4a2a63fa351e/AAABjqw1GgM/AAABjcWesUg/16x9-512.jpg", "date": "2024-04-05T05:00:00.000+02:00", "lat": 54.4701, "lon": 9.5491, "intensity": 0.5, "source": "Tagesschau"}, {"title": "Ein Zauberwort im Kampf gegen die Inflation", "url": "https://www.tagesschau.de/ausland/europa/inflation-tuerkei-urlaubssaison-100.html", "thumbnailUrl": "https://images.tagesschau.de/image/e6d31ce9-4441-4eb5-8389-b5957820b10d/AAABjquQ59U/AAABjcWesUg/16x9-512.jpg", "date": "2024-04-05T02:08:04.240+02:00", "lat": 38.9637, "lon": 35.2433, "intensity": 0.8, "source": "Tagesschau"}, {"title": "Israel \u00f6ffnet Grenz\u00fcbergang Erez f\u00fcr Hilfslieferungen", "url": "https://www.br.de/nachrichten/meldungen/index.html#n1", "thumbnailUrl": null, "date": "2024-04-05T08:31:50+02:00", "lat": 30.0444, "lon": 31.2357, "intensity": 0.8, "source": "Bayrischer Rundfunk"}, {"title": "Mehr als 1.000 Rechtsextremisten haben offenbar Waffenerlaubnis", "url": "https://www.br.de/nachrichten/meldungen/index.html#n2", "thumbnailUrl": null, "date": "2024-04-05T08:31:50+02:00", "lat": 33.5138, "lon": 36.2021, "intensity": 0.8, "source": "Bayrischer Rundfunk"}, {"title": "AfD-Spitze empfiehlt Bystron Verzicht auf EU-Mandat", "url": "https://www.br.de/nachrichten/meldungen/index.html#n3", "thumbnailUrl": null, "date": "2024-04-05T08:31:50+02:00", "lat": 39.9334, "lon": 32.8597, "intensity": 0.8, "source": "Bayrischer Rundfunk"}, {"title": "Gericht verurteilt Helfer von Stra\u00dfburg-Attent\u00e4ter zu 30 Jahren Haft", "url": "https://www.br.de/nachrichten/meldungen/index.html#n4", "thumbnailUrl": null, "date": "2024-04-05T08:31:50+02:00", "lat": 52.520008, "lon": 13.404954, "intensity": 0.7, "source": "Bayrischer Rundfunk"}, {"title": "Deckelung von Index-Mieten ist offenbar nicht geplant", "url": "https://www.br.de/nachrichten/meldungen/index.html#n5", "thumbnailUrl": null, "date": "2024-04-05T08:31:50+02:00", "lat": 52.520008, "lon": 13.404954, "intensity": 0.6, "source": "Bayrischer Rundfunk"}, {"title": "Schlichtung f\u00fcr Luftsicherheitskr\u00e4fte beginnt", "url": "https://www.br.de/nachrichten/meldungen/index.html#n6", "thumbnailUrl": null, "date": "2024-04-05T08:31:50+02:00", "lat": 48.135125, "lon": 11.581981, "intensity": 0.6, "source": "Bayrischer Rundfunk"}, {"title": "Sturm sorgt f\u00fcr Sch\u00e4den in der Oberpfalz", "url": "https://www.br.de/nachrichten/meldungen/index.html#n7", "thumbnailUrl": null, "date": "2024-04-05T08:31:50+02:00", "lat": 50.110922, "lon": 8.682127, "intensity": 0.8, "source": "Bayrischer Rundfunk"}, {"title": "DLRG warnt vor k\u00fchlen Wassertemperaturen", "url": "https://www.br.de/nachrichten/meldungen/index.html#n8", "thumbnailUrl": null, "date": "2024-04-05T08:31:50+02:00", "lat": 47.8684, "lon": 12.6394, "intensity": 0.8, "source": "Bayrischer Rundfunk"}, {"title": "Deutsche Fu\u00dfball-Frauen starten in Qualifikationsspiele f\u00fcr EM 2025", "url": "https://www.br.de/nachrichten/meldungen/index.html#n9", "thumbnailUrl": null, "date": "2024-04-05T08:31:50+02:00", "lat": 48.5844, "lon": 13.6722, "intensity": 0.8, "source": "Bayrischer Rundfunk"}, {"title": "Das Wetter: Sonne und Wolken bei maximal 18 bis 24 Grad", "url": "https://www.br.de/nachrichten/meldungen/index.html#n10", "thumbnailUrl": null, "date": "2024-04-05T08:31:50+02:00", "lat": 53.5396, "lon": 8.5761, "intensity": 0.4, "source": "Bayrischer Rundfunk"}, {"title": "Berlin-Tiergarten: Stra\u00dfensperrungen durch Berliner Halbmarathon", "url": "https://www.rbb24.de/panorama/beitrag/2024/04/berlin-halbmarathon-strassensperrung-tiergarten-grosser-stern.html", "thumbnailUrl": null, "date": "Fri, 05 Apr 2024 08:05:22 +0200", "lat": 52.5166, "lon": 13.3789, "intensity": 0.6, "source": "RBB"}, {"title": "Fu\u00dfball-Bundesliga: Union Berlin muss gegen Tabellenf\u00fchrer Leverkusen \"Au\u00dferirdisches\" leisten", "url": "https://www.rbb24.de/sport/beitrag/2024/04/berlin-sport-fussball-bundesliga-union-bayer-leverkusen-vorbericht.html", "thumbnailUrl": null, "date": "Fri, 05 Apr 2024 06:31:00 +0200", "lat": 52.472567, "lon": 13.494044, "intensity": 0.6, "source": "RBB"}, {"title": "Traditionssport Kegelbillard fehlt der Nachwuchs", "url": "https://www.rbb24.de/panorama/beitrag/2024/04/brandenburg-kegelbillard-zukunft.html", "thumbnailUrl": null, "date": "Fri, 05 Apr 2024 06:09:22 +0200", "lat": 52.421607, "lon": 13.737262, "intensity": 0.5, "source": "RBB"}, {"title": "Basketball-EuroLeague: Alba verliert letztes internationales Heimspiel gegen Partizan Belgrad", "url": "https://www.rbb24.de/sport/beitrag/2024/04/berlin-sport-basketball-euroleague-alba-partizan-belgrad-spielbericht.html", "thumbnailUrl": null, "date": "Thu, 04 Apr 2024 22:36:40 +0200", "lat": 52.52, "lon": 13.3833, "intensity": 0.7, "source": "RBB"}, {"title": "Video | Inka Gossmann-Reetz: Ein Jahr Polizeibeauftragte in Brandenburg", "url": "https://www.rbb24.de/panorama/beitrag/av7/video-brandenburg-ein-jahr-polizeibeauftragte-inka-gossmann-reetz.html", "thumbnailUrl": null, "date": "Thu, 04 Apr 2024 21:36:29 +0200", "lat": 52.5186, "lon": 13.3294, "intensity": 0.5, "source": "RBB"}, {"title": "Video | Alte Schule Karlshorst: Wohnen im Mehrgenerationenhaus", "url": "https://www.rbb24.de/panorama/beitrag/av7/video-berlin-besonderes-wohnen-alte-schule-karlshorst-mehrgenerationenhaus.html", "thumbnailUrl": null, "date": "Thu, 04 Apr 2024 21:19:14 +0200", "lat": 52.487586, "lon": 13.517769, "intensity": 0.5, "source": "RBB"}, {"title": "Handball-Bundesliga: F\u00fcchse Berlin nach Sieg in G\u00f6ppingen weiter Tabellenf\u00fchrer", "url": "https://www.rbb24.de/sport/beitrag/2024/04/berlin-sport-handball-bundesliga-goeppingen-fuechse-spielbericht.html", "thumbnailUrl": null, "date": "Thu, 04 Apr 2024 20:55:04 +0200", "lat": 48.7031, "lon": 9.6592, "intensity": 0.6, "source": "RBB"}, {"title": "Was Sie schon immer \u00fcber Spargel wissen wollten", "url": "https://www.rbb24.de/panorama/beitrag/2024/04/spargel-saison-fragen-antworten-beelitz.html", "thumbnailUrl": null, "date": "Thu, 04 Apr 2024 20:38:00 +0200", "lat": 52.337249, "lon": 13.01217, "intensity": 0.2, "source": "RBB"}, {"title": "Politisch motivierte Dienstvergehen: Bei Berliner Polizei laufen 96 Disziplinarverfahren gegen Beamte", "url": "https://www.rbb24.de/panorama/beitrag/2024/04/disziplinarverfahren-berlin-polizei-beamte-dienstvergehen.html", "thumbnailUrl": null, "date": "Thu, 04 Apr 2024 19:32:59 +0200", "lat": 52.520008, "lon": 13.404954, "intensity": 0.8, "source": "RBB"}, {"title": "Berliner Polizei durchsucht in Gropiusstadt Wohnungen von mutma\u00dflichen Silvester-Randalierern", "url": "https://www.rbb24.de/panorama/beitrag/2024/04/berlin-gropiusstadt-durchsuchungen-ausschreitungen-silvesternach.html", "thumbnailUrl": null, "date": "Thu, 04 Apr 2024 19:27:25 +0200", "lat": 52.4363, "lon": 13.4764, "intensity": 0.7, "source": "RBB"}, {"title": "Auslosung Berliner Landespokal: Makkabi im Pokal-Halbfinale gegen Sparta Lichtenberg, Viktoria gegen Lichtenberg 47", "url": "https://www.rbb24.de/sport/beitrag/2024/04/sport-fussball-landespokal-berlin-viktoria-lichtenberg-makkabi-halbfinale-auslosung.html", "thumbnailUrl": null, "date": "Thu, 04 Apr 2024 19:02:00 +0200", "lat": 52.52, "lon": 13.4359, "intensity": 0.4, "source": "RBB"}, {"title": "Justiz muss deutlich mehr Cannabis-Verfahren \u00fcberpr\u00fcfen als zun\u00e4chst erwartet", "url": "https://www.rbb24.de/politik/beitrag/2024/04/berlin-brandenburg-justiz-deutlich-mehr-cannabis-verfahren-aufgerollt-amnestie-legalisierung.html", "thumbnailUrl": null, "date": "Thu, 04 Apr 2024 18:43:10 +0200", "lat": 53.5511, "lon": 9.9937, "intensity": 0.7, "source": "RBB"}, {"title": "Berliner Wasserbetriebe erneuern bis 2029 Rohre in Landsberger Allee", "url": "https://www.rbb24.de/panorama/beitrag/2024/04/berlin-landsberger-allee-bauarbeiten-wasserrohre-wasserbetriebe.html", "thumbnailUrl": null, "date": "Thu, 04 Apr 2024 17:47:00 +0200", "lat": 52.52, "lon": 13.4689, "intensity": 0.6, "source": "RBB"}, {"title": "Umweltsenatorin Schreiner: Berliner Forsten sollen Mischwald-Programm nicht fortsetzen", "url": "https://www.rbb24.de/politik/beitrag/2024/04/umweltsenatorin-schreiner-waldumbau-pruefung-mischwald-programm.html", "thumbnailUrl": null, "date": "Thu, 04 Apr 2024 17:28:38 +0200", "lat": 52.52, "lon": 13.405, "intensity": 0.6, "source": "RBB"}, {"title": "Fliegerbombe in Berlin-Schmargendorf entsch\u00e4rft - Sperrkreis aufgehoben", "url": "https://www.rbb24.de/panorama/beitrag/2024/04/berlin-schmargendorf-wilmersdorf-weltkriegsbombe-entschaerfung-sperrkreis-evakuierung.html", "thumbnailUrl": null, "date": "Thu, 04 Apr 2024 17:21:00 +0200", "lat": 52.5166, "lon": 13.3024, "intensity": 0.8, "source": "RBB"}, {"title": "R\u00e4tselhafte Holzkonstruktion aus dem 13. Jahrhundert in Prenzlau gefunden", "url": "https://www.rbb24.de/panorama/beitrag/2024/04/holz-balken-prenzlau-700-jahre-archaeologie.html", "thumbnailUrl": null, "date": "Thu, 04 Apr 2024 16:48:10 +0200", "lat": 53.3247, "lon": 13.8657, "intensity": 0.6, "source": "RBB"}, {"title": "Brandenburg: Spargelsaison ist offiziell er\u00f6ffnet", "url": "https://www.rbb24.de/wirtschaft/beitrag/2024/04/spargel-beelitz-hollondaise-brandenburg-saisonarbeiter-landwirtschaft-essen.html", "thumbnailUrl": null, "date": "Thu, 04 Apr 2024 16:47:00 +0200", "lat": 52.4125, "lon": 13.8005, "intensity": 0.3, "source": "RBB"}, {"title": "Legalisierung von Cannabis: Kiffen bleibt in Berliner Freib\u00e4dern verboten", "url": "https://www.rbb24.de/panorama/beitrag/2024/04/kein-cannabis-konsum-berliner-freibaeder-kiffen.html", "thumbnailUrl": null, "date": "Thu, 04 Apr 2024 15:45:59 +0200", "lat": 52.52, "lon": 13.403, "intensity": 0.4, "source": "RBB"}, {"title": "Nach Einbu\u00dfen im Vorjahr: Werder feiert Baumbl\u00fcte 2024 mit verk\u00fcrztem Stadtfest", "url": "https://www.rbb24.de/panorama/beitrag/2024/04/brandenburg-werder-havel-baumbluetenfest-stadtfest-kuerzer.html", "thumbnailUrl": null, "date": "Thu, 04 Apr 2024 15:35:00 +0200", "lat": 53.074, "lon": 8.809, "intensity": 0.6, "source": "RBB"}, {"title": "Bundeswehr strukturiert an Standorten in Berlin und Brandenburg um - ein operatives F\u00fchrungskommando statt zwei", "url": "https://www.rbb24.de/politik/beitrag/2024/04/berlin-brandenburg-geltow-bundeswehr-einheitliches-fuehrung-kommando.html", "thumbnailUrl": null, "date": "Thu, 04 Apr 2024 15:24:00 +0200", "lat": 52.3759, "lon": 9.7031, "intensity": 0.5, "source": "RBB"}, {"title": "Berlin: Bundeskartellamt erlaubt Senat Kauf von Vattenfall-Fernw\u00e4rmenetz", "url": "https://www.rbb24.de/wirtschaft/beitrag/2024/04/berlin-fernwaerme-vattenfall-bundeskartellamt-.html", "thumbnailUrl": null, "date": "Thu, 04 Apr 2024 15:20:53 +0200", "lat": 52.520008, "lon": 13.404954, "intensity": 0.6, "source": "RBB"}, {"title": "Neugew\u00e4hlter Tesla-Betriebsrat in Gr\u00fcnheide best\u00e4tigt Michaela Schmitz als Vorsitzende", "url": "https://www.rbb24.de/wirtschaft/beitrag/2024/04/brandenburg-gruenheide-tesla-betriebsrat-konstituierende-sitzung-schmitz-vorsitzende.html", "thumbnailUrl": null, "date": "Thu, 04 Apr 2024 14:50:00 +0200", "lat": 52.4711, "lon": 13.8863, "intensity": 0.5, "source": "RBB"}, {"title": "Lkw-Fahrer nach Unfall auf dem s\u00fcdlichen Berliner Ring gestorben", "url": "https://www.rbb24.de/panorama/beitrag/2024/04/brandenburg-a10-berliner-ring-schwerer-verkehrsunfall-niederlehme.html", "thumbnailUrl": null, "date": "Thu, 04 Apr 2024 14:19:51 +0200", "lat": 52.4392, "lon": 13.5566, "intensity": 0.8, "source": "RBB"}, {"title": "Historische Krimis: Die l\u00e4ngste Eishockey-Partie endet um 02:33 Uhr in der Nacht", "url": "https://www.rbb24.de/sport/beitrag/2024/04/eishockey-del-playoffs-eisbaeren-berlin-straubing-spielzeit-laengste-partien-verlaengerung.html", "thumbnailUrl": null, "date": "Thu, 04 Apr 2024 14:16:00 +0200", "lat": 48.88112, "lon": 12.57308, "intensity": 0.8, "source": "RBB"}, {"title": "Taxis halten wieder am Europaplatz vor Berliner Hauptbahnhof", "url": "https://www.rbb24.de/politik/beitrag/2024/04/taxi-streit-beendet-europaplatz-hauptbahnhof-berlin.html", "thumbnailUrl": null, "date": "Thu, 04 Apr 2024 13:43:00 +0200", "lat": 52.5251, "lon": 13.3694, "intensity": 0.4, "source": "RBB"}, {"title": "Berliner Hedwigs-Kathedrale wird im November er\u00f6ffnet - nach sechs Jahren Umbauarbeiten", "url": "https://www.rbb24.de/panorama/beitrag/2024/04/berlin-hedwigs-kathedrale-wird-im-november-eroeffnet.html", "thumbnailUrl": null, "date": "Thu, 04 Apr 2024 12:42:00 +0200", "lat": 52.517257, "lon": 13.388794, "intensity": 0.7, "source": "RBB"}, {"title": "Berlin-Reinickendorf: 31 Katzen aus Wohnung im M\u00e4rkischen Viertel gerettet", "url": "https://www.rbb24.de/panorama/beitrag/2024/04/berlin-maerkisches-viertel-31-katzen-wohnung-gerettet.html", "thumbnailUrl": null, "date": "Thu, 04 Apr 2024 12:18:10 +0200", "lat": 52.5933, "lon": 13.3304, "intensity": 0.8, "source": "RBB"}, {"title": "Anklage gegen Berliner Rentner nach mutma\u00dflichem Mord an pflegebed\u00fcrftiger Ehefrau erhoben", "url": "https://www.rbb24.de/panorama/beitrag/2024/04/berlin-hellersdorf-mann-toetet-ehefrau-anklage-mord-pflege.html", "thumbnailUrl": null, "date": "Thu, 04 Apr 2024 10:44:08 +0200", "lat": 52.52, "lon": 13.4049, "intensity": 0.8, "source": "RBB"}, {"title": "Oberspreewald-Lausitz: Post kommt im Spreewald ab sofort wieder per Kahn", "url": "https://www.rbb24.de/panorama/beitrag/2024/04/brandenburg-spreewald-lehde-post-kahn-wasser-weg.html", "thumbnailUrl": null, "date": "Thu, 04 Apr 2024 10:32:00 +0200", "lat": 51.5267, "lon": 13.9417, "intensity": 0.5, "source": "RBB"}, {"title": "Mann stirbt nach Wohnungsbrand in Berlin-Hellersdorf", "url": "https://www.rbb24.de/panorama/beitrag/2024/04/berlin-hellersdorf-wohnung-brand-toter-mann.html", "thumbnailUrl": null, "date": "Thu, 04 Apr 2024 08:22:00 +0200", "lat": 52.5263, "lon": 13.5688, "intensity": 0.7, "source": "RBB"}, {"title": "Berliner Know-how f\u00fcr Kyjiw: K\u00fcnstliche Beine f\u00fcr ukrainische Kriegsverletzte", "url": "https://www.rbb24.de/panorama/beitrag/2024/04/berlin-prothesen-krieg-ukraine-soldaten.html", "thumbnailUrl": null, "date": "Thu, 04 Apr 2024 07:18:00 +0200", "lat": 50.4501, "lon": 30.5234, "intensity": 0.8, "source": "RBB"}, {"title": "Playoff-Halbfinale: Eisb\u00e4ren schlagen Straubing in drittl\u00e4ngstem Spiel der DEL-Geschichte", "url": "https://www.rbb24.de/sport/beitrag/2024/04/berlin-sport-eishockey-del-halbfinale-straubing-tigers-eisbaeren-spiel-zwei.html", "thumbnailUrl": null, "date": "Thu, 04 Apr 2024 07:08:00 +0200", "lat": 51.511213, "lon": 12.47794, "intensity": 0.7, "source": "RBB"}, {"title": "Auslegungsfrist endet: Erweiterungsplan des Tesla-Werks liegt noch am Donnerstag aus", "url": "https://www.rbb24.de/wirtschaft/beitrag/2024/04/brandenburg-gruenheide-tesla-auslegungsfrist-endet-gueterbahnhof.html", "thumbnailUrl": null, "date": "Thu, 04 Apr 2024 06:35:00 +0200", "lat": 52.517, "lon": 13.3996, "intensity": 0.7, "source": "RBB"}, {"title": "Sieg gegen L\u00fcneburg: BR Volleys stehen im Volleyball-Finale", "url": "https://www.rbb24.de/sport/beitrag/2024/04/berlin-sport-Volleyball-bundesliga-Halbfinale-BR-Volleys-Lueneburg-spiel-drei.html", "thumbnailUrl": null, "date": "Wed, 03 Apr 2024 22:05:00 +0200", "lat": 52.52, "lon": 13.4393, "intensity": 0.7, "source": "RBB"}, {"title": "Volleyball-Bundesliga: SC Potsdam verliert erstes Halbfinale gegen Schwerin", "url": "https://www.rbb24.de/sport/beitrag/2024/04/brandenburg-sport-Volleyball-Bundesliga-Halbfinale-Schwerin-SC-Potsdam.html", "thumbnailUrl": null, "date": "Wed, 03 Apr 2024 21:29:00 +0200", "lat": 52.3906, "lon": 12.7854, "intensity": 0.6, "source": "RBB"}, {"title": "Verdi: Tarifeinigung bei den Asklepios-Fachkliniken erzielt", "url": "https://www.rbb24.de/wirtschaft/beitrag/2024/04/verdi-tarif-asklepios-fachkliniken-tarifeinigung.html", "thumbnailUrl": null, "date": "Wed, 03 Apr 2024 21:21:00 +0200", "lat": 51.3247, "lon": 9.5226, "intensity": 0.6, "source": "RBB"}, {"title": "Video | Freier Eintritt: J\u00fcdisches Kulturschiff \"MS Goldberg\" ist auf Brandenburg-Tour", "url": "https://www.rbb24.de/kultur/beitrag/av7/video-brandenburg-ms-goldberg-juedisches-kulturschiff.html", "thumbnailUrl": null, "date": "Wed, 03 Apr 2024 21:13:34 +0200", "lat": 52.4125, "lon": 13.9536, "intensity": 0.7, "source": "RBB"}, {"title": "Video | Neues Format: Aus rbbKultur wird radio3", "url": "https://www.rbb24.de/panorama/beitrag/av7/video-berlin-brandenburg-rbbkultur-wird-zu-radio3-umbenennung-programmaenderung-rbb.html", "thumbnailUrl": null, "date": "Tue, 02 Apr 2024 21:33:14 +0200", "lat": 52.520008, "lon": 13.404954, "intensity": 0.5, "source": "RBB"}, {"title": "Video: Union Berlin entf\u00fchrt einen Punkt aus Frankfurt", "url": "https://www.rbb24.de/sport/beitrag/av7/video-fussball-berlin-1-fc-union-bundesliga-eintracht-frankfurt.html", "thumbnailUrl": null, "date": "Mon, 01 Apr 2024 00:00:00 +0200", "lat": 52.457778, "lon": 13.494167, "intensity": 0.7, "source": "RBB"}, {"title": "Video: Hertha und N\u00fcrnberg trennen sich nach furiosem Spiel mit 3:3", "url": "https://www.rbb24.de/sport/beitrag/av7/video-fussball-berlin-hertha-bsc-zweite-bundesliga-1-fc-nuernberg.html", "thumbnailUrl": null, "date": "Mon, 01 Apr 2024 00:00:00 +0200", "lat": 52.52, "lon": 13.5007, "intensity": 0.8, "source": "RBB"}, {"title": "Video | Spreewald: Sorbische Ostern", "url": "https://www.rbb24.de/panorama/beitrag/av7/video-sorbisch-ostern-ostersingen-tradition.html", "thumbnailUrl": null, "date": "Sun, 31 Mar 2024 21:40:56 +0200", "lat": 51.8667, "lon": 14.0833, "intensity": 0.2, "source": "RBB"}, {"title": "Video | Baustopp: Wie es um das Bauprojekt \"Upside Berlin\" steht", "url": "https://www.rbb24.de/panorama/beitrag/av7/video-baustopp-hochhaeuser-friedrichshain-berlin.html", "thumbnailUrl": null, "date": "Fri, 29 Mar 2024 21:13:11 +0100", "lat": 52.466, "lon": 13.739, "intensity": 0.8, "source": "RBB"}, {"title": "Fu\u00dfball im Ramadan: \"Der K\u00f6rper gew\u00f6hnt sich dran\"", "url": "https://www.ndr.de/kultur/sendungen/freitagsforum/Fussball-im-Ramadan-Der-Koerper-gewoehnt-sich-dran,ramadan392.html", "thumbnailUrl": "https://www.ndr.de/kultur/tsgschoenkirchen100_v-contentwidescreen.jpg", "date": "2024-04-05T07:43:32.846+02:00", "lat": 54.371975, "lon": 10.193507, "intensity": 0.5, "source": "NDR"}, {"title": "Wetter am Wochenende: Temperatursprung auf \u00fcber 20 Grad im Norden", "url": "https://www.ndr.de/nachrichten/info/Wetter-am-Wochenende-Temperatursprung-auf-ueber-20-Grad-im-Norden,wetter8754.html", "thumbnailUrl": "https://www.ndr.de/nachrichten/info/wetter8756_v-contentwidescreen.jpg", "date": "2024-04-05T07:02:10.182+02:00", "lat": 53.5511, "lon": 9.9937, "intensity": 0.6, "source": "NDR"}, {"title": "Klimaschutz und Weidehaltung vereinbaren: Ein Versuch", "url": "https://www.ndr.de/nachrichten/niedersachsen/oldenburg_ostfriesland/Klimaschutz-und-Weidehaltung-vereinbaren-Ein-Versuch,moor608.html", "thumbnailUrl": "https://www.ndr.de/nachrichten/niedersachsen/moor612_v-contentwidescreen.jpg", "date": "2024-04-05T06:31:41.149+02:00", "lat": 53.2303, "lon": 8.4594, "intensity": 0.6, "source": "NDR"}, {"title": "T\u00f6dliche Sch\u00fcsse in Nienburg: Zweifel an Angaben der Polizei?", "url": "https://www.ndr.de/nachrichten/niedersachsen/hannover_weser-leinegebiet/Toedliche-Schuesse-in-Nienburg-Zweifel-an-Angaben-der-Polizei,nienburg404.html", "thumbnailUrl": "https://www.ndr.de/nachrichten/niedersachsen/nienburg390_v-contentwidescreen.jpg", "date": "2024-04-05T06:14:18.621+02:00", "lat": 52.6371, "lon": 9.1602, "intensity": 0.8, "source": "NDR"}, {"title": "Cannabis: Viele Gastronomen wollen das Kiffen nicht erlauben", "url": "https://www.ndr.de/nachrichten/schleswig-holstein/Cannabis-Viele-Gastronomen-wollen-das-Kiffen-nicht-erlauben,kiffen118.html", "thumbnailUrl": "https://www.ndr.de/ndrfragt/jointrauchen100_v-contentwidescreen.jpg", "date": "2024-04-04T18:45:49.356+02:00", "lat": 51.166, "lon": 10.4515, "intensity": 0.8, "source": "NDR"}, {"title": "Sicherheit auf Busreisen: \"Am stressigsten sind die Baustellen\"", "url": "https://www.ndr.de/nachrichten/info/Sicherheit-auf-Busreisen-Am-stressigsten-sind-die-Baustellen,ndrinfolive160.html", "thumbnailUrl": "https://www.ndr.de/nachrichten/hamburg/busreise102_v-contentwidescreen.jpg", "date": "2024-04-04T21:59:41.226+02:00", "lat": 51.1657, "lon": 10.4235, "intensity": 0.6, "source": "NDR"}, {"title": "NDR Info Redezeit: Was bringen die \u00c4nderungen beim Elterngeld?", "url": "https://www.ndr.de/nachrichten/info/NDR-Info-Redezeit-Was-bringen-die-Aenderungen-beim-Elterngeld,ndrinforedezeit452.html", "thumbnailUrl": "https://www.ndr.de/kultur/radiokunst/alleinerziehend120_v-contentwidescreen.jpg", "date": "2024-04-04T22:07:18.679+02:00", "lat": 53.5511, "lon": 9.9937, "intensity": 0.2, "source": "NDR"}, {"title": "A7 in Hamburg: Vollsperrung des Elbtunnels am Wochenende", "url": "https://www.ndr.de/nachrichten/hamburg/A7-in-Hamburg-Vollsperrung-des-Elbtunnels-am-Wochenende,asieben594.html", "thumbnailUrl": "https://www.ndr.de/nachrichten/hamburg/autobahnsieben166_v-contentwidescreen.jpg", "date": "2024-04-05T08:45:39.401+02:00", "lat": 53.5446, "lon": 9.90202, "intensity": 0.7, "source": "NDR"}, {"title": "Rechtsextremismus: Auch Ermittlungen gegen Polizisten im Norden", "url": "https://www.ndr.de/nachrichten/niedersachsen/Rechtsextremismus-Auch-Ermittlungen-gegen-Polizisten-im-Norden,extremismusverdacht100.html", "thumbnailUrl": "https://www.ndr.de/nachrichten/niedersachsen/polizei7042_v-contentwidescreen.jpg", "date": "2024-04-04T20:46:25.300+02:00", "lat": 53.4336, "lon": 10.4515, "intensity": 0.8, "source": "NDR"}, {"title": "K\u00fcnstliche Intelligenz: Hamburger Schulbeh\u00f6rde legt Leitlinien vor", "url": "https://www.ndr.de/nachrichten/hamburg/Kuenstliche-Intelligenz-Hamburger-Schulbehoerde-legt-Leitlinien-vor,schule3448.html", "thumbnailUrl": "https://www.ndr.de/nachrichten/hamburg/schule3450_v-contentwidescreen.jpg", "date": "2024-04-05T07:53:16.562+02:00", "lat": 53.5511, "lon": 9.9937, "intensity": 0.6, "source": "NDR"}, {"title": "Redderstorf: Vermutlich 19 Schafe von Wolf gerissen", "url": "https://www.ndr.de/nachrichten/mecklenburg-vorpommern/Redderstorf-Vermutlich-19-Schafe-von-Wolf-gerissen-,kurzmeldungmv14832.html", "thumbnailUrl": "https://www.ndr.de/nachrichten/mecklenburg-vorpommern/schafwolf100_v-contentwidescreen.jpg", "date": "2024-04-05T06:22:51.081+02:00", "lat": 53.6187, "lon": 12.2353, "intensity": 0.7, "source": "NDR"}, {"title": "Neues Ausbildungszentrum der Bundeswehr in Kropp er\u00f6ffnet", "url": "https://www.ndr.de/nachrichten/schleswig-holstein/Neues-Ausbildungszentrum-der-Bundeswehr-in-Kropp-eroeffnet,kroppjagel100.html", "thumbnailUrl": "https://www.ndr.de/nachrichten/schleswig-holstein/jagel260_v-contentwidescreen.jpg", "date": "2024-04-05T07:40:35.870+02:00", "lat": 54.4589, "lon": 9.5616, "intensity": 0.7, "source": "NDR"}, {"title": "CDU will wieder st\u00e4rkste Kraft in Hamburg werden", "url": "https://www.ndr.de/nachrichten/hamburg/CDU-will-wieder-staerkste-Kraft-in-Hamburg-werden,cdu1860.html", "thumbnailUrl": "https://www.ndr.de/nachrichten/hamburg/thering152_v-contentwidescreen.jpg", "date": "2024-04-04T20:56:43.753+02:00", "lat": 53.5511, "lon": 10.0003, "intensity": 0.6, "source": "NDR"}, {"title": "Pragsdorf-Prozess: Angeklagter Jugendlicher legt Teilgest\u00e4ndnis ab", "url": "https://www.ndr.de/nachrichten/mecklenburg-vorpommern/Pragsdorf-Prozess-Angeklagter-Jugendlicher-legt-Teilgestaendnis-ab,pragsdorf142.html", "thumbnailUrl": "https://www.ndr.de/nachrichten/mecklenburg-vorpommern/landgericht324_v-contentwidescreen.png", "date": "2024-04-04T20:30:44.338+02:00", "lat": 53.63831, "lon": 12.77458, "intensity": 0.8, "source": "NDR"}, {"title": "Studie aus Niedersachsen zum Fischsterben ver\u00f6ffentlicht", "url": "https://www.ndr.de/nachrichten/info/Studie-aus-Niedersachsen-zum-Fischsterben-veroeffentlicht,audio1607866.html", "thumbnailUrl": "https://www.ndr.de/nachrichten/niedersachsen/lueneburg_heide_unterelbe/fischsterben500_v-contentwidescreen.jpg", "date": "2024-04-05T06:58:21.662+02:00", "lat": 52.3847, "lon": 10.4234, "intensity": 0.8, "source": "NDR"}, {"title": "Lubmin: Natursch\u00fctzer gegen geplante Wasserstofffabrik", "url": "https://www.ndr.de/nachrichten/info/Lubmin-Naturschuetzer-gegen-geplante-Wasserstofffabrik,ndrinfo58198.html", "thumbnailUrl": "https://www.ndr.de/fernsehen/screenshot1727092_v-contentwidescreen.jpg", "date": "2024-04-04T22:25:07.195+02:00", "lat": 54.1014, "lon": 13.9691, "intensity": 0.8, "source": "NDR"}, {"title": "Bremerin arbeitet an m\u00f6glicher Mars-Mission mit", "url": "https://www.ndr.de/nachrichten/info/Bremerin-arbeitet-an-moeglicher-Mars-Mission-mit,ndrinfo58202.html", "thumbnailUrl": "https://www.ndr.de/fernsehen/screenshot1727110_v-contentwidescreen.jpg", "date": "2024-04-04T22:37:53.671+02:00", "lat": 45.0382, "lon": 40.0691, "intensity": 0.8, "source": "NDR"}, {"title": "Trickbetr\u00fcger in MV erbeuten immer mehr Geld", "url": "https://www.ndr.de/nachrichten/info/Trickbetrueger-in-MV-erbeuten-immer-mehr-Geld,ndrinfo58188.html", "thumbnailUrl": "https://www.ndr.de/fernsehen/screenshot1727048_v-contentwidescreen.jpg", "date": "2024-04-04T22:24:52.353+02:00", "lat": 53.6127, "lon": 13.2074, "intensity": 0.8, "source": "NDR"}, {"title": "Innenministerin Behrens zu rechtsextremen Polizisten: \"Wir pr\u00fcfen Anw\u00e4rter sehr genau\"", "url": "https://www.ndr.de/nachrichten/info/Innenministerin-Behrens-zu-rechtsextremen-Polizisten-Wir-pruefen-Anwaerter-sehr-genau,audio1607572.html", "thumbnailUrl": "https://www.ndr.de/nachrichten/info/behrens592_v-contentwidescreen.jpg", "date": "2024-04-04T19:35:34.446+02:00", "lat": 52.3759, "lon": 9.7489, "intensity": 0.8, "source": "NDR"}, {"title": "Pistorius stellt Reformpl\u00e4ne f\u00fcr die Bundeswehr vor", "url": "https://www.ndr.de/nachrichten/info/Pistorius-stellt-Reformplaene-fuer-die-Bundeswehr-vor,audio1607502.html", "thumbnailUrl": "https://www.ndr.de/nachrichten/info/pistorius1236_v-contentwidescreen.jpg", "date": "2024-04-04T19:09:18.946+02:00", "lat": 52.3738, "lon": 9.6939, "intensity": 0.7, "source": "NDR"}, {"title": "\"W\u00fcnsch Dir Deinen NDR\" - Jetzt f\u00fcr die Publikumsaktion bewerben!", "url": "https://www.ndr.de/wuensch_dir_deinen_ndr/index.html", "thumbnailUrl": "https://www.ndr.de/der_ndr/wunschprogramm131_v-contentwidescreen.jpg", "date": "2024-03-26T07:59:24.876+01:00", "lat": 53.551086, "lon": 9.993682, "intensity": 0.2, "source": "NDR"}, {"title": "Relaunch der vier NDR L\u00e4nder-Apps: Nachrichten aus Ihrer Region!", "url": "https://www.ndr.de/Relaunch-der-vier-NDR-Laender-Apps-Nachrichten-aus-Ihrer-Region,laenderapprelaunch100.html", "thumbnailUrl": "https://www.ndr.de/laenderapprelaunch102_v-contentwidescreen.jpg", "date": "2024-03-19T09:22:34.719+01:00", "lat": 53.8659, "lon": 9.8606, "intensity": 0.4, "source": "NDR"}, {"title": "Gaspreis Dashboard", "url": "https://www.ndr.de/home/gaspreis176.html", "thumbnailUrl": null, "date": "2023-04-06T14:49:06.409+02:00", "lat": 51.3426, "lon": 9.9976, "intensity": 0.7, "source": "NDR"}, {"title": "NDR Radioprogramme", "url": "https://www.ndr.de/radio/radiologobox100.html", "thumbnailUrl": null, "date": "2020-12-01T14:04:26.700+01:00", "lat": 53.5511, "lon": 9.9937, "intensity": 0.3, "source": "NDR"}, {"title": "Krieg und Terror - Die Lage im Nahen Osten und in der Ukraine", "url": "https://www.ndr.de/nachrichten/info/podcast5342.html", "thumbnailUrl": "https://www.ndr.de/nachrichten/info/podcastbild412_v-contentwidescreen.jpg", "date": "2024-04-05T07:54:17.426+02:00", "lat": 46.79651, "lon": 30.739834, "intensity": 0.8, "source": "NDR"}, {"title": "Die Ern\u00e4hrungs-Docs - Essen als Medizin", "url": "https://www.ndr.de/fernsehen/sendungen/die-ernaehrungsdocs/audio-podcast/index.html", "thumbnailUrl": "https://www.ndr.de/fernsehen/sendungen/die-ernaehrungsdocs/podcastbild338_v-contentwidescreen.jpg", "date": "2024-04-04T13:51:10.657+02:00", "lat": 53.5511, "lon": 9.9876, "intensity": 0.3, "source": "NDR"}, {"title": "Unsere Comedy \"Die Kur-Oase\"!", "url": "https://www.ndr.de/ndr2/podcasts/podcast5816.html", "thumbnailUrl": "https://www.ndr.de/ndr2/podcasts/podcast5812_v-contentwidescreen.jpg", "date": "2024-04-05T07:15:05.477+02:00", "lat": 54.9069, "lon": 8.7386, "intensity": 0.2, "source": "NDR"}, {"title": "Organisiertes Verbrechen - Recherchen im Verborgenen", "url": "https://www.ndr.de/nachrichten/info/podcast4992.html", "thumbnailUrl": "https://www.ndr.de/nachrichten/info/podcastbildov100_v-contentwidescreen.jpg", "date": "2024-03-01T06:00:27.490+01:00", "lat": 45.9432, "lon": 24.9668, "intensity": 0.8, "source": "NDR"}, {"title": "eat.READ.sleep. B\u00fccher f\u00fcr dich", "url": "https://www.ndr.de/kultur/sendungen/eat_read_sleep/index.html", "thumbnailUrl": "https://www.ndr.de/mediathek/podcastbild434_v-contentwidescreen.jpg", "date": "2024-03-29T06:00:20.892+01:00", "lat": 53.5511, "lon": 9.9937, "intensity": 0.2, "source": "NDR"}, {"title": "Killed in Action: Afghanistan - Mission ohne Ziel", "url": "https://www.ndr.de/nachrichten/info/sendungen/podcast4574.html", "thumbnailUrl": "https://www.ndr.de/nachrichten/info/podcasts/podcastbild478_v-contentwidescreen.jpg", "date": "2024-02-16T17:44:01.214+01:00", "lat": 33.9391, "lon": 66.2385, "intensity": 0.8, "source": "NDR"}, {"title": "Streitkr\u00e4fte und Strategien", "url": "https://www.ndr.de/nachrichten/info/podcast2998.html", "thumbnailUrl": "https://www.ndr.de/mediathek/mediathekbild566_v-contentwidescreen.jpg", "date": "2024-04-02T16:00:06.249+02:00", "lat": 53.5511, "lon": 9.9937, "intensity": 0.8, "source": "NDR"}, {"title": "Standpunkte", "url": "https://www.ndr.de/nachrichten/info/podcast4700.html", "thumbnailUrl": "https://www.ndr.de/mediathek/podcast5332_v-contentwidescreen.jpg", "date": "2024-04-04T00:01:07.808+02:00", "lat": 53.5511, "lon": 9.9937, "intensity": 0.5, "source": "NDR"}, {"title": "Mein Einsatz - der Feuerwehr-Podcast von NDR Niedersachsen", "url": "https://www.ndr.de/ndr1niedersachsen/podcast5774.html", "thumbnailUrl": "https://www.ndr.de/ndr1niedersachsen/podcasts/podcastbild364_v-contentwidescreen.jpg", "date": "2024-03-28T04:00:07.923+01:00", "lat": 52.3759, "lon": 9.7345, "intensity": 0.7, "source": "NDR"}, {"title": "\"Feel Hamburg\" - alle Folgen", "url": "https://www.ndr.de/903/podcasts/podcast5108.html", "thumbnailUrl": "https://www.ndr.de/mediathek/mediathekbild514_v-contentwidescreen.jpg", "date": "2024-04-03T05:00:09.975+02:00", "lat": 53.55, "lon": 10.0, "intensity": 0.4, "source": "NDR"}, {"title": "Intensiv-Station - Satire von NDR Info", "url": "https://www.ndr.de/nachrichten/info/podcast4274.html", "thumbnailUrl": "https://www.ndr.de/nachrichten/info/programm/intensivstation3272_v-contentwidescreen.jpg", "date": "2024-03-25T22:56:23.803+01:00", "lat": 54.3706, "lon": 10.5038, "intensity": 0.8, "source": "NDR"}, {"title": "Amerika, wir m\u00fcssen reden!", "url": "https://www.ndr.de/nachrichten/info/podcast4932.html", "thumbnailUrl": "https://www.ndr.de/nachrichten/info/podcastbild488_v-contentwidescreen.jpg", "date": "2024-04-03T18:15:10.308+02:00", "lat": 39.78373, "lon": -100.445882, "intensity": 0.7, "source": "NDR"}, {"title": "NRW-Karte zu Wohnungseinbr\u00fcchen: Wo wird viel, wo wenig eingebrochen?", "url": "https://www1.wdr.de/nachrichten/wohnungseinbruch-nrw-kriminalstatistik-102.html", "thumbnailUrl": null, "date": "2024-04-05T04:39:54Z", "lat": 51.9607, "lon": 7.6246, "intensity": 0.8, "source": "WDR"}, {"title": "Nachrichten f\u00fcr NRW am Morgen", "url": "https://www1.wdr.de/nachrichten/nrw-nachrichten-staugefahr-ferienende-sommer-wochenende-corona-pandemie-102.html", "thumbnailUrl": null, "date": "2024-04-05T06:12:29Z", "lat": 51.4556, "lon": 7.0116, "intensity": 0.5, "source": "WDR"}, {"title": "Tornado-Verdacht in Korschenbroich - 20 H\u00e4user besch\u00e4digt", "url": "https://www1.wdr.de/nachrichten/korschenbroich-moenchengladbach-verdacht-tornado-100.html", "thumbnailUrl": null, "date": "2024-04-05T06:55:52Z", "lat": 51.1947, "lon": 6.5188, "intensity": 0.8, "source": "WDR"}, {"title": "Rekord-W\u00e4rme am Wochenende m\u00f6glich - Saharastaub erwartet", "url": "https://www1.wdr.de/nachrichten/wetter-nrw-gewitter-sonne-waerme-saharastaub-100.html", "thumbnailUrl": null, "date": "2024-04-05T06:42:17Z", "lat": 51.8133, "lon": 7.6261, "intensity": 0.8, "source": "WDR"}, {"title": "Super-Teleskop aus NRW soll Entstehung des Universums zeigen", "url": "https://www1.wdr.de/nachrichten/rheinland/praesentation-des-neuen-fyst-teleskops-100.html", "thumbnailUrl": null, "date": "2024-04-04T19:10:37Z", "lat": 51.6614, "lon": 6.4542, "intensity": 0.6, "source": "WDR"}, {"title": "Mutma\u00dfliche T\u00f6tung im Dortmunder Hafen", "url": "https://www1.wdr.de/nachrichten/dortmund-toetungsdelikt-hafen-100.html", "thumbnailUrl": null, "date": "2024-04-04T19:47:40Z", "lat": 51.5136, "lon": 7.459, "intensity": 0.8, "source": "WDR"}, {"title": "A42: Vollsperrung bei Herne wegen Br\u00fcckenbauarbeiten", "url": "https://www1.wdr.de/nachrichten/ruhrgebiet/autobahn-zweiundvierzig-voll-gesperrt-bei-herne-100.html", "thumbnailUrl": null, "date": "2024-04-05T06:02:23Z", "lat": 51.5272, "lon": 7.2146, "intensity": 0.8, "source": "WDR"}, {"title": "Pokal der Fu\u00dfball-EM 2024 mit Lahm in K\u00f6ln", "url": "https://www1.wdr.de/nachrichten/rheinland/trophy-tour-in-koeln-em-pokal-praesentiert-von-philipp-lahm-am-bahnhof-102.html", "thumbnailUrl": null, "date": "2024-04-05T06:01:08Z", "lat": 50.9413, "lon": 7.0069, "intensity": 0.7, "source": "WDR"}, {"title": "Nahost-Krieg: Nahost-Liveblog: ++ CIA-Chef reist offenbar nach \u00c4gypten ++", "url": "https://www.tagesschau.de/newsticker/liveblog-nahost-freitag-124.html", "thumbnailUrl": null, "date": "2024-04-05T04:12:01Z", "lat": 31.7683, "lon": 35.214, "intensity": 0.8, "source": "WDR"}, {"title": "Nach Angriff auf Hilfsorganisation: Israel k\u00fcndigt \"sofortige\" Aufstockung von Gaza-Hilfen an", "url": "https://www.tagesschau.de/ausland/asien/biden-netanyahu-zivilisten-104.html", "thumbnailUrl": null, "date": "2024-04-05T05:48:02Z", "lat": 31.9466, "lon": 34.4538, "intensity": 0.8, "source": "WDR"}, {"title": "Get\u00f6tete Helfer im Gazastreifen: Hilfsorganisationen \u00fcben massive Kritik an Israels Kriegsf\u00fchrung", "url": "https://www.tagesschau.de/ausland/israel-angriffe-hilfsorganisationen-100.html", "thumbnailUrl": null, "date": "2024-04-04T19:18:02Z", "lat": 31.522833, "lon": 35.303017, "intensity": 0.7, "source": "WDR"}, {"title": "Die wichtigsten Fakten \u00fcber den Gazastreifen", "url": "https://www1.wdr.de/nachrichten/gaza-gazastreifen-israel-hintergrund-100.html", "thumbnailUrl": null, "date": "2023-10-11T15:33:25Z", "lat": 31.5107, "lon": 34.3445, "intensity": 0.8, "source": "WDR"}, {"title": "WDR aktuell Whatsapp-Kanal abonnieren - so geht's", "url": "https://www1.wdr.de/nachrichten/wdr-aktuell-whatsapp-kanal-100.html", "thumbnailUrl": null, "date": "2023-12-22T20:22:52Z", "lat": 51.4818, "lon": 7.6261, "intensity": 0.1, "source": "WDR"}, {"title": "Krieg gegen die Ukraine: Ukraine-Liveblog: ++ Luftabwehr in Rostow am Don aktiv ++", "url": "https://www.tagesschau.de/newsticker/liveblog-ukraine-freitag-374.html", "thumbnailUrl": null, "date": "2024-04-05T04:12:17Z", "lat": 47.2333, "lon": 39.7126, "intensity": 0.8, "source": "WDR"}, {"title": "Deutsche Firmen in Mariupol: Deutsche Firmen am russischen Wiederaufbau von Mariupol beteiligt", "url": "https://www.tagesschau.de/investigativ/monitor/ukraine-mariupol-wiederaufbau-russland-100.html", "thumbnailUrl": null, "date": "2024-04-03T16:54:02Z", "lat": 47.0971, "lon": 37.5553, "intensity": 0.8, "source": "WDR"}, {"title": "Kommt Russland wegen Kriegsverbrechen vor den Internationalen Strafgerichtshof?", "url": "https://www1.wdr.de/nachrichten/kriegsverbrechen-fragen-antworten-100.html", "thumbnailUrl": null, "date": "2024-04-02T16:04:42Z", "lat": 52.0705, "lon": 4.3007, "intensity": 0.8, "source": "WDR"}, {"title": "Ukraine: Zwischen Krieg und Normalit\u00e4t", "url": "https://www1.wdr.de/mediathek/audio/wdr5/wdr5-mittagsecho/audio-ukraine-zwischen-krieg-und-normalitaet-100.html", "thumbnailUrl": null, "date": "2024-03-27T13:17:56Z", "lat": 50.4501, "lon": 30.5234, "intensity": 0.7, "source": "WDR"}, {"title": "NRW-Polizei identifiziert rund 80 Rechtsextreme in eigenen Reihen", "url": "https://www1.wdr.de/nachrichten/landespolitik/rechtsextreme-nrw-polizei-100.html", "thumbnailUrl": null, "date": "2024-04-04T17:56:00Z", "lat": 51.9607, "lon": 7.6261, "intensity": 0.7, "source": "WDR"}, {"title": "Tote Fichten fahren Seilbahn", "url": "https://www1.wdr.de/nachrichten/rheinland/fichten-schweben-in-solingen-um-schaeden-im-wald-zu-vermeiden-100.html", "thumbnailUrl": null, "date": "2024-04-05T06:04:48Z", "lat": 51.1734, "lon": 7.082, "intensity": 0.7, "source": "WDR"}, {"title": "Kurioser Diebstahl in D\u00fcren: Bei Einbruch nur linke Schuhe geklaut", "url": "https://www1.wdr.de/nachrichten/rheinland/diebe-klauen-nur-linke-schuhe-dueren-100.html", "thumbnailUrl": null, "date": "2024-04-04T18:11:32Z", "lat": 50.8058, "lon": 6.4823, "intensity": 0.4, "source": "WDR"}, {"title": "Lama- und Alpaka-Wanderung f\u00fcr Hochwasserbetroffene in der Eifel", "url": "https://www1.wdr.de/nachrichten/rheinland/lamawanderung-hellenthal-hochwassergeschaedigte-100.html", "thumbnailUrl": null, "date": "2024-04-04T18:34:46Z", "lat": 50.4421, "lon": 6.4469, "intensity": 0.4, "source": "WDR"}, {"title": "Hohe Tabakpreise in den Niederlanden - Ansturm in Aachen", "url": "https://www1.wdr.de/nachrichten/rheinland/ansturm-auf-deutsche-zigarettenhaendler-100.html", "thumbnailUrl": null, "date": "2024-04-04T18:39:55Z", "lat": 50.775, "lon": 6.083, "intensity": 0.8, "source": "WDR"}, {"title": "NRW-Landtag jetzt auf WhatsApp und YouTube Shorts", "url": "https://www1.wdr.de/nachrichten/landespolitik/landtag-whatsapp-youtube-100.html", "thumbnailUrl": null, "date": "2024-04-04T15:31:48Z", "lat": 51.5136, "lon": 7.4854, "intensity": 0.6, "source": "WDR"}, {"title": "NRW-Kriminalstatistik 2023: Mehr Straftaten und mehr junge Tatverd\u00e4chtige", "url": "https://www1.wdr.de/nachrichten/landespolitik/kriminalitaetsstatistik-nrw-reul-100.html", "thumbnailUrl": null, "date": "2024-04-04T15:09:10Z", "lat": 51.8133, "lon": 7.6261, "intensity": 0.8, "source": "WDR"}, {"title": "Kommentar: Herbert Reul - der Sheriff ist gescheitert", "url": "https://www1.wdr.de/nachrichten/landespolitik/kriminalitaet-nrw-reul-kommentar-100.html", "thumbnailUrl": null, "date": "2024-04-03T15:56:13Z", "lat": 51.9607, "lon": 7.6261, "intensity": 0.8, "source": "WDR"}, {"title": "Ministerinnen-Paar: Gr\u00fcne Ministerin Paul will Justizministerin aus Sachsen heiraten", "url": "https://www1.wdr.de/nachrichten/landespolitik/gruene-ministerin-paul-will-amtskollegin-heiraten-100.html", "thumbnailUrl": null, "date": "2024-04-03T15:40:36Z", "lat": 51.1657, "lon": 9.9286, "intensity": 0.4, "source": "WDR"}, {"title": "Antisemitische Vorf\u00e4lle in NRW nehmen zu", "url": "https://www1.wdr.de/nachrichten/landespolitik/antisemitische-vorfaelle-nrw-100.html", "thumbnailUrl": null, "date": "2024-04-04T13:31:25Z", "lat": 51.4818, "lon": 7.6261, "intensity": 0.8, "source": "WDR"}, {"title": "Wuppertaler Zoo half beim Umzug des Johannes-Rau-Gymnasiums", "url": "https://www1.wdr.de/nachrichten/rheinland/wuppertal-gymnasium-zieht-in-osterferien-um-100.html", "thumbnailUrl": null, "date": "2024-04-05T05:28:35Z", "lat": 51.2647, "lon": 7.1797, "intensity": 0.6, "source": "WDR"}, {"title": "Erfolgreiches Pilotprojekt: In K\u00f6ln kommen Ausweise aus dem Automaten", "url": "https://www1.wdr.de/nachrichten/rheinland/abholstation-fuer-ausweise-koeln-100.html", "thumbnailUrl": null, "date": "2024-04-04T18:43:32Z", "lat": 50.9375, "lon": 7.0069, "intensity": 0.4, "source": "WDR"}, {"title": "Zuckerwasser im Brief: Entwarnung nach Gro\u00dfeinsatz am Polizeipr\u00e4sidium K\u00f6ln", "url": "https://www1.wdr.de/nachrichten/rheinland/feuerwehreinsatz-koeln-unbekannte-substanz-briefumschlag-106.html", "thumbnailUrl": null, "date": "2024-04-04T17:43:19Z", "lat": 50.9375, "lon": 7.0069, "intensity": 0.8, "source": "WDR"}, {"title": "300 Menschen erinnern in Dortmund mit Schweigemarsch an Mehmet Kuba\u015f\u0131k", "url": "https://www1.wdr.de/nachrichten/ruhrgebiet/tag-der-solidaritaet-mehmet-kubasik-100.html", "thumbnailUrl": null, "date": "2024-04-04T18:33:17Z", "lat": 51.513, "lon": 7.468, "intensity": 0.8, "source": "WDR"}, {"title": "Taubenraub in Gelsenkirchen", "url": "https://www1.wdr.de/nachrichten/ruhrgebiet/taubenraub-gelsenkirchen-100.html", "thumbnailUrl": null, "date": "2024-04-04T18:24:37Z", "lat": 51.5177, "lon": 7.084, "intensity": 0.6, "source": "WDR"}, {"title": "Colani-Ei in L\u00fcnen - Wahrzeichen \u00f6ffnet f\u00fcr Besucher", "url": "https://www1.wdr.de/nachrichten/ruhrgebiet/colani-ei-luenen-102.html", "thumbnailUrl": null, "date": "2024-04-04T18:51:21Z", "lat": 51.6171, "lon": 7.4836, "intensity": 0.3, "source": "WDR"}, {"title": "Rudern: Deutschland-Achter f\u00fcr Olympia in Dortmund vorgestellt", "url": "https://www1.wdr.de/nachrichten/ruhrgebiet/vorstellung-deutschlandachter-rudern-100.html", "thumbnailUrl": null, "date": "2024-04-04T20:49:41Z", "lat": 51.5136, "lon": 7.4633, "intensity": 0.8, "source": "WDR"}, {"title": "Mit Eisenstange bewaffnet: Polizei erschie\u00dft Mann in Dortmund", "url": "https://www1.wdr.de/nachrichten/mann-dortmund-randalierer-reinoldikirche-niedergeschossen-100.html", "thumbnailUrl": null, "date": "2024-04-04T17:53:59Z", "lat": 51.5142, "lon": 7.4674, "intensity": 0.8, "source": "WDR"}, {"title": "Kostenloses Trinkwasser in S\u00fcdwestfalen boomt", "url": "https://www1.wdr.de/nachrichten/westfalen-lippe/trinkwasser-kostenlos-warstein-radfahrer-100.html", "thumbnailUrl": null, "date": "2024-04-04T13:55:23Z", "lat": 51.0, "lon": 8.0, "intensity": 0.4, "source": "WDR"}, {"title": "Die App WDR aktuell begleitet Sie durch den Tag", "url": "https://www1.wdr.de/nachrichten/wdr-aktuell-app-stores-100.html", "thumbnailUrl": null, "date": "2023-10-30T11:49:53Z", "lat": 51.4508, "lon": 7.6261, "intensity": 0.3, "source": "WDR"}, {"title": "WDR Newsroom: Informationen f\u00fcr den Westen rund um die Uhr auf allen Kan\u00e4len", "url": "https://www1.wdr.de/nachrichten/newsroom-information-nrw-westen-100.html", "thumbnailUrl": null, "date": "2021-04-14T22:00:15Z", "lat": 51.4556, "lon": 7.0116, "intensity": 0.1, "source": "WDR"}, {"title": "Das Leitungsteam des Newsrooms im WDR (Programmbereich Aktuelles)", "url": "https://www1.wdr.de/nachrichten/newsroom-leitung-team-programmbereich-aktuelles-100.html", "thumbnailUrl": null, "date": "2024-03-08T15:34:21Z", "lat": 51.460021, "lon": 7.014026, "intensity": 0.3, "source": "WDR"}, {"title": "Genthin: Stadtrat stimmt f\u00fcr Abwahlantrag gegen B\u00fcrgermeister", "url": "https://www.mdr.de/nachrichten/sachsen-anhalt/magdeburg/jerichow/genthin-abwahlantrag-buergermeister-guenther-100.html", "thumbnailUrl": null, "date": "Fri, 05 Apr 2024 06:47:57 +0200", "lat": 52.3989, "lon": 11.7368, "intensity": 0.8, "source": "MDR"}, {"title": "Sozialwesen: Es gibt zu wenige Pflegeeltern f\u00fcr immer mehr Pflegekinder", "url": "https://www.mdr.de/nachrichten/deutschland/gesellschaft/mehr-pflegekinder-weniger-pflegefamilien-100.html", "thumbnailUrl": null, "date": "Fri, 05 Apr 2024 07:06:40 +0200", "lat": 51.3784, "lon": 11.6276, "intensity": 0.8, "source": "MDR"}, {"title": "\"Charit\u00e9\": Warum die neue Staffel so au\u00dfergew\u00f6hnlich ist", "url": "https://www.mdr.de/nachrichten/deutschland/gesellschaft/charite-serie-terziyan-medizin-zukunft-kultur-news-100.html", "thumbnailUrl": null, "date": "Fri, 05 Apr 2024 05:00:02 +0200", "lat": 52.52, "lon": 13.3996, "intensity": 0.3, "source": "MDR"}, {"title": "Nahverkehr in Sachsen-Anhalt: L\u00e4ngere Streiks bei Bussen und Stra\u00dfenbahnen drohen", "url": "https://www.mdr.de/nachrichten/sachsen-anhalt/urabstimmung-streiks-nahverkehr-oepnv-100.html", "thumbnailUrl": null, "date": "Fri, 05 Apr 2024 08:44:00 +0200", "lat": 52.1334, "lon": 11.582, "intensity": 0.7, "source": "MDR"}, {"title": "Israel k\u00fcndigt Aufstockung der Gaza-Hilfen an", "url": "https://www.mdr.de/nachrichten/welt/politik/israel-gaza-hilfen-ausweitung-usa-druck-100.html", "thumbnailUrl": null, "date": "Fri, 05 Apr 2024 08:48:59 +0200", "lat": 31.9539, "lon": 34.4359, "intensity": 0.8, "source": "MDR"}, {"title": "Ukraine-News: Russland spricht von abgewehrten Angriffen auf Rostow am Don", "url": "https://www.mdr.de/nachrichten/welt/osteuropa/politik/ukraine-russland-kireg-drohnenangriff-abwehr-rostow-100.html", "thumbnailUrl": null, "date": "Fri, 05 Apr 2024 08:50:52 +0200", "lat": 47.2357, "lon": 39.7139, "intensity": 0.8, "source": "MDR"}, {"title": "Ungarn in der Nato: Treuer Verb\u00fcndeter oder Wackelkandidat?", "url": "https://www.mdr.de/nachrichten/welt/osteuropa/politik/nato-ungarn-usa-schweden-orban-100.html", "thumbnailUrl": null, "date": "Fri, 05 Apr 2024 05:00:05 +0200", "lat": 47.4979, "lon": 19.0402, "intensity": 0.7, "source": "MDR"}, {"title": "Unfall mit Auto und Lkw auf A4: Oma und drei Enkelkinder \u00fcberschlagen sich", "url": "https://www.mdr.de/nachrichten/sachsen/dresden/meissen/unfall-oma-enkelkinder-schwerverletzt-autobahn-100.html", "thumbnailUrl": null, "date": "Fri, 05 Apr 2024 08:20:51 +0200", "lat": 51.082, "lon": 13.587, "intensity": 0.8, "source": "MDR"}, {"title": "Von Autos angefahren: Kinder in Naumburg und Nebra bei Unf\u00e4llen verletzt", "url": "https://www.mdr.de/nachrichten/sachsen-anhalt/halle/burgenland/unfaelle-kinder-verletzt-naumburg-nebra-100.html", "thumbnailUrl": null, "date": "Fri, 05 Apr 2024 08:06:00 +0200", "lat": 51.1498, "lon": 11.8111, "intensity": 0.8, "source": "MDR"}, {"title": "Zu fr\u00fch plakatiert: Erfurter OB Bausewein verst\u00f6\u00dft gegen Wahlkampf-Regeln", "url": "https://www.mdr.de/nachrichten/thueringen/mitte-thueringen/erfurt/bausewein-ob-spd-wahl-plakat-frist-kommunalwahl-100.html", "thumbnailUrl": null, "date": "Thu, 04 Apr 2024 19:17:06 +0200", "lat": 50.9787, "lon": 11.0328, "intensity": 0.3, "source": "MDR"}, {"title": "Osteuropa", "url": "https://www.mdr.de/nachrichten/welt/osteuropa/index.html", "thumbnailUrl": null, "date": "Tue, 25 Apr 2023 13:02:57 +0200", "lat": 45.9432, "lon": 23.8859, "intensity": 0.5, "source": "MDR"}, {"title": "Verkehr", "url": "https://www.mdrjump.de/verkehr/index.html", "thumbnailUrl": null, "date": "Thu, 09 Jun 2022 11:05:09 +0200", "lat": 51.1657, "lon": 11.6229, "intensity": 0.2, "source": "MDR"}, {"title": "So ver\u00e4ndert sich das Klima in Sachsen, Sachsen-Anhalt und Th\u00fcringen", "url": "https://www.mdr.de/nachrichten/deutschland/panorama/wetter-klima-wandel-daten-archiv-region-100.html", "thumbnailUrl": null, "date": "Mon, 04 Mar 2024 10:27:56 +0100", "lat": 51.339695, "lon": 12.496365, "intensity": 0.6, "source": "MDR"}, {"title": "40 Milliarden f\u00fcr den Ausstieg aus der Braunkohle", "url": "https://www.mdr.de/nachrichten/deutschland/wirtschaft/kohlemilliarden/kohle-ausstieg-foerderung-steuergeld-100.html", "thumbnailUrl": null, "date": "Thu, 07 Dec 2023 14:06:43 +0100", "lat": 52.52, "lon": 13.405, "intensity": 0.7, "source": "MDR"}, {"title": "Schaffen wir die Energiewende? Live-Daten zum Ausbau der Windkraft in Deutschland", "url": "https://www.mdr.de/wissen/windkraft-windenergie-ausbau-deutschland-live-daten-aktuell-100.html", "thumbnailUrl": null, "date": "Thu, 16 Mar 2023 10:28:43 +0100", "lat": 51.1657, "lon": 10.4515, "intensity": 0.8, "source": "MDR"}, {"title": "Dynamo Dresden: Gegen Saarbr\u00fccken \"kann es nur besser werden\"", "url": "https://www.mdr.de/sport/fussball_3l/vorschau-dynamo-dresden-fc-saarbruecken-100.html", "thumbnailUrl": null, "date": "Fri, 05 Apr 2024 08:15:27 +0200", "lat": 51.0504, "lon": 13.751, "intensity": 0.8, "source": "MDR"}, {"title": "1. FC Magdeburg in Elversberg unter Zugzwang - \"Das Maximum investieren\"", "url": "https://www.mdr.de/sport/fussball_2bl/vorschau-sv-elversberg-fc-magdeburg-100.html", "thumbnailUrl": null, "date": "Thu, 04 Apr 2024 17:12:10 +0200", "lat": 49.2906, "lon": 7.11, "intensity": 0.6, "source": "MDR"}, {"title": "Kollektiver Freudentaumel: Wie die Niners Chemnitz ihre Fans mitrei\u00dfen", "url": "https://www.mdr.de/nachrichten/sachsen/chemnitz/chemnitz-stollberg/basketball-niners-fans-sport-europe-100.html", "thumbnailUrl": null, "date": "Thu, 04 Apr 2024 15:24:58 +0200", "lat": 50.832, "lon": 12.9205, "intensity": 0.7, "source": "MDR"}, {"title": "Kl\u00f6ppeln ist spitze: Tausende Fans in Schwarzenberg erwartet", "url": "https://www.mdr.de/nachrichten/sachsen/chemnitz/annaberg-aue-schwarzenberg/diy-handarbeit-kloeppeln-handwerk-ausflug-100.html", "thumbnailUrl": null, "date": "Fri, 05 Apr 2024 05:15:00 +0200", "lat": 50.5358, "lon": 12.9574, "intensity": 0.3, "source": "MDR"}, {"title": "Wie gef\u00e4hrlich sind Katzen f\u00fcr Singv\u00f6gel?", "url": "https://www.mdr.de/sachsenradio/katzen-voegel-gefahr-garten-100.html", "thumbnailUrl": null, "date": "Thu, 04 Apr 2024 19:11:40 +0200", "lat": 51.104541, "lon": 12.496365, "intensity": 0.8, "source": "MDR"}, {"title": "Th\u00fcringer Gastronomen entdecken No-Show-Stornogeb\u00fchr", "url": "https://www.mdr.de/nachrichten/thueringen/restaurant-gastronomie-kosten-gebuehr-gaeste-reservierung-100.html", "thumbnailUrl": null, "date": "Wed, 03 Apr 2024 18:57:56 +0200", "lat": 50.9795, "lon": 10.4524, "intensity": 0.6, "source": "MDR"}, {"title": "Leipzig: 12. S\u00e4chsisches Theatertreffen stellt Programm vor", "url": "https://www.mdr.de/nachrichten/sachsen/leipzig/leipzig-leipzig-land/saechsisches-theater-treffen-programm-kultur-news-100.html", "thumbnailUrl": null, "date": "Thu, 04 Apr 2024 19:36:02 +0200", "lat": 51.343, "lon": 12.386, "intensity": 0.5, "source": "MDR"}, {"title": "Sonneberg, Zeitz und Radebeul: Ausflugsziele f\u00fcrs Wochenende", "url": "https://www.mdr.de/kultur/ausflug-tipps/sonneberg-zeitz-radebeul-wohin-am-wochenende-tipps-100.html", "thumbnailUrl": null, "date": "Thu, 04 Apr 2024 15:30:00 +0200", "lat": 50.3563, "lon": 11.167, "intensity": 0.4, "source": "MDR"}, {"title": "USA wollen Mondzeit einf\u00fchren", "url": "https://www.mdr.de/wissen/astronomie-raumfahrt/mondzeit-usa-mond-nasa-mondlandung-zeitumstellung-100.html", "thumbnailUrl": null, "date": "Thu, 04 Apr 2024 13:58:37 +0200", "lat": 37.0902, "lon": -95.7129, "intensity": 0.6, "source": "MDR"}, {"title": "Dresdner Forscher sichern Daten dauerhaft durch atomare Defekte", "url": "https://www.mdr.de/wissen/naturwissenschaften-technik/siliziumkarbid-datenspeicher-daten-langzeit-speicherung-hzdr-dresden-100.html", "thumbnailUrl": null, "date": "Thu, 04 Apr 2024 18:00:09 +0200", "lat": 51.0504, "lon": 13.7815, "intensity": 0.7, "source": "MDR"}, {"title": "Uni Halle gr\u00fcndet Forschungszentrum zum Braunkohle-Strukturwandel in Sachsen-Anhalt", "url": "https://www.mdr.de/wissen/naturwissenschaften-technik/braunkohle-strukturwandel-kohleausstieg-sachsen-anhalt-uni-halle-100.html", "thumbnailUrl": null, "date": "Thu, 04 Apr 2024 12:15:02 +0200", "lat": 51.486808, "lon": 11.584218, "intensity": 0.7, "source": "MDR"}, {"title": "Maite Kelly: \"Ich will eine gro\u00dfe Arenashow machen f\u00fcr einen Menschen!\"", "url": "https://www.mdr.de/meine-schlagerwelt/maite-kelly-kelly-family-ueber-ihre-neue-arena-show-schlager-des-monats-christin-stark100.html", "thumbnailUrl": null, "date": "Thu, 04 Apr 2024 16:03:29 +0200", "lat": 53.5511, "lon": 9.9869, "intensity": 0.6, "source": "MDR"}, {"title": "Marie Wegener weint um \"Rocky\"", "url": "https://www.mdr.de/meine-schlagerwelt/marie-wegener-trauer-um-hund-rocky-koeniglich-siegerin-dsds-100.html", "thumbnailUrl": null, "date": "Thu, 04 Apr 2024 14:06:16 +0200", "lat": 51.0491, "lon": 7.8332, "intensity": 0.4, "source": "MDR"}, {"title": "Magdeburg, Halle, Dessau: Wo sich Arm und Reich in den St\u00e4dten ballen", "url": "https://www.mdr.de/nachrichten/sachsen-anhalt/segregation-armut-dessau-magdeburg-halle-100.html", "thumbnailUrl": null, "date": "Thu, 04 Apr 2024 21:21:03 +0200", "lat": 52.1205, "lon": 11.6276, "intensity": 0.8, "source": "MDR"}, {"title": "MDR TH\u00dcRINGEN: Neue Direktorin tritt Amt im Landesfunkhaus an", "url": "https://www.mdr.de/nachrichten/thueringen/mitte-thueringen/erfurt/direktorin-landesfunkhaus-astrid-plenk-kika-ard-zdf-100.html", "thumbnailUrl": null, "date": "Tue, 02 Apr 2024 15:03:07 +0200", "lat": 50.9848, "lon": 11.0299, "intensity": 0.4, "source": "MDR"}, {"title": "Preview der Dokumentation \"Hirschhausen \u2013 Medizin von morgen\" in Magdeburg", "url": "https://www.mdr.de/nachrichten/mitmachen/medizin-von-morgen-mit-eckart-von-hirschhausen-100.html", "thumbnailUrl": null, "date": "Thu, 04 Apr 2024 14:32:28 +0200", "lat": 52.1205, "lon": 11.6276, "intensity": 0.3, "source": "MDR"}, {"title": "++ Mutma\u00dflicher Messer-Angreifer von Wangen in U-Haft ++ Feuer in Asylbewerberunterkunft in Forchtenberg ++", "url": "https://www.swr.de/swraktuell/baden-wuerttemberg/bw-newsticker-am-morgen-2024-04-05-100.html", "thumbnailUrl": "https://www.swr.de/swraktuell/baden-wuerttemberg/1712289370749%2Csupermarkt-wangen-100~_v-16x9@2dXL_-77ed5d09bafd4e3cf6a5a0264e5e16ea35f14925.jpg", "date": "Fri, 5 Apr 2024 08:35:05 +0200", "lat": 47.7003, "lon": 9.8153, "intensity": 0.7, "source": "SWR"}, {"title": "++ Mehr kleine Waffenscheine in Westpfalz ++ LU: Kritik an Eidechsen-Umzug ++ Pf\u00e4lzerwald geht's besser ++", "url": "https://www.swr.de/swraktuell/rheinland-pfalz/rlp-newsticker-2024-04-05-waffenscheine-westpfalz-eidechsen-ludwigshafen-pfaelzerwald-100.html", "thumbnailUrl": "https://www.swr.de/swraktuell/rheinland-pfalz/1712292491780%2Ckleiner-waffenschein-102~_v-16x9@2dXL_-77ed5d09bafd4e3cf6a5a0264e5e16ea35f14925.jpg", "date": "Fri, 5 Apr 2024 07:35:57 +0200", "lat": 49.5043223, "lon": 8.2472522, "intensity": 0.4, "source": "SWR"}, {"title": "RLP m\u00f6chte Pflegekr\u00e4fte aus Ruanda f\u00fcr Austausch gewinnen", "url": "https://www.swr.de/swraktuell/rheinland-pfalz/austausch-rlp-will-in-ruanda-pflegekraefte-fuer-krankenhauser-gewinnen-100.html", "thumbnailUrl": "https://www.swr.de/swraktuell/rheinland-pfalz/1712243288104%2Cdreyer-pflegekraefte-ruanda-100~_v-16x9@2dXL_-77ed5d09bafd4e3cf6a5a0264e5e16ea35f14925.jpg", "date": "Thu, 4 Apr 2024 21:30:52 +0200", "lat": 50.1109, "lon": 7.4152, "intensity": 0.8, "source": "SWR"}, {"title": "Rechtsextremismus bei Polizei RLP: Ermittlungen gegen sechs Beamte", "url": "https://www.swr.de/swraktuell/rheinland-pfalz/ermittlungen-gegen-sechs-polizisten-wegen-rechtsextremer-gesinnung-100.html", "thumbnailUrl": "https://www.swr.de/swraktuell/rheinland-pfalz/1712238423773%2Cpolizist-in-uniform-blaulicht-100~_v-16x9@2dXL_-77ed5d09bafd4e3cf6a5a0264e5e16ea35f14925.jpg", "date": "Thu, 4 Apr 2024 20:16:38 +0200", "lat": 50.3556, "lon": 7.2663, "intensity": 0.8, "source": "SWR"}, {"title": "Nach Messerangriff in Wangen im Allg\u00e4u: 34-J\u00e4hriger wegen versuchten Mordes in U-Haft", "url": "https://www.swr.de/swraktuell/baden-wuerttemberg/friedrichshafen/mann-sticht-in-supermarkt-auf-vierjaehrige-ein-100.html", "thumbnailUrl": "https://www.swr.de/swraktuell/baden-wuerttemberg/friedrichshafen/1712256430888%2Csupermarkt-wangen-mann-sticht-auf-vierjaehrige-ein-100~_v-16x9@2dXL_-77ed5d09bafd4e3cf6a5a0264e5e16ea35f14925.jpg", "date": "Fri, 5 Apr 2024 08:10:51 +0200", "lat": 47.6878, "lon": 9.8333, "intensity": 0.8, "source": "SWR"}, {"title": "Aggressive P\u00f6bler in Mainz: Wie geht die Polizei mit solchen Menschen um?", "url": "https://www.swr.de/swraktuell/rheinland-pfalz/mainz/wie-geht-die-polizei-in-mainz-mit-immer-wieder-aggressiven-menschen-um-102.html", "thumbnailUrl": "https://www.swr.de/swraktuell/rheinland-pfalz/mainz/1712230434711%2Cwie-geht-die-polizei-in-mainz-mit-immer-wieder-aggressiven-menschen-um-100~_v-16x9@2dXL_-77ed5d09bafd4e3cf6a5a0264e5e16ea35f14925.jpg", "date": "Thu, 4 Apr 2024 15:01:16 +0200", "lat": 49.9929, "lon": 8.2418, "intensity": 0.8, "source": "SWR"}, {"title": "Klippenspringerin - Sturz ins Ungewisse", "url": "https://www.ardmediathek.de/video/swr-portraet/swr-portraet-klippenspringerin-sturz-ins-ungewisse/swr/Y3JpZDovL3N3ci5kZS9hZXgvbzIwMjgwMDE", "thumbnailUrl": "https://www.swr.de/home/1712240605858%2Cklippenspringerin-anna-bader-100~_v-16x9@2dXL_-77ed5d09bafd4e3cf6a5a0264e5e16ea35f14925.jpg", "date": "Thu, 4 Apr 2024 16:41:22 +0200", "lat": 49.8078, "lon": 7.1367, "intensity": 0.8, "source": "SWR"}, {"title": "Mann bedroht Menschen mit Messer: Polizei setzt Schusswaffe ein", "url": "https://www.swr.de/swraktuell/baden-wuerttemberg/friedrichshafen/schuss-bei-polizeieinsatz-nach-messerangriff-in-uhldingen-muehlhofen-100.html", "thumbnailUrl": "https://www.swr.de/swraktuell/baden-wuerttemberg/friedrichshafen/1712236769255%2Cschusswechsel-oberuhldingen-100~_v-16x9@2dXL_-77ed5d09bafd4e3cf6a5a0264e5e16ea35f14925.jpg", "date": "Fri, 5 Apr 2024 09:01:29 +0200", "lat": 47.7486, "lon": 9.2212, "intensity": 0.8, "source": "SWR"}, {"title": "20 Jahre alter Bergsteiger aus Neuwied stirbt am Watzmann", "url": "https://www.swr.de/swraktuell/rheinland-pfalz/koblenz/toter-bergsteiger-watzmann-kommt-aus-rlp-100.html", "thumbnailUrl": "https://www.swr.de/swraktuell/rheinland-pfalz/koblenz/1712246789721%2Crettungshubschrauber-bergwacht-watzmann-abgestuerzter-bergsteiger-100~_v-16x9@2dXL_-77ed5d09bafd4e3cf6a5a0264e5e16ea35f14925.jpg", "date": "Thu, 4 Apr 2024 22:47:37 +0200", "lat": 47.5443, "lon": 12.9368, "intensity": 0.8, "source": "SWR"}, {"title": "Comeback auf dem Rathausplatz: Freiburger Klimacamp wird wieder aufgebaut", "url": "https://www.swr.de/swraktuell/baden-wuerttemberg/suedbaden/klimacamp-wieder-auf-freiburger-rathausplatz-aufgebaut-100.html", "thumbnailUrl": "https://www.swr.de/swraktuell/baden-wuerttemberg/suedbaden/1712237435040%2Caufbau-des-klimacamps-freiburg-2024-100~_v-16x9@2dXL_-77ed5d09bafd4e3cf6a5a0264e5e16ea35f14925.jpg", "date": "Thu, 4 Apr 2024 18:05:38 +0200", "lat": 47.9961, "lon": 7.8497, "intensity": 0.6, "source": "SWR"}, {"title": "Immer mehr Menschen im Westen der Pfalz haben einen kleinen Waffenschein", "url": "https://www.swr.de/swraktuell/rheinland-pfalz/kaiserslautern/immer-mehr-kleine-waffenscheine-im-westen-der-pfalz-100.html", "thumbnailUrl": "https://www.swr.de/swraktuell/rheinland-pfalz/kaiserslautern/1712292511694%2Cimmer-mehr-kleine-waffenscheine-in-der-westpfalz-100~_v-16x9@2dXL_-77ed5d09bafd4e3cf6a5a0264e5e16ea35f14925.jpg", "date": "Fri, 5 Apr 2024 06:48:32 +0200", "lat": 49.4444, "lon": 7.7518, "intensity": 0.6, "source": "SWR"}, {"title": "FCK: Top-St\u00fcrmer Ragnar Ache kehrt gegen den HSV zur\u00fcck", "url": "https://www.swr.de/sport/fussball/1-fc-kaiserslautern/2-bundesliga-vorbericht-hsv-fck-ragnar-ache-100.html", "thumbnailUrl": "https://www.swr.de/sport/fussball/1-fc-kaiserslautern/1712239765700%2Cfunkel-ache-fck-100~_v-16x9@2dXL_-77ed5d09bafd4e3cf6a5a0264e5e16ea35f14925.jpg", "date": "Thu, 4 Apr 2024 16:59:12 +0200", "lat": 49.4431, "lon": 8.8326, "intensity": 0.7, "source": "SWR"}, {"title": "Rechenspielchen in Stuttgart: Wann macht der VfB Europa klar?", "url": "https://www.swr.de/sport/fussball/vfb-stuttgart/vfb-stuttgart-in-champions-league-oder-europa-league-100.html", "thumbnailUrl": "https://www.swr.de/sport/fussball/vfb-stuttgart/1712299041416%2Cvfb-stuttgart-champions-league-europa-league-104~_v-16x9@2dXL_-77ed5d09bafd4e3cf6a5a0264e5e16ea35f14925.jpg", "date": "Fri, 5 Apr 2024 08:54:57 +0200", "lat": 48.7758, "lon": 9.177, "intensity": 0.6, "source": "SWR"}, {"title": "VfB Stuttgart nach \"Wahnsinnsjahr\" mit Abwehrsorgen zum Topspiel beim BVB", "url": "https://www.swr.de/sport/fussball/vfb-stuttgart/bundesliga-vorbericht-borussia-dortmund-vfb-stuttgart-100.html", "thumbnailUrl": "https://www.swr.de/sport/fussball/vfb-stuttgart/1712232735592%2Cbvb-vfb-108~_v-16x9@2dXL_-77ed5d09bafd4e3cf6a5a0264e5e16ea35f14925.jpg", "date": "Thu, 4 Apr 2024 18:11:32 +0200", "lat": 51.511, "lon": 7.611, "intensity": 0.6, "source": "SWR"}, {"title": "Bleibt Deniz Undav beim VfB? Trainer Sebastian Hoene\u00df ist optimistisch", "url": "https://www.swr.de/sport/fussball/vfb-stuttgart/zukunft-von-deniz-undav-100.html", "thumbnailUrl": "https://www.swr.de/sport/fussball/vfb-stuttgart/1712236858063%2Cdeniz-undav-144~_v-16x9@2dXL_-77ed5d09bafd4e3cf6a5a0264e5e16ea35f14925.jpg", "date": "Thu, 4 Apr 2024 16:24:05 +0200", "lat": 48.7758, "lon": 9.1775, "intensity": 0.3, "source": "SWR"}, {"title": "Heim-EM ohne Freiburgs Abwehrchef Matthias Ginter", "url": "https://www.swr.de/sport/fussball/sc-freiburg/matthias-ginter-operation-saison-aus-100.html", "thumbnailUrl": "https://www.swr.de/sport/fussball/sc-freiburg/1712246175357%2Cmatthias-ginter-130~_v-16x9@2dXL_-77ed5d09bafd4e3cf6a5a0264e5e16ea35f14925.jpg", "date": "Thu, 4 Apr 2024 21:13:21 +0200", "lat": 47.9959, "lon": 7.8492, "intensity": 0.3, "source": "SWR"}, {"title": "Freiburgs Christian G\u00fcnter - der Kapit\u00e4n wieder voll im Saft", "url": "https://www.swr.de/sport/fussball/sc-freiburg/christian-guenther-comeback-exklusiv-interview-dein-scf-100.html", "thumbnailUrl": "https://www.swr.de/sport/fussball/sc-freiburg/1707036657800%2Cchristian-guenter-sc-freiburg-116~_v-16x9@2dXL_-77ed5d09bafd4e3cf6a5a0264e5e16ea35f14925.jpg", "date": "Thu, 4 Apr 2024 14:18:33 +0200", "lat": 47.996, "lon": 7.849, "intensity": 0.6, "source": "SWR"}, {"title": "05.04.1994: Kurt Cobain erschie\u00dft sich", "url": "https://www.swr.de/swr2/musik-jazz-und-pop/swr2-zeitwort-20240405-kurt-cobain-erschiesst-sich-100.html", "thumbnailUrl": "https://www.swr.de/swr2/musik-jazz-und-pop/1712234592647%2Cswr2-zeitwort-20240405-kurt-cobain-erschiesst-sich-102~_v-16x9@2dXL_-77ed5d09bafd4e3cf6a5a0264e5e16ea35f14925.jpg", "date": "Fri, 5 Apr 2024 05:00:00 +0200", "lat": 47.6062, "lon": -122.3321, "intensity": 1, "source": "SWR"}, {"title": "Die Natur ist meine zweite Wohnung", "url": "https://www.swr.de/heimat/freiburg/ralf-ist-survival-profi-und-uebernachtet-im-wald-100.html", "thumbnailUrl": "https://www.swr.de/heimat/freiburg/1712214378116%2Csurvial-profi-uebernachtet-im-wald-100~_v-16x9@2dXL_-77ed5d09bafd4e3cf6a5a0264e5e16ea35f14925.jpg", "date": "Thu, 4 Apr 2024 09:15:37 +0200", "lat": 47.8207, "lon": 8.2962, "intensity": 0.7, "source": "SWR"}, {"title": "Kommentare r\u00fchren Hartmut zu Tr\u00e4nen", "url": "https://www.swr.de/heimat/karlsruhe/150000-likes-wie-hartmuts-geschichte-herzen-beruehrte-100.html", "thumbnailUrl": "https://www.swr.de/heimat/karlsruhe/1712240640128%2Chartmut-reaction-100~_v-16x9@2dXL_-77ed5d09bafd4e3cf6a5a0264e5e16ea35f14925.png", "date": "Thu, 4 Apr 2024 16:24:01 +0200", "lat": 48.814811, "lon": 8.694721, "intensity": 0.3, "source": "SWR"}, {"title": "Nach Messerangriff in Wangen im Allg\u00e4u: 34-J\u00e4hriger wegen versuchten Mordes in U-Haft", "url": "https://www.swr.de/swraktuell/baden-wuerttemberg/friedrichshafen/mann-sticht-in-supermarkt-auf-vierjaehrige-ein-100.html", "thumbnailUrl": "https://www.swr.de/swraktuell/baden-wuerttemberg/friedrichshafen/1712256430888%2Csupermarkt-wangen-mann-sticht-auf-vierjaehrige-ein-100~_v-16x9@2dXL_-77ed5d09bafd4e3cf6a5a0264e5e16ea35f14925.jpg", "date": "Fri, 5 Apr 2024 08:10:51 +0200", "lat": 47.6878, "lon": 9.8333, "intensity": 0.8, "source": "SWR"}, {"title": "20 Jahre alter Bergsteiger aus Neuwied stirbt am Watzmann", "url": "https://www.swr.de/swraktuell/rheinland-pfalz/koblenz/toter-bergsteiger-watzmann-kommt-aus-rlp-100.html", "thumbnailUrl": "https://www.swr.de/swraktuell/rheinland-pfalz/koblenz/1712246789721%2Crettungshubschrauber-bergwacht-watzmann-abgestuerzter-bergsteiger-100~_v-16x9@2dXL_-77ed5d09bafd4e3cf6a5a0264e5e16ea35f14925.jpg", "date": "Thu, 4 Apr 2024 22:47:37 +0200", "lat": 47.5443, "lon": 12.9368, "intensity": 0.8, "source": "SWR"}, {"title": "B\u00e4rlauch in Kupferzell unerlaubt geerntet: \u00dcberraschende Wendung", "url": "https://www.swr.de/swraktuell/baden-wuerttemberg/heilbronn/kuriose-wendung-baerlauch-diebstahl-kupferzell-100.html", "thumbnailUrl": "https://www.swr.de/swraktuell/baden-wuerttemberg/heilbronn/1712146155954%2Cbaerlauch-kupferzell-100~_v-16x9@2dXL_-77ed5d09bafd4e3cf6a5a0264e5e16ea35f14925.jpg", "date": "Thu, 4 Apr 2024 16:43:12 +0200", "lat": 49.2183, "lon": 9.5356, "intensity": 0.6, "source": "SWR"}, {"title": "Diebe pfl\u00fccken bei Kupferzell rund 2,5 Tonnen B\u00e4rlauch", "url": "https://www.swr.de/swraktuell/baden-wuerttemberg/heilbronn/baerlauch-pfluecker-unterwegs-100.html", "thumbnailUrl": "https://www.swr.de/swraktuell/baden-wuerttemberg/heilbronn/1712070636849%2Cbaerlauch-symbolbild-100~_v-16x9@2dXL_-77ed5d09bafd4e3cf6a5a0264e5e16ea35f14925.jpg", "date": "Thu, 4 Apr 2024 16:38:55 +0200", "lat": 49.2208, "lon": 9.6394, "intensity": 0.7, "source": "SWR"}, {"title": "Foto des Tages", "url": "https://www.swr.de/swr1/rp/bildergalerie-foto-des-tages-100.html", "thumbnailUrl": "https://www.swr.de/swr1/rp/1712203593263%2Cbildergalerie-foto-des-tages-2432~_v-16x9@2dXL_-77ed5d09bafd4e3cf6a5a0264e5e16ea35f14925.jpg", "date": "Thu, 4 Apr 2024 06:06:35 +0200", "lat": 41.9028, "lon": 12.4534, "intensity": 0.8, "source": "SWR"}, {"title": "Konzert mit Fran\u00e7ois-Xavier Roth, Isabelle Faust & Jean-Fr\u00e9d\u00e9ric Neuburger in Schwetzingen", "url": "https://www.swr.de/swr2/veranstaltungen/va-schwetzinger-festspiele-2024-verlosung-100.html", "thumbnailUrl": "https://www.swr.de/swr2/musik-klassik/schwetzinger-festspiele/1707390478554%2Cbild-ssf-2024-isabelle-faust-100~_v-16x9@2dXL_-77ed5d09bafd4e3cf6a5a0264e5e16ea35f14925.jpg", "date": "Thu, 21 Mar 2024 15:46:53 +0100", "lat": 49.3909, "lon": 8.5659, "intensity": 0.7, "source": "SWR"}, {"title": "Wir kommen zu euch!", "url": "https://www.swr.de/swr1/bw/programm/wir-kommen-zu-euch-fuer-uns-in-bw-tour-2024-100.html", "thumbnailUrl": "https://www.swr.de/swr1/bw/programm/1710944092379%2Cfuer-uns-in-baden-wuerttemberg-tour-allgemein-100~_v-16x9@2dXL_-77ed5d09bafd4e3cf6a5a0264e5e16ea35f14925.jpg", "date": "Wed, 3 Apr 2024 13:49:38 +0200", "lat": 49.0872, "lon": 9.1167, "intensity": 0.3, "source": "SWR"}, {"title": "Schwetzinger SWR Festspiele", "url": "https://www.swr.de/swr2/musik-klassik/schwetzinger-festspiele/artikel-programm-ssf-2024-100.html", "thumbnailUrl": null, "date": "Wed, 24 Jan 2024 12:47:20 +0100", "lat": 49.3822, "lon": 8.5635, "intensity": 0.4, "source": "SWR"}, {"title": "F\u00fcr nur 7 Euro seht ihr diese K\u00fcnstler beim SWR3 Rheinland-Pfalz Open Air Mainz!", "url": "https://www.swr3.de/events/rheinland-pfalz-open-air-mainz-100.html", "thumbnailUrl": "https://www.swr3.de/events/1708067629255%2Crheinland-pfalz-open-air-mainz-2024-lineup-100~_v-16x9@2dXL_-77ed5d09bafd4e3cf6a5a0264e5e16ea35f14925.jpg", "date": "Thu, 28 Mar 2024 09:26:14 +0100", "lat": 50.00113, "lon": 8.24725, "intensity": 0.6, "source": "SWR"}, {"title": "SWR2 Vor Ort: live dabei sein beim lesenswert Quartett mit Denis Scheck", "url": "https://www.swr.de/swr2/veranstaltungen/va-lesenswert-quartett-104.html", "thumbnailUrl": "https://www.swrfernsehen.de/lesenswert/1655834746554%2Cdenis-scheck-im-lesenswert-quartett-juni-2022-102~_v-16x9@2dXL_-77ed5d09bafd4e3cf6a5a0264e5e16ea35f14925.jpg", "date": "Mon, 4 Mar 2024 11:59:11 +0100", "lat": 50.00068, "lon": 8.26992, "intensity": 0.7, "source": "SWR"}, {"title": "\"Darauf freue ich mich\"", "url": "https://www.swrfernsehen.de/landesschau-rp/specials/formular-worauf-freuen-sie-sich-100.html", "thumbnailUrl": "https://www.swrfernsehen.de/landesschau-rp/specials/1653530478121%2Cdarauf-freue-ich-mich-102~_v-16x9@2dXL_-77ed5d09bafd4e3cf6a5a0264e5e16ea35f14925.jpg", "date": "Thu, 1 Feb 2024 12:50:28 +0100", "lat": 50.3974, "lon": 7.2661, "intensity": 0.3, "source": "SWR"}, {"title": "Das gro\u00dfe Bl\u00fchen", "url": "https://www.swr.de/wissen/apfelbluete/index.html", "thumbnailUrl": null, "date": "Wed, 27 Mar 2024 14:25:16 +0100", "lat": 51.5143, "lon": 9.9534, "intensity": 0.3, "source": "SWR"}, {"title": "5. April: +++ Apfelbl\u00fcte breitet sich schnell nach Osten und Norden aus! +++", "url": "https://www.swr.de/wissen/apfelbluete/apfelbluete-liveticker-2024-100.html", "thumbnailUrl": "https://www.swr.de/wissen/apfelbluete/1711284440198%2Capfelbluete-moers-240323-102~_v-16x9@2dXL_-77ed5d09bafd4e3cf6a5a0264e5e16ea35f14925.jpg", "date": "Fri, 5 Apr 2024 08:43:31 +0200", "lat": 49.992861, "lon": 8.239895, "intensity": 0.4, "source": "SWR"}, {"title": "Dossier: Wie wohnt Rheinland-Pfalz?", "url": "https://www.swr.de/swraktuell/rheinland-pfalz/dossier-wohnen-in-rheinland-pfalz-102.html", "thumbnailUrl": "https://www.swr.de/swraktuell/rheinland-pfalz/1710928774431%2Cwohnen-symbolbild-100~_v-16x9@2dXL_-77ed5d09bafd4e3cf6a5a0264e5e16ea35f14925.jpg", "date": "Thu, 21 Mar 2024 07:36:09 +0100", "lat": 49.7604, "lon": 7.4157, "intensity": 0.5, "source": "SWR"}, {"title": "Vielfalt macht uns stark!", "url": "https://www.swr.de/home/diversitaetstag-100.html", "thumbnailUrl": "https://www.swr.de/home/1684163752619%2Cdiversity-day-2023-vielfalt-inklusion-logo-100~_v-16x9@2dXL_-77ed5d09bafd4e3cf6a5a0264e5e16ea35f14925.jpg", "date": "Wed, 3 Apr 2024 10:43:43 +0200", "lat": 48.791491, "lon": 9.993682, "intensity": 0.3, "source": "SWR"}, {"title": "So tanken Sie heute g\u00fcnstig", "url": "https://www.swr.de/swraktuell/diesel-und-benzinpreise-aktuell-so-tanken-sie-heute-clever-100.html", "thumbnailUrl": "https://www.swr.de/swraktuell/1667503969159%2Cdiesel-und-benzinpreise-so-teuer-ist-tanken-102~_v-16x9@2dXL_-77ed5d09bafd4e3cf6a5a0264e5e16ea35f14925.jpg", "date": "Fri, 5 Apr 2024 08:30:04 +0200", "lat": 51.1657, "lon": 10.4515, "intensity": 0.2, "source": "SWR"}, {"title": "Dossier: Wie der Klimawandel das Leben in Rheinland-Pfalz beeinflusst", "url": "https://www.swr.de/swraktuell/rheinland-pfalz/dossier-klimawandel-rheinland-pfalz-102.html", "thumbnailUrl": "https://www.swr.de/swraktuell/baden-wuerttemberg/ulm/1704477674263%2Causwirkungen-klimawandel-auf-wald-und-baeume-104~_v-16x9@2dXL_-77ed5d09bafd4e3cf6a5a0264e5e16ea35f14925.jpg", "date": "Thu, 21 Mar 2024 07:52:17 +0100", "lat": 49.7931, "lon": 7.2662, "intensity": 0.8, "source": "SWR"}, {"title": "Coronavirus: Alles Wichtige f\u00fcr Rheinland-Pfalz und Baden-W\u00fcrttemberg", "url": "https://www.swr.de/swraktuell/coronavirus-alles-wichtige-fuer-baden-wuerttemberg-und-rheinland-pfalz-100.html", "thumbnailUrl": "https://www.swr.de/home/1653540557339%2Ccoronabuendel-teaser-mud-abgestimmt-teaserbild-100~_v-16x9@2dXL_-77ed5d09bafd4e3cf6a5a0264e5e16ea35f14925.jpg", "date": "Thu, 21 Mar 2024 14:36:16 +0100", "lat": 49.992862, "lon": 8.239761, "intensity": 0.7, "source": "SWR"}, {"title": "Alles auf E \u00b7 Friedefeld", "url": "https://www.ardmediathek.de/video/friedefeld/alles-auf-e-friedefeld-oder-animated-sitcom/br-fernsehen/Y3JpZDovL2JyLmRlL2Jyb2FkY2FzdFNjaGVkdWxlU2xvdC80MTI2MzQ4NzM4MTNfRjIwMjRXTzAwMDcyM0Ew", "thumbnailUrl": "https://www.swrfernsehen.de/1711544631323%2Cfriedfeld-104~_v-16x9@2dXL_-77ed5d09bafd4e3cf6a5a0264e5e16ea35f14925.jpg", "date": "Wed, 27 Mar 2024 14:03:51 +0100", "lat": 50.35311, "lon": 7.58763, "intensity": 0.7, "source": "SWR"}, {"title": "Der SWR in der ARD Mediathek", "url": "https://www.ardmediathek.de/swr", "thumbnailUrl": "https://www.swrfernsehen.de/1653655919246%2Card-mediathek-168~_v-16x9@2dXL_-77ed5d09bafd4e3cf6a5a0264e5e16ea35f14925.jpg", "date": "Fri, 27 May 2022 14:51:59 +0200", "lat": 48.790447, "lon": 9.993682, "intensity": 0.1, "source": "SWR"}, {"title": "\u201eZum Kotzen sch\u00f6n\u201c \u2013 So l\u00e4sterten ber\u00fchmte Reisende \u00fcber den S\u00fcdwesten", "url": "https://www.swr.de/swr2/leben-und-gesellschaft/boese-reiseberichte-wie-beruehmte-kuenstler-den-suedwesten-mit-spott-und-kritik-kommentierten-100.html", "thumbnailUrl": "https://www.swr.de/swr2/literatur/1712152115182%2Cboese-reiseberichte-116~_v-16x9@2dXL_-77ed5d09bafd4e3cf6a5a0264e5e16ea35f14925.jpg", "date": "Thu, 4 Apr 2024 15:06:17 +0200", "lat": 49.9935, "lon": 8.2318, "intensity": 0.5, "source": "SWR"}, {"title": "Pablo Heras-Casado dirigiert Faur\u00e9, Ravel und Schumann", "url": "https://www.swr.de/swr2/musik-klassik/symphonieorchester/pablo-heras-casado-dirigiert-das-swr-symphonieorchester-100.html", "thumbnailUrl": "https://www.swr.de/swr2/musik-klassik/klangvielfalt/1687340540732%2Cstill-pablo-heras-casado-102~_v-16x9@2dL_-6c42aff4e68b43c7868c3240d3ebfa29867457da.jpg", "date": "Fri, 16 Feb 2024 13:30:38 +0100", "lat": 47.9972, "lon": 7.8492, "intensity": 0.3, "source": "SWR"}, {"title": "Line Up komplett: Berq beim DASDING Festival 2024!", "url": "https://www.dasding.de/events/festivals/dasding-festival-mannheim-2024-114.html", "thumbnailUrl": "https://www.dasding.de/events/festivals/1702995256383%2Cdasding-festival-2024-header-102~_v-16x9@2dXL_-77ed5d09bafd4e3cf6a5a0264e5e16ea35f14925.jpg", "date": "Fri, 1 Mar 2024 06:00:05 +0100", "lat": 53.551086, "lon": 9.993682, "intensity": 0.4, "source": "SWR"}, {"title": "Wolfgang Sch\u00e4uble \u2013 Memoiren: Der Mann mit dem Hang zur Selbstzerst\u00f6rung", "url": "https://www.spiegel.de/kultur/wolfgang-schaeuble-memoiren-der-mann-mit-dem-hang-zur-selbstzerstoerung-a-5e3e8d50-bed0-42a3-83d0-f355f43f1046#ref=rss", "thumbnailUrl": "https://cdn.prod.www.spiegel.de/images/15fb3798-6b69-4707-8df9-22aea960f04b_w520_r2.08_fpx58_fpy58.jpg", "date": "Thu, 4 Apr 2024 21:22:00 +0200", "lat": 48.4011, "lon": 9.9869, "intensity": 0.8, "source": "SPIEGEL"}, {"title": "Russland: Gouverneur von Murmansk bei Messerattacke verletzt", "url": "https://www.spiegel.de/ausland/russland-gouverneur-von-murmansk-bei-messerattacke-verletzt-a-5b0faf25-811d-4fa8-8d4d-5c089a510088#ref=rss", "thumbnailUrl": "https://cdn.prod.www.spiegel.de/images/5259da91-2a50-4b41-bed0-d00eb2fa7799_w520_r2.08_fpx43.41_fpy45.jpg", "date": "Fri, 5 Apr 2024 06:46:00 +0200", "lat": 68.970833, "lon": 33.086111, "intensity": 0.8, "source": "SPIEGEL"}, {"title": "Trump scheitert mit Antrag auf Verfahrenseinstellung in Georgia", "url": "https://www.spiegel.de/ausland/trump-scheitert-mit-antrag-auf-verfahrenseinstellung-in-georgia-a-e99bda4c-0158-4b2e-adfc-81ccf779b409#ref=rss", "thumbnailUrl": "https://cdn.prod.www.spiegel.de/images/98ae096e-157e-4da2-a191-679de4993f1a_w520_r2.08_fpx30.01_fpy44.99.jpg", "date": "Fri, 5 Apr 2024 06:58:00 +0200", "lat": 33.749, "lon": -84.3963, "intensity": 0.8, "source": "SPIEGEL"}, {"title": "Israel: Hilfslieferungen f\u00fcr den Gazastreifen werden aufgestockt nach Telefonat von Biden und Netanyahu", "url": "https://www.spiegel.de/ausland/israel-hilfslieferungen-fuer-den-gazastreifen-werden-aufgestockt-nach-telefonat-von-biden-und-netanyahu-a-03320693-bc62-4a65-b474-4dce994d891e#ref=rss", "thumbnailUrl": "https://cdn.prod.www.spiegel.de/images/901c52c2-8551-49e3-a7ec-951e60ca304b_w520_r2.08_fpx51.33_fpy45.jpg", "date": "Fri, 5 Apr 2024 02:45:00 +0200", "lat": 31.046051, "lon": 35.303547, "intensity": 0.8, "source": "SPIEGEL"}, {"title": "EU-Botschafterin kritisiert Kastrationsgesetz \u2013 Madagaskar verlangt Abberufung", "url": "https://www.spiegel.de/ausland/eu-botschafterin-kritisiert-kastrationsgesetz-madagaskar-verlangt-abberufung-a-47f62882-7fc6-487e-b275-b21d546c7842#ref=rss", "thumbnailUrl": "https://cdn.prod.www.spiegel.de/images/3f1738a7-18b4-4bd8-b9ad-f8128ffcb4f5_w520_r2.08_fpx50_fpy18.jpg", "date": "Fri, 5 Apr 2024 01:38:00 +0200", "lat": -18.766947, "lon": 46.869107, "intensity": 0.7, "source": "SPIEGEL"}, {"title": "Elektromobilit\u00e4t in Norwegen: Der Trend geht zum Dritt- und Viertauto", "url": "https://www.spiegel.de/auto/elektromobilitaet-in-norwegen-der-trend-geht-zum-dritt-und-viertauto-a-4059c850-34cf-418b-9b17-dcddceced06a#ref=rss", "thumbnailUrl": "https://cdn.prod.www.spiegel.de/images/b898180c-0994-4668-8433-4b6bbe56a99e_w520_r2.08_fpx56_fpy49.99.jpg", "date": "Fri, 5 Apr 2024 06:12:00 +0200", "lat": 59.9139, "lon": 10.7522, "intensity": 0.8, "source": "SPIEGEL"}, {"title": "Ballermann: Palma de Mallorca - B\u00fcrgermeister k\u00fcndigt neue Bu\u00dfgeldverordnung an", "url": "https://www.spiegel.de/panorama/ballermann-palma-de-mallorca-buergermeister-kuendigt-neue-bussgeldverordnung-an-a-e9202e9a-087f-4148-ac4f-d9310f8b50f8#ref=rss", "thumbnailUrl": "https://cdn.prod.www.spiegel.de/images/de38c1f0-f6b6-4bed-9a9a-c33b2527a7bb_w520_r2.08_fpx72.31_fpy50.98.jpg", "date": "Fri, 5 Apr 2024 08:40:00 +0200", "lat": 39.5696, "lon": 2.6501603, "intensity": 0.8, "source": "SPIEGEL"}, {"title": "Unwetter in Australien: Sturzregen setzt Sydney unter Wasser \u2013 Menschen sollen zu Hause bleiben", "url": "https://www.spiegel.de/panorama/unwetter-in-australien-sturzregen-setzt-sydney-unter-wasser-menschen-sollen-zu-hause-bleiben-a-4a7a4722-f2d1-4971-b07a-92182edc1924#ref=rss", "thumbnailUrl": "https://cdn.prod.www.spiegel.de/images/4f1d64b9-b9dc-444e-9d88-428835533f97_w520_r2.08_fpx66.52_fpy49.98.jpg", "date": "Fri, 5 Apr 2024 04:36:00 +0200", "lat": -33.8688, "lon": 151.2093, "intensity": 0.8, "source": "SPIEGEL"}, {"title": "Bulgarien: Plante die Hamas Anschl\u00e4ge auf Juden in Europa?", "url": "https://www.spiegel.de/politik/deutschland/waffenfund-in-bulgarien-plante-die-hamas-anschlaege-auf-juden-in-europa-a-8b878768-5aaf-4b0b-9778-76bed9f160b3#ref=rss", "thumbnailUrl": "https://cdn.prod.www.spiegel.de/images/03426fe6-58ab-4a2d-bf2a-8175d7a80d92_w520_r2.08_fpx60.47_fpy49.94.jpg", "date": "Thu, 4 Apr 2024 12:07:00 +0200", "lat": 42.7339, "lon": 25.4858, "intensity": 0.8, "source": "SPIEGEL"}, {"title": "Senioren-Hausgemeinschaft: \u00bbIch hab keinen Bock, alleine alt zu werden\u00ab", "url": "https://www.spiegel.de/psychologie/senioren-hausgemeinschaft-ich-hab-keinen-bock-alleine-alt-zu-werden-a-b5fe0a29-1a1b-4616-824a-91c0d3dfba0e#ref=rss", "thumbnailUrl": "https://cdn.prod.www.spiegel.de/images/679fe387-9506-4f87-a494-e40499e7f74b_w520_r2.08_fpx49.99_fpy47.13.jpg", "date": "Sat, 30 Mar 2024 14:31:00 +0100", "lat": 50.110922, "lon": 8.682127, "intensity": 0.6, "source": "SPIEGEL"}, {"title": "Asien: Taiwan: Rettungskr\u00e4fte entdecken weitere Tote nach Erdbeben", "url": "https://www.zeit.de/news/2024-04/05/taiwan-rettungskraefte-entdecken-weitere-tote-nach-erdbeben", "thumbnailUrl": "https://img.zeit.de/news/2024-04/05/taiwan-rettungskraefte-entdecken-weitere-tote-nach-erdbeben-image-group/original__640x360", "date": "Fri, 05 Apr 2024 06:57:40 -0000", "lat": 23.6978, "lon": 121.5654, "intensity": 0.8, "source": "ZEIT"}, {"title": "Wetter: 20 H\u00e4user in NRW besch\u00e4digt - Verdacht auf Tornado", "url": "https://www.zeit.de/news/2024-04/05/20-haeuser-in-nrw-beschaedigt-verdacht-auf-tornado", "thumbnailUrl": "https://img.zeit.de/news/2024-04/05/20-haeuser-in-nrw-beschaedigt-verdacht-auf-tornado-image-group/original__640x360", "date": "Fri, 05 Apr 2024 06:54:25 -0000", "lat": 51.4332, "lon": 7.7969, "intensity": 0.8, "source": "ZEIT"}, {"title": "Extremismus: Staatsschutzprozess gegen mutma\u00dfliche IS-Mitglieder in Celle", "url": "https://www.zeit.de/news/2024-04/05/staatsschutzprozess-gegen-mutmassliche-is-mitglieder-in-celle", "thumbnailUrl": "https://img.zeit.de/news/2024-04/05/staatsschutzprozess-gegen-mutmassliche-is-mitglieder-in-celle-image-group/original__640x360", "date": "Fri, 05 Apr 2024 06:45:08 -0000", "lat": 52.6248, "lon": 10.0808, "intensity": 0.8, "source": "ZEIT"}, {"title": "Br\u00e4nde: Brand in Asylunterkunft in Forchtenberg", "url": "https://www.zeit.de/news/2024-04/05/brand-in-asylunterkunft-in-forchtenberg", "thumbnailUrl": "https://img.zeit.de/news/2024-04/05/brand-in-asylunterkunft-in-forchtenberg-image-group/original__640x360", "date": "Fri, 05 Apr 2024 06:43:31 -0000", "lat": 49.2564, "lon": 9.4482, "intensity": 0.8, "source": "ZEIT"}, {"title": "Schulen: Viele Unterrichtsstunden an s\u00e4chsischen Schulen ausgefallen", "url": "https://www.zeit.de/news/2024-04/05/viele-unterrichtsstunden-an-saechsischen-schulen-ausgefallen", "thumbnailUrl": "https://img.zeit.de/news/2024-04/05/viele-unterrichtsstunden-an-saechsischen-schulen-ausgefallen-image-group/original__640x360", "date": "Fri, 05 Apr 2024 06:42:20 -0000", "lat": 51.050409, "lon": 13.737262, "intensity": 0.7, "source": "ZEIT"},