[{"title": "Me\u00dfkirch: Acht Wohnwagen auf Campingplatz abgebrannt", "url": "https://www.tagesschau.de/inland/regional/badenwuerttemberg/swr-messkirch-acht-wohnwagen-auf-campingplatz-abgebrannt-100.html", "thumbnailUrl": "https://images.tagesschau.de/image/d3650ac0-e430-43a7-a595-e316d412ee6a/AAABjsqayyE/AAABjcWesUg/16x9-512.jpg", "date": "2024-04-11T02:37:55.000+02:00", "lat": 47.9625, "lon": 9.0006, "intensity": 0.8, "source": "Tagesschau"}, {"title": "S\u00fcdkoreas Opposition siegt bei Parlamentswahl", "url": "https://www.tagesschau.de/ausland/asien/suedkorea-wahl-116.html", "thumbnailUrl": "https://images.tagesschau.de/image/f615ab79-3788-4ec3-b6b3-1391e6166f84/AAABjsm4vzY/AAABjcWesUg/16x9-512.jpg", "date": "2024-04-11T02:23:30.747+02:00", "lat": 37.5665, "lon": 126.978, "intensity": 0.8, "source": "Tagesschau"}, {"title": "Familienangeh\u00f6rige von Hanija bei Angriff get\u00f6tet", "url": "https://www.tagesschau.de/ausland/asien/hamas-hanija-familie-100.html", "thumbnailUrl": "https://images.tagesschau.de/image/bbfc2ace-d4a8-4224-af56-3df43754951e/AAABjsoys_0/AAABjcWesUg/16x9-512.jpg", "date": "2024-04-11T01:09:20.014+02:00", "lat": 31.5236, "lon": 34.4506, "intensity": 0.8, "source": "Tagesschau"}, {"title": "++ Lufthansa setzt Fl\u00fcge nach Teheran aus ++", "url": "https://www.tagesschau.de/newsticker/liveblog-nahost-mittwoch-120.html", "thumbnailUrl": "https://images.tagesschau.de/image/86262be5-efdb-4df0-9ac0-385f71eafa2f/AAABjsmXeXs/AAABjcWesUg/16x9-512.jpg", "date": "2024-04-10T23:31:47.290+02:00", "lat": 35.6895, "lon": 51.389, "intensity": 0.8, "source": "Tagesschau"}, {"title": "Stadtverordnetenversammlung: Potsdamer Jugendamtsleiter weist Vorw\u00fcrfe zu mangelndem Kinderschutz zur\u00fcck", "url": "https://www.tagesschau.de/inland/regional/brandenburg/rbb-stadtverordnetenversammlung-potsdamer-jugendamtsleiter-weist-vorwuerfe-zu-mangelndem-kinderschutz-zurueck-100.html", "thumbnailUrl": "https://images.tagesschau.de/image/9c821d91-74bd-41f5-a830-08423c43764d/AAABjsngG6Y/AAABjcWesUg/16x9-512.jpg", "date": "2024-04-10T23:14:00.000+02:00", "lat": 52.3906, "lon": 13.0645, "intensity": 0.6, "source": "Tagesschau"}, {"title": "Deutsche Volleyball-Meisterschaft: BR Volleys spielen im Finale (schon) wieder gegen Friedrichshafen", "url": "https://www.tagesschau.de/inland/regional/berlin/rbb-deutsche-volleyball-meisterschaft-br-volleys-spielen-im-finale-schon-wieder-gegen-friedrichshafen-102.html", "thumbnailUrl": "https://images.tagesschau.de/image/a8efbdd4-ec4b-4787-8b54-9df4c80e5a4a/AAABjsnDAio/AAABjcWesUg/16x9-512.jpg", "date": "2024-04-10T22:41:54.000+02:00", "lat": 52.520008, "lon": 13.404954, "intensity": 0.6, "source": "Tagesschau"}, {"title": "Halbfinalsieg gegen Straubing Tigers: Ronning schie\u00dft Eisb\u00e4ren Berlin ins DEL-Finale", "url": "https://www.tagesschau.de/inland/regional/berlin/rbb-halbfinalsieg-gegen-straubing-tigers-ronning-schiesst-eisbaeren-berlin-ins-del-finale-102.html", "thumbnailUrl": "https://images.tagesschau.de/image/376a7d4c-c68a-48ea-ad6f-b19fafab0e5d/AAABjsm2OjQ/AAABjcWesUg/16x9-512.jpg", "date": "2024-04-10T22:28:25.000+02:00", "lat": 52.52, "lon": 13.405, "intensity": 0.8, "source": "Tagesschau"}, {"title": "Gr\u00f6\u00dftes deutsches Gasimportterminal soll in Wilhelmshaven entstehen", "url": "https://www.tagesschau.de/inland/regional/niedersachsen/ndr-groesstes-deutsches-gasimportterminal-soll-in-wilhelmshaven-entstehen-100.html", "thumbnailUrl": "https://images.tagesschau.de/image/097e8bff-4e2d-4c15-9c00-c42757d16672/AAABjsmyqbs/AAABjcWesUg/16x9-512.jpg", "date": "2024-04-10T22:26:00.000+02:00", "lat": 53.5322, "lon": 8.1442, "intensity": 0.8, "source": "Tagesschau"}, {"title": "++ Moskau: Kein Interesse an Friedenskonferenz ++", "url": "https://www.tagesschau.de/newsticker/liveblog-ukraine-mittwoch-352.html", "thumbnailUrl": "https://images.tagesschau.de/image/5b073b67-29bf-4703-b6b1-71469e4c25bb/AAABizMn-kk/AAABjcWesUg/16x9-512.jpg", "date": "2024-04-10T22:20:42.116+02:00", "lat": 55.7558, "lon": 37.6176, "intensity": 0.8, "source": "Tagesschau"}, {"title": "Gedenkfeier in Berlin: 250 Menschen nehmen Abschied von City-Gr\u00fcnder Fritz Puppel", "url": "https://www.tagesschau.de/inland/regional/berlin/rbb-rund-250-gaeste-bei-trauerfeier-fuer-city-saenger-fritz-puppel-100.html", "thumbnailUrl": "https://images.tagesschau.de/image/dd26d23b-c690-400f-b54a-1e40b5f9e766/AAABjsmtCbg/AAABjcWesUg/16x9-512.jpg", "date": "2024-04-10T22:17:11.000+02:00", "lat": 52.520008, "lon": 13.404954, "intensity": 0.6, "source": "Tagesschau"}, {"title": "Gesch\u00e4ftsf\u00fchrer Marcel Sch\u00e4fer verl\u00e4sst den VfL Wolfsburg", "url": "https://www.tagesschau.de/inland/regional/niedersachsen/ndr-geschaeftsfuehrer-marcel-schaefer-verlaesst-den-vfl-wolfsburg-102.html", "thumbnailUrl": "https://images.tagesschau.de/image/2fe5cf78-de1c-42c2-9e15-d5cb71bf9602/AAABjsgf5SE/AAABjcWesUg/16x9-512.jpg", "date": "2024-04-10T22:14:00.000+02:00", "lat": 52.4226, "lon": 10.7585, "intensity": 0.7, "source": "Tagesschau"}, {"title": "Fabian Roth sammelt bei Badminton-EM wichtige Punkte f\u00fcr Olympiaquali", "url": "https://www.tagesschau.de/inland/regional/saarland/sr-fabian-roth-sammelt-bei-badminton-em-wichtige-punkte-fuer-olympiaquali-102.html", "thumbnailUrl": "https://images.tagesschau.de/image/3894974d-a5d9-4406-8393-76a2140211c3/AAABjsmTGvk/AAABjcWesUg/16x9-512.jpg", "date": "2024-04-10T21:50:00.000+02:00", "lat": 49.2402, "lon": 6.9754, "intensity": 0.7, "source": "Tagesschau"}, {"title": "\"Eine der schwersten Entscheidungen f\u00fcr viele\"", "url": "https://www.tagesschau.de/ausland/europa/asylreform-102.html", "thumbnailUrl": "https://images.tagesschau.de/image/90a7fd05-c3fe-4d7d-81af-1be512559d94/AAABjsmD5HA/AAABjcWesUg/16x9-512.jpg", "date": "2024-04-10T21:37:28.227+02:00", "lat": 48.7758, "lon": 9.1356, "intensity": 0.8, "source": "Tagesschau"}, {"title": "Mehrere Kinder bei Busungl\u00fcck leicht verletzt", "url": "https://www.tagesschau.de/inland/regional/rheinlandpfalz/swr-bus-verunglueckt-bei-freudenburg-im-kreis-trier-saarburg-100.html", "thumbnailUrl": "https://images.tagesschau.de/image/a6ec171a-e338-4414-a2f4-c6c631b5c309/AAABjsl3p04/AAABjcWesUg/16x9-512.jpg", "date": "2024-04-10T21:30:00.000+02:00", "lat": 49.6014, "lon": 6.5952, "intensity": 0.8, "source": "Tagesschau"}, {"title": "Polizisten t\u00f6ten Schwarzen mit 96 Sch\u00fcssen", "url": "https://www.tagesschau.de/ausland/amerika/usa-chicago-polizeigewalt-rassismus-schwarzer-getoetet-100.html", "thumbnailUrl": "https://images.tagesschau.de/image/e290ddc0-b674-45ac-80c5-2b50b75242bf/AAABjslk3A0/AAABjcWesUg/16x9-512.jpg", "date": "2024-04-10T21:17:33.362+02:00", "lat": 39.2904, "lon": -76.6094, "intensity": 0.9, "source": "Tagesschau"}, {"title": "Finaltraum geplatzt: Giesen unterliegt Friedrichshafen in Spiel f\u00fcnf", "url": "https://www.tagesschau.de/inland/regional/niedersachsen/ndr-finaltraum-geplatzt-giesen-unterliegt-friedrichshafen-in-spiel-fuenf-102.html", "thumbnailUrl": "https://images.tagesschau.de/image/a918f326-a076-46dd-957c-c4632744583a/AAABjsl7xEA/AAABjcWesUg/16x9-512.jpg", "date": "2024-04-10T21:01:00.000+02:00", "lat": 51.41768, "lon": 9.805589, "intensity": 0.7, "source": "Tagesschau"}, {"title": "Usedomer Literaturtage mit Gauck, Fosse und Maljartschuk", "url": "https://www.tagesschau.de/inland/regional/mecklenburgvorpommern/ndr-usedomer-literaturtage-mit-gauck-fosse-und-maljartschuk-100.html", "thumbnailUrl": "https://images.tagesschau.de/image/7090d043-b236-43fd-9d3f-906d3ac44d30/AAABjsljgcA/AAABjcWesUg/16x9-512.jpg", "date": "2024-04-10T21:00:00.000+02:00", "lat": 54.1771, "lon": 13.9257, "intensity": 0.8, "source": "Tagesschau"}, {"title": "Live: Atletico Madrid gegen Borussia Dortmund ", "url": "https://www.sportschau.de/live-und-ergebnisse/fussball/uefa-champions-league/ma9671768/atletico-madrid_borussia-dortmund/liveticker/", "thumbnailUrl": "https://images.tagesschau.de/image/5e211391-faaa-4bb9-8a92-cfd2c053b5f8/AAABjhR4xlg/AAABjcWesUg/16x9-512.jpg", "date": "2024-04-10T20:55:44.236+02:00", "lat": 40.416775, "lon": -3.70256, "intensity": 0.7, "source": "Tagesschau"}, {"title": "1. FC Saarbr\u00fccken gewinnt mit 2:1 gegen Unterhaching ", "url": "https://www.tagesschau.de/inland/regional/saarland/sr-1-fc-saarbruecken-braucht-drei-punkte-gegen-unterhaching-102.html", "thumbnailUrl": "https://images.tagesschau.de/image/dc1f9468-a535-4f97-b856-088f0d5949ee/AAABjslfztI/AAABjcWesUg/16x9-512.jpg", "date": "2024-04-10T20:55:00.000+02:00", "lat": 49.2403, "lon": 6.9925, "intensity": 0.7, "source": "Tagesschau"}, {"title": "Hamburg soll neuen plattdeutschen \u00dcbersetzerpreis bekommen", "url": "https://www.tagesschau.de/inland/regional/hamburg/ndr-hamburg-soll-neuen-plattdeutschen-uebersetzerpreis-bekommen-100.html", "thumbnailUrl": "https://images.tagesschau.de/image/da87f5ee-1d8e-4fec-a363-4604f3d3fd01/AAABjslY3vI/AAABjcWesUg/16x9-512.jpg", "date": "2024-04-10T20:49:00.000+02:00", "lat": 53.5511, "lon": 9.9937, "intensity": 0.3, "source": "Tagesschau"}, {"title": "Nach Gasleck: Hadamarer Firma darf wieder mit Gasflaschen handeln", "url": "https://www.tagesschau.de/inland/regional/hessen/hr-nach-gasleck-hadamarer-firma-darf-wieder-mit-gasflaschen-handeln-100.html", "thumbnailUrl": "https://images.tagesschau.de/image/3bcf5238-417d-4d6c-ad5f-699c2791f118/AAABjslPjGw/AAABjcWesUg/16x9-512.jpg", "date": "2024-04-10T20:40:01.383+02:00", "lat": 50.4028, "lon": 8.0544, "intensity": 0.7, "source": "Tagesschau"}, {"title": "Leuchtturm \"Roter Sand\": Noch kein neuer Standort in Sicht", "url": "https://www.tagesschau.de/inland/regional/niedersachsen/ndr-leuchtturm-roter-sand-noch-kein-neuer-standort-in-sicht-100.html", "thumbnailUrl": "https://images.tagesschau.de/image/bb74b322-e346-4927-8f6a-cc8382a08f9f/AAABjslP7lo/AAABjcWesUg/16x9-512.jpg", "date": "2024-04-10T20:36:00.000+02:00", "lat": 53.95084, "lon": 8.492352, "intensity": 0.7, "source": "Tagesschau"}, {"title": "Berlin-Friedrichshain: Maroder Brunnen am Strausberger Platz soll ab Sommer saniert werden", "url": "https://www.tagesschau.de/inland/regional/berlin/rbb-berlin-friedrichshain-maroder-brunnen-am-strausberger-platz-soll-ab-sommer-saniert-werden-100.html", "thumbnailUrl": "https://images.tagesschau.de/image/0fcad056-58ee-453d-bb7d-492878e59a8d/AAABjslTT7g/AAABjcWesUg/16x9-512.jpg", "date": "2024-04-10T20:31:53.000+02:00", "lat": 52.52, "lon": 13.4397, "intensity": 0.6, "source": "Tagesschau"}, {"title": "Ab Freitag in Berlin: Einreiseverbote vor Pal\u00e4stina-Kongress gefordert", "url": "https://www.tagesschau.de/inland/regional/berlin/rbb-ab-freitag-in-berlin-einreiseverbote-vor-palaestina-kongress-gefordert-100.html", "thumbnailUrl": "https://images.tagesschau.de/image/a6195119-7a3d-4786-86ab-d6e0d94916a8/AAABjslIYO0/AAABjcWesUg/16x9-512.jpg", "date": "2024-04-10T20:28:32.000+02:00", "lat": 52.520008, "lon": 13.404954, "intensity": 0.6, "source": "Tagesschau"}, {"title": "Mietshaus in Sch\u00f6neberg wegen Rissen in H\u00e4userwand teilweise gesperrt", "url": "https://www.tagesschau.de/inland/regional/berlin/rbb-berlin-grosse-risse-in-haeuserwand-in-schoeneberg-aufgetreten-100.html", "thumbnailUrl": "https://images.tagesschau.de/image/a5e8d42e-3b81-4771-a3d6-b8a1328dbfa8/AAABjslEtKU/AAABjcWesUg/16x9-512.jpg", "date": "2024-04-10T20:24:34.000+02:00", "lat": 52.4985, "lon": 13.3538, "intensity": 0.7, "source": "Tagesschau"}, {"title": "Niedersachsens Finanz\u00e4mter sind 2023 langsamer geworden", "url": "https://www.tagesschau.de/inland/regional/niedersachsen/ndr-niedersachsens-finanzaemter-sind-2023-langsamer-geworden-100.html", "thumbnailUrl": "https://images.tagesschau.de/image/8d03e396-a135-44d1-940f-3040bff93b9d/AAABjslgmZU/AAABjcWesUg/16x9-512.jpg", "date": "2024-04-10T20:20:00.000+02:00", "lat": 52.3759, "lon": 9.7347, "intensity": 0.6, "source": "Tagesschau"}, {"title": "Neue Doku \u00fcber \"G\u00f6hrde-Morde\" und das Verschwinden von Birgit Meier", "url": "https://www.tagesschau.de/inland/regional/niedersachsen/ndr-doku-ueber-die-goehrde-morde-und-das-verschwinden-von-birgit-meier-100.html", "thumbnailUrl": "https://images.tagesschau.de/image/d1eebbf4-6b0e-40da-b911-50b2a246616e/AAABjsbX8d0/AAABjcWesUg/16x9-512.jpg", "date": "2024-04-10T20:15:00.000+02:00", "lat": 53.1775, "lon": 10.8875, "intensity": 0.8, "source": "Tagesschau"}, {"title": "Landesgartenschau Bad Gandersheim fehlen wohl 600.000 Euro", "url": "https://www.tagesschau.de/inland/regional/niedersachsen/ndr-landesgartenschau-bad-gandersheim-gesellschaft-insolvent-100.html", "thumbnailUrl": "https://images.tagesschau.de/image/014b61ae-d01c-47fe-be70-f2017270d481/AAABjslP1lw/AAABjcWesUg/16x9-512.jpg", "date": "2024-04-10T20:13:00.000+02:00", "lat": 51.8714, "lon": 10.0303, "intensity": 0.7, "source": "Tagesschau"}, {"title": "\"H\u00f6hle des L\u00f6wen\": CSU nimmt Aiwanger in die Mangel", "url": "https://www.tagesschau.de/inland/regional/bayern/br-hoehle-des-loewen-csu-nimmt-aiwanger-in-die-mangel-102.html", "thumbnailUrl": "https://images.tagesschau.de/image/ed191cd6-6ab2-4a4a-859a-ad52ced32d2e/AAABjsk0KDE/AAABjcWesUg/16x9-512.jpg", "date": "2024-04-10T20:09:49.467+02:00", "lat": 48.1351, "lon": 11.582, "intensity": 0.7, "source": "Tagesschau"}, {"title": "Kostenloses Deutschlandticket f\u00fcr Sch\u00fcler beschlossen", "url": "https://www.tagesschau.de/inland/regional/hamburg/ndr-buergerschaft-stimmt-ueber-kostenloses-deutschlandticket-fuer-schueler-ab-100.html", "thumbnailUrl": "https://images.tagesschau.de/image/77738070-d7b0-4c0b-bda7-bb94616f02d6/AAABjslMAYg/AAABjcWesUg/16x9-512.jpg", "date": "2024-04-10T20:00:00.000+02:00", "lat": 53.5511, "lon": 9.9937, "intensity": 0.7, "source": "Tagesschau"}, {"title": "60 Einsatzkr\u00e4fte suchen Leiche eines Rentners im Wald bei Werle", "url": "https://www.tagesschau.de/inland/regional/mecklenburgvorpommern/ndr-60-einsatzkraefte-suchen-leiche-eines-rentners-im-wald-bei-werle-100.html", "thumbnailUrl": "https://images.tagesschau.de/image/d3407051-6f4c-4870-9ab9-e33a6f33539b/AAABjsko5cs/AAABjcWesUg/16x9-512.jpg", "date": "2024-04-10T19:52:00.000+02:00", "lat": 53.5135, "lon": 12.1376, "intensity": 0.8, "source": "Tagesschau"}, {"title": "Notruf aus Stelle-Wittenwurth: Seniorenheim ohne Hausarzt", "url": "https://www.tagesschau.de/inland/regional/schleswigholstein/ndr-notruf-aus-stelle-wittenwurth-seniorenheim-ohne-hausarzt-100.html", "thumbnailUrl": "https://images.tagesschau.de/image/01fcf916-436e-417f-b351-2f482528a154/AAABjsknfhI/AAABjcWesUg/16x9-512.jpg", "date": "2024-04-10T19:51:00.000+02:00", "lat": 54.2549, "lon": 9.2639, "intensity": 0.6, "source": "Tagesschau"}, {"title": "Simon Matzerath verl\u00e4sst Historisches Museum Saar f\u00fcr das Landesdenkmalamt", "url": "https://www.tagesschau.de/inland/regional/saarland/sr-simon-matzerath-verlaesst-historisches-museum-saar-fuer-das-landesdenkmalamt-100.html", "thumbnailUrl": "https://images.tagesschau.de/image/4f64cda8-c5a3-4043-abc7-1e042666313f/AAABjskftws/AAABjcWesUg/16x9-512.jpg", "date": "2024-04-10T19:43:00.000+02:00", "lat": 49.2354, "lon": 6.9969, "intensity": 0.8, "source": "Tagesschau"}, {"title": "Sch\u00fcsse in Shisha-Bar: Hamburger Polizei sucht nach Drahtzieher", "url": "https://www.tagesschau.de/inland/regional/hamburg/ndr-schuesse-in-shisha-bar-hamburger-polizei-sucht-nach-drahtzieher-100.html", "thumbnailUrl": "https://images.tagesschau.de/image/c7f12a25-a4fb-44a4-9775-af33d5335604/AAABjskVJP0/AAABjcWesUg/16x9-512.jpg", "date": "2024-04-10T19:33:00.000+02:00", "lat": 53.551, "lon": 9.985, "intensity": 0.8, "source": "Tagesschau"}, {"title": "\"Jobcoach24+\" soll B\u00fcrgergeldempf\u00e4ngern in RLP zu Job verhelfen", "url": "https://www.tagesschau.de/inland/regional/rheinlandpfalz/swr-jobcoach24-soll-buergergeldempfaengern-in-rlp-zu-job-verhelfen-100.html", "thumbnailUrl": "https://images.tagesschau.de/image/c3de27bc-9185-44eb-a64b-148ec78dc6be/AAABjskJ9ZI/AAABjcWesUg/16x9-512.jpg", "date": "2024-04-10T19:22:05.000+02:00", "lat": 50.3726, "lon": 7.6129, "intensity": 0.8, "source": "Tagesschau"}, {"title": "Unbekannte klauen 20 Jahre altes Auto - samt Welpen \"Steffi\"", "url": "https://www.tagesschau.de/inland/regional/niedersachsen/ndr-unbekannte-klauen-20-jahre-altes-auto-samt-welpen-steffi-100.html", "thumbnailUrl": "https://images.tagesschau.de/image/9714636e-6756-49ae-90c4-f17cb04ecda1/AAABjskIdXc/AAABjcWesUg/16x9-512.jpg", "date": "2024-04-10T19:18:00.000+02:00", "lat": 52.42265, "lon": 10.78607, "intensity": 0.8, "source": "Tagesschau"}, {"title": "Flusskreuzfahrten: B\u00fcrger bef\u00fcrchten Massentourismus an der Mosel", "url": "https://www.tagesschau.de/inland/regional/rheinlandpfalz/swr-flusskreuzfahrten-in-traben-trarbach-und-bernkastel-kues-regt-sich-widerstand-100.html", "thumbnailUrl": "https://images.tagesschau.de/image/4b895ff2-b680-4e96-8ac6-3e0da8bf7a89/AAABjsZ2rjA/AAABjcWesUg/16x9-512.jpg", "date": "2024-04-10T19:13:00.000+02:00", "lat": 50.119212, "lon": 7.306541, "intensity": 0.6, "source": "Tagesschau"}, {"title": "Polizeiausbildung in SH: Weniger Interesse bei \u00e4lteren Bewerbern", "url": "https://www.tagesschau.de/inland/regional/schleswigholstein/ndr-polizeiausbildung-in-sh-ab-40-jahren-wenig-interesse-100.html", "thumbnailUrl": "https://images.tagesschau.de/image/f4d28048-2c4e-440e-ac03-1058ab425af5/AAABjskIU7g/AAABjcWesUg/16x9-512.jpg", "date": "2024-04-10T19:00:00.000+02:00", "lat": 54.5519, "lon": 9.6966, "intensity": 0.3, "source": "Tagesschau"}, {"title": "700 neue Stellen f\u00fcr die Kitas in Mecklenburg-Vorpommern", "url": "https://www.tagesschau.de/inland/regional/mecklenburgvorpommern/ndr-700-neue-stellen-fuer-die-kitas-in-mecklenburg-vorpommern-100.html", "thumbnailUrl": "https://images.tagesschau.de/image/e293aba2-b69e-4a8e-8c75-e6adb176552c/AAABjsjz5HE/AAABjcWesUg/16x9-512.jpg", "date": "2024-04-10T18:57:00.000+02:00", "lat": 53.6127, "lon": 13.3701, "intensity": 0.6, "source": "Tagesschau"}, {"title": "Neuer Chef der Universit\u00e4tsmedizin Mainz muss hohes Defizit pr\u00e4sentieren ", "url": "https://www.tagesschau.de/inland/regional/rheinlandpfalz/swr-neuer-chef-der-universitaetsmedizin-mainz-muss-hohes-defizit-praesentieren-100.html", "thumbnailUrl": "https://images.tagesschau.de/image/df3fb158-a176-4e09-89bc-66ab26961f56/AAABjsj3fYE/AAABjcWesUg/16x9-512.jpg", "date": "2024-04-10T18:55:00.000+02:00", "lat": 49.9929, "lon": 8.2416, "intensity": 0.8, "source": "Tagesschau"}, {"title": "KI an Schulen: Wie weit ist Niedersachsen?", "url": "https://www.tagesschau.de/inland/regional/niedersachsen/ndr-ki-an-schulen-wie-weit-ist-niedersachsen-100.html", "thumbnailUrl": "https://images.tagesschau.de/image/08a089d8-6438-4b52-819d-9cb62bde1470/AAABjsjPnUI/AAABjcWesUg/16x9-512.jpg", "date": "2024-04-10T18:54:00.000+02:00", "lat": 52.3759, "lon": 9.7041, "intensity": 0.8, "source": "Tagesschau"}, {"title": "Kupferkabel aus Windrad gestohlen: 200.000 Euro Schaden", "url": "https://www.tagesschau.de/inland/regional/niedersachsen/ndr-kupferkabel-aus-windrad-gestohlen-200-000-euro-schaden-100.html", "thumbnailUrl": "https://images.tagesschau.de/image/99c0f6a4-ac7c-4c0d-aae5-8b903e933fed/AAABjsjwvMk/AAABjcWesUg/16x9-512.jpg", "date": "2024-04-10T18:52:00.000+02:00", "lat": 52.6893, "lon": 7.2931, "intensity": 0.8, "source": "Tagesschau"}, {"title": "Hirschhorn: Kran an Neckarschleuse ist geborgen ", "url": "https://www.tagesschau.de/inland/regional/badenwuerttemberg/swr-hirschhorn-umgekippter-baukran-blockiert-schiffe-auf-neckar-100.html", "thumbnailUrl": "https://images.tagesschau.de/image/8d1d8ede-5a9e-4f64-bd5f-0acf74188377/AAABjskJ3GQ/AAABjcWesUg/16x9-512.jpg", "date": "2024-04-10T18:52:00.000+02:00", "lat": 49.459, "lon": 8.907, "intensity": 0.7, "source": "Tagesschau"}, {"title": "Massive Kritik nach Polizeieinsatz in Brennpunkt-Hochhaus", "url": "https://www.tagesschau.de/inland/regional/niedersachsen/ndr-brennpunkt-immobilie-in-goettingen-stadt-begutachtet-verhaeltnisse-100.html", "thumbnailUrl": "https://images.tagesschau.de/image/f40e2f7a-4c41-4c07-b366-ef583ceca315/AAABjsjpNho/AAABjcWesUg/16x9-512.jpg", "date": "2024-04-10T18:45:00.000+02:00", "lat": 52.374, "lon": 9.7401, "intensity": 0.8, "source": "Tagesschau"}, {"title": "\"Uns erreichen immer noch Hilferufe\"", "url": "https://www.tagesschau.de/ausland/europa/russland-ueberschwemmungen-102.html", "thumbnailUrl": "https://images.tagesschau.de/image/4ccacbc3-0637-4aba-823f-834b28a2f16e/AAABjsjehUU/AAABjcWesUg/16x9-512.jpg", "date": "2024-04-10T18:34:40.495+02:00", "lat": 57.621554, "lon": 62.029059, "intensity": 0.8, "source": "Tagesschau"}, {"title": "Vorw\u00fcrfe gegen U-Bahn-Fahrer: BVG will mutma\u00dflichen rassistischen Vorfall in U9 am Bahnhof Zoo pr\u00fcfen", "url": "https://www.tagesschau.de/inland/regional/berlin/rbb-vorwuerfe-gegen-u-bahn-fahrer-bvg-will-mutmasslichen-rassistischen-vorfall-in-u9-am-bahnhof-zoo-pruefen-100.html", "thumbnailUrl": "https://images.tagesschau.de/image/db61617b-05a6-4e05-bb78-705de65569f3/AAABjsjhyUc/AAABjcWesUg/16x9-512.jpg", "date": "2024-04-10T18:34:35.000+02:00", "lat": 52.5066, "lon": 13.3354, "intensity": 0.8, "source": "Tagesschau"}, {"title": "Explosion in Wasserkraftwerk: Mitarbeiter von Voith Hydro vermisst", "url": "https://www.tagesschau.de/inland/regional/badenwuerttemberg/swr-explosion-in-wasserkraftwerk-mitarbeiter-von-voith-hydro-vermisst-100.html", "thumbnailUrl": "https://images.tagesschau.de/image/8f1869e2-43db-49a3-8cee-0820b33b4e51/AAABjskJykM/AAABjcWesUg/16x9-512.jpg", "date": "2024-04-10T18:34:29.000+02:00", "lat": 48.6896, "lon": 10.1512, "intensity": 0.8, "source": "Tagesschau"}, {"title": "Final Four im Handball: So wollen die F\u00fcchse Berlin den DHB-Pokal holen", "url": "https://www.tagesschau.de/inland/regional/berlin/rbb-final-four-im-handball-so-wollen-die-fuechse-berlin-den-dhb-pokal-holen-102.html", "thumbnailUrl": "https://images.tagesschau.de/image/96480e09-3f19-4f3f-b848-aaa80b2540fb/AAABjsjf-NA/AAABjcWesUg/16x9-512.jpg", "date": "2024-04-10T18:32:46.000+02:00", "lat": 52.52, "lon": 13.405, "intensity": 0.8, "source": "Tagesschau"}, {"title": "BGH st\u00e4rkt Gebrauchtwagen-K\u00e4ufern bei M\u00e4ngeln den R\u00fccken", "url": "https://www.tagesschau.de/inland/regional/hessen/hr-bgh-staerkt-gebrauchtwagen-kaeufern-bei-maengeln-den-ruecken-100.html", "thumbnailUrl": "https://images.tagesschau.de/image/9de98504-a417-4fc5-8d2e-937285325201/AAABjsjNfkI/AAABjcWesUg/16x9-512.jpg", "date": "2024-04-10T18:16:12.139+02:00", "lat": 50.84668, "lon": 9.37477, "intensity": 0.7, "source": "Tagesschau"}, {"title": "Filmfestival: Berlinale-Intendantin will \"Hass nicht tolerieren\"", "url": "https://www.tagesschau.de/inland/regional/berlin/rbb-filmfestival-berlinale-intendantin-will-hass-nicht-tolerieren-100.html", "thumbnailUrl": "https://images.tagesschau.de/image/b50296c2-ff79-4449-82af-eb98c9673907/AAABjsjPfhc/AAABjcWesUg/16x9-512.jpg", "date": "2024-04-10T18:15:47.000+02:00", "lat": 52.52, "lon": 13.405, "intensity": 0.8, "source": "Tagesschau"}, {"title": "Schwangere sollen vor Abtreibungsgegnern besser gesch\u00fctzt werden", "url": "https://www.tagesschau.de/inland/regional/saarland/sr-schwangere-sollen-vor-abtreibungsgegnern-besser-geschuetzt-werden-100.html", "thumbnailUrl": "https://images.tagesschau.de/image/6c591df4-c3b9-4797-b570-a3f7af16bbeb/AAABjsjUzaQ/AAABjcWesUg/16x9-512.jpg", "date": "2024-04-10T18:12:00.000+02:00", "lat": 49.25, "lon": 7.0, "intensity": 0.6, "source": "Tagesschau"}, {"title": "Hertha BSC gegen Hansa Rostock: Volle Konzentration im vollen Stadion", "url": "https://www.tagesschau.de/inland/regional/berlin/rbb-hertha-bsc-gegen-hansa-rostock-volle-konzentration-im-vollen-stadion-102.html", "thumbnailUrl": "https://images.tagesschau.de/image/82f4b5a0-dde0-40e9-82a0-194a937868a5/AAABjsjCrA0/AAABjcWesUg/16x9-512.jpg", "date": "2024-04-10T18:02:27.000+02:00", "lat": 52.52, "lon": 13.2773, "intensity": 0.7, "source": "Tagesschau"}, {"title": "BSW aus dem Stand bei zehn Prozent, AfD weiter vorn, SPD holt auf", "url": "https://www.tagesschau.de/inland/regional/brandenburg/rbb-bsw-aus-dem-stand-bei-zehn-prozent-afd-weiter-vorn-spd-holt-auf-100.html", "thumbnailUrl": "https://images.tagesschau.de/image/7d2e5f0b-a24b-4cbf-9fb7-d4bb4d1e1170/AAABjsjAwfo/AAABjcWesUg/16x9-512.jpg", "date": "2024-04-10T18:00:06.000+02:00", "lat": 52.3008, "lon": 13.1631, "intensity": 0.7, "source": "Tagesschau"}, {"title": "B\u00fcndnis Sahra Wagenknecht: Das Phantom im Landtag", "url": "https://www.tagesschau.de/inland/regional/brandenburg/rbb-buendnis-sahra-wagenknecht-das-phantom-im-landtag-100.html", "thumbnailUrl": "https://images.tagesschau.de/image/8f79a16b-5088-43c1-96f0-cfb9a8f680f4/AAABjsjAwBk/AAABjcWesUg/16x9-512.jpg", "date": "2024-04-10T18:00:01.000+02:00", "lat": 52.501251, "lon": 13.340881, "intensity": 0.2, "source": "Tagesschau"}, {"title": "Polizei und Beh\u00f6rden: Cannabis kann aktuell nicht aus legalen Quellen stammen - das hat Folgen", "url": "https://www.tagesschau.de/inland/regional/badenwuerttemberg/swr-polizei-und-behoerden-cannabis-kann-aktuell-nicht-aus-legalen-quellen-stammen-das-hat-folgen-100.html", "thumbnailUrl": "https://images.tagesschau.de/image/03a77218-fe06-475b-aec4-341d23c85c9c/AAABjsi82Yw/AAABjcWesUg/16x9-512.jpg", "date": "2024-04-10T17:58:00.000+02:00", "lat": 48.6616, "lon": 9.9937, "intensity": 0.6, "source": "Tagesschau"}, {"title": "Galeria Karstadt Kaufhof: H\u00e4lfte der Mitarbeiter in Essener Zentrale wird entlassen", "url": "https://www.tagesschau.de/inland/regional/nordrheinwestfalen/wdr-uebernahme-von-galeria-karstadt-kaufhof-haelfte-der-mitarbeiter-in-essener-zentrale-wird-entlassen-100.html", "thumbnailUrl": "https://images.tagesschau.de/image/4e2ffc92-c501-49f6-a474-fb8ae18ee743/AAABjsi-qzs/AAABjcWesUg/16x9-512.jpg", "date": "2024-04-10T17:57:00.000+02:00", "lat": 51.4556, "lon": 7.0131, "intensity": 0.8, "source": "Tagesschau"}, {"title": "Bericht \u00fcber angebliche AfD-Mitgliedschaft: Berliner JU-Chef Burkart zieht sich vor\u00fcbergehend zur\u00fcck", "url": "https://www.tagesschau.de/inland/regional/berlin/rbb-nach-bericht-ueber-angebliche-afd-mitgliedschaft-berliner-ju-chef-burkart-zieht-sich-voruebergehend-zurueck-100.html", "thumbnailUrl": "https://images.tagesschau.de/image/b05d715b-da23-43e5-95f1-2308959d458e/AAABjsi3tD8/AAABjcWesUg/16x9-512.jpg", "date": "2024-04-10T17:50:38.000+02:00", "lat": 52.520008, "lon": 13.404954, "intensity": 0.3, "source": "Tagesschau"}, {"title": "Landesregierung will Eigenkapital der NBank erh\u00f6hen", "url": "https://www.tagesschau.de/inland/regional/niedersachsen/ndr-landesregierung-will-eigenkapital-der-nbank-erhoehen-100.html", "thumbnailUrl": "https://images.tagesschau.de/image/647e5d53-a67f-4e66-b261-236d39236c58/AAABjsi31CE/AAABjcWesUg/16x9-512.jpg", "date": "2024-04-10T17:49:00.000+02:00", "lat": 52.3738, "lon": 9.1292, "intensity": 0.6, "source": "Tagesschau"}, {"title": "T\u00f6dliche Sch\u00fcsse in Nienburg: Bodycam-Aufnahmen ausgewertet", "url": "https://www.tagesschau.de/inland/regional/niedersachsen/ndr-toedliche-schuesse-in-nienburg-bodycam-aufnahmen-ausgewertet-100.html", "thumbnailUrl": "https://images.tagesschau.de/image/9a8b6535-80fa-4651-8285-c5124743b7f2/AAABjsi1-S0/AAABjcWesUg/16x9-512.jpg", "date": "2024-04-10T17:47:00.000+02:00", "lat": 52.6383, "lon": 9.1929, "intensity": 0.8, "source": "Tagesschau"}, {"title": "AfD-Landesvorsitz: Rinck erf\u00e4hrt von seinem R\u00fccktritt aus Medien", "url": "https://www.tagesschau.de/inland/regional/niedersachsen/ndr-afd-landesvorsitz-rinck-vor-rueckzug-schledde-will-folgen-100.html", "thumbnailUrl": "https://images.tagesschau.de/image/c5a22ed7-8d78-4861-bc11-3241f81da898/AAABjsirGVY/AAABjcWesUg/16x9-512.jpg", "date": "2024-04-10T17:38:00.000+02:00", "lat": 52.2866, "lon": 10.4515, "intensity": 0.5, "source": "Tagesschau"}, {"title": "Hugo Larsson von Eintracht Frankfurt glaubt an Sieg beim VfB Stuttgart", "url": "https://www.tagesschau.de/inland/regional/hessen/hr-hugo-larsson-von-eintracht-frankfurt-glaubt-an-sieg-beim-vfb-stuttgart-102.html", "thumbnailUrl": "https://images.tagesschau.de/image/c97e8bbc-5a85-4acd-9f53-b4c3fa2dc2ff/AAABjsi3fsM/AAABjcWesUg/16x9-512.jpg", "date": "2024-04-10T17:31:30.936+02:00", "lat": 48.7758, "lon": 9.1774, "intensity": 0.6, "source": "Tagesschau"}, {"title": "Frankfurt: Drei U-Bahnlinien und zwei Tramstrecken wegen Bauarbeiten blockiert", "url": "https://www.tagesschau.de/inland/regional/hessen/hr-frankfurt-vier-u-bahnlinien-und-zwei-trams-wegen-bauarbeiten-blockiert-100.html", "thumbnailUrl": "https://images.tagesschau.de/image/19304f28-1b03-4ecf-8a66-7d7ab7649fb1/AAABjsmITkg/AAABjcWesUg/16x9-512.jpg", "date": "2024-04-10T17:23:43.236+02:00", "lat": 50.1109, "lon": 8.6821, "intensity": 0.7, "source": "Tagesschau"}, {"title": "\"Geschwister sind so unterschiedlich wie zwei zuf\u00e4llig auf einem Spielplatz ausgew\u00e4hlte Kinder\"", "url": "https://www.tagesschau.de/inland/regional/brandenburg/rbb-interview--tag-der-geschwister-geschwister-sind-so-unterschiedlich-wie-zwei-zufaellig-auf-einem-spielplatz-ausgewaehlte-kinder-100.html", "thumbnailUrl": "https://images.tagesschau.de/image/07bdca44-7166-4a8d-a4af-553647eb6ece/AAABjsid5ts/AAABjcWesUg/16x9-512.jpg", "date": "2024-04-10T17:23:18.000+02:00", "lat": 52.520008, "lon": 13.404954, "intensity": 0.5, "source": "Tagesschau"}, {"title": "Saarl\u00e4ndische Wassertage in der HTW in Saarbr\u00fccken ", "url": "https://www.tagesschau.de/inland/regional/saarland/sr-saarlaendische-wassertage-ab-heute-in-der-htw-100.html", "thumbnailUrl": "https://images.tagesschau.de/image/037a12b4-e318-4456-8e57-61ccf1c69cda/AAABjsaZWwI/AAABjcWesUg/16x9-512.jpg", "date": "2024-04-10T17:20:00.000+02:00", "lat": 49.2402, "lon": 6.9843, "intensity": 0.6, "source": "Tagesschau"}, {"title": "Abgeordnete m\u00fcssen Economy statt Business fliegen", "url": "https://www.tagesschau.de/inland/bundestag-reisen-100.html", "thumbnailUrl": "https://images.tagesschau.de/image/a38aa9c7-01c8-4f59-8f77-b934968dff2a/AAABjsiY5wo/AAABjcWesUg/16x9-512.jpg", "date": "2024-04-10T17:19:13.276+02:00", "lat": 52.5166, "lon": 13.3777, "intensity": 0.7, "source": "Tagesschau"}, {"title": "Baldauf kritisiert CDU-Wirtschaftsrat wegen Homburg-Einladung", "url": "https://www.tagesschau.de/inland/regional/rheinlandpfalz/swr-cdu-wirtschaftsrat-rlp-haelt-am-vortrag-mit-homburg-fest-100.html", "thumbnailUrl": "https://images.tagesschau.de/image/b8edf8f3-e04c-4fd6-b523-e0e2d8b92386/AAABjsidwV0/AAABjcWesUg/16x9-512.jpg", "date": "2024-04-10T17:16:00.000+02:00", "lat": 49.6116, "lon": 7.4474, "intensity": 0.5, "source": "Tagesschau"}, {"title": "Windr\u00e4der kommen: Wei\u00dfe Zelte bei M\u00fcnsingen sollen Singv\u00f6gel vertreiben", "url": "https://www.tagesschau.de/inland/regional/badenwuerttemberg/swr-windraeder-kommen-weisse-zelte-bei-muensingen-sollen-singvoegel-vertreiben-100.html", "thumbnailUrl": "https://images.tagesschau.de/image/6bd95bcf-7509-4cb6-a818-fade63d2e867/AAABjsijPk4/AAABjcWesUg/16x9-512.jpg", "date": "2024-04-10T17:09:56.000+02:00", "lat": 48.4196, "lon": 9.3764, "intensity": 0.5, "source": "Tagesschau"}, {"title": "AfD darf auch bei der Wahl zur Regionalversammlung Saarbr\u00fccken nicht antreten", "url": "https://www.tagesschau.de/inland/regional/saarland/sr-afd-darf-auch-bei-der-wahl-zur-regionalversammlung-saarbruecken-nicht-antreten-100.html", "thumbnailUrl": "https://images.tagesschau.de/image/fd0ee201-5f11-4617-8d0d-cbb09aa9bd35/AAABjsiWYsw/AAABjcWesUg/16x9-512.jpg", "date": "2024-04-10T17:09:00.000+02:00", "lat": 49.2331, "lon": 6.9815, "intensity": 0.7, "source": "Tagesschau"}, {"title": "\u00c4rger wegen Eidechsen in Ludwigshafen: Jetzt spricht die Stadt", "url": "https://www.tagesschau.de/inland/regional/rheinlandpfalz/swr-aerger-wegen-eidechsen-in-ludwigshafen-jetzt-spricht-die-stadt-100.html", "thumbnailUrl": "https://images.tagesschau.de/image/62f4c6b7-973e-4e47-817f-f63bb5c794f4/AAABjshk-pY/AAABjcWesUg/16x9-512.jpg", "date": "2024-04-10T17:08:00.000+02:00", "lat": 49.482, "lon": 8.4452, "intensity": 0.6, "source": "Tagesschau"}, {"title": "Streit l\u00f6st Tortenschlacht in Wormser B\u00e4ckerei aus", "url": "https://www.tagesschau.de/inland/regional/rheinlandpfalz/swr-streit-loest-tortenschlacht-in-wormser-baeckerei-aus-100.html", "thumbnailUrl": "https://images.tagesschau.de/image/05ce3837-c9f9-4215-9657-a0801961844c/AAABjsiNVrQ/AAABjcWesUg/16x9-512.jpg", "date": "2024-04-10T17:06:00.000+02:00", "lat": 49.6319, "lon": 8.3586, "intensity": 0.3, "source": "Tagesschau"}, {"title": "2023 war eines der schlimmsten Waldbrandjahre", "url": "https://www.tagesschau.de/ausland/europa/eu-waldbrand-bilanz-100.html", "thumbnailUrl": "https://images.tagesschau.de/image/43e98437-9258-423a-9fa0-f6737eeb80b3/AAABjsiJpfo/AAABjcWesUg/16x9-512.jpg", "date": "2024-04-10T17:04:08.609+02:00", "lat": 52.52, "lon": 13.4085, "intensity": 0.9, "source": "Tagesschau"}, {"title": "Wasserkonferenz in Cottbus: \"Es muss sichergestellt werden, dass Wasser nicht zum Verteilkampf f\u00fchrt\"", "url": "https://www.tagesschau.de/inland/regional/brandenburg/rbb-wasserkonferenz-in-cottbus-es-muss-sichergestellt-werden-dass-wasser-nicht-zum-verteilkampf-fuehrt-100.html", "thumbnailUrl": "https://images.tagesschau.de/image/25ff2ee1-2580-4bee-abc7-2b2647199998/AAABjsiJ-Ss/AAABjcWesUg/16x9-512.jpg", "date": "2024-04-10T17:00:18.000+02:00", "lat": 51.758, "lon": 14.331, "intensity": 0.7, "source": "Tagesschau"}, {"title": "Verdi stimmt f\u00fcr unbefristete Streiks im \u00d6PNV", "url": "https://www.tagesschau.de/inland/regional/nordrheinwestfalen/wdr-verdi-stimmt-fuer-unbefristete-streiks-bald-wieder-oepnv-chaos-in-nrw-100.html", "thumbnailUrl": "https://images.tagesschau.de/image/1932194a-5a49-4a68-aa39-e7749d1d1b00/AAABjsjJoHA/AAABjcWesUg/16x9-512.jpg", "date": "2024-04-10T16:58:00.000+02:00", "lat": 51.9607, "lon": 7.5965, "intensity": 0.8, "source": "Tagesschau"}, {"title": "Linienbus mit Kindern kommt bei Freudenburg von Stra\u00dfe ab", "url": "https://www.tagesschau.de/inland/regional/saarland/sr-linienbus-mit-kindern-kommt-bei-freudenberg-von-strasse-ab-100.html", "thumbnailUrl": "https://images.tagesschau.de/image/7a2dce9a-12b9-4740-a5fe-b07f4cce225d/AAABjseQiyM/AAABjcWesUg/16x9-512.jpg", "date": "2024-04-10T16:56:00.000+02:00", "lat": 49.6458, "lon": 6.6125, "intensity": 0.7, "source": "Tagesschau"}, {"title": "Eintracht: +++ Younes h\u00e4lt sich bei Schalke fit +++ Eintracht f\u00fcr Larsson der \"perfekte Klub\" +++ Ekitik\u00e9 droht weiter auszufallen +++ ", "url": "https://www.tagesschau.de/inland/regional/hessen/hr--eintracht-wohl-mit-chaibi-einig--glasner-fast-nur-kolo-muani-der-tore-erzielt--bericht-eintracht-sagt-aouar-ab-100.html", "thumbnailUrl": "https://images.tagesschau.de/image/9415493a-4521-4ea3-b8d1-89d12f137000/AAABjsiAjOM/AAABjcWesUg/16x9-512.jpg", "date": "2024-04-10T16:52:18.621+02:00", "lat": 50.110922, "lon": 8.682127, "intensity": 0.6, "source": "Tagesschau"}, {"title": "Investorenpl\u00e4ne f\u00fcr Galeria: Wie geht es mit den Filialen in BW weiter?", "url": "https://www.tagesschau.de/inland/regional/badenwuerttemberg/swr-nach-insolvenz-bei-galeria-investoren-geben-plaene-bekannt-100.html", "thumbnailUrl": "https://images.tagesschau.de/image/8196dab0-f81d-43ad-a153-bd23294e8fc8/AAABjsgzh5E/AAABjcWesUg/16x9-512.jpg", "date": "2024-04-10T16:49:00.000+02:00", "lat": 48.7758, "lon": 9.7356, "intensity": 0.8, "source": "Tagesschau"}, {"title": "Freiburg, ungeschminkt: der Friedrichring und seine Gesichter", "url": "https://www.tagesschau.de/inland/regional/badenwuerttemberg/swr-freiburg-ungeschminkt-der-friedrichring-und-seine-gesichter-100.html", "thumbnailUrl": "https://images.tagesschau.de/image/63a4db70-31de-4900-9d98-84d98df061f6/AAABjsh8xBE/AAABjcWesUg/16x9-512.jpg", "date": "2024-04-10T16:45:39.000+02:00", "lat": 47.99609, "lon": 7.849178, "intensity": 0.6, "source": "Tagesschau"}, {"title": "100. Geburtstag von Wolfgang Menge: Vision\u00e4r der TV-Unterhaltung", "url": "https://www.tagesschau.de/inland/regional/hamburg/ndr-100-geburtstag-von-wolfgang-menge-visionaer-der-tv-unterhaltung-100.html", "thumbnailUrl": "https://images.tagesschau.de/image/6a776865-e2ec-447a-988f-c88bd8dfa319/AAABjsY21MU/AAABjcWesUg/16x9-512.jpg", "date": "2024-04-10T16:45:00.000+02:00", "lat": 53.5511, "lon": 9.9937, "intensity": 0.3, "source": "Tagesschau"}, {"title": "70 der 92 Filialen sollen erhalten bleiben", "url": "https://www.tagesschau.de/wirtschaft/galeria-neuer-investor-was-heisst-das-100.html", "thumbnailUrl": "https://images.tagesschau.de/image/b5b107ce-1917-4e07-b3c5-f71e12b5ccd5/AAABjse4gIA/AAABjcWesUg/16x9-512.jpg", "date": "2024-04-10T16:41:40.333+02:00", "lat": 51.3424, "lon": 10.1694, "intensity": 0.6, "source": "Tagesschau"}, {"title": "Feueralarm im WDR-Studio:  Leeres Studio statt Live-Sendung", "url": "https://www.tagesschau.de/inland/regional/nordrheinwestfalen/wdr-feueralarm-im-wdr-studio-leeres-studio-statt-live-sendung-100.html", "thumbnailUrl": "https://images.tagesschau.de/image/67ee7df2-55e5-4867-97d8-6c90c3b7dad1/AAABjsiEDSo/AAABjcWesUg/16x9-512.jpg", "date": "2024-04-10T16:41:00.000+02:00", "lat": 51.9607, "lon": 7.5964, "intensity": 0.5, "source": "Tagesschau"}, {"title": "EU genehmigt Milliarden-Subventionen f\u00fcr Firmen", "url": "https://www.tagesschau.de/wirtschaft/eu-genehmigt-deutsche-subventionen-100.html", "thumbnailUrl": "https://images.tagesschau.de/image/5bdf591c-ad1e-4de0-9a14-f08425a282b5/AAABi8hv51I/AAABjcWesUg/16x9-512.jpg", "date": "2024-04-10T16:28:31.884+02:00", "lat": 51.231034, "lon": 9.993682, "intensity": 0.8, "source": "Tagesschau"}, {"title": "Landgericht Landau: Prozess um Missbrauch von Edenkoben kann weitergehen", "url": "https://www.tagesschau.de/inland/regional/rheinlandpfalz/swr-prozess-um-missbrauch-von-edenkoben-urteil-wohl-diese-woche-100.html", "thumbnailUrl": "https://images.tagesschau.de/image/b00aa534-cf7e-4ead-a6f7-28ee67e743e1/AAABjsh69N0/AAABjcWesUg/16x9-512.jpg", "date": "2024-04-10T16:28:00.000+02:00", "lat": 49.2925, "lon": 8.1192, "intensity": 0.5, "source": "Tagesschau"}, {"title": "Regelbetrieb des LNG-Terminals auf R\u00fcgen soll Mitte Mai starten", "url": "https://www.tagesschau.de/inland/regional/mecklenburgvorpommern/ndr-umweltamt-genehmigt-regelbetrieb-des-lng-terminals-mukran-100.html", "thumbnailUrl": "https://images.tagesschau.de/image/b592d10f-ba11-41f9-8f4a-a1767a0f0121/AAABjsiJtGI/AAABjcWesUg/16x9-512.jpg", "date": "2024-04-10T16:28:00.000+02:00", "lat": 54.346107, "lon": 13.469276, "intensity": 0.7, "source": "Tagesschau"}, {"title": "Insolvenzverwalter: Mehr als 70 Galeria-Filialen sollen fortgef\u00fchrt werden", "url": "https://www.tagesschau.de/inland/regional/brandenburg/rbb-insolvenzverwalter-mehr-als-70-galeria-filialen-sollen-fortgefuehrt-werden-100.html", "thumbnailUrl": "https://images.tagesschau.de/image/3d4ea2a0-dbe1-4bcd-b100-c4bdeb1238ab/AAABjsgAYYE/AAABjcWesUg/16x9-512.jpg", "date": "2024-04-10T16:23:48.000+02:00", "lat": 52.52, "lon": 13.4049, "intensity": 0.8, "source": "Tagesschau"}, {"title": "Zwei Jahre altes Kind f\u00e4llt bei Bodenwerder in Weser und stirbt", "url": "https://www.tagesschau.de/inland/regional/niedersachsen/ndr-bodenwerder-zwei-jahre-altes-kind-faellt-in-weser-und-stirbt-100.html", "thumbnailUrl": "https://images.tagesschau.de/image/4473f1e8-dac5-49e6-882c-b145bfd4688a/AAABjshlbH8/AAABjcWesUg/16x9-512.jpg", "date": "2024-04-10T16:21:00.000+02:00", "lat": 51.9814, "lon": 9.5397, "intensity": 0.8, "source": "Tagesschau"}, {"title": "Kind mit Quecksilber vergiftet: Vater muss 13 Jahre in Haft", "url": "https://www.tagesschau.de/inland/regional/niedersachsen/ndr-tochter-quecksilber-gespritzt-landgericht-verkuendet-urteil-100.html", "thumbnailUrl": "https://images.tagesschau.de/image/ee3e6150-5a33-45a4-8752-b2178f05ae99/AAABjshjlBo/AAABjcWesUg/16x9-512.jpg", "date": "2024-04-10T16:19:00.000+02:00", "lat": 52.37589, "lon": 9.73322, "intensity": 0.8, "source": "Tagesschau"}, {"title": "Saarl\u00e4nder denken nicht europ\u00e4ischer als andere", "url": "https://www.tagesschau.de/inland/regional/saarland/sr-saarlaender-denken-nicht-europaeischer-als-andere-100.html", "thumbnailUrl": "https://images.tagesschau.de/image/abfa36cf-5eff-4992-a3c1-067750ca7389/AAABjshdo3o/AAABjcWesUg/16x9-512.jpg", "date": "2024-04-10T16:14:00.000+02:00", "lat": 49.3964, "lon": 6.9534, "intensity": 0.6, "source": "Tagesschau"}, {"title": "Mehrere Tote bei Explosion in Wasserkraftwerk", "url": "https://www.tagesschau.de/ausland/europa/explosion-stausee-italien-100.html", "thumbnailUrl": "https://images.tagesschau.de/image/e62c74a3-49e8-41aa-a804-9399e57d2fe2/AAABjscRPZk/AAABjcWesUg/16x9-512.jpg", "date": "2024-04-10T16:13:18.161+02:00", "lat": 45.905172, "lon": 10.464575, "intensity": 0.9, "source": "Tagesschau"}, {"title": "Vorschlag f\u00fcr h\u00f6here Mehrwertsteuer auf Fleisch", "url": "https://www.tagesschau.de/wirtschaft/verbraucher/mehrwertsteuer-fleisch-100.html", "thumbnailUrl": "https://images.tagesschau.de/image/0c0a92ae-56dd-480a-99eb-4da48f6e6d0f/AAABhnlS2uo/AAABjcWesUg/16x9-512.jpg", "date": "2024-04-10T16:08:03.851+02:00", "lat": 51.0138, "lon": 9.9937, "intensity": 0.8, "source": "Tagesschau"}, {"title": "Neue Galeria-Eigent\u00fcmer wollen mehr als 70 Filialen erhalten", "url": "https://www.tagesschau.de/inland/regional/saarland/sr-neue-galeria-eigentuemer-wollen-70-filialen-erhalten-100.html", "thumbnailUrl": "https://images.tagesschau.de/image/97ea816d-cec0-48c8-a411-fab31c9d1faf/AAABjsfUSws/AAABjcWesUg/16x9-512.jpg", "date": "2024-04-10T16:02:00.000+02:00", "lat": 49.3964, "lon": 0.9355, "intensity": 0.8, "source": "Tagesschau"}, {"title": "Ehemaliger Mieter als Verd\u00e4chtiger gefasst", "url": "https://www.tagesschau.de/inland/regional/nordrheinwestfalen/brand-solingen-verdaechtiger-100.html", "thumbnailUrl": "https://images.tagesschau.de/image/e08367d2-68f4-4357-897b-d2a256e14548/AAABjoA-Ia0/AAABjcWesUg/16x9-512.jpg", "date": "2024-04-10T16:02:00.000+02:00", "lat": 51.173, "lon": 7.083, "intensity": 0.9, "source": "Tagesschau"}, {"title": "Klamme Kassen: Sind in SH bald weniger Z\u00fcge unterwegs?", "url": "https://www.tagesschau.de/inland/regional/schleswigholstein/ndr-klamme-kassen-sind-in-sh-bald-weniger-zuege-unterwegs-100.html", "thumbnailUrl": "https://images.tagesschau.de/image/6d076cdf-7c98-4c5b-b8c7-9e7eb7cab680/AAABjshYf8Q/AAABjcWesUg/16x9-512.jpg", "date": "2024-04-10T15:43:00.000+02:00", "lat": 54.4177, "lon": 9.9889, "intensity": 0.8, "source": "Tagesschau"}, {"title": "Soko Alster: Wohnungen von Hamburger Jugendlichen durchsucht", "url": "https://www.tagesschau.de/inland/regional/hamburg/ndr-soko-alster-wohnungen-von-hamburger-jugendlichen-durchsucht-100.html", "thumbnailUrl": "https://images.tagesschau.de/image/30795816-d5d4-45ea-bce4-2aba219286c4/AAABjshJymo/AAABjcWesUg/16x9-512.jpg", "date": "2024-04-10T15:39:00.000+02:00", "lat": 53.5511, "lon": 9.9937, "intensity": 0.7, "source": "Tagesschau"}, {"title": "US-Inflation legt st\u00e4rker zu als erwartet", "url": "https://www.tagesschau.de/wirtschaft/weltwirtschaft/usa-inflationsrate-maerz-100.html", "thumbnailUrl": "https://images.tagesschau.de/image/3b09ab58-fca0-45be-bbce-9585d0cb2d6c/AAABjsgS3LE/AAABjcWesUg/16x9-512.jpg", "date": "2024-04-10T15:38:39.359+02:00", "lat": 37.09024, "lon": -95.712891, "intensity": 0.8, "source": "Tagesschau"}, {"title": "Tunnel Rastatt: Versch\u00fcttete Tunnelbohrmaschine wird freigelegt", "url": "https://www.tagesschau.de/inland/regional/badenwuerttemberg/swr-tunnel-rastatt-verschuettete-tunnelbohrmaschine-wird-freigelegt-104.html", "thumbnailUrl": "https://images.tagesschau.de/image/b48e84cd-1f1a-4f1c-a7cd-bba790a146c2/AAABjseB5X0/AAABjcWesUg/16x9-512.jpg", "date": "2024-04-10T15:37:00.000+02:00", "lat": 48.8566, "lon": 8.2037, "intensity": 0.7, "source": "Tagesschau"}, {"title": "Streuobstwiesen sollen Fechingen vor Starkregen sch\u00fctzen", "url": "https://www.tagesschau.de/inland/regional/saarland/sr-bund-foerdert-saarbruecker-klimaschutzprojekt-mit-knapp-17-mio-euro-100.html", "thumbnailUrl": "https://images.tagesschau.de/image/5e415f60-0b11-4caf-b843-8923acb8ffbf/AAABjshD_tI/AAABjcWesUg/16x9-512.jpg", "date": "2024-04-10T15:33:00.000+02:00", "lat": 49.255, "lon": 7.0559, "intensity": 0.6, "source": "Tagesschau"}, {"title": "SAGA feiert Richtfest f\u00fcr Neubauquartier in Stellingen", "url": "https://www.tagesschau.de/inland/regional/hamburg/ndr-saga-feiert-richtfest-fuer-neubauquartier-in-stellingen-100.html", "thumbnailUrl": "https://images.tagesschau.de/image/eb0ab93d-03a6-4c62-912f-9c3b8e5a6065/AAABjshPbk0/AAABjcWesUg/16x9-512.jpg", "date": "2024-04-10T15:31:00.000+02:00", "lat": 53.599, "lon": 9.9306, "intensity": 0.8, "source": "Tagesschau"}, {"title": "Neue Etappe: Harzer Klosterwanderweg reicht jetzt bis Halberstadt", "url": "https://www.tagesschau.de/inland/regional/niedersachsen/ndr-neue-etappe-harzer-klosterwanderweg-reicht-jetzt-bis-halberstadt-100.html", "thumbnailUrl": "https://images.tagesschau.de/image/03151f53-cd84-4939-91ea-cc3f6e5e4be0/AAABjsg0Bp0/AAABjcWesUg/16x9-512.jpg", "date": "2024-04-10T15:26:00.000+02:00", "lat": 51.8986, "lon": 11.0419, "intensity": 0.6, "source": "Tagesschau"}, {"title": "Deutsche Bahn baut Standort Hannover zu ICE-Werk aus", "url": "https://www.tagesschau.de/inland/regional/niedersachsen/ndr-deutsche-bahn-baut-standort-hannover-zu-ice-werk-aus-100.html", "thumbnailUrl": "https://images.tagesschau.de/image/332abaed-4e07-474c-a83d-05d7be5d9a73/AAABjsg-5sM/AAABjcWesUg/16x9-512.jpg", "date": "2024-04-10T15:24:00.000+02:00", "lat": 52.37589, "lon": 9.73322, "intensity": 0.7, "source": "Tagesschau"}, {"title": "Minus von 688 Millionen Euro: Hessens Kommunen nach langer Zeit wieder in den roten Zahlen", "url": "https://www.tagesschau.de/inland/regional/hessen/hr-minus-von-688-millionen-euro-hessische-kommunen-langer-zeit-wieder-in-den-roten-zahlen-100.html", "thumbnailUrl": "https://images.tagesschau.de/image/000a07e5-6a75-43e3-bf50-86d25ea24dc9/AAABjsgk_lU/AAABjcWesUg/16x9-512.jpg", "date": "2024-04-10T15:12:53.276+02:00", "lat": 50.5866, "lon": 9.6752, "intensity": 0.8, "source": "Tagesschau"}, {"title": "Zahl der Firmenpleiten im M\u00e4rz auf Rekordniveau", "url": "https://www.tagesschau.de/wirtschaft/unternehmen/insolvenzen-firmenpleiten-maerz-100.html", "thumbnailUrl": "https://images.tagesschau.de/image/aca20646-c497-48c1-85d1-e8d6411af899/AAABjsfss_w/AAABjcWesUg/16x9-512.jpg", "date": "2024-04-10T14:59:26.874+02:00", "lat": 52.1326, "lon": 11.582, "intensity": 0.8, "source": "Tagesschau"}, {"title": "Potsdamer Schloss Charlottenhof soll ab Juli wieder \u00f6ffnen - Ursache erh\u00f6hter Bleiwerte beseitigt", "url": "https://www.tagesschau.de/inland/regional/brandenburg/rbb-potsdamer-schloss-charlottenhof-soll-ab-juli-wieder-oeffnen-ursache-erhoehter-bleiwerte-beseitigt-100.html", "thumbnailUrl": "https://images.tagesschau.de/image/4f316024-21a0-47f3-b786-2ff837a80d86/AAABjsgb9ZY/AAABjcWesUg/16x9-512.jpg", "date": "2024-04-10T14:59:23.000+02:00", "lat": 52.3961, "lon": 13.0444, "intensity": 0.6, "source": "Tagesschau"}, {"title": "\u00d6ko-Landbau tritt im Saarland auf der Stelle", "url": "https://www.tagesschau.de/inland/regional/saarland/sr-oeko-landbau-tritt-im-saarland-auf-der-stelle-100.html", "thumbnailUrl": "https://images.tagesschau.de/image/f4e72ccd-adef-4e01-951d-43f719901399/AAABjsgbvkA/AAABjcWesUg/16x9-512.jpg", "date": "2024-04-10T14:58:00.000+02:00", "lat": 49.3964, "lon": 6.9603, "intensity": 0.3, "source": "Tagesschau"}, {"title": "Kritik an Beh\u00f6rden in Kasachstan und Russland", "url": "https://www.tagesschau.de/ausland/europa/russland-hochwasser-102.html", "thumbnailUrl": "https://images.tagesschau.de/image/10b8146c-b425-4332-8fdb-e0918cd01c16/AAABjsU4TT4/AAABjcWesUg/16x9-512.jpg", "date": "2024-04-10T14:57:07.352+02:00", "lat": 54.1113, "lon": 52.1326, "intensity": 1, "source": "Tagesschau"}, {"title": "In einigen Saar-Gemeinden bleibt der M\u00fcll derzeit liegen", "url": "https://www.tagesschau.de/inland/regional/saarland/sr-in-einigen-saar-gemeinden-bleibt-der-muell-derzeit-liegen-100.html", "thumbnailUrl": "https://images.tagesschau.de/image/66763b78-6ade-4a29-ac45-263621ee5d54/AAABjsgSjJ4/AAABjcWesUg/16x9-512.jpg", "date": "2024-04-10T14:50:00.000+02:00", "lat": 49.3964, "lon": 6.9914, "intensity": 0.5, "source": "Tagesschau"}, {"title": "Mord an Kind bei Idstein: Kripo hofft nach 40 Jahren auf neue Hinweise im Fall Markus Marker", "url": "https://www.tagesschau.de/inland/regional/hessen/hr-mord-an-kind-bei-idstein-kripo-hofft-nach-40-jahren-auf-neue-hinweise-100.html", "thumbnailUrl": "https://images.tagesschau.de/image/cdd36833-06a4-4826-9446-3e6dd9f19d46/AAABjsgLVwA/AAABjcWesUg/16x9-512.jpg", "date": "2024-04-10T14:45:31.615+02:00", "lat": 50.2323, "lon": 8.26907, "intensity": 0.8, "source": "Tagesschau"}, {"title": "Nach Tarifeinigung: Nahverkehr in MV sucht zus\u00e4tzliches Personal", "url": "https://www.tagesschau.de/inland/regional/mecklenburgvorpommern/ndr-nach-tarifeinigung-nahverkehr-sucht-zusaetzliches-personal-100.html", "thumbnailUrl": "https://images.tagesschau.de/image/3f58bcdb-1515-4ef0-88b5-8a75e09d71a6/AAABjsg-iS0/AAABjcWesUg/16x9-512.jpg", "date": "2024-04-10T14:43:00.000+02:00", "lat": 53.6127, "lon": 13.1995, "intensity": 0.6, "source": "Tagesschau"}, {"title": "Jeder F\u00fcnfte von Armut bedroht", "url": "https://www.tagesschau.de/wirtschaft/armut-deutschland-116.html", "thumbnailUrl": "https://images.tagesschau.de/image/600ab3d4-4096-45b8-8225-cd2f5aa664e7/AAABjsfRcK4/AAABjcWesUg/16x9-512.jpg", "date": "2024-04-10T14:40:48.186+02:00", "lat": 51.1657, "lon": 10.4515, "intensity": 0.8, "source": "Tagesschau"}, {"title": "FDP: Schwesig nutzt f\u00fcr eigenen Social-Media-Auftritt Steuerzahlergeld", "url": "https://www.tagesschau.de/inland/regional/mecklenburgvorpommern/ndr-fdp-schwesig-gibt-fuer-eigenen-social-media-auftritt-steuerzahlergeld-aus-100.html", "thumbnailUrl": "https://images.tagesschau.de/image/5981856d-2e9d-4a0b-b613-d12515402fd5/AAABjsf1Yq0/AAABjcWesUg/16x9-512.jpg", "date": "2024-04-10T14:21:00.000+02:00", "lat": 53.6127, "lon": 13.0671, "intensity": 0.8, "source": "Tagesschau"}, {"title": "Bremer A1 nach Unfall mit Milit\u00e4rtransport wieder komplett frei", "url": "https://www.tagesschau.de/inland/regional/bremen/rb-a1-nach-unfall-mit-militaertransporter-bei-bremen-arsten-voll-gesperrt-100.html", "thumbnailUrl": "https://images.tagesschau.de/image/50f0fcc5-3602-4f43-8ca8-43c17339752e/AAABjshAe1c/AAABjcWesUg/16x9-512.jpg", "date": "2024-04-10T14:20:00.000+02:00", "lat": 53.0256, "lon": 8.8006, "intensity": 0.7, "source": "Tagesschau"}, {"title": "Massenweise Sticker in Harsewinkel aufgetaucht", "url": "https://www.tagesschau.de/inland/regional/nordrheinwestfalen/wdr-massenweise-sticker-in-harsewinkel-aufgetaucht-100.html", "thumbnailUrl": "https://images.tagesschau.de/image/f2483260-b5e1-4e16-ba5b-593841834f9a/AAABjsgok98/AAABjcWesUg/16x9-512.jpg", "date": "2024-04-10T14:19:00.000+02:00", "lat": 51.9459, "lon": 8.1892, "intensity": 0.3, "source": "Tagesschau"}, {"title": "Saarl\u00e4ndisches Studierendenwerk fordert mehr Hilfe vom Land", "url": "https://www.tagesschau.de/inland/regional/saarland/sr-saarlaendisches-studierendenwerk-fordert-mehr-hilfe-vom-land-100.html", "thumbnailUrl": "https://images.tagesschau.de/image/2dbf2aec-3362-4644-921e-c75ea53e92df/AAABjshF240/AAABjcWesUg/16x9-512.jpg", "date": "2024-04-10T14:14:00.000+02:00", "lat": 49.3964, "lon": 7.0, "intensity": 0.6, "source": "Tagesschau"}, {"title": "Rechtzeitig die Kurve kriegen", "url": "https://www.tagesschau.de/inland/gesellschaft/kriminalitaet-praevention-nrw-100.html", "thumbnailUrl": "https://images.tagesschau.de/image/90f3f873-15ce-418d-8fa9-61647353e725/AAABjsfKUKg/AAABjcWesUg/16x9-512.jpg", "date": "2024-04-10T14:05:54.080+02:00", "lat": 51.9607, "lon": 7.6261, "intensity": 0.6, "source": "Tagesschau"}, {"title": "Kind auf Campingplatz Schillig geschlagen: Polizei findet Familie", "url": "https://www.tagesschau.de/inland/regional/niedersachsen/ndr-kind-auf-campingplatz-niedergeschlagen-mehrere-zeugenhinweise-100.html", "thumbnailUrl": "https://images.tagesschau.de/image/54283d80-02c8-4387-9fb5-a5e606234e28/AAABjsgRL1o/AAABjcWesUg/16x9-512.jpg", "date": "2024-04-10T14:04:00.000+02:00", "lat": 53.6903, "lon": 8.0403, "intensity": 0.7, "source": "Tagesschau"}, {"title": "Kultur: +++ Theaterst\u00fcck zu Hanau-Anschlag in Marburg +++ Aus f\u00fcr Kasseler Weltmusikfestival +++", "url": "https://www.tagesschau.de/inland/regional/hessen/hr--schauspiel-frankfurt-bringt-putin-und-macbeth-zusammen--die-filmfestival-saison-2023-startet--lichter-filmfest-zum-thema-liebe-startet-am-dienstag-100.html", "thumbnailUrl": "https://images.tagesschau.de/image/a864853c-0bfd-4bc4-be1d-e447b9bd029f/AAABjsfk9eE/AAABjcWesUg/16x9-512.jpg", "date": "2024-04-10T14:02:36.223+02:00", "lat": 51.31, "lon": 9.692, "intensity": 0.2, "source": "Tagesschau"}, {"title": "Generalprobe vor EM: Gr\u00f6\u00dftes Gem\u00e4lde der Welt entsteht auf Schalke", "url": "https://www.tagesschau.de/inland/regional/nordrheinwestfalen/wdr-generalprobe-vor-em-groesstes-gemaelde-der-welt-entsteht-auf-schalke-100.html", "thumbnailUrl": "https://images.tagesschau.de/image/36ca03db-fa3e-4f2f-a61a-4f9785079ea5/AAABjsf1UG0/AAABjcWesUg/16x9-512.jpg", "date": "2024-04-10T13:56:00.000+02:00", "lat": 51.5547, "lon": 7.0458, "intensity": 0.8, "source": "Tagesschau"}, {"title": "Betrunkener klaut Taxi und f\u00e4hrt beinahe in Hafenbecken", "url": "https://www.tagesschau.de/inland/regional/niedersachsen/ndr-betrunkener-klaut-taxi-und-faehrt-beinahe-in-hafenbecken-100.html", "thumbnailUrl": "https://images.tagesschau.de/image/8b0d68e5-d7a5-4433-88e0-1fcd8662f79b/AAABjsciNA4/AAABjcWesUg/16x9-512.jpg", "date": "2024-04-10T13:49:00.000+02:00", "lat": 52.11306, "lon": 8.83573, "intensity": 0.7, "source": "Tagesschau"}, {"title": "Niedersachsenderby: Polizei erwartet Krawalle und erl\u00e4sst Verbote", "url": "https://www.tagesschau.de/inland/regional/niedersachsen/ndr-niedersachsenderby-polizei-erwartet-krawalle-und-erlaesst-verbote-100.html", "thumbnailUrl": "https://images.tagesschau.de/image/9c9973a1-a37a-46cd-9aee-de0e6b5227a6/AAABjr2fzSU/AAABjcWesUg/16x9-512.jpg", "date": "2024-04-10T13:40:00.000+02:00", "lat": 52.3759, "lon": 10.5277, "intensity": 0.6, "source": "Tagesschau"}, {"title": "Eine Kanareninsel wird zu Spaniens Lampedusa", "url": "https://www.tagesschau.de/ausland/europa/spanien-el-hierro-fluechtlinge-100.html", "thumbnailUrl": "https://images.tagesschau.de/image/dd6a9bd7-98ea-4e37-bc29-ee9d647778c3/AAABjsfOgp4/AAABjcWesUg/16x9-512.jpg", "date": "2024-04-10T13:39:43.976+02:00", "lat": 27.7536, "lon": -17.8871, "intensity": 0.8, "source": "Tagesschau"}, {"title": "Berlin-Tegel: Zahl der Masern-Infektionen in Fl\u00fcchtlingsunterkunft steigt weiter an", "url": "https://www.tagesschau.de/inland/regional/berlin/rbb-berlin-tegel-zahl-der-masern-infektionen-in-fluechtlingsunterkunft-steigt-weiter-an-100.html", "thumbnailUrl": "https://images.tagesschau.de/image/07409a40-af82-4f44-b8ec-ee4382ec966a/AAABjsfLjTQ/AAABjcWesUg/16x9-512.jpg", "date": "2024-04-10T13:34:48.000+02:00", "lat": 52.5597, "lon": 13.2877, "intensity": 0.8, "source": "Tagesschau"}, {"title": "K\u00f6hlbrandbr\u00fccke: Bund beteiligt sich an Kosten f\u00fcr Neubau", "url": "https://www.tagesschau.de/inland/regional/hamburg/ndr-hamburger-koehlbrandbruecke-beschaeftigt-den-bundestag-100.html", "thumbnailUrl": "https://images.tagesschau.de/image/0960b3a2-17c1-4000-a4b4-85cc5e2ab96a/AAABjsfPNOQ/AAABjcWesUg/16x9-512.jpg", "date": "2024-04-10T13:32:00.000+02:00", "lat": 53.5423, "lon": 9.9374, "intensity": 0.8, "source": "Tagesschau"}, {"title": "Deichsanierung f\u00fcr besseren Hochwasserschutz entlang der Rur", "url": "https://www.tagesschau.de/inland/regional/nordrheinwestfalen/wdr-deichsanierung-fuer-besseren-hochwasserschutz-entlang-der-rur-102.html", "thumbnailUrl": "https://images.tagesschau.de/image/401058b1-6e14-487c-b92e-5b37a08a9b65/AAABjsg1aMA/AAABjcWesUg/16x9-512.jpg", "date": "2024-04-10T13:29:00.000+02:00", "lat": 50.6466, "lon": 6.1584, "intensity": 0.7, "source": "Tagesschau"}, {"title": "Bremer Senat will neue Regeln f\u00fcr Bettler und Stra\u00dfenmusik in der City", "url": "https://www.tagesschau.de/inland/regional/bremen/rb-bremer-senat-will-neue-regeln-fuer-bettler-und-strassenmusik-in-der-city-102.html", "thumbnailUrl": "https://images.tagesschau.de/image/245ef5be-0111-444a-9cac-250467470642/AAABjsfD3YQ/AAABjcWesUg/16x9-512.jpg", "date": "2024-04-10T13:27:00.000+02:00", "lat": 53.079296, "lon": 8.801694, "intensity": 0.7, "source": "Tagesschau"}, {"title": "Mehr Sicherheitskr\u00e4fte gegen Drogen und Verwahrlosung in K\u00f6lner U-Bahnstationen", "url": "https://www.tagesschau.de/inland/regional/nordrheinwestfalen/wdr-mehr-sicherheitskraefte-gegen-drogen-und-verwahrlosung-in-koelner-u-bahnstationen-100.html", "thumbnailUrl": "https://images.tagesschau.de/image/e475668e-43d2-420b-92c0-81dbf951bc37/AAABjsg6znY/AAABjcWesUg/16x9-512.jpg", "date": "2024-04-10T13:26:00.000+02:00", "lat": 50.9375, "lon": 6.9584, "intensity": 0.7, "source": "Tagesschau"}, {"title": "Nach Schwertransporter-Unfall: A1 bei Dreieck Stuhr wieder frei", "url": "https://www.tagesschau.de/inland/regional/niedersachsen/ndr-schwertransporter-kollidiert-mit-lkw-a1-nach-unfall-gesperrt-100.html", "thumbnailUrl": "https://images.tagesschau.de/image/c3ac8078-a928-47cd-9ce7-5bf4f3ea084c/AAABjsfWk5I/AAABjcWesUg/16x9-512.jpg", "date": "2024-04-10T13:25:00.000+02:00", "lat": 53.0398, "lon": 8.7314, "intensity": 0.7, "source": "Tagesschau"}, {"title": "Sind die \u00c4ltesten am kl\u00fcgsten? Was an Geschwister-Vorurteilen dran ist", "url": "https://www.tagesschau.de/inland/regional/nordrheinwestfalen/wdr-sind-die-aeltesten-am-kluegsten-was-an-geschwister-vorurteilen-dran-ist-100.html", "thumbnailUrl": "https://images.tagesschau.de/image/8e930477-4765-4d2e-ac72-6c3565562864/AAABjsgsOWU/AAABjcWesUg/16x9-512.jpg", "date": "2024-04-10T13:21:00.000+02:00", "lat": 51.46, "lon": 7.61, "intensity": 0.5, "source": "Tagesschau"}, {"title": "Arbeitsmarkt: Inklusions-Initiative f\u00fcr Menschen mit Behinderung", "url": "https://www.tagesschau.de/inland/regional/nordrheinwestfalen/wdr-arbeitsmarkt-inklusions-initiative-fuer-menschen-mit-behinderung-100.html", "thumbnailUrl": "https://images.tagesschau.de/image/de21ac51-24d6-475a-b640-66634c62c1bd/AAABjsfFqZI/AAABjcWesUg/16x9-512.jpg", "date": "2024-04-10T13:17:00.000+02:00", "lat": 51.4893, "lon": 7.6261, "intensity": 0.6, "source": "Tagesschau"}, {"title": "Lkw-Unfall auf der A100 - Eine Spur in Richtung Wedding wieder frei - langer Stau", "url": "https://www.tagesschau.de/inland/regional/berlin/rbb-lkw-unfall-auf-der-a100-fahrbahn-in-richtung-wedding-gesperrt-langer-stau-100.html", "thumbnailUrl": "https://images.tagesschau.de/image/af0517f2-0b31-4d78-aafa-c1cd56a1e37a/AAABjsbvvJg/AAABjcWesUg/16x9-512.jpg", "date": "2024-04-10T13:16:31.000+02:00", "lat": 52.5046, "lon": 13.306, "intensity": 0.8, "source": "Tagesschau"}, {"title": "Viele Saarl\u00e4nder leiden unter Bluthochdruck", "url": "https://www.tagesschau.de/inland/regional/saarland/sr-viele-saarlaender-leiden-unter-bluthochdruck-100.html", "thumbnailUrl": "https://images.tagesschau.de/image/2e621b09-47c1-45d3-b742-9363fa68b225/AAABjse3AFY/AAABjcWesUg/16x9-512.jpg", "date": "2024-04-10T13:09:00.000+02:00", "lat": 49.3964, "lon": 7.0233, "intensity": 0.8, "source": "Tagesschau"}, {"title": "Verdacht auf Norovirus: Gro\u00dfer Feuerwehr-Einsatz in Schullandheim", "url": "https://www.tagesschau.de/inland/regional/niedersachsen/ndr-verdacht-auf-norovirus-in-schullandheim-grosser-feuerwehr-einsatz-100.html", "thumbnailUrl": "https://images.tagesschau.de/image/7b757bba-d777-4f51-bba1-43d1d9171452/AAABjsfcJzc/AAABjcWesUg/16x9-512.jpg", "date": "2024-04-10T13:05:00.000+02:00", "lat": 52.3256, "lon": 8.4226, "intensity": 0.8, "source": "Tagesschau"}, {"title": "Leverkusen bekommt Schale bei Titelgewinn erst am 34. Spieltag", "url": "https://www.tagesschau.de/inland/regional/nordrheinwestfalen/wdr-leverkusen-bekommt-schale-bei-titelgewinn-erst-am-34-spieltag-102.html", "thumbnailUrl": "https://images.tagesschau.de/image/282fa5d4-ff7b-494d-b1eb-4ae6fbc51728/AAABjse-TiI/AAABjcWesUg/16x9-512.jpg", "date": "2024-04-10T12:54:00.000+02:00", "lat": 51.045, "lon": 6.9884, "intensity": 0.4, "source": "Tagesschau"}, {"title": "Berlin-Kreuzberg: Autofahrerin f\u00e4hrt Radfahrerin und Kind an - Unfallflucht", "url": "https://www.tagesschau.de/inland/regional/berlin/rbb-berlin-kreuzberg-autofahrerin-faehrt-radfahrerin-und-kind-an-unfallflucht-100.html", "thumbnailUrl": "https://images.tagesschau.de/image/69652eb5-2094-4521-b568-2a62550d8b34/AAABjsejLY0/AAABjcWesUg/16x9-512.jpg", "date": "2024-04-10T12:47:52.000+02:00", "lat": 52.4966, "lon": 13.4023, "intensity": 0.8, "source": "Tagesschau"}, {"title": "Ranking: Berliner Finanz\u00e4mter sind bei Steuerbescheiden wieder am schnellsten", "url": "https://www.tagesschau.de/inland/regional/berlin/rbb-ranking-berliner-finanzaemter-sind-bei-steuerbescheiden-wieder-am-schnellsten-100.html", "thumbnailUrl": "https://images.tagesschau.de/image/eb0280c9-0a4b-4a55-9c74-919190c56e41/AAABjsecBe0/AAABjcWesUg/16x9-512.jpg", "date": "2024-04-10T12:43:20.000+02:00", "lat": 52.520008, "lon": 13.404954, "intensity": 0.6, "source": "Tagesschau"}, {"title": "VW und BMW verkaufen mehr Autos", "url": "https://www.tagesschau.de/wirtschaft/unternehmen/autobauer-vw-mercedes-bmw-absatzzahlen-100.html", "thumbnailUrl": "https://images.tagesschau.de/image/a744c6b6-846e-4280-91e3-51cea8666ac3/AAABjgka2xE/AAABjcWesUg/16x9-512.jpg", "date": "2024-04-10T12:40:52.089+02:00", "lat": 51.1657, "lon": 10.4515, "intensity": 0.7, "source": "Tagesschau"}, {"title": "Polizei registriert deutlich mehr Straftaten in BW: Experten warnen vor \u00dcberinterpretation", "url": "https://www.tagesschau.de/inland/regional/badenwuerttemberg/swr-mehr-koerperverletzungen-mehr-raub-mehr-sexualstraftaten-in-bw-100.html", "thumbnailUrl": "https://images.tagesschau.de/image/29cc2a6f-50a7-47f6-bdc6-9c3bd3265cc2/AAABjscir4k/AAABjcWesUg/16x9-512.jpg", "date": "2024-04-10T12:40:00.000+02:00", "lat": 48.661, "lon": 9.991, "intensity": 0.8, "source": "Tagesschau"}, {"title": "62-J\u00e4hrige mit Klebeband erstickt? Frau aus Osnabr\u00fcck angeklagt", "url": "https://www.tagesschau.de/inland/regional/niedersachsen/ndr-62-jaehrige-mit-klebeband-erstickt-frau-aus-osnabrueck-angeklagt-100.html", "thumbnailUrl": "https://images.tagesschau.de/image/9d492302-bb18-4f1f-8fd6-5c88631c9bc8/AAABjseRIPY/AAABjcWesUg/16x9-512.jpg", "date": "2024-04-10T12:30:00.000+02:00", "lat": 52.2799, "lon": 8.0478, "intensity": 0.8, "source": "Tagesschau"}, {"title": "Mann soll Frau in Wei\u00dfenthurm schwer verletzt haben", "url": "https://www.tagesschau.de/inland/regional/rheinlandpfalz/swr-mann-soll-frau-in-weissenthurm-schwer-verletzt-haben-100.html", "thumbnailUrl": "https://images.tagesschau.de/image/18282227-9bf3-4a53-b0a6-8259e41e6bef/AAABjseQsuo/AAABjcWesUg/16x9-512.jpg", "date": "2024-04-10T12:26:22.000+02:00", "lat": 50.4179, "lon": 7.5086, "intensity": 0.8, "source": "Tagesschau"}, {"title": "Leiharbeit und Werkvertr\u00e4ge: Airbus und IG Metall einigen sich", "url": "https://www.tagesschau.de/inland/regional/hamburg/ndr-leiharbeit-und-werkvertraege-airbus-und-ig-metall-einigen-sich-100.html", "thumbnailUrl": "https://images.tagesschau.de/image/cf1ccb4e-cf65-447b-b895-8644a4b7c536/AAABjsePFf0/AAABjcWesUg/16x9-512.jpg", "date": "2024-04-10T12:26:00.000+02:00", "lat": 53.551086, "lon": 9.97923, "intensity": 0.7, "source": "Tagesschau"}, {"title": "Bremer Gr\u00fcne fordern mehr Wohnraum f\u00fcr Fl\u00fcchtlinge", "url": "https://www.tagesschau.de/inland/regional/bremen/rb-bremer-gruene-fordern-mehr-wohnraum-fuer-fluechtlinge-102.html", "thumbnailUrl": "https://images.tagesschau.de/image/52ce90ce-2580-48a9-a0f2-5e9a9f9d2b74/AAABjseJbcc/AAABjcWesUg/16x9-512.jpg", "date": "2024-04-10T12:23:00.000+02:00", "lat": 53.0793, "lon": 8.8017, "intensity": 0.7, "source": "Tagesschau"}, {"title": "Ostsee: Blaualgen setzen den Dorsch auf Di\u00e4t", "url": "https://www.tagesschau.de/inland/regional/mecklenburgvorpommern/ndr-ostsee-blaualgen-setzen-den-dorsch-auf-diaet-100.html", "thumbnailUrl": "https://images.tagesschau.de/image/fdd39d15-225b-41e0-980c-310a9e48204a/AAABjseJTCc/AAABjcWesUg/16x9-512.jpg", "date": "2024-04-10T12:21:00.000+02:00", "lat": 54.0833, "lon": 12.4167, "intensity": 0.8, "source": "Tagesschau"}, {"title": "Darmstadt 98: +++ Sportchef Fernie direkt gefordert +++ Pokalheld Kerber nicht zu den Lilien +++ Sulu: \"H\u00e4tte mehr Qualit\u00e4t gebraucht\" +++ ", "url": "https://www.tagesschau.de/inland/regional/hessen/hr--tietz-vermisst-fehlende-gier--lilien-fans-liefern-sich-raststaetten-pruegelei--die-niederlage-der-lilien-in-der-video-zusammenfassung-102.html", "thumbnailUrl": "https://images.tagesschau.de/image/865ba993-677b-452b-9b92-2e41ec6d4b5e/AAABjsc6nc4/AAABjcWesUg/16x9-512.jpg", "date": "2024-04-10T12:20:25.817+02:00", "lat": 49.878, "lon": 8.6536, "intensity": 0.6, "source": "Tagesschau"}, {"title": "Opposition liegt bei Parlamentswahl in S\u00fcdkorea vorn", "url": "https://www.tagesschau.de/ausland/asien/wahl-suedkorea-100.html", "thumbnailUrl": "https://images.tagesschau.de/image/ee52385b-6304-4bff-b98f-b3f87e7d10d2/AAABjseSCEI/AAABjcWesUg/16x9-512.jpg", "date": "2024-04-10T12:18:23.642+02:00", "lat": 37.566, "lon": 126.978, "intensity": 0.7, "source": "Tagesschau"}, {"title": "Kulturzentrum Commune er\u00f6ffnet am Samstag in Saarbr\u00fccken", "url": "https://www.tagesschau.de/inland/regional/saarland/sr-commune-eroeffnet-am-samstag-in-saarbruecken-100.html", "thumbnailUrl": "https://images.tagesschau.de/image/a44bd584-0aaa-4b04-92f7-efbe35262ef6/AAABjseQlMo/AAABjcWesUg/16x9-512.jpg", "date": "2024-04-10T12:18:00.000+02:00", "lat": 49.2402, "lon": 6.9814, "intensity": 0.6, "source": "Tagesschau"}, {"title": "Bundeswehrverband fordert \"Machtwort\" von Scholz", "url": "https://www.tagesschau.de/inland/innenpolitik/bundeswehrverband-verteidigungsausgaben-100.html", "thumbnailUrl": "https://images.tagesschau.de/image/7e6cd38c-302b-4f90-ab2a-6de689292eb6/AAABjseVOhU/AAABjcWesUg/16x9-512.jpg", "date": "2024-04-10T12:15:51.940+02:00", "lat": 53.5511, "lon": 9.9925, "intensity": 0.7, "source": "Tagesschau"}, {"title": "Hessen am Morgen: +++ Pkw brennt auf A7 aus +++ Kasseler Weltmusikfestival wird abgesagt +++ Wegen Dreharbeiten: Sperrungen in Marburg +++", "url": "https://www.tagesschau.de/inland/regional/hessen/hr-hessen-am-morgen--pkw-brennt-auf-a7-aus-100.html", "thumbnailUrl": "https://images.tagesschau.de/image/51dd6304-82b9-4096-b342-42c545c90954/AAABjseAOfA/AAABjcWesUg/16x9-512.jpg", "date": "2024-04-10T12:12:13.329+02:00", "lat": 50.8232, "lon": 9.3732, "intensity": 0.8, "source": "Tagesschau"}, {"title": "Mann nach Injektion in Berlin-Charlottenburg gestorben - Mordkommission ermittelt", "url": "https://www.tagesschau.de/inland/regional/berlin/rbb-mann-nach-injektion-in-berlin-charlottenburg-gestorben-mordkommission-ermittelt-100.html", "thumbnailUrl": "https://images.tagesschau.de/image/5a487e82-9063-4617-9e59-44ca8545a71d/AAABjseAkMY/AAABjcWesUg/16x9-512.jpg", "date": "2024-04-10T12:11:01.000+02:00", "lat": 52.516, "lon": 13.305, "intensity": 0.8, "source": "Tagesschau"}, {"title": "\"Nur ein paar Bier\": Lkw-Fahrer mit 2,7 Promille auf A1 gestoppt", "url": "https://www.tagesschau.de/inland/regional/niedersachsen/ndr-nur-ein-paar-bier-lkw-fahrer-mit-27-promille-auf-a1-gestoppt-100.html", "thumbnailUrl": "https://images.tagesschau.de/image/2af96ad8-f244-48a5-b294-2cf8628fa63a/AAABjseS1tk/AAABjcWesUg/16x9-512.jpg", "date": "2024-04-10T12:11:00.000+02:00", "lat": 52.3759, "lon": 9.7347, "intensity": 0.8, "source": "Tagesschau"}, {"title": "Deutsche Firmen beklagen Nachteile in China", "url": "https://www.tagesschau.de/wirtschaft/weltwirtschaft/deutsche-firmen-china-subventionen-100.html", "thumbnailUrl": "https://images.tagesschau.de/image/4d4fa52a-29e6-4adf-9f27-97f90e85362c/AAABjg6HATc/AAABjcWesUg/16x9-512.jpg", "date": "2024-04-10T12:09:12.851+02:00", "lat": 35.86166, "lon": 104.195397, "intensity": 0.7, "source": "Tagesschau"}, {"title": "Gewalttat in Mettingen: Staatsanwaltschaft wirft Frau Mord vor", "url": "https://www.tagesschau.de/inland/regional/nordrheinwestfalen/wdr-gewalttat-in-mettingen-staatsanwaltschaft-wirft-frau-mord-vor-100.html", "thumbnailUrl": "https://images.tagesschau.de/image/02c96a6e-5200-488a-82f1-d74f9514836f/AAABjsfFw0s/AAABjcWesUg/16x9-512.jpg", "date": "2024-04-10T12:09:00.000+02:00", "lat": 52.2553, "lon": 7.7686, "intensity": 0.8, "source": "Tagesschau"}, {"title": "Mutma\u00dflicher Halsketten-Rei\u00dfer wegen versuchten Mordes angeklagt", "url": "https://www.tagesschau.de/inland/regional/berlin/rbb-mutmasslicher-halsketten-reisser-wegen-versuchten-mordes-angeklagt-100.html", "thumbnailUrl": "https://images.tagesschau.de/image/d8757726-7b64-4c93-89fc-f48e8cf7759c/AAABjsd1bkU/AAABjcWesUg/16x9-512.jpg", "date": "2024-04-10T11:58:49.000+02:00", "lat": 52.520008, "lon": 13.404954, "intensity": 0.8, "source": "Tagesschau"}, {"title": "WG-Zimmer in Stuttgart: SSB werden zum Vermieter", "url": "https://www.tagesschau.de/inland/regional/badenwuerttemberg/swr-wg-zimmer-in-stuttgart-ssb-werden-zum-vermieter-100.html", "thumbnailUrl": "https://images.tagesschau.de/image/4f89e0e0-1963-4b97-85bc-77438d550ccc/AAABjsklQHI/AAABjcWesUg/16x9-512.jpg", "date": "2024-04-10T11:58:00.000+02:00", "lat": 48.7758, "lon": 9.1829, "intensity": 0.6, "source": "Tagesschau"}, {"title": "Mehrere schwere Unf\u00e4lle in S\u00fcdbrandenburg, Motorradfahrer stirbt nach Unfall im Elbe-Elster-Kreis", "url": "https://www.tagesschau.de/inland/regional/brandenburg/rbb-mehrere-schwere-unfaelle-in-suedbrandenburg-motorradfahrer-stirbt-nach-unfall-im-elbe-elster-kreis-100.html", "thumbnailUrl": "https://images.tagesschau.de/image/82a9309f-aea6-452b-a167-d7a30084d409/AAABjsdsK7A/AAABjcWesUg/16x9-512.jpg", "date": "2024-04-10T11:47:39.000+02:00", "lat": 51.641, "lon": 13.472, "intensity": 0.8, "source": "Tagesschau"}, {"title": "Wetterlage und Temperaturen", "url": "https://www.tagesschau.de/wetter/europa-welt", "thumbnailUrl": "https://images.tagesschau.de/image/6e7d3b16-79c8-4308-822b-20c3035236b5/AAABjsdhxPM/AAABjcWesUg/16x9-512.jpg", "date": "2024-04-10T11:46:18.317+02:00", "lat": 51.1657, "lon": 10.4515, "intensity": 0.3, "source": "Tagesschau"}, {"title": "Muslime feiern in Ravensburg das Ende des Fastenmonats Ramadan", "url": "https://www.tagesschau.de/inland/regional/badenwuerttemberg/swr-muslime-feiern-in-ravensburg-das-ende-des-fastenmonats-ramadan-100.html", "thumbnailUrl": "https://images.tagesschau.de/image/fc6e6533-0630-4d44-86a4-3b7b094cb307/AAABjsfxo1A/AAABjcWesUg/16x9-512.jpg", "date": "2024-04-10T11:38:00.000+02:00", "lat": 47.7811, "lon": 9.4358, "intensity": 0.8, "source": "Tagesschau"}, {"title": "Heilbronner Landliebe-Mitarbeiter sagen M\u00fcller-Konzern den Kampf an", "url": "https://www.tagesschau.de/inland/regional/badenwuerttemberg/swr-betriebsversammlung-im-heilbronner-landliebe-werk-suche-nach-kaeufern-laeuft-100.html", "thumbnailUrl": "https://images.tagesschau.de/image/c7bef254-dced-455f-aeca-1b1764f21f0b/AAABjsdkn5s/AAABjcWesUg/16x9-512.jpg", "date": "2024-04-10T11:36:00.000+02:00", "lat": 49.1427, "lon": 9.2223, "intensity": 0.8, "source": "Tagesschau"}, {"title": "Bahnhofstunnel in Verden unter Wasser - auch Fahrst\u00fchle gest\u00f6rt", "url": "https://www.tagesschau.de/inland/regional/niedersachsen/ndr-wasser-im-bahnhofstunnel-in-verden-auch-fahrstuehle-gestoert-100.html", "thumbnailUrl": "https://images.tagesschau.de/image/56b4ff18-c8a5-492e-a7ba-5bf3f260c035/AAABjsKEUgc/AAABjcWesUg/16x9-512.jpg", "date": "2024-04-10T11:20:00.000+02:00", "lat": 52.9194, "lon": 9.2333, "intensity": 0.6, "source": "Tagesschau"}, {"title": "Neues Urteil: Haftstrafe von \"Reichsb\u00fcrgerin\" wird verk\u00fcrzt", "url": "https://www.tagesschau.de/inland/regional/niedersachsen/ndr-prozess-wird-neu-verhandelt-reichsbuergerin-erneut-vor-gericht-100.html", "thumbnailUrl": "https://images.tagesschau.de/image/a76a0577-90a7-4fd0-935b-244cc6ac7a34/AAABjsdPGsA/AAABjcWesUg/16x9-512.jpg", "date": "2024-04-10T11:18:00.000+02:00", "lat": 53.249, "lon": 10.412, "intensity": 0.6, "source": "Tagesschau"}, {"title": "A7 bei Rendsburg an diesem Wochenende zeitweise voll gesperrt", "url": "https://www.tagesschau.de/inland/regional/schleswigholstein/ndr-a7-im-april-an-zwei-wochenenden-teilweise-voll-gesperrt-100.html", "thumbnailUrl": "https://images.tagesschau.de/image/c94e1b76-ddf3-408c-b9fd-92bae2df40ee/AAABjse8-14/AAABjcWesUg/16x9-512.jpg", "date": "2024-04-10T11:16:00.000+02:00", "lat": 54.2994, "lon": 9.6477, "intensity": 0.7, "source": "Tagesschau"}, {"title": "Gestohlene Bankkarte: Polizei fahndet mit Foto nach Betr\u00fcger", "url": "https://www.tagesschau.de/inland/regional/niedersachsen/ndr-gestohlene-bankkarte-polizei-fahndet-mit-foto-nach-betrueger-100.html", "thumbnailUrl": "https://images.tagesschau.de/image/8a1aecc6-e48b-447b-aa6f-d1f0d6a3878d/AAABjsezzIs/AAABjcWesUg/16x9-512.jpg", "date": "2024-04-10T11:15:00.000+02:00", "lat": 52.37589, "lon": 9.73322, "intensity": 0.8, "source": "Tagesschau"}, {"title": "Weltkriegsbombe aus Schmargendorf im Grunewald gesprengt ", "url": "https://www.tagesschau.de/inland/regional/berlin/rbb-sprengplatz-berlin-grunewald-polizei-sprengt-weltkriegsbombe-am-mittwochvormittag-100.html", "thumbnailUrl": "https://images.tagesschau.de/image/33b1f8fa-d2d5-4e8a-88a5-33583de0dbc5/AAABjsdJkZo/AAABjcWesUg/16x9-512.jpg", "date": "2024-04-10T11:12:24.000+02:00", "lat": 52.4964, "lon": 13.2775, "intensity": 0.8, "source": "Tagesschau"}, {"title": "Samstag bis 26 Grad: N\u00e4chster Sommertag schon in Sichtweite", "url": "https://www.tagesschau.de/inland/regional/hessen/hr-samstag-bis-26-grad-naechster-sommertag-schon-in-sichtweite-100.html", "thumbnailUrl": "https://images.tagesschau.de/image/08a000fa-5caa-4256-9810-cd7f7b9c7bd2/AAABjsdD2II/AAABjcWesUg/16x9-512.jpg", "date": "2024-04-10T11:06:12.150+02:00", "lat": 50.5374, "lon": 9.6926, "intensity": 0.8, "source": "Tagesschau"}, {"title": "Niedersachsen erwartet bis Herbst 21.000 Gefl\u00fcchtete", "url": "https://www.tagesschau.de/inland/regional/niedersachsen/ndr-niedersachsen-erwartet-bis-herbst-21-000-gefluechtete-100.html", "thumbnailUrl": "https://images.tagesschau.de/image/e6232121-a452-4793-adc2-a1389a47014a/AAABjsdJpTk/AAABjcWesUg/16x9-512.jpg", "date": "2024-04-10T11:05:00.000+02:00", "lat": 52.3777, "lon": 10.4515, "intensity": 0.6, "source": "Tagesschau"}, {"title": "Bremer Polizei ermittelt wegen 2 Auseinandersetzungen mit Macheten", "url": "https://www.tagesschau.de/inland/regional/bremen/rb-bremer-polizei-ermittelt-wegen-2-auseinandersetzungen-mit-macheten-100.html", "thumbnailUrl": "https://images.tagesschau.de/image/92c8a3dd-16ee-4ee1-b61c-5ad67f120d24/AAABjsdDsyA/AAABjcWesUg/16x9-512.jpg", "date": "2024-04-10T11:04:00.000+02:00", "lat": 53.0793, "lon": 8.8017, "intensity": 0.8, "source": "Tagesschau"}, {"title": "Warum Texas bei jungen US-Amerikanern boomt", "url": "https://www.tagesschau.de/ausland/amerika/texas-boom-100.html", "thumbnailUrl": "https://images.tagesschau.de/image/4b5897ef-3839-4c3a-98b5-adf61c0f8eb8/AAABjsc9OFs/AAABjcWesUg/16x9-512.jpg", "date": "2024-04-10T11:01:02.247+02:00", "lat": 31.1194, "lon": -99.1332, "intensity": 0.7, "source": "Tagesschau"}, {"title": "Zu dritt st\u00e4rker im S\u00fcdpazifik", "url": "https://www.tagesschau.de/ausland/asien/japan-philippinen-usa-china-100.html", "thumbnailUrl": "https://images.tagesschau.de/image/10dec6f8-eebf-47d8-a54f-6cc3ef4fc3e0/AAABjsc8xlg/AAABjcWesUg/16x9-512.jpg", "date": "2024-04-10T11:00:33.921+02:00", "lat": 7.5172, "lon": 143.8724, "intensity": 0.8, "source": "Tagesschau"}, {"title": "Roth dr\u00e4ngt auf Reform bei Stiftung Preu\u00dfischer Kulturbesitz", "url": "https://www.tagesschau.de/inland/regional/berlin/rbb-roth-draengt-auf-reform-bei-stiftung-preussischer-kulturbesitz-100.html", "thumbnailUrl": "https://images.tagesschau.de/image/ce69a416-6e0e-452e-a40b-01ffb3ecb37b/AAABjsc-Q7w/AAABjcWesUg/16x9-512.jpg", "date": "2024-04-10T10:59:21.000+02:00", "lat": 52.5166, "lon": 13.3777, "intensity": 0.6, "source": "Tagesschau"}, {"title": "Berlin-Friedenau: Zw\u00f6lf Verletzte bei Notbremsung eines BVG-Busses", "url": "https://www.tagesschau.de/inland/regional/berlin/rbb-berlin-friedenau-zwoelf-verletzte-bei-notbremsung-eines-bvg-busses-100.html", "thumbnailUrl": "https://images.tagesschau.de/image/ee26c196-3b04-4ab7-bfc3-0aacea0141d6/AAABjsc88vw/AAABjcWesUg/16x9-512.jpg", "date": "2024-04-10T10:57:42.000+02:00", "lat": 52.4664, "lon": 13.3326, "intensity": 0.8, "source": "Tagesschau"}, {"title": "Sichtweite", "url": "https://www.tagesschau.de/wetter/wetterthema/sichtweite-104.html", "thumbnailUrl": "https://images.tagesschau.de/image/65d25c8a-5c1f-41c5-9206-5c4276408b7e/AAABjsc5QHE/AAABjcWesUg/16x9-512.jpg", "date": "2024-04-10T10:57:09.708+02:00", "lat": 51.1657, "lon": 10.4515, "intensity": 0.3, "source": "Tagesschau"}, {"title": "Leverkusen, Stuttgart, St. Pauli - Der sch\u00f6ne neue deutsche Fu\u00dfball", "url": "https://www.tagesschau.de/inland/regional/hamburg/ndr-leverkusen-stuttgart-st-pauli-der-schoene-neue-deutsche-fussball-102.html", "thumbnailUrl": "https://images.tagesschau.de/image/b7927076-64b0-48bd-8397-914fb3b4ef10/AAABjsdUcDg/AAABjcWesUg/16x9-512.jpg", "date": "2024-04-10T10:55:00.000+02:00", "lat": 53.551086, "lon": 9.967119, "intensity": 0.7, "source": "Tagesschau"}, {"title": "Krankenh\u00e4user: Hamburg will Nachbarl\u00e4nder zur Kasse bitten", "url": "https://www.tagesschau.de/inland/regional/hamburg/ndr-krankenhaeuser-hamburg-will-nachbarlaender-zur-kasse-bitten-100.html", "thumbnailUrl": "https://images.tagesschau.de/image/34c8499b-d9e6-4b20-853b-72b99d861fb5/AAABjsc498U/AAABjcWesUg/16x9-512.jpg", "date": "2024-04-10T10:52:00.000+02:00", "lat": 53.55, "lon": 10.0, "intensity": 0.7, "source": "Tagesschau"}, {"title": "Darmstadt 98: An diese Baustellen muss Sportchef Fernie ran", "url": "https://www.tagesschau.de/inland/regional/hessen/hr-darmstadt-98-an-diese-baustellen-muss-sportchef-fernie-ran-102.html", "thumbnailUrl": "https://images.tagesschau.de/image/0787ec2d-86fa-4ec6-a838-3e65a873cf2c/AAABjseHltM/AAABjcWesUg/16x9-512.jpg", "date": "2024-04-10T10:48:03.615+02:00", "lat": 49.8728, "lon": 8.6482, "intensity": 0.4, "source": "Tagesschau"}, {"title": "Rasenm\u00e4hen in der Mittagszeit \u2013 ist das erlaubt?", "url": "https://www.tagesschau.de/inland/regional/saarland/sr-rasenmaehen-in-der-mittagszeit--ist-das-erlaubt-100.html", "thumbnailUrl": "https://images.tagesschau.de/image/a68a9f9a-8656-4447-9839-620f1331889d/AAABjsevrV8/AAABjcWesUg/16x9-512.jpg", "date": "2024-04-10T10:47:00.000+02:00", "lat": 49.3964, "lon": 6.9667, "intensity": 0.6, "source": "Tagesschau"}, {"title": "Gallant widerspricht Netanyahu bei Rafah-Offensive", "url": "https://www.tagesschau.de/ausland/asien/rafah-offensive-israel-usa-100.html", "thumbnailUrl": "https://images.tagesschau.de/image/f8a300e8-658f-49ea-b316-1a62e22291f5/AAABjsbA7ks/AAABjcWesUg/16x9-512.jpg", "date": "2024-04-10T10:36:55.151+02:00", "lat": 31.5204, "lon": 34.3436, "intensity": 0.7, "source": "Tagesschau"}, {"title": "Bauarbeiten an der A14 bremsen Verkehr zwischen Tangerh\u00fctte und L\u00fcderitz", "url": "https://www.tagesschau.de/inland/regional/sachsenanhalt/mdr-bauarbeiten-an-der-a14-bremsen-verkehr-zwischen-tangerhuette-und-luederitz-100.html", "thumbnailUrl": "https://images.tagesschau.de/image/02eda826-3c10-4bd8-a2a0-907ee844a038/AAABjscm4zk/AAABjcWesUg/16x9-512.jpg", "date": "2024-04-10T10:35:50.000+02:00", "lat": 52.4578, "lon": 11.8271, "intensity": 0.3, "source": "Tagesschau"}, {"title": "Erfindung von nieders\u00e4chsischer Tischlerei stoppt Automatensprenger", "url": "https://www.tagesschau.de/inland/regional/niedersachsen/ndr-erfindung-von-niedersaechsischer-tischlerei-stoppt-automatensprenger-100.html", "thumbnailUrl": "https://images.tagesschau.de/image/e8267442-f0da-4ee4-a0fc-baec0d90680e/AAABjscfeqg/AAABjcWesUg/16x9-512.jpg", "date": "2024-04-10T10:26:00.000+02:00", "lat": 52.5886, "lon": 7.7517, "intensity": 0.8, "source": "Tagesschau"}, {"title": "Warum die Bauarbeiten auf der Landsberger Allee in Berlin so lange dauern", "url": "https://www.tagesschau.de/inland/regional/berlin/rbb-warum-die-bauarbeiten-auf-der-landsberger-allee-in-berlin-so-lange-dauern-100.html", "thumbnailUrl": "https://images.tagesschau.de/image/d066b6a2-b06d-467d-8dc6-0ab7ab0741b5/AAABjscbwck/AAABjcWesUg/16x9-512.jpg", "date": "2024-04-10T10:20:37.000+02:00", "lat": 52.5126, "lon": 13.4654, "intensity": 0.8, "source": "Tagesschau"}, {"title": "Eltern von US-Amoksch\u00fctze zu Haftstrafen verurteilt", "url": "https://www.tagesschau.de/ausland/amerika/michigan-haftstrafe-eltern-100.html", "thumbnailUrl": "https://images.tagesschau.de/image/fc352da3-6bb0-4c3b-8274-fbe85f07640a/AAABjsaugJg/AAABjcWesUg/16x9-512.jpg", "date": "2024-04-10T10:10:06.930+02:00", "lat": 42.736979, "lon": -84.5068, "intensity": 0.9, "source": "Tagesschau"}, {"title": "Am Set von \"Polizeiruf 110\" in Rostock: Heimspiel f\u00fcr Max Gleschinski", "url": "https://www.tagesschau.de/inland/regional/mecklenburgvorpommern/ndr-am-set-von-polizeiruf-110-in-rostock-heimspiel-fuer-max-gleschinski-100.html", "thumbnailUrl": "https://images.tagesschau.de/image/54121376-fe67-4234-8c54-2c10bfedb277/AAABjsb-L3A/AAABjcWesUg/16x9-512.jpg", "date": "2024-04-10T10:07:00.000+02:00", "lat": 54.088, "lon": 12.099, "intensity": 0.6, "source": "Tagesschau"}, {"title": "BW-Newsticker am Morgen: Versch\u00fcttete Bohrmaschine in Rastatt wird freigelegt, Prozess: Versteckte Leiche im Hochbeet", "url": "https://www.tagesschau.de/inland/regional/badenwuerttemberg/swr-bw-newsticker-am-morgen-erfasste-straftaten-im-land-nehmen-zu-champions-league-aus-fuer-mhp-riesen-neue-details-nach-messerangriff-auf-vierjaehrige-100.html", "thumbnailUrl": "https://images.tagesschau.de/image/306d6415-f2f2-4df2-bcc0-38525a443431/AAABjsaQQw4/AAABjcWesUg/16x9-512.jpg", "date": "2024-04-10T10:00:00.000+02:00", "lat": 48.8566, "lon": 8.2028, "intensity": 0.6, "source": "Tagesschau"}, {"title": "Eine der \"gr\u00f6\u00dften Holzbr\u00fccken Europas\" wird im Emsland gebaut", "url": "https://www.tagesschau.de/inland/regional/niedersachsen/ndr-eine-der-groessten-holzbruecken-europas-wird-im-emsland-gebaut-100.html", "thumbnailUrl": "https://images.tagesschau.de/image/447a40e1-ad12-4122-9487-b511c45bc714/AAABjscHqqI/AAABjcWesUg/16x9-512.jpg", "date": "2024-04-10T09:59:00.000+02:00", "lat": 52.7246, "lon": 7.5172, "intensity": 0.75, "source": "Tagesschau"}, {"title": "T\u00f6dliche Gefahr f\u00fcr Hunde und Katzen: Tierseuche im Raum Nienburg", "url": "https://www.tagesschau.de/inland/regional/niedersachsen/ndr-landkreis-nienburg-erster-fall-von-aujeszkyscher-krankheit-100.html", "thumbnailUrl": "https://images.tagesschau.de/image/50cc59a7-6276-4177-b38b-b8cc5c9590f1/AAABjscCV34/AAABjcWesUg/16x9-512.jpg", "date": "2024-04-10T09:55:00.000+02:00", "lat": 52.6367, "lon": 9.2109, "intensity": 0.8, "source": "Tagesschau"}, {"title": "ELSA-Studie: Versorgung mit Abtreibungspraxen in BW vergleichsweise gering", "url": "https://www.tagesschau.de/inland/regional/badenwuerttemberg/swr-elsa-studie-versorgung-mit-abtreibungspraxen-in-bw-vergleichsweise-gering-100.html", "thumbnailUrl": "https://images.tagesschau.de/image/c89de2cf-d594-4373-972b-6481a218561e/AAABjscttl0/AAABjcWesUg/16x9-512.jpg", "date": "2024-04-10T09:45:43.000+02:00", "lat": 48.6616, "lon": 9.9937, "intensity": 0.7, "source": "Tagesschau"}, {"title": "Nach Vergewaltigung eines Kindes: Landgericht Ellwangen zeigt Video mit Aussagen des Opfers", "url": "https://www.tagesschau.de/inland/regional/badenwuerttemberg/swr-nach-vergewaltigung-eines-kindes-landgericht-ellwangen-zeigt-video-mit-aussagen-des-opfers-100.html", "thumbnailUrl": "https://images.tagesschau.de/image/6c0ceef3-4d5f-4b3b-baa3-7cae4f9a5350/AAABjsb-UWM/AAABjcWesUg/16x9-512.jpg", "date": "2024-04-10T09:43:00.000+02:00", "lat": 48.961, "lon": 10.1266, "intensity": 0.8, "source": "Tagesschau"}, {"title": "Boeing weist Whistleblower-Vorw\u00fcrfe zur\u00fcck", "url": "https://www.tagesschau.de/wirtschaft/unternehmen/boeing-flugzeuge-produktion-auslieferung-100.html", "thumbnailUrl": "https://images.tagesschau.de/image/e6a363c4-191d-40e8-8838-9e6b4db45b6d/AAABhnjhprQ/AAABjcWesUg/16x9-512.jpg", "date": "2024-04-10T09:29:43.744+02:00", "lat": 47.4436, "lon": -122.3115, "intensity": 0.7, "source": "Tagesschau"}, {"title": "Wolf und Weidetiere: Umweltminister Meyer diskutiert in der Wingst", "url": "https://www.tagesschau.de/inland/regional/niedersachsen/ndr-wolf-und-weidetiere-umweltminister-meyer-diskutiert-in-der-wingst-100.html", "thumbnailUrl": "https://images.tagesschau.de/image/4c687e49-fb2a-4a7f-bfc7-808cf9e53b34/AAABjsbv1lw/AAABjcWesUg/16x9-512.jpg", "date": "2024-04-10T09:28:00.000+02:00", "lat": 53.6776, "lon": 9.068, "intensity": 0.5, "source": "Tagesschau"}, {"title": "Genthin: Abwahlverfahren gegen B\u00fcrgermeister G\u00fcnther am 9. Juni", "url": "https://www.tagesschau.de/inland/regional/sachsenanhalt/mdr-genthiner-stadtrat-will-buergermeister-guenther-abwaehlen-lassen-100.html", "thumbnailUrl": "https://images.tagesschau.de/image/8b21f15f-6c95-46cd-ab3d-0450c10eb0b8/AAABjsZkobE/AAABjcWesUg/16x9-512.jpg", "date": "2024-04-10T09:12:57.000+02:00", "lat": 52.4, "lon": 12.1667, "intensity": 0.6, "source": "Tagesschau"}, {"title": "Bald kein Fehlerquotient in Deutschaufs\u00e4tzen mehr", "url": "https://www.tagesschau.de/inland/regional/schleswigholstein/ndr-bald-kein-fehlerquotient-in-deutschaufsaetzen-mehr-100.html", "thumbnailUrl": "https://images.tagesschau.de/image/b84a63a4-ad88-40e6-ba7a-620e8c54700a/AAABjsbYCTw/AAABjcWesUg/16x9-512.jpg", "date": "2024-04-10T09:05:00.000+02:00", "lat": 54.2194, "lon": 9.6961, "intensity": 0.8, "source": "Tagesschau"}, {"title": "Bremer Polizei ermittelt nach Autozug-Blockade gegen Klima-Aktivisten", "url": "https://www.tagesschau.de/inland/regional/bremen/rb-bremer-polizei-ermittelt-nach-autozug-blockade-gegen-klima-aktivisten-100.html", "thumbnailUrl": "https://images.tagesschau.de/image/a165f40b-1bb6-4dac-b98b-6af0318cda70/AAABjsbOhGA/AAABjcWesUg/16x9-512.jpg", "date": "2024-04-10T08:57:00.000+02:00", "lat": 53.0793, "lon": 8.8151, "intensity": 0.8, "source": "Tagesschau"}, {"title": "Gymnasium Corveystra\u00dfe: Vorschl\u00e4ge f\u00fcr Verbesserung der Verkehrssituation", "url": "https://www.tagesschau.de/inland/regional/hamburg/ndr-gymnasium-corveystrasse-vorschlaege-fuer-verbesserung-der-verkehrssituation-100.html", "thumbnailUrl": "https://images.tagesschau.de/image/43e4eb82-98ab-41a5-b9b3-f6dfe0bee0de/AAABjsbShfY/AAABjcWesUg/16x9-512.jpg", "date": "2024-04-10T08:57:00.000+02:00", "lat": 53.5511, "lon": 9.9925, "intensity": 0.6, "source": "Tagesschau"}, {"title": "NABU kritisiert mangelhaften Vogelschutz im Nordwesten", "url": "https://www.tagesschau.de/inland/regional/niedersachsen/ndr-nabu-kritisiert-mangelhaften-vogelschutz-im-nordwesten-100.html", "thumbnailUrl": "https://images.tagesschau.de/image/a728b31d-367b-4320-99db-f9d686ee1998/AAABjscCQnA/AAABjcWesUg/16x9-512.jpg", "date": "2024-04-10T08:53:00.000+02:00", "lat": 52.7901, "lon": 7.6316, "intensity": 0.8, "source": "Tagesschau"}, {"title": "Verd\u00e4chtiger nach Bombenfund in Halle in U-Haft", "url": "https://www.tagesschau.de/inland/regional/sachsenanhalt/mdr-polizeieinsatz-in-halle-verdacht-auf-bau-einer-bombe-100.html", "thumbnailUrl": "https://images.tagesschau.de/image/7eb8d86d-c380-4880-b603-2a381108681f/AAABjsZxkXg/AAABjcWesUg/16x9-512.jpg", "date": "2024-04-10T08:52:55.000+02:00", "lat": 51.482504, "lon": 11.968802, "intensity": 0.8, "source": "Tagesschau"}, {"title": "Fachwerkhaus mit Werkstatt bei Brand in Wolfhagen-Nothfelden zerst\u00f6rt", "url": "https://www.tagesschau.de/inland/regional/hessen/hr-hoher-schaden-am-gebaeude-fachwerkhaus-und-werkstatt-in-wolfhagen-abgebrannt-100.html", "thumbnailUrl": "https://images.tagesschau.de/image/e469637b-b922-40f1-97a4-6a80f21c1ca7/AAABjsi-50M/AAABjcWesUg/16x9-512.jpg", "date": "2024-04-10T08:51:07.566+02:00", "lat": 51.2964, "lon": 9.1629, "intensity": 0.8, "source": "Tagesschau"}, {"title": "Gericht erlaubt Abtreibungsverbot von 1864", "url": "https://www.tagesschau.de/ausland/amerika/arizona-gesetz-abtreibungsverbot-100.html", "thumbnailUrl": "https://images.tagesschau.de/image/441afd8f-692d-4a6a-abde-f6e2f0e10031/AAABjsamf3c/AAABjcWesUg/16x9-512.jpg", "date": "2024-04-10T08:49:12.246+02:00", "lat": 34.048927, "lon": -111.093731, "intensity": 0.8, "source": "Tagesschau"}, {"title": "Homophobe Sexualkunde an Schulen?", "url": "https://www.tagesschau.de/multimedia/podcast/11km/11km-feed-100.html", "thumbnailUrl": "https://images.tagesschau.de/image/ba36ff5e-a8a1-45f1-a495-6e858222c8bd/AAABjsYzJ9g/AAABjcWesUg/16x9-512.jpg", "date": "2024-04-10T08:30:41.348+02:00", "lat": 51.3127, "lon": 9.4856, "intensity": 0.8, "source": "Tagesschau"}, {"title": "Unfall bei Prinzh\u00f6fte: 18-J\u00e4hriger prallt frontal gegen Baum", "url": "https://www.tagesschau.de/inland/regional/niedersachsen/ndr-unfall-bei-prinzhoefte-18-jaehriger-prallt-frontal-gegen-baum-100.html", "thumbnailUrl": "https://images.tagesschau.de/image/723afdee-9a1f-4786-a0e9-457db092879c/AAABjsbAaFM/AAABjcWesUg/16x9-512.jpg", "date": "2024-04-10T08:19:00.000+02:00", "lat": 53.2159, "lon": 8.4807, "intensity": 0.7, "source": "Tagesschau"}, {"title": "Schuss auf Stra\u00dfenbahn in Dortmund", "url": "https://www.tagesschau.de/inland/regional/nordrheinwestfalen/wdr-schuss-auf-strassenbahn-in-dortmund-102.html", "thumbnailUrl": "https://images.tagesschau.de/image/ad73d8e6-82dd-49e7-a830-e80ec477830c/AAABjsbHHLY/AAABjcWesUg/16x9-512.jpg", "date": "2024-04-10T07:47:00.000+02:00", "lat": 51.516169, "lon": 7.545168, "intensity": 0.7, "source": "Tagesschau"}, {"title": "Organspende: Fast 800 Menschen in Niedersachsen auf Warteliste", "url": "https://www.tagesschau.de/inland/regional/niedersachsen/ndr-organspende-fast-800-menschen-in-niedersachsen-auf-warteliste-100.html", "thumbnailUrl": "https://images.tagesschau.de/image/f6955a45-6588-4b17-af6e-ef2b8d04de2e/AAABjsaQs5M/AAABjcWesUg/16x9-512.jpg", "date": "2024-04-10T07:41:00.000+02:00", "lat": 52.636703, "lon": 9.73201, "intensity": 0.8, "source": "Tagesschau"}, {"title": "Gegen Windpark im Wald: L\u00fcneburger demonstrieren vor Rathaus", "url": "https://www.tagesschau.de/inland/regional/niedersachsen/ndr-gegen-windpark-im-wald-lueneburger-demonstrieren-vor-rathaus-100.html", "thumbnailUrl": "https://images.tagesschau.de/image/e550c559-e5ca-40c9-8205-66c042fcb2bc/AAABjsaQ1bI/AAABjcWesUg/16x9-512.jpg", "date": "2024-04-10T07:36:00.000+02:00", "lat": 53.2454, "lon": 10.4068, "intensity": 0.7, "source": "Tagesschau"}, {"title": "Gesichtserkennung: LKA-Pr\u00e4sident fordert Debatte um Software", "url": "https://www.tagesschau.de/inland/regional/niedersachsen/ndr-gesichtserkennung-lka-praesident-fordert-debatte-um-software-100.html", "thumbnailUrl": "https://images.tagesschau.de/image/cbfbcabe-b974-4d43-8821-ceabc2ae3fd1/AAABjscb4P0/AAABjcWesUg/16x9-512.jpg", "date": "2024-04-10T07:29:00.000+02:00", "lat": 52.376, "lon": 10.4515, "intensity": 0.7, "source": "Tagesschau"}, {"title": "Personalengp\u00e4sse bei Eintracht Frankfurt vor Spiel beim VfB Stuttgart", "url": "https://www.tagesschau.de/inland/regional/hessen/hr-personalengpaesse-bei-eintracht-frankfurt-vor-spiel-beim-vfb-stuttgart-102.html", "thumbnailUrl": "https://images.tagesschau.de/image/253abfc7-831c-411d-8ce5-8187f52c41e6/AAABjsfUiG8/AAABjcWesUg/16x9-512.jpg", "date": "2024-04-10T07:27:02.381+02:00", "lat": 48.778, "lon": 9.177, "intensity": 0.6, "source": "Tagesschau"}, {"title": "Kriminalstatistik: Reaktionen aus MV", "url": "https://www.tagesschau.de/inland/regional/mecklenburgvorpommern/ndr-kriminalstatistik-reaktionen-aus-mv-100.html", "thumbnailUrl": "https://images.tagesschau.de/image/c6df5d4d-b173-4dbe-977f-115da22db45a/AAABjsdOpB0/AAABjcWesUg/16x9-512.jpg", "date": "2024-04-10T07:22:00.000+02:00", "lat": 53.9167, "lon": 12.65, "intensity": 0.8, "source": "Tagesschau"}, {"title": "Kreis Cochem-Zell plant Klage gegen RLP wegen zu niedriger Zusch\u00fcsse ", "url": "https://www.tagesschau.de/inland/regional/rheinlandpfalz/swr-kreis-cochem-zell-plant-klage-gegen-das-land-rheinland-pfalz-100.html", "thumbnailUrl": "https://images.tagesschau.de/image/63918261-5347-4551-acf7-82989fe870af/AAABjsJ8ksI/AAABjcWesUg/16x9-512.jpg", "date": "2024-04-10T07:04:00.000+02:00", "lat": 50.1589, "lon": 7.1614, "intensity": 0.8, "source": "Tagesschau"}, {"title": "Brandenburger Integrationsbeauftragte warnt vor Populismus ", "url": "https://www.tagesschau.de/inland/regional/brandenburg/rbb-brandenburger-integrationsbeauftragte-warnt-vor-populismus-100.html", "thumbnailUrl": "https://images.tagesschau.de/image/b885d536-7def-4448-882e-a96ef0a860c0/AAABjsffgm4/AAABjcWesUg/16x9-512.jpg", "date": "2024-04-10T06:56:00.000+02:00", "lat": 12.5316, "lon": 52.4125, "intensity": 0.7, "source": "Tagesschau"}, {"title": "Audi-Produktionsvorstand: \"Neckarsulm ist bestens aufgestellt f\u00fcr die Zukunft\"", "url": "https://www.tagesschau.de/inland/regional/badenwuerttemberg/swr-audi-produktionsvorstand-neckarsulm-ist-bestens-aufgestellt-fuer-die-zukunft-100.html", "thumbnailUrl": "https://images.tagesschau.de/image/de68dc09-75d3-447c-8046-b6dc58210eb4/AAABjsdvoOQ/AAABjcWesUg/16x9-512.jpg", "date": "2024-04-10T06:50:49.000+02:00", "lat": 49.19506, "lon": 9.26008, "intensity": 0.7, "source": "Tagesschau"}, {"title": "Linah will leben - Stammzellspender dringend gesucht", "url": "https://www.tagesschau.de/inland/regional/nordrheinwestfalen/wdr-linah-will-leben-stammzellspender-dringend-gesucht-102.html", "thumbnailUrl": "https://images.tagesschau.de/image/546c7154-e2f9-4429-95e7-7055733a3354/AAABjsgJXlE/AAABjcWesUg/16x9-512.jpg", "date": "2024-04-10T06:48:00.000+02:00", "lat": 50.9804, "lon": 6.1235, "intensity": 0.8, "source": "Tagesschau"}, {"title": "Tierrettung r\u00fcckt \u00f6fter wegen Schlangen aus", "url": "https://www.tagesschau.de/inland/regional/saarland/sr-tierrettung-rueckt-oefter-wegen-schlangen-aus-100.html", "thumbnailUrl": "https://images.tagesschau.de/image/1bde55e6-fad6-49b4-b16f-9d088c1d45e7/AAABjsZ4Y4I/AAABjcWesUg/16x9-512.jpg", "date": "2024-04-10T06:45:00.000+02:00", "lat": 49.3964, "lon": 6.9108, "intensity": 0.7, "source": "Tagesschau"}, {"title": "Neue Galeria-Eigent\u00fcmer wollen 70 Filialen erhalten", "url": "https://www.tagesschau.de/inland/regional/saarland/sr-investoren-fuer-galeria-karstadt-kaufhof-gefunden-100.html", "thumbnailUrl": "https://images.tagesschau.de/image/97ea816d-cec0-48c8-a411-fab31c9d1faf/AAABjsfUSws/AAABjcWesUg/16x9-512.jpg", "date": "2024-04-10T06:33:00.000+02:00", "lat": 49.3964, "lon": 7.0, "intensity": 0.8, "source": "Tagesschau"}, {"title": "Kreuzfahrten: Was verdient Kiel am Boom?", "url": "https://www.tagesschau.de/inland/regional/schleswigholstein/ndr-kreuzfahrten-was-verdient-kiel-am-boom-100.html", "thumbnailUrl": "https://images.tagesschau.de/image/56fc8577-9de6-4a59-bf25-b5003fa62964/AAABjsiZ6VY/AAABjcWesUg/16x9-512.jpg", "date": "2024-04-10T06:16:00.000+02:00", "lat": 54.3233, "lon": 10.1228, "intensity": 0.8, "source": "Tagesschau"}, {"title": "Versteckte Leiche im Hochbeet: Mordprozess in Ravensburg beginnt", "url": "https://www.tagesschau.de/inland/regional/badenwuerttemberg/swr-versteckte-leiche-im-hochbeet-mordprozess-in-ravensburg-beginnt-100.html", "thumbnailUrl": "https://images.tagesschau.de/image/fb7730da-4d38-4d31-95bd-8c63252a77db/AAABjsb-alE/AAABjcWesUg/16x9-512.jpg", "date": "2024-04-10T06:06:07.000+02:00", "lat": 47.7823, "lon": 9.4466, "intensity": 0.8, "source": "Tagesschau"}, {"title": "Prozess um umstrittenen Polizeikessel in D\u00fcsseldorf startet", "url": "https://www.tagesschau.de/inland/regional/nordrheinwestfalen/wdr-prozess-um-umstrittenen-polizeikessel-in-duesseldorf-startet-100.html", "thumbnailUrl": "https://images.tagesschau.de/image/007890fc-13ea-4958-a160-11ac6fe82b9e/AAABjsZBfDQ/AAABjcWesUg/16x9-512.jpg", "date": "2024-04-10T06:00:00.000+02:00", "lat": 51.2277, "lon": 6.7735, "intensity": 0.8, "source": "Tagesschau"}, {"title": "Pr\u00e4sidentenpartei hofft auf Mehrheit im Parlament", "url": "https://www.tagesschau.de/ausland/asien/suedkorea-parlamentswahl-102.html", "thumbnailUrl": "https://images.tagesschau.de/image/c50cfa7e-4f2d-4daa-bae1-978a9d6f0dac/AAABjsYJ1j0/AAABjcWesUg/16x9-512.jpg", "date": "2024-04-10T05:25:17.611+02:00", "lat": 35.907757, "lon": 127.766922, "intensity": 0.8, "source": "Tagesschau"}, {"title": "Kippt Gambia das Verbot der Genitalverst\u00fcmmelung?", "url": "https://www.tagesschau.de/ausland/afrika/gambia-genitalverstuemmelung-100.html", "thumbnailUrl": "https://images.tagesschau.de/image/403fcd63-40fa-48ff-aec6-b69cfbc2fb2f/AAABjsYIrkM/AAABjcWesUg/16x9-512.jpg", "date": "2024-04-10T05:24:02.309+02:00", "lat": 13.443182, "lon": -16.578193, "intensity": 0.8, "source": "Tagesschau"}, {"title": "EVP-Chef Weber zeigt sich zufrieden mit Asylreform", "url": "https://www.br.de/nachrichten/meldungen/index.html#n1", "thumbnailUrl": null, "date": "2024-04-11T02:54:04+02:00", "lat": 30.0444, "lon": 31.2357, "intensity": 0.8, "source": "Bayrischer Rundfunk"}, {"title": "Eigent\u00fcmerverband will gegen verl\u00e4ngerte Mietpreisbremse klagen", "url": "https://www.br.de/nachrichten/meldungen/index.html#n2", "thumbnailUrl": null, "date": "2024-04-11T02:54:04+02:00", "lat": 33.5138, "lon": 36.2021, "intensity": 0.8, "source": "Bayrischer Rundfunk"}, {"title": "Parteijugend der Ampel fordert Streichung des Paragrafen 218", "url": "https://www.br.de/nachrichten/meldungen/index.html#n3", "thumbnailUrl": null, "date": "2024-04-11T02:54:04+02:00", "lat": 39.9334, "lon": 32.8597, "intensity": 0.8, "source": "Bayrischer Rundfunk"}, {"title": "Lufthansa setzt aus Sicherheitsgr\u00fcnden Fl\u00fcge nach Teheran aus", "url": "https://www.br.de/nachrichten/meldungen/index.html#n4", "thumbnailUrl": null, "date": "2024-04-11T02:54:04+02:00", "lat": 52.520008, "lon": 13.404954, "intensity": 0.7, "source": "Bayrischer Rundfunk"}, {"title": "S\u00f6hne von Hamas-Chef sind bei Angriff get\u00f6tet worden", "url": "https://www.br.de/nachrichten/meldungen/index.html#n5", "thumbnailUrl": null, "date": "2024-04-11T02:54:04+02:00", "lat": 52.520008, "lon": 13.404954, "intensity": 0.6, "source": "Bayrischer Rundfunk"}, {"title": "Opposition gewinnt Parlamentswahl in S\u00fcdkorea", "url": "https://www.br.de/nachrichten/meldungen/index.html#n6", "thumbnailUrl": null, "date": "2024-04-11T02:54:04+02:00", "lat": 48.135125, "lon": 11.581981, "intensity": 0.6, "source": "Bayrischer Rundfunk"}, {"title": "Biden erw\u00e4gt Verzicht auf Auslieferung von Wikileaks-Gr\u00fcnder Assange", "url": "https://www.br.de/nachrichten/meldungen/index.html#n7", "thumbnailUrl": null, "date": "2024-04-11T02:54:04+02:00", "lat": 50.110922, "lon": 8.682127, "intensity": 0.8, "source": "Bayrischer Rundfunk"}, {"title": "Amts\u00e4rzte-Chefin warnt vor Personall\u00fccken in Gesundheits\u00e4mtern", "url": "https://www.br.de/nachrichten/meldungen/index.html#n8", "thumbnailUrl": null, "date": "2024-04-11T02:54:04+02:00", "lat": 47.8684, "lon": 12.6394, "intensity": 0.8, "source": "Bayrischer Rundfunk"}, {"title": "N\u00fcrnberg weiht \"Benjamin-Ferencz-Platz\" feierlich ein", "url": "https://www.br.de/nachrichten/meldungen/index.html#n9", "thumbnailUrl": null, "date": "2024-04-11T02:54:04+02:00", "lat": 48.5844, "lon": 13.6722, "intensity": 0.8, "source": "Bayrischer Rundfunk"},