[{"title": "Wanderer aus Stuttgart in \u00d6sterreich t\u00f6dlich verungl\u00fcckt", "url": "https://www.tagesschau.de/inland/regional/badenwuerttemberg/swr-wanderer-aus-stuttgart-in-oesterreich-toedlich-verunglueckt-100.html", "thumbnailUrl": "https://images.tagesschau.de/image/e9f1f586-02a8-432e-b544-4bc1d3688307/AAABjrs_e_w/AAABjcWesUg/16x9-512.jpg", "date": "2024-04-08T03:03:42.000+02:00", "lat": 48.7758, "lon": 9.1829, "intensity": 0.7, "source": "Tagesschau"}, {"title": "\"Ich sp\u00fcre jeden Tag die Grenzen, an die wir sto\u00dfen\"", "url": "https://www.tagesschau.de/inland/innenpolitik/lindner-caren-miosga-100.html", "thumbnailUrl": "https://images.tagesschau.de/image/a883343e-1968-4e74-82c5-02346d40e2d7/AAABjrrAFWQ/AAABjcWesUg/16x9-512.jpg", "date": "2024-04-08T00:55:13.935+02:00", "lat": 52.520008, "lon": 13.404954, "intensity": 0.5, "source": "Tagesschau"}, {"title": "++ Selenskyj: Werden ohne US-Hilfen verlieren ++", "url": "https://www.tagesschau.de/newsticker/liveblog-ukraine-sonntag-412.html", "thumbnailUrl": "https://images.tagesschau.de/image/d484d3ac-dd99-4258-accb-13b92ed1af98/AAABjrdLd44/AAABjcWesUg/16x9-512.jpg", "date": "2024-04-07T23:27:20.960+02:00", "lat": 48.0159, "lon": 37.8044, "intensity": 0.8, "source": "Tagesschau"}, {"title": "OB-Wahl in Rottenburg: Neher setzt sich durch", "url": "https://www.tagesschau.de/inland/regional/badenwuerttemberg/swr-neher-oder-weber-auszaehlung-der-ob-wahl-in-rottenburg-laeuft-100.html", "thumbnailUrl": "https://images.tagesschau.de/image/6b089d99-883d-46d7-8099-587ac5c07bc2/AAABjrnf6GY/AAABjcWesUg/16x9-512.jpg", "date": "2024-04-07T22:00:00.000+02:00", "lat": 48.4792, "lon": 8.9333, "intensity": 0.7, "source": "Tagesschau"}, {"title": "Russland meldet Angriff auf AKW Saporischschja", "url": "https://www.tagesschau.de/ausland/europa/ukraine-saporischschja-120.html", "thumbnailUrl": "https://images.tagesschau.de/image/9519dc91-c36c-455b-9691-ff938f24ffec/AAABhnPsDJI/AAABjcWesUg/16x9-512.jpg", "date": "2024-04-07T21:42:15.898+02:00", "lat": 47.5079, "lon": 36.1276, "intensity": 0.8, "source": "Tagesschau"}, {"title": "++ Tausende demonstrieren f\u00fcr R\u00fcckkehr der Geiseln ++", "url": "https://www.tagesschau.de/newsticker/liveblog-nahost-sonntag-128.html", "thumbnailUrl": "https://images.tagesschau.de/image/b2971bec-52ff-4252-93ab-db3b31267ece/AAABjrnzVEg/AAABjcWesUg/16x9-512.jpg", "date": "2024-04-07T21:07:11.135+02:00", "lat": 31.046051, "lon": 34.851612, "intensity": 0.8, "source": "Tagesschau"}, {"title": "H\u00f6here Arbeitslosigkeit als im Vorjahr erwartet", "url": "https://www.tagesschau.de/inland/regional/saarland/sr-hoehere-arbeitslosigkeit-als-im-vorjahr-erwartet-100.html", "thumbnailUrl": "https://images.tagesschau.de/image/8fa9f8ef-5d57-4f70-8a03-0a0d8b34155b/AAABjrn0CjM/AAABjcWesUg/16x9-512.jpg", "date": "2024-04-07T21:04:00.000+02:00", "lat": 49.3964, "lon": 7.0233, "intensity": 0.8, "source": "Tagesschau"}, {"title": "Marburg, Darmstadt und Frankfurt: Ungew\u00f6hnliche Stadtf\u00fchrungen", "url": "https://www.tagesschau.de/inland/regional/hessen/hr-marburg-darmstadt-und-frankfurt-ungewoehnliche-stadtfuehrungen-100.html", "thumbnailUrl": "https://images.tagesschau.de/image/cee73a0c-f986-4ca3-9cc5-bbdaf8a7d689/AAABjrnA6YU/AAABjcWesUg/16x9-512.jpg", "date": "2024-04-07T20:09:44.984+02:00", "lat": 50.809, "lon": 8.7705, "intensity": 0.6, "source": "Tagesschau"}, {"title": "Hasenh\u00fcttls Heimdeb\u00fct misslingt: VfL Wolfsburg verliert gegen Gladbach", "url": "https://www.tagesschau.de/inland/regional/niedersachsen/ndr-hasenhuettls-heimdebuet-misslingt-wolfsburg-verliert-gegen-gladbach-102.html", "thumbnailUrl": "https://images.tagesschau.de/image/7d1afb01-37b1-4821-958d-88ba8a2d2961/AAABjrnl0JI/AAABjcWesUg/16x9-512.jpg", "date": "2024-04-07T20:03:00.000+02:00", "lat": 52.4226, "lon": 10.7067, "intensity": 0.7, "source": "Tagesschau"}, {"title": "Fu\u00dfball-EM in Hamburg: Sicherheitskr\u00e4fte bei Jobb\u00f6rse gesucht", "url": "https://www.tagesschau.de/inland/regional/hamburg/ndr-jobboerse-in-hamburg-sicherheitskraefte-fuer-fussball-em-gesucht-100.html", "thumbnailUrl": "https://images.tagesschau.de/image/2ee5902e-9307-4ca9-b0d3-6de0af681c86/AAABjrnKSzM/AAABjcWesUg/16x9-512.jpg", "date": "2024-04-07T19:52:00.000+02:00", "lat": 53.551086, "lon": 9.993682, "intensity": 0.7, "source": "Tagesschau"}, {"title": "Bekommt die Werra eine Welle? Surferspot am Nadelwehr geplant", "url": "https://www.tagesschau.de/inland/regional/niedersachsen/ndr-bekommt-die-werra-eine-welle-surferspot-am-nadelwehr-geplant-100.html", "thumbnailUrl": "https://images.tagesschau.de/image/7de54cb8-7e8c-4a02-bbcd-6ff4138649d9/AAABjrj_G9Q/AAABjcWesUg/16x9-512.jpg", "date": "2024-04-07T19:33:00.000+02:00", "lat": 51.53544, "lon": 9.73322, "intensity": 0.6, "source": "Tagesschau"}, {"title": "Badminton-EM startet am Montag in Saarbr\u00fccken", "url": "https://www.tagesschau.de/inland/regional/saarland/sr-badminton-em-startet-am-montag-in-saarbruecken-102.html", "thumbnailUrl": "https://images.tagesschau.de/image/c73983cb-1faf-4517-a66d-631b5c43676d/AAABjrmho4s/AAABjcWesUg/16x9-512.jpg", "date": "2024-04-07T19:32:00.000+02:00", "lat": 49.2331, "lon": 6.9825, "intensity": 0.7, "source": "Tagesschau"}, {"title": "1. FC Saarbr\u00fccken darf restliche Heimspiele im Ludwigspark austragen", "url": "https://www.tagesschau.de/inland/regional/saarland/sr-1-fc-saarbruecken-darf-restliche-heimspiele-im-ludwigspark-austragen-102.html", "thumbnailUrl": "https://images.tagesschau.de/image/9037b234-8e9d-4e75-a11d-a3606eb9352f/AAABjrmcLv4/AAABjcWesUg/16x9-512.jpg", "date": "2024-04-07T19:28:00.000+02:00", "lat": 49.2354, "lon": 6.9994, "intensity": 0.7, "source": "Tagesschau"}, {"title": "Geliebt, gew\u00e4hlt, gescholten - Altkanzler Schr\u00f6der feiert 80. Geburtstag", "url": "https://www.tagesschau.de/inland/regional/niedersachsen/ndr-geliebt-100.html", "thumbnailUrl": "https://images.tagesschau.de/image/2d7b47bd-d2e4-4845-9820-be6836057270/AAABjrmawGE/AAABjcWesUg/16x9-512.jpg", "date": "2024-04-07T19:27:00.000+02:00", "lat": 52.52, "lon": 10.4234, "intensity": 0.7, "source": "Tagesschau"}, {"title": "Entsetzen nach Anschlag auf Synagoge in Oldenburg", "url": "https://www.tagesschau.de/inland/regional/niedersachsen/brandsatz-synagoge-oldenburg-100.html", "thumbnailUrl": "https://images.tagesschau.de/image/0ae3fc6f-87ef-4d25-a179-ae3ba87437fe/AAABjrorbgA/AAABjcWesUg/16x9-512.jpg", "date": "2024-04-07T19:20:00.000+02:00", "lat": 53.1415, "lon": 8.2154, "intensity": 0.8, "source": "Tagesschau"}, {"title": "Umgruppierung oder Ende der Bodenoffensive?", "url": "https://www.tagesschau.de/ausland/asien/israel-gaza-chan-yunis-abzug-102.html", "thumbnailUrl": "https://images.tagesschau.de/image/d86d167f-d3bd-40cb-ad13-d9ea7780c5bd/AAABjnCCHtk/AAABjcWesUg/16x9-512.jpg", "date": "2024-04-07T19:17:42.529+02:00", "lat": 31.349467, "lon": 34.639944, "intensity": 0.7, "source": "Tagesschau"}, {"title": "Laage: Christin Zimmermann ist neue B\u00fcrgermeisterin", "url": "https://www.tagesschau.de/inland/regional/mecklenburgvorpommern/ndr-laage-christin-zimmermann-ist-neue-buergermeisterin-100.html", "thumbnailUrl": "https://images.tagesschau.de/image/f14e09cb-4eb4-4219-b7b1-b4107b1f5396/AAABjrmJ2j8/AAABjcWesUg/16x9-512.jpg", "date": "2024-04-07T19:08:00.000+02:00", "lat": 53.9347, "lon": 12.2781, "intensity": 0.8, "source": "Tagesschau"}, {"title": "Hannover: S\u00fcdschnellweg teilweise l\u00e4nger gesperrt als geplant", "url": "https://www.tagesschau.de/inland/regional/niedersachsen/ndr-ausbau-von-suedschnellweg-b3-in-hannover-heute-abend-gesperrt-100.html", "thumbnailUrl": "https://images.tagesschau.de/image/e5008b51-bcb4-430d-9aea-17af970de027/AAABjrmGnWo/AAABjcWesUg/16x9-512.jpg", "date": "2024-04-07T19:03:00.000+02:00", "lat": 52.3759, "lon": 9.7317, "intensity": 0.4, "source": "Tagesschau"}, {"title": "Freiburg Marathon bei Rekordtemperaturen f\u00fcr Anfang April", "url": "https://www.tagesschau.de/inland/regional/badenwuerttemberg/swr-freiburg-marathon-bei-rekordtemperaturen-fuer-anfang-april-102.html", "thumbnailUrl": "https://images.tagesschau.de/image/0e9aa3c8-2efb-42c6-904e-3fb472f577d6/AAABjrkAj8w/AAABjcWesUg/16x9-512.jpg", "date": "2024-04-07T18:56:00.000+02:00", "lat": 47.9961, "lon": 7.8497, "intensity": 0.8, "source": "Tagesschau"}, {"title": "Anklam: Gro\u00dfer Rettungseinsatz in Seniorenresidenz", "url": "https://www.tagesschau.de/inland/regional/mecklenburgvorpommern/ndr-anklam-grosser-rettungseinsatz-in-seniorenresidenz-100.html", "thumbnailUrl": "https://images.tagesschau.de/image/087c2294-9f8f-43a5-b7b7-e922387097d9/AAABjrgHgi0/AAABjcWesUg/16x9-512.jpg", "date": "2024-04-07T18:50:00.000+02:00", "lat": 53.854, "lon": 13.6954, "intensity": 0.8, "source": "Tagesschau"}, {"title": "Solidarit\u00e4ts-Demo nach Brandanschlag auf Synagoge", "url": "https://www.tagesschau.de/inland/regional/niedersachsen/demo-brandanschlag-synagoge-in-oldenburg-100.html", "thumbnailUrl": "https://images.tagesschau.de/image/202f647f-86a8-4e81-9e76-7f86522fc161/AAABjrorZ50/AAABjcWesUg/16x9-512.jpg", "date": "2024-04-07T18:26:00.000+02:00", "lat": 53.1435, "lon": 8.2159, "intensity": 0.8, "source": "Tagesschau"}, {"title": "Hannover: Verfolgungsjagd mit Tempo 140 endet mit Unfall", "url": "https://www.tagesschau.de/inland/regional/niedersachsen/ndr-hannover-verfolgungsjagd-mit-tempo-140-endet-mit-unfall-100.html", "thumbnailUrl": "https://images.tagesschau.de/image/9f488c04-8282-4dbf-9c9c-676a70928b7a/AAABjrlao2M/AAABjcWesUg/16x9-512.jpg", "date": "2024-04-07T18:10:00.000+02:00", "lat": 52.3759, "lon": 9.732, "intensity": 0.8, "source": "Tagesschau"}, {"title": "100:91 trotz sieben Ausf\u00e4llen: Albas Rumpfteam ringt Ludwigsburg nieder", "url": "https://www.tagesschau.de/inland/regional/berlin/rbb-10091-trotz-sieben-ausfaellen-albas-rumpfteam-ringt-ludwigsburg-nieder-102.html", "thumbnailUrl": "https://images.tagesschau.de/image/3400d7c4-0124-424d-9ca9-900f61e11357/AAABjrlRdKY/AAABjcWesUg/16x9-512.jpg", "date": "2024-04-07T18:02:16.000+02:00", "lat": 52.5192, "lon": 13.4073, "intensity": 0.8, "source": "Tagesschau"}, {"title": "Wie Russland seine Spionage umstellt\u00a0", "url": "https://www.tagesschau.de/investigativ/ndr-wdr/spionage-russland-deutschland-100.html", "thumbnailUrl": "https://images.tagesschau.de/image/ae315c36-a290-46f1-a6b9-1d922cb088d6/AAABjq4-vlc/AAABjcWesUg/16x9-512.jpg", "date": "2024-04-07T18:00:05.382+02:00", "lat": 51.1657, "lon": 9.9986, "intensity": 0.7, "source": "Tagesschau"}, {"title": "Regionalliga Nordost: Viktoria und Babelsberg gewinnen, Berliner AK ist Tabellenletzter", "url": "https://www.tagesschau.de/inland/regional/brandenburg/rbb-regionalliga-nordost-viktoria-und-babelsberg-gewinnen-berliner-ak-ist-tabellenletzter-102.html", "thumbnailUrl": "https://images.tagesschau.de/image/51b44faf-d340-4e3d-9dff-1d4dbf9f8473/AAABjrlIO2E/AAABjcWesUg/16x9-512.jpg", "date": "2024-04-07T17:56:27.000+02:00", "lat": 52.3564, "lon": 13.0657, "intensity": 0.6, "source": "Tagesschau"}, {"title": "Heidelberger Initiative gegen Gendersprache will Klage zur\u00fcckziehen", "url": "https://www.tagesschau.de/inland/regional/badenwuerttemberg/swr-heidelberger-initiative-gegen-gendersprache-will-klage-zurueckziehen-100.html", "thumbnailUrl": "https://images.tagesschau.de/image/02cd4354-9a23-45e9-82b7-70c8d7d8cabd/AAABjrlJ01k/AAABjcWesUg/16x9-512.jpg", "date": "2024-04-07T17:54:16.000+02:00", "lat": 49.3988, "lon": 8.6821, "intensity": 0.6, "source": "Tagesschau"}, {"title": "Zweith\u00f6chste Waldbrand-Warnstufe in Griechenland", "url": "https://www.tagesschau.de/ausland/europa/waldbrandgefahr-griechenland-100.html", "thumbnailUrl": "https://images.tagesschau.de/image/1a12df1e-5cd8-4d84-81aa-f09c3b59c420/AAABjrlFpJk/AAABjcWesUg/16x9-512.jpg", "date": "2024-04-07T17:53:10.331+02:00", "lat": 37.98381, "lon": 23.727539, "intensity": 0.8, "source": "Tagesschau"}, {"title": "Iran droht Israel mit Angriff auf Botschaften", "url": "https://www.tagesschau.de/ausland/asien/drohung-iran-israel-100.html", "thumbnailUrl": "https://images.tagesschau.de/image/e30a4860-e04d-496d-9a43-e267074daa2d/AAABjrkyCW4/AAABjcWesUg/16x9-512.jpg", "date": "2024-04-07T17:34:08.288+02:00", "lat": 33.5138, "lon": 36.2021, "intensity": 0.8, "source": "Tagesschau"}, {"title": "R\u00fcckreiseverkehr nach den Osterferien: Keine gr\u00f6\u00dferen Staus in NRW", "url": "https://www.tagesschau.de/inland/regional/nordrheinwestfalen/wdr-rueckreiseverkehr-nach-den-osterferien-hier-wird-es-voll-100.html", "thumbnailUrl": "https://images.tagesschau.de/image/2e6efd51-fcb4-40c9-ab2b-91f5038f51d0/AAABjrnU5UQ/AAABjcWesUg/16x9-512.jpg", "date": "2024-04-07T17:31:00.000+02:00", "lat": 51.455643, "lon": 7.588576, "intensity": 0.3, "source": "Tagesschau"}, {"title": "Frauen-Fu\u00dfball Regionalliga: Hertha verpasst sp\u00e4ten Ausgleich, Union siegt in der Nachspielzeit", "url": "https://www.tagesschau.de/inland/regional/brandenburg/rbb-frauen-fussball-regionalliga-hertha-verpasst-spaeten-ausgleich-union-siegt-in-der-nachspielzeit-102.html", "thumbnailUrl": "https://images.tagesschau.de/image/59ad3635-ca34-43d5-91f9-4f9bcc6dd825/AAABjrlIQBk/AAABjcWesUg/16x9-512.jpg", "date": "2024-04-07T17:30:13.000+02:00", "lat": 52.520008, "lon": 13.404954, "intensity": 0.7, "source": "Tagesschau"}, {"title": "Berlin-Alt-Hohensch\u00f6nhausen: Autofahrer landet im Gleisbett der Stra\u00dfenbahn - zwei Verletzte", "url": "https://www.tagesschau.de/inland/regional/berlin/rbb-berlin-alt-hohenschoenhausen-autofahrer-landet-im-gleisbett-der-strassenbahn-zwei-verletzte-100.html", "thumbnailUrl": "https://images.tagesschau.de/image/caf8618e-78a9-4868-ac2a-cf508b336971/AAABjrkpGtM/AAABjcWesUg/16x9-512.jpg", "date": "2024-04-07T17:20:51.000+02:00", "lat": 52.5523, "lon": 13.5006, "intensity": 0.8, "source": "Tagesschau"}, {"title": "Ruanda und Rheinland-Pfalz erinnern an V\u00f6lkermord in dem afrikanischen Land", "url": "https://www.tagesschau.de/inland/regional/rheinlandpfalz/swr-ruanda-und-rheinland-pfalz-erinnern-an-voelkermord-in-dem-afrikanischen-land-100.html", "thumbnailUrl": "https://images.tagesschau.de/image/f44794f0-0cb8-430b-8884-41e3dcba8181/AAABjrfhFdY/AAABjcWesUg/16x9-512.jpg", "date": "2024-04-07T17:18:00.000+02:00", "lat": -1.970578, "lon": 30.059484, "intensity": 0.8, "source": "Tagesschau"}, {"title": "Corona-Aufarbeitung: Junge Menschen sp\u00fcren die Folgen noch ein Jahr nach Pandemie-Ende", "url": "https://www.tagesschau.de/inland/regional/nordrheinwestfalen/wdr-corona-massnahmen-gerade-junge-menschen-spueren-die-folgen-noch-ein-jahr-nach-dem-ende-100.html", "thumbnailUrl": "https://images.tagesschau.de/image/e5bacc46-5f4e-4e2b-b360-49d84d604455/AAABjrl5Vy0/AAABjcWesUg/16x9-512.jpg", "date": "2024-04-07T16:58:00.000+02:00", "lat": 51.089036, "lon": 9.953355, "intensity": 0.6, "source": "Tagesschau"}, {"title": "2:3-Niederlage in Straubing: Eisb\u00e4ren Berlin vergeben ersten Matchball zum Finaleinzug knapp", "url": "https://www.tagesschau.de/inland/regional/berlin/rbb-23-niederlage-in-straubing-eisbaeren-berlin-vergeben-ersten-matchball-zum-finaleinzug-knapp-102.html", "thumbnailUrl": "https://images.tagesschau.de/image/33eeb249-8608-4ace-8b6b-40240fab389e/AAABjrkKBwg/AAABjcWesUg/16x9-512.jpg", "date": "2024-04-07T16:56:03.000+02:00", "lat": 52.52348, "lon": 13.45037, "intensity": 0.8, "source": "Tagesschau"}, {"title": "Weltkriegsbombe in Bitburg entsch\u00e4rft", "url": "https://www.tagesschau.de/inland/regional/rheinlandpfalz/swr-bombe-bei-bauarbeiten-an-grundschule-in-bitburg-gefunden-100.html", "thumbnailUrl": "https://images.tagesschau.de/image/b0505490-f944-4a7b-9d9e-1f309868281e/AAABjrkJq2c/AAABjcWesUg/16x9-512.jpg", "date": "2024-04-07T16:48:00.000+02:00", "lat": 49.9675, "lon": 6.532, "intensity": 0.8, "source": "Tagesschau"}, {"title": "Israels Armee verl\u00e4sst Chan Yunis", "url": "https://www.tagesschau.de/ausland/asien/israel-gaza-chan-yunis-abzug-100.html", "thumbnailUrl": "https://images.tagesschau.de/image/9e7f8d9b-12a6-4f6a-8677-e74e70f336f1/AAABjriCmto/AAABjcWesUg/16x9-512.jpg", "date": "2024-04-07T16:39:36.984+02:00", "lat": 31.5167, "lon": 34.6382, "intensity": 0.8, "source": "Tagesschau"}, {"title": "Deutschlandweiter W\u00e4rme-Rekord mit 30 Grad in Baden-W\u00fcrttemberg", "url": "https://www.tagesschau.de/inland/regional/badenwuerttemberg/swr-sommerwetter-am-wochenende-bis-zu-30-grad-in-bw-moeglich-100.html", "thumbnailUrl": "https://images.tagesschau.de/image/26faf9e6-46d7-4a2e-901b-f1ae10d1ecb2/AAABjrsBO4w/AAABjcWesUg/16x9-512.jpg", "date": "2024-04-07T16:30:00.000+02:00", "lat": 48.771508, "lon": 9.005963, "intensity": 0.8, "source": "Tagesschau"}, {"title": "Radfahrer bei Zusammensto\u00df mit Wildtier im Taunus lebensgef\u00e4hrlich verletzt", "url": "https://www.tagesschau.de/inland/regional/hessen/hr-radfahrer-bei-zusammenstoss-mit-wildtier-im-taunus-lebensgefaehrlich-verletzt-100.html", "thumbnailUrl": "https://images.tagesschau.de/image/afc4bc26-336c-4125-bec4-1c8bf086286e/AAABjrj3lP8/AAABjcWesUg/16x9-512.jpg", "date": "2024-04-07T16:29:30.087+02:00", "lat": 50.202, "lon": 8.379, "intensity": 0.8, "source": "Tagesschau"}, {"title": "Solidarische Landwirtschaft: Wenn sich Bauern und Verbraucher das Risiko teilen", "url": "https://www.tagesschau.de/inland/regional/brandenburg/rbb-solidarische-landwirtschaft-wenn-sich-bauern-und-verbraucher-das-risiko-teilen-100.html", "thumbnailUrl": "https://images.tagesschau.de/image/435b682c-dc13-4234-b0d5-1ace6d9f2091/AAABjrj5jxw/AAABjcWesUg/16x9-512.jpg", "date": "2024-04-07T16:28:42.000+02:00", "lat": 52.52, "lon": 13.405, "intensity": 0.5, "source": "Tagesschau"}, {"title": "Bauernpr\u00e4sident zu Fl\u00e4chen-Verkaufsstopp: \"F\u00fcr einen Landwirt ist es wichtig, Eigentum zu besitzen\"", "url": "https://www.tagesschau.de/inland/regional/brandenburg/rbb-bauernpraesident-zu-flaechen-verkaufsstopp-fuer-einen-landwirt-ist-es-wichtig-eigentum-zu-besitzen-100.html", "thumbnailUrl": "https://images.tagesschau.de/image/d1dd844c-00b0-4284-b01a-8d1b7d308f18/AAABjrj3prk/AAABjcWesUg/16x9-512.jpg", "date": "2024-04-07T16:26:21.000+02:00", "lat": 52.52, "lon": 13.3488, "intensity": 0.6, "source": "Tagesschau"}, {"title": "Zerbster Br\u00fccke ab Montag wieder frei", "url": "https://www.tagesschau.de/inland/regional/sachsenanhalt/mdr-zerbster-bruecke-ab-montag-wieder-frei-100.html", "thumbnailUrl": "https://images.tagesschau.de/image/ce758d24-2f8e-49f7-b1a7-22c1f845b883/AAABjrrZeBI/AAABjcWesUg/16x9-512.jpg", "date": "2024-04-07T16:16:26.000+02:00", "lat": 51.8601, "lon": 12.1041, "intensity": 0.5, "source": "Tagesschau"}, {"title": "Besch\u00e4ftigungsquote steigt langsam: Wie schwerbehinderte Menschen in den Brandenburger Arbeitsmarkt integriert sind", "url": "https://www.tagesschau.de/inland/regional/brandenburg/rbb-beschaeftigungsquote-steigt-langsam-wie-schwerbehinderte-menschen-in-den-brandenburger-arbeitsmarkt-integriert-sind-100.html", "thumbnailUrl": "https://images.tagesschau.de/image/7d15b04d-9904-4323-b86c-808ba14e3d3c/AAABjrjwMw4/AAABjcWesUg/16x9-512.jpg", "date": "2024-04-07T16:15:30.000+02:00", "lat": 52.4125, "lon": 13.1684, "intensity": 0.7, "source": "Tagesschau"}, {"title": "Warum der Bahnhof in S\u00fcderbrarup ein ganz besonderer ist", "url": "https://www.tagesschau.de/inland/regional/schleswigholstein/ndr-warum-der-bahnhof-in-suederbrarup-ein-ganz-besonderer-ist-100.html", "thumbnailUrl": "https://images.tagesschau.de/image/d4853b1e-1648-4c61-861f-20d6ef3fc48d/AAABjrjf9Sw/AAABjcWesUg/16x9-512.jpg", "date": "2024-04-07T16:01:00.000+02:00", "lat": 54.6332, "lon": 9.6953, "intensity": 0.6, "source": "Tagesschau"}, {"title": "FC Homburg gewinnt zu Hause gegen Balingen", "url": "https://www.tagesschau.de/inland/regional/saarland/sr-fc-homburg-gewinnt-zu-hause-gegen-balingen-100.html", "thumbnailUrl": "https://images.tagesschau.de/image/2fe64944-2894-4042-a842-9e225de2d5ce/AAABjrnRSNU/AAABjcWesUg/16x9-512.jpg", "date": "2024-04-07T15:59:00.000+02:00", "lat": 49.3123, "lon": 7.3373, "intensity": 0.6, "source": "Tagesschau"}, {"title": "Z\u00fcndf\u00e4higer Sprengsatz in Halle gefunden: LKA \u00fcbernimmt Ermittlungen", "url": "https://www.tagesschau.de/inland/regional/sachsenanhalt/mdr-polizeieinsatz-in-halle-verdacht-auf-bau-einer-bombe-100.html", "thumbnailUrl": "https://images.tagesschau.de/image/3f87823f-6f9d-4246-8e99-813faa48244e/AAABjrh7Ons/AAABjcWesUg/16x9-512.jpg", "date": "2024-04-07T15:51:13.000+02:00", "lat": 51.482504, "lon": 11.968802, "intensity": 0.8, "source": "Tagesschau"}, {"title": "Die Hoffnung lebt: VfL Osnabr\u00fcck schl\u00e4gt auch Greuther F\u00fcrth", "url": "https://www.tagesschau.de/inland/regional/niedersachsen/ndr-die-hoffnung-lebt-vfl-osnabrueck-schlaegt-auch-greuther-fuerth-102.html", "thumbnailUrl": "https://images.tagesschau.de/image/926fdb96-80d7-4762-bed1-478f2b5c1c60/AAABjrnrX9o/AAABjcWesUg/16x9-512.jpg", "date": "2024-04-07T15:49:00.000+02:00", "lat": 52.2795, "lon": 8.0357, "intensity": 0.8, "source": "Tagesschau"}, {"title": "An Haltestelle der Stra\u00dfenbahn: Mann nach Streit in Magdeburg gestorben", "url": "https://www.tagesschau.de/inland/regional/sachsenanhalt/mdr-an-haltestelle-der-strassenbahn-mann-nach-streit-in-magdeburg-gestorben-100.html", "thumbnailUrl": "https://images.tagesschau.de/image/bcfaeb59-0e42-4d6e-885b-92d27beea313/AAABjrrZXy8/AAABjcWesUg/16x9-512.jpg", "date": "2024-04-07T15:46:58.000+02:00", "lat": 52.1205, "lon": 11.6276, "intensity": 0.8, "source": "Tagesschau"}, {"title": "Paul Fernie wird neuer Sportchef von  Darmstadt 98", "url": "https://www.tagesschau.de/inland/regional/hessen/hr-paul-fernie-wird-neuer-sportchef-von-darmstadt-98-102.html", "thumbnailUrl": "https://images.tagesschau.de/image/af1752f0-0063-4f0f-9a14-e6d7976b1977/AAABjrj3hL8/AAABjcWesUg/16x9-512.jpg", "date": "2024-04-07T15:43:06.470+02:00", "lat": 49.8728, "lon": 8.6525, "intensity": 0.6, "source": "Tagesschau"}, {"title": "HSV schl\u00e4gt Kaiserslautern, bleibt nach D\u00fcsseldorf-Sieg aber Vierter", "url": "https://www.tagesschau.de/inland/regional/hamburg/ndr-sieg-gegen-kaiserslautern-hsv-legt-im-kampf-um-platz-3-vor-102.html", "thumbnailUrl": "https://images.tagesschau.de/image/5559a9aa-a14e-4a1c-bfd5-da2c71e453fe/AAABjrnVT9k/AAABjcWesUg/16x9-512.jpg", "date": "2024-04-07T15:34:00.000+02:00", "lat": 53.55, "lon": 10.0, "intensity": 0.7, "source": "Tagesschau"}, {"title": "1. FC Saarbr\u00fccken besiegt Dynamo Dresden mit 3:1", "url": "https://www.tagesschau.de/inland/regional/saarland/sr-1-fc-saarbruecken-zurueck-im-ligaalltag-100.html", "thumbnailUrl": "https://images.tagesschau.de/image/61e4d458-1f57-4f87-8cea-0aea4f6eae7c/AAABjrnRPQY/AAABjcWesUg/16x9-512.jpg", "date": "2024-04-07T15:32:00.000+02:00", "lat": 51.048562, "lon": 13.77494, "intensity": 0.8, "source": "Tagesschau"}, {"title": "Holstein Kiel: Das Selbstverst\u00e4ndnis eines Spitzenteams", "url": "https://www.tagesschau.de/inland/regional/schleswigholstein/ndr-holstein-kiel-das-selbstverstaendnis-eines-spitzenteams-102.html", "thumbnailUrl": "https://images.tagesschau.de/image/a1e61cbc-fa8b-4db2-a376-18bce3519c08/AAABjrgEKiY/AAABjcWesUg/16x9-512.jpg", "date": "2024-04-07T15:23:00.000+02:00", "lat": 54.3233, "lon": 9.9636, "intensity": 0.8, "source": "Tagesschau"}, {"title": "Berlin: Mehrere Verletzte bei Schl\u00e4gerei in Franz\u00f6sisch Buchholz", "url": "https://www.tagesschau.de/inland/regional/berlin/rbb-berlin-mehrere-verletzte-bei-schlaegerei-in-franzoesisch-buchholz-100.html", "thumbnailUrl": "https://images.tagesschau.de/image/9f718ef9-ef80-4e42-afc8-80624f02dd4d/AAABjrilV-w/AAABjcWesUg/16x9-512.jpg", "date": "2024-04-07T14:58:35.000+02:00", "lat": 52.622249, "lon": 13.421464, "intensity": 0.8, "source": "Tagesschau"}, {"title": "Jetzt live: Wolfsburg gegen M\u00f6nchengladbach", "url": "https://www.sportschau.de/live-und-ergebnisse/fussball/deutschland-bundesliga/ma9686408/1899-hoffenheim_fc-augsburg/info/", "thumbnailUrl": "https://images.tagesschau.de/image/9f8165ba-ca30-4328-b2f7-799fe3637a8c/AAABiNkNSio/AAABjcWesUg/16x9-512.jpg", "date": "2024-04-07T14:57:22.434+02:00", "lat": 49.2604, "lon": 8.6304, "intensity": 0.6, "source": "Tagesschau"}, {"title": "\u00c4tna auf Sizilien: Europas aktivster Vulkan pustet Rauchkringel", "url": "https://www.tagesschau.de/inland/regional/nordrheinwestfalen/wdr-aetna-auf-sizilien-europas-aktivster-vulkan-pustet-rauchkringel-100.html", "thumbnailUrl": "https://images.tagesschau.de/image/83ada81f-91ba-4966-a2cc-3e5598e5cd20/AAABjrnGQn0/AAABjcWesUg/16x9-512.jpg", "date": "2024-04-07T14:57:00.000+02:00", "lat": 37.75, "lon": 15.0, "intensity": 0.8, "source": "Tagesschau"}, {"title": "Vor Semesterstart: Hessens Unis werden digitaler", "url": "https://www.tagesschau.de/inland/regional/hessen/hr-vor-semesterstart-hessens-unis-werden-digitaler-100.html", "thumbnailUrl": "https://images.tagesschau.de/image/d0ce1c43-126d-41e5-a84d-4a029a1a56a8/AAABjrid0mM/AAABjcWesUg/16x9-512.jpg", "date": "2024-04-07T14:50:50.402+02:00", "lat": 50.5832, "lon": 8.6843, "intensity": 0.6, "source": "Tagesschau"}, {"title": "Wohnungsk\u00e4ufer in Deutschland ohne Schutz", "url": "https://www.tagesschau.de/wirtschaft/verbraucher/kaeufer-wohnungen-bautraeger-pleite-schutz-100.html", "thumbnailUrl": "https://images.tagesschau.de/image/e9f624f9-337c-4f50-a1d1-46f2301ea17c/AAABisiV0dA/AAABjcWesUg/16x9-512.jpg", "date": "2024-04-07T14:50:10.820+02:00", "lat": 51.5142, "lon": 9.9937, "intensity": 0.8, "source": "Tagesschau"}, {"title": "Berlin-Prenzlauer Berg: 67-j\u00e4hrige Radfahrerin nach Zusammensto\u00df mit Lkw schwer verletzt ", "url": "https://www.tagesschau.de/inland/regional/berlin/rbb-berlin-prenzlauer-berg-67-jaehrige-radfahrerin-nach-zusammenstoss-mit-lkw-schwer-verletzt-100.html", "thumbnailUrl": "https://images.tagesschau.de/image/79cda2a1-e807-4ffe-9509-258bd73d431a/AAABjriaWSU/AAABjcWesUg/16x9-512.jpg", "date": "2024-04-07T14:45:57.000+02:00", "lat": 52.5339, "lon": 13.4424, "intensity": 0.8, "source": "Tagesschau"}, {"title": "Sexuelle N\u00f6tigung: Freispruch f\u00fcr rangh\u00f6chsten BW-Polizisten wohl rechtskr\u00e4ftig ", "url": "https://www.tagesschau.de/inland/regional/badenwuerttemberg/swr-sexuelle-noetigung-freispruch-fuer-ranghoechsten-bw-polizisten-wohl-rechtskraeftig-100.html", "thumbnailUrl": "https://images.tagesschau.de/image/8e6d33df-5888-4397-8c3d-a23f940bed1c/AAABjrdXySM/AAABjcWesUg/16x9-512.jpg", "date": "2024-04-07T14:42:00.000+02:00", "lat": 48.6616, "lon": 9.9937, "intensity": 0.8, "source": "Tagesschau"}, {"title": "Erstes Wochenende mit legalem Kiffen: So lief's in Stuttgart", "url": "https://www.tagesschau.de/inland/regional/badenwuerttemberg/swr-erstes-wochenende-mit-kiffen-so-liefs-in-stuttgart-100.html", "thumbnailUrl": "https://images.tagesschau.de/image/a10878e7-acc3-4a7a-a444-27047409a193/AAABjriStl8/AAABjcWesUg/16x9-512.jpg", "date": "2024-04-07T14:31:07.000+02:00", "lat": 48.7758, "lon": 9.1829, "intensity": 0.6, "source": "Tagesschau"}, {"title": "1.000 Menschen demonstrieren in Trier gegen Rechtsextremismus", "url": "https://www.tagesschau.de/inland/regional/rheinlandpfalz/swr-1-000-menschen-demonstrieren-in-trier-gegen-rechtsextremismus-100.html", "thumbnailUrl": "https://images.tagesschau.de/image/0a5295c9-3a96-4fc7-8c39-d499af7262c6/AAABjriUo-0/AAABjcWesUg/16x9-512.jpg", "date": "2024-04-07T14:19:17.000+02:00", "lat": 49.7493, "lon": 6.6451, "intensity": 0.8, "source": "Tagesschau"}, {"title": "Streckenf\u00fchrung f\u00fcr Ortsumfahrung Halberstadt beschlossen", "url": "https://www.tagesschau.de/inland/regional/sachsenanhalt/mdr-streckenfuehrung-fuer-ortsumfahrung-halberstadt-beschlossen-100.html", "thumbnailUrl": "https://images.tagesschau.de/image/8c5f6464-5aa4-46d8-ae5f-dba6dac1e7e3/AAABjrrZktM/AAABjcWesUg/16x9-512.jpg", "date": "2024-04-07T13:56:53.000+02:00", "lat": 51.8961, "lon": 11.0512, "intensity": 0.7, "source": "Tagesschau"}, {"title": "Neue Seenotrettungsboote auf Fehmarn und in Laboe getauft", "url": "https://www.tagesschau.de/inland/regional/schleswigholstein/ndr-neues-seenotrettungsboot-in-laboe-getauft-100.html", "thumbnailUrl": "https://images.tagesschau.de/image/a19eca63-0a74-4942-a334-3d61ba6dfafd/AAABjrho91w/AAABjcWesUg/16x9-512.jpg", "date": "2024-04-07T13:52:00.000+02:00", "lat": 54.438, "lon": 11.183, "intensity": 0.7, "source": "Tagesschau"}, {"title": "Brand auf ehemaligem Gie\u00dfereigel\u00e4nde in Ottweiler endg\u00fcltig gel\u00f6scht", "url": "https://www.tagesschau.de/inland/regional/saarland/sr-feuerwehreinsatz-auf-ehemaligem-giessereigelaende-in-ottweiler-dauert-an-100.html", "thumbnailUrl": "https://images.tagesschau.de/image/59d3f0f7-4a67-4cd3-8ab2-d78055ec866a/AAABjrlo6Lc/AAABjcWesUg/16x9-512.jpg", "date": "2024-04-07T13:52:00.000+02:00", "lat": 49.3661, "lon": 7.1682, "intensity": 0.7, "source": "Tagesschau"}, {"title": "Ferienort warnt mit Schildern vor tieffliegenden St\u00f6rchen", "url": "https://www.tagesschau.de/inland/regional/niedersachsen/ndr-ferienort-warnt-mit-schildern-vor-tieffliegenden-stoerchen-100.html", "thumbnailUrl": "https://images.tagesschau.de/image/a8551ad9-9252-412b-b60c-efaa995b3128/AAABjrhoEvo/AAABjcWesUg/16x9-512.jpg", "date": "2024-04-07T13:50:00.000+02:00", "lat": 53.3472, "lon": 8.6025, "intensity": 0.7, "source": "Tagesschau"}, {"title": "1.000 nehmen an Menschenkette gegen Rechts in Sonsbeck teil", "url": "https://www.tagesschau.de/inland/regional/nordrheinwestfalen/wdr-1-000-nehmen-an-menschenkette-gegen-rechts-in-sonsbeck-teil-100.html", "thumbnailUrl": "https://images.tagesschau.de/image/822c120f-7aaf-4f22-94c2-13f0ef7aaea9/AAABjriuGA0/AAABjcWesUg/16x9-512.jpg", "date": "2024-04-07T13:49:44.000+02:00", "lat": 51.6077, "lon": 6.3819, "intensity": 0.8, "source": "Tagesschau"}, {"title": "Ironman 2024: Patrick Lange entt\u00e4uscht bei Auftakt der Triathlon-Saison", "url": "https://www.tagesschau.de/inland/regional/hessen/hr-ironman-2024-patrick-lange-enttaeuscht-bei-auftakt-der-triathlon-saison-102.html", "thumbnailUrl": "https://images.tagesschau.de/image/71174056-eb17-4aa6-9ea8-d5e558ad5729/AAABjrhm2cw/AAABjcWesUg/16x9-512.jpg", "date": "2024-04-07T13:43:42.558+02:00", "lat": 38.7223, "lon": -9.1416, "intensity": 0.6, "source": "Tagesschau"}, {"title": "Start in die Lauf-Saison: Das sind die verr\u00fccktesten Marathons", "url": "https://www.tagesschau.de/inland/regional/nordrheinwestfalen/wdr-start-in-die-lauf-saison-das-sind-die-verruecktesten-marathons-100.html", "thumbnailUrl": "https://images.tagesschau.de/image/721480d0-85fb-4c04-9b0e-2bf10db4fff6/AAABjriqcxE/AAABjcWesUg/16x9-512.jpg", "date": "2024-04-07T13:41:00.000+02:00", "lat": 51.9607, "lon": 7.6261, "intensity": 0.3, "source": "Tagesschau"}, {"title": "Peter Sodann gestorben", "url": "https://www.tagesschau.de/inland/gesellschaft/sodann-gestorben-100.html", "thumbnailUrl": "https://images.tagesschau.de/image/88fae269-b8cb-4b1e-b649-91ff102f9226/AAABjrdrrcI/AAABjcWesUg/16x9-512.jpg", "date": "2024-04-07T13:40:13.590+02:00", "lat": 51.482504, "lon": 11.968802, "intensity": 0.7, "source": "Tagesschau"}, {"title": "Drei neue \u00f6ffentliche Trinkwasserbrunnen in der Pfalz", "url": "https://www.tagesschau.de/inland/regional/rheinlandpfalz/swr-drei-neue-oeffentliche-trinkwasserbrunnen-in-der-pfalz-100.html", "thumbnailUrl": "https://images.tagesschau.de/image/cbb66950-70db-488d-b7e0-f8fdf965d416/AAABjriUxws/AAABjcWesUg/16x9-512.jpg", "date": "2024-04-07T13:37:04.000+02:00", "lat": 49.992862, "lon": 8.247252, "intensity": 0.7, "source": "Tagesschau"}, {"title": "Darmstadt 98: +++ Bericht: Paul Fernie wird neuer Lilien-Sportchef +++ Schuhen glaubt noch an Klasserhalt +++ Lieberknecht spricht \u00fcber Wehlmann-Abschied +++", "url": "https://www.tagesschau.de/inland/regional/hessen/hr--tietz-vermisst-fehlende-gier--lilien-fans-liefern-sich-raststaetten-pruegelei--die-niederlage-der-lilien-in-der-video-zusammenfassung-102.html", "thumbnailUrl": "https://images.tagesschau.de/image/865ba993-677b-452b-9b92-2e41ec6d4b5e/AAABjrhb5H8/AAABjcWesUg/16x9-512.jpg", "date": "2024-04-07T13:35:07.141+02:00", "lat": 49.878, "lon": 8.6536, "intensity": 0.6, "source": "Tagesschau"}, {"title": "E-Scooter-Fahrer bei Unfall in Saarbr\u00fccken-Malstatt schwer verletzt", "url": "https://www.tagesschau.de/inland/regional/saarland/sr-e-scooter-fahrer-bei-unfall-in-saarbruecken-malstatt-schwer-verletzt-100.html", "thumbnailUrl": "https://images.tagesschau.de/image/d23a7e61-f4ae-4919-bd23-f4884f4e5847/AAABjrhuBFs/AAABjcWesUg/16x9-512.jpg", "date": "2024-04-07T13:32:00.000+02:00", "lat": 49.2035, "lon": 6.9969, "intensity": 0.8, "source": "Tagesschau"}, {"title": "Dichterer Takt, l\u00e4nger verf\u00fcgbar: BVG verbessert ab Sonntag Angebot auf einigen Buslinien", "url": "https://www.tagesschau.de/inland/regional/berlin/rbb-dichterer-takt-laenger-verfuegbar-bvg-verbessert-ab-sonntag-angebot-auf-einigen-buslinien-100.html", "thumbnailUrl": "https://images.tagesschau.de/image/4c273bcd-f0eb-4af5-9a5e-40d125705e95/AAABjrhNaVM/AAABjcWesUg/16x9-512.jpg", "date": "2024-04-07T13:20:33.000+02:00", "lat": 52.520008, "lon": 13.404954, "intensity": 0.6, "source": "Tagesschau"}, {"title": "Holocaust-\u00dcberlebender Zweig gestorben", "url": "https://www.tagesschau.de/inland/jerzy-zweig-holocaust-gestorben-100.html", "thumbnailUrl": "https://images.tagesschau.de/image/4c17c6a3-7488-4fad-b5c5-f510d0b1da67/AAABjrhtghs/AAABjcWesUg/16x9-512.jpg", "date": "2024-04-07T13:14:02.850+02:00", "lat": 56.1167, "lon": 11.2167, "intensity": 0.8, "source": "Tagesschau"}, {"title": "Motorradfahrer bei Unfall auf der L279 schwer verletzt", "url": "https://www.tagesschau.de/inland/regional/saarland/sr-motorradfahrer-bei-unfall-auf-der-l279-schwer-verletzt-100.html", "thumbnailUrl": "https://images.tagesschau.de/image/78a99a7e-e9d6-4f3b-929f-6b6c9a0ddaa9/AAABjrjm54M/AAABjcWesUg/16x9-512.jpg", "date": "2024-04-07T13:05:00.000+02:00", "lat": 49.4589, "lon": 7.1437, "intensity": 0.9, "source": "Tagesschau"}, {"title": "Mann wegen kinderpornografischer Bilder in Essen festgenommen", "url": "https://www.tagesschau.de/inland/regional/nordrheinwestfalen/wdr-mann-wegen-kinderpornografischer-bilder-in-essen-festgenommen-100.html", "thumbnailUrl": "https://images.tagesschau.de/image/bfbbcd08-2cbd-4f3a-9bb9-1239de0c70c1/AAABjrnq46c/AAABjcWesUg/16x9-512.jpg", "date": "2024-04-07T13:05:00.000+02:00", "lat": 51.455643, "lon": 7.013055, "intensity": 0.9, "source": "Tagesschau"}, {"title": "Harte Schale, weicher Kern: Schauspieler Peter Sodann ist tot", "url": "https://www.tagesschau.de/inland/regional/mecklenburgvorpommern/ndr-harte-schale-weicher-kern-schauspieler-peter-sodann-ist-tot-100.html", "thumbnailUrl": "https://images.tagesschau.de/image/6da7b4e5-ee8e-4992-8b56-84f2905e60db/AAABjrg-dFE/AAABjcWesUg/16x9-512.jpg", "date": "2024-04-07T13:03:00.000+02:00", "lat": 53.6127, "lon": 12.5477, "intensity": 0.8, "source": "Tagesschau"}, {"title": "Usedom: Bauarbeiten im S\u00fcden der Insel behindern Verkehr", "url": "https://www.tagesschau.de/inland/regional/mecklenburgvorpommern/ndr-usedom-bauarbeiten-im-sueden-der-insel-behindern-verkehr-100.html", "thumbnailUrl": "https://images.tagesschau.de/image/cd5f984f-8c14-45a3-a78a-ffe4c85a00a0/AAABjrhokOs/AAABjcWesUg/16x9-512.jpg", "date": "2024-04-07T13:01:00.000+02:00", "lat": 53.969, "lon": 14.0736, "intensity": 0.5, "source": "Tagesschau"}, {"title": "Hamburg: 97 Prozent der Erstkl\u00e4ssler kommen an Wunschschule", "url": "https://www.tagesschau.de/inland/regional/hamburg/ndr-hamburg-97-prozent-der-erstklaessler-kommen-an-wunschschule-100.html", "thumbnailUrl": "https://images.tagesschau.de/image/f4b52fe6-899d-4b8b-8d7e-6b51a7491304/AAABjrg3coE/AAABjcWesUg/16x9-512.jpg", "date": "2024-04-07T12:57:00.000+02:00", "lat": 53.5511, "lon": 10.0003, "intensity": 0.8, "source": "Tagesschau"}, {"title": "Brand in Gartenanlage in Ulm", "url": "https://www.tagesschau.de/inland/regional/badenwuerttemberg/swr-brand-in-gartenanlage-in-ulm-100.html", "thumbnailUrl": "https://images.tagesschau.de/image/f3944175-4727-4acd-918b-7b7ffefd8036/AAABjrhAQ84/AAABjcWesUg/16x9-512.jpg", "date": "2024-04-07T12:49:45.000+02:00", "lat": 48.401082, "lon": 9.993682, "intensity": 0.6, "source": "Tagesschau"}, {"title": "Immer mehr Balkonkraftwerke: Die wichtigsten Antworten zum Strom vom Balkon", "url": "https://www.tagesschau.de/inland/regional/nordrheinwestfalen/wdr-immer-mehr-balkonkraftwerke-die-wichtigsten-antworten-zum-strom-vom-balkon-100.html", "thumbnailUrl": "https://images.tagesschau.de/image/f7d85352-702b-4384-806c-8b26019b0750/AAABjrjm2uk/AAABjcWesUg/16x9-512.jpg", "date": "2024-04-07T12:48:00.000+02:00", "lat": 51.1657, "lon": 7.6261, "intensity": 0.7, "source": "Tagesschau"}, {"title": "Berliner Halbmarathon: Daniel Ebenyo und Tekle Muluat gewinnen, Pechstein skatet aufs Podium", "url": "https://www.tagesschau.de/inland/regional/berlin/rbb-berliner-halbmarathon-daniel-ebenyo-und-tekle-muluat-gewinnen-pechstein-skatet-aufs-podium-102.html", "thumbnailUrl": "https://images.tagesschau.de/image/2d3cb3ee-4a16-40a8-874c-d8ce93f5c858/AAABjrguWoI/AAABjcWesUg/16x9-512.jpg", "date": "2024-04-07T12:46:49.000+02:00", "lat": 52.520008, "lon": 13.404954, "intensity": 0.7, "source": "Tagesschau"}, {"title": "20 Vermummte attackieren Motorradfahrer - ein Verletzter", "url": "https://www.tagesschau.de/inland/regional/niedersachsen/ndr-20-vermummte-attackieren-motorradfahrer-ein-verletzter-100.html", "thumbnailUrl": "https://images.tagesschau.de/image/2ce8ad0c-a268-461c-a789-9d6026d70bc5/AAABjrgsj3o/AAABjcWesUg/16x9-512.jpg", "date": "2024-04-07T12:46:00.000+02:00", "lat": 53.079296, "lon": 8.801694, "intensity": 0.7, "source": "Tagesschau"}, {"title": "Fenster von \u00d3lafur El\u00edasson in Greifswalder Dom eingeweiht", "url": "https://www.tagesschau.de/inland/regional/mecklenburgvorpommern/ndr-fenster-von-lafur-elasson-in-greifswalder-dom-eingeweiht-100.html", "thumbnailUrl": "https://images.tagesschau.de/image/4b2c3eaa-a32b-45e6-8241-ab2c25ea5d6a/AAABjrnGU-U/AAABjcWesUg/16x9-512.jpg", "date": "2024-04-07T12:41:00.000+02:00", "lat": 54.0964, "lon": 13.3947, "intensity": 0.7, "source": "Tagesschau"}, {"title": "Nach Sieg gegen Kaiserslautern: HSV feiert \"Tarzan\"-Sch\u00fcler Matheo Raab", "url": "https://www.tagesschau.de/inland/regional/hamburg/ndr-nach-sieg-gegen-kaiserslautern-hsv-feiert-tarzan-schueler-matheo-raab-102.html", "thumbnailUrl": "https://images.tagesschau.de/image/58acc4ce-fe93-4382-be47-3e8ced9615ad/AAABjrjRO-0/AAABjcWesUg/16x9-512.jpg", "date": "2024-04-07T12:35:00.000+02:00", "lat": 53.55, "lon": 10.0, "intensity": 0.8, "source": "Tagesschau"}, {"title": "Bankrotterkl\u00e4rung in Mainz: Darmstadt 98 hisst im Abstiegskampf die wei\u00dfe Fahne", "url": "https://www.tagesschau.de/inland/regional/hessen/hr-bankrotterklaerung-in-mainz-darmstadt-98-hisst-im-abstiegskampf-die-weisse-fahne-102.html", "thumbnailUrl": "https://images.tagesschau.de/image/ac7f2e63-abda-4bf1-ac29-94d8ab064467/AAABjrgk_K4/AAABjcWesUg/16x9-512.jpg", "date": "2024-04-07T12:31:29.582+02:00", "lat": 49.9929, "lon": 8.2439, "intensity": 0.8, "source": "Tagesschau"}, {"title": "Hilfsfl\u00fcge f\u00fcr Gaza: Bundeswehr setzt nun A400M aus Wunstorf ein", "url": "https://www.tagesschau.de/inland/regional/niedersachsen/ndr-hilfsfluege-fuer-gaza-bundeswehr-setzt-jetzt-airbus-a400m-ein-100.html", "thumbnailUrl": "https://images.tagesschau.de/image/ec7b2958-01c8-49da-aa0c-c4826f7139e9/AAABjrgaPaQ/AAABjcWesUg/16x9-512.jpg", "date": "2024-04-07T12:27:00.000+02:00", "lat": 52.4604, "lon": 9.5625, "intensity": 0.8, "source": "Tagesschau"}, {"title": "Erbschaftssteuer: Pro-Kopf-Aufkommen in Hamburg am h\u00f6chsten", "url": "https://www.tagesschau.de/inland/regional/hamburg/ndr-erbschaftssteuer-pro-kopf-aufkommen-in-hamburg-am-hoechsten-100.html", "thumbnailUrl": "https://images.tagesschau.de/image/c3505f0e-830d-4f59-92f8-e81ec46d573f/AAABjrgWdhA/AAABjcWesUg/16x9-512.jpg", "date": "2024-04-07T12:18:00.000+02:00", "lat": 53.5511, "lon": 9.9937, "intensity": 0.8, "source": "Tagesschau"}, {"title": "Eppingen: Dachstuhl einer Scheune brennt aus", "url": "https://www.tagesschau.de/inland/regional/badenwuerttemberg/swr-eppingen-dachstuhl-einer-scheune-brennt-aus-100.html", "thumbnailUrl": "https://images.tagesschau.de/image/ad78349a-b751-4635-a23d-f33e6128b5ce/AAABjrfbmVg/AAABjcWesUg/16x9-512.jpg", "date": "2024-04-07T12:11:00.000+02:00", "lat": 49.1294, "lon": 8.9089, "intensity": 0.8, "source": "Tagesschau"}, {"title": "Mehrere Motorradunf\u00e4lle am ersten warmen Wochenende - ein Toter", "url": "https://www.tagesschau.de/inland/regional/niedersachsen/ndr-drei-motorradfahrer-stuerzen-43-jaehrige-verletzt-sich-schwer-100.html", "thumbnailUrl": "https://images.tagesschau.de/image/feb4314b-cfcd-4456-84cf-0af356792c93/AAABjrgNaPQ/AAABjcWesUg/16x9-512.jpg", "date": "2024-04-07T12:11:00.000+02:00", "lat": 52.3732, "lon": 9.7356, "intensity": 0.8, "source": "Tagesschau"}, {"title": "Berlin: A111 nach t\u00f6dlichem Quad-Unfall wieder freigegeben", "url": "https://www.tagesschau.de/inland/regional/berlin/rbb-berlin-nach-toedlichem-quad-unfall-ist-a111-auf-hoehe-schulzendorfer-strasse-gesperrt-100.html", "thumbnailUrl": "https://images.tagesschau.de/image/8709b977-ac6f-40e4-b758-5c891076b3e6/AAABjrilWlE/AAABjcWesUg/16x9-512.jpg", "date": "2024-04-07T12:04:37.000+02:00", "lat": 52.5613, "lon": 13.3244, "intensity": 0.7, "source": "Tagesschau"}, {"title": "Sprinkleranlage im Gro\u00dfen Haus des Berliner Ensembles ausgel\u00f6st", "url": "https://www.tagesschau.de/inland/regional/berlin/rbb-buehne-unter-wasser-sprinkleranlage-im-grossen-haus-des-berliner-ensembles-ausgeloest-100.html", "thumbnailUrl": "https://images.tagesschau.de/image/8156f353-54ea-4b3a-9361-4bd023b1cd57/AAABjrgAp6g/AAABjcWesUg/16x9-512.jpg", "date": "2024-04-07T11:57:47.000+02:00", "lat": 52.528013, "lon": 13.387652, "intensity": 0.7, "source": "Tagesschau"}, {"title": "Alles ist Geschichte - f\u00fcr Historiker der Regionalgeschichte", "url": "https://www.tagesschau.de/inland/regional/schleswigholstein/ndr-alles-ist-geschichte-fuer-historiker-der-regionalgeschichte-100.html", "thumbnailUrl": "https://images.tagesschau.de/image/5e56348f-debd-45ee-a31a-138e1f492ddc/AAABjrfzv1w/AAABjcWesUg/16x9-512.jpg", "date": "2024-04-07T11:44:00.000+02:00", "lat": 54.3233, "lon": 10.1228, "intensity": 0.5, "source": "Tagesschau"}, {"title": "Wer am Sonntag antritt, wo gelaufen wird und welche Stra\u00dfen gesperrt werden", "url": "https://www.tagesschau.de/inland/regional/berlin/rbb-startzeiten-sperrungen-und-co-wo-es-durch-den-berliner-halbmarathon-am-sonntag-voll-wird-102.html", "thumbnailUrl": "https://images.tagesschau.de/image/26fcf358-81dc-44b9-9395-1e7317edcaac/AAABjrguXF8/AAABjcWesUg/16x9-512.jpg", "date": "2024-04-07T11:41:26.000+02:00", "lat": 52.520008, "lon": 13.404954, "intensity": 0.8, "source": "Tagesschau"}, {"title": "Wo sich die einstige Erfolgsformel der PiS r\u00e4cht", "url": "https://www.tagesschau.de/ausland/europa/polen-regionalwahlen-104.html", "thumbnailUrl": "https://images.tagesschau.de/image/020bb31b-1d81-4706-bd82-ba6347f20c9a/AAABjq1xD6Q/AAABjcWesUg/16x9-512.jpg", "date": "2024-04-07T11:36:26.432+02:00", "lat": 51.9194, "lon": 19.1451, "intensity": 0.8, "source": "Tagesschau"}, {"title": "\"Balkonkraftwerke\": Mehr Solaranlagen auf Berliner und Brandenburger Balkonen", "url": "https://www.tagesschau.de/inland/regional/brandenburg/rbb-balkonkraftwerke-mehr-solaranlagen-auf-berliner-und-brandenburger-balkonen-100.html", "thumbnailUrl": "https://images.tagesschau.de/image/63217c54-3fb7-4466-91b4-8650e6b3ead4/AAABjrflF2s/AAABjcWesUg/16x9-512.jpg", "date": "2024-04-07T11:26:44.000+02:00", "lat": 52.520008, "lon": 13.404954, "intensity": 0.7, "source": "Tagesschau"}, {"title": "Boxen: Darmst\u00e4dter Jack Culcay verpasst WM-Titel", "url": "https://www.tagesschau.de/inland/regional/hessen/hr-boxen-darmstaedter-jack-culcay-verpasst-wm-titel-102.html", "thumbnailUrl": "https://images.tagesschau.de/image/0e1bad77-0627-40d0-a526-a5c2a3e70ed9/AAABjrfk37s/AAABjcWesUg/16x9-512.jpg", "date": "2024-04-07T11:23:51.438+02:00", "lat": 49.8735, "lon": 8.65, "intensity": 0.7, "source": "Tagesschau"}, {"title": "Flucht vor Polizei: 25-J\u00e4hriger springt nach Angriff auf Frau in den Main", "url": "https://www.tagesschau.de/inland/regional/hessen/hr-flucht-vor-polizei-25-jaehriger-springt-nach-angriff-auf-frau-in-den-main-100.html", "thumbnailUrl": "https://images.tagesschau.de/image/0971f5e8-25f0-4511-b5ec-162b91f834a5/AAABjrfdh44/AAABjcWesUg/16x9-512.jpg", "date": "2024-04-07T11:21:11.279+02:00", "lat": 49.9879, "lon": 8.4128, "intensity": 0.8, "source": "Tagesschau"}, {"title": "Schwertransport-Konvoi mit sechs Silos erreicht Ziel im Emsland", "url": "https://www.tagesschau.de/inland/regional/niedersachsen/ndr-schwertransport-im-emsland-bahnhof-leschede-gesperrt-100.html", "thumbnailUrl": "https://images.tagesschau.de/image/b1e3116f-07e8-4e29-87fd-3ddf007722bc/AAABjrgRF-c/AAABjcWesUg/16x9-512.jpg", "date": "2024-04-07T10:57:00.000+02:00", "lat": 52.2811, "lon": 7.3296, "intensity": 0.7, "source": "Tagesschau"}, {"title": "Populist Pellegrini gewinnt Pr\u00e4sidentenwahl", "url": "https://www.tagesschau.de/ausland/europa/praesidentenwahl-slowakei-100.html", "thumbnailUrl": "https://images.tagesschau.de/image/e6b12e80-8f46-4620-a72a-8f66bb672f53/AAABjrelzqI/AAABjcWesUg/16x9-512.jpg", "date": "2024-04-07T10:47:45.334+02:00", "lat": 48.669, "lon": 19.0402, "intensity": 0.8, "source": "Tagesschau"}, {"title": "Berliner Polizei entdeckt offenbar Drogenlabor in Bohnsdorf", "url": "https://www.tagesschau.de/inland/regional/berlin/rbb-berlin-koepenick-polizei-stellt-chemikalien-in-bohnsdorf-sicher-100.html", "thumbnailUrl": "https://images.tagesschau.de/image/a6b6f8d1-a8ee-429e-90db-e2cafa4b6a36/AAABjrezmzo/AAABjcWesUg/16x9-512.jpg", "date": "2024-04-07T10:33:05.000+02:00", "lat": 52.3944, "lon": 13.5709, "intensity": 0.8, "source": "Tagesschau"}, {"title": "Fregatte \"Hessen\" wehrt Angriff auf ziviles Frachtschiff ab", "url": "https://www.tagesschau.de/inland/regional/niedersachsen/ndr-fregatte-hessen-wehrt-angriff-auf-ziviles-frachtschiff-ab-100.html", "thumbnailUrl": "https://images.tagesschau.de/image/137c7859-0d4d-4b35-ba1e-a02bcf85d5f9/AAABjre3WqQ/AAABjcWesUg/16x9-512.jpg", "date": "2024-04-07T10:32:00.000+02:00", "lat": 53.5227, "lon": 8.245, "intensity": 0.8, "source": "Tagesschau"}, {"title": "Stichwahl: Laage w\u00e4hlt B\u00fcrgermeisterin oder B\u00fcrgermeister", "url": "https://www.tagesschau.de/inland/regional/mecklenburgvorpommern/ndr-stichwahl-laage-waehlt-buergermeisterin-oder-buergermeister-100.html", "thumbnailUrl": "https://images.tagesschau.de/image/29ecd04d-9bb9-42e8-b299-7d3efac68828/AAABjrmJ3ac/AAABjcWesUg/16x9-512.jpg", "date": "2024-04-07T10:29:00.000+02:00", "lat": 53.9941, "lon": 12.3833, "intensity": 0.7, "source": "Tagesschau"}, {"title": "Union Berlin und technischer Direktor Parensen trennen sich", "url": "https://www.tagesschau.de/inland/regional/berlin/rbb-union-berlin-und-technischer-direktor-parensen-trennen-sich-100.html", "thumbnailUrl": "https://images.tagesschau.de/image/cc0038ca-bd21-4cda-8cef-dcfe25564a99/AAABjrewAjM/AAABjcWesUg/16x9-512.jpg", "date": "2024-04-07T10:20:00.000+02:00", "lat": 52.5192, "lon": 13.4073, "intensity": 0.8, "source": "Tagesschau"}, {"title": "Hunderte Menschen aus Nationalpark gerettet", "url": "https://www.tagesschau.de/ausland/asien/erdbeben-taiwan-rettung-100.html", "thumbnailUrl": "https://images.tagesschau.de/image/245af821-aa9c-4755-ae3b-9b6113305e81/AAABjrdpro0/AAABjcWesUg/16x9-512.jpg", "date": "2024-04-07T09:57:30.599+02:00", "lat": 23.87, "lon": 121.48, "intensity": 0.7, "source": "Tagesschau"}, {"title": "SV Wehen Wiesbaden: Mit Herz gegen den drohenden Abstieg", "url": "https://www.tagesschau.de/inland/regional/hessen/hr-sv-wehen-wiesbaden-mit-herz-gegen-den-drohenden-abstieg-102.html", "thumbnailUrl": "https://images.tagesschau.de/image/9553e896-a69c-4a99-aec6-bf690417efd9/AAABjreQqhk/AAABjcWesUg/16x9-512.jpg", "date": "2024-04-07T09:43:01.791+02:00", "lat": 53.2464, "lon": 11.4202, "intensity": 0.8, "source": "Tagesschau"}, {"title": "Eintracht: +++ Collins: Unglaubliches Gef\u00fchl +++ Verfolger Freiburg patzt +++ Kr\u00f6sche-Kritik nach Werder-Remis +++ ", "url": "https://www.tagesschau.de/inland/regional/hessen/hr--eintracht-wohl-mit-chaibi-einig--glasner-fast-nur-kolo-muani-der-tore-erzielt--bericht-eintracht-sagt-aouar-ab-100.html", "thumbnailUrl": "https://images.tagesschau.de/image/14d7cc8e-c9b6-4bb6-b7bb-297caa5ed78d/AAABjrhEFq4/AAABjcWesUg/16x9-512.jpg", "date": "2024-04-07T09:38:43.645+02:00", "lat": 50.110922, "lon": 8.682127, "intensity": 0.6, "source": "Tagesschau"}, {"title": "Baustelle an B405 in Saarlouis wird wieder aufgenommen", "url": "https://www.tagesschau.de/inland/regional/saarland/sr-baustelle-an-b-405-in-saarlouis-wird-wieder-aufgenommen-100.html", "thumbnailUrl": "https://images.tagesschau.de/image/d1982727-6265-48c8-826f-ad2cbc8a0918/AAABjrd-OaI/AAABjcWesUg/16x9-512.jpg", "date": "2024-04-07T09:35:00.000+02:00", "lat": 49.3101, "lon": 6.7519, "intensity": 0.6, "source": "Tagesschau"}, {"title": "Berlin: Kriegsverletzte ukrainische Soldaten ziehen in Fl\u00fcchtlingsunterkunft in Charlottenburg", "url": "https://www.tagesschau.de/inland/regional/berlin/rbb-berlin-kriegsverletzte-ukrainische-soldaten-ziehen-in-fluechtlingsunterkunft-in-charlottenburg-100.html", "thumbnailUrl": "https://images.tagesschau.de/image/3e7122ca-77ca-420d-8371-f65b460ebee3/AAABjrd8qBc/AAABjcWesUg/16x9-512.jpg", "date": "2024-04-07T09:32:16.000+02:00", "lat": 52.516934, "lon": 13.308737, "intensity": 0.8, "source": "Tagesschau"}, {"title": "Selenskyj zeigt sich offen f\u00fcr US-Waffen auf Kredit", "url": "https://www.tagesschau.de/ausland/europa/selenskyj-waffen-kredit-100.html", "thumbnailUrl": "https://images.tagesschau.de/image/d484d3ac-dd99-4258-accb-13b92ed1af98/AAABjrdLd44/AAABjcWesUg/16x9-512.jpg", "date": "2024-04-07T09:15:46.036+02:00", "lat": 50.4501, "lon": 30.5234, "intensity": 0.8, "source": "Tagesschau"}, {"title": "A7 am Hamburger Elbtunnel: Teilst\u00fcck Richtung Norden weiterhin gesperrt", "url": "https://www.tagesschau.de/inland/regional/hamburg/ndr-a7-in-hamburg-vollsperrung-des-elbtunnels-am-wochenende-100.html", "thumbnailUrl": "https://images.tagesschau.de/image/d3a2f535-dfd4-472e-a2cb-f3a86a0b592c/AAABjrdxp2I/AAABjcWesUg/16x9-512.jpg", "date": "2024-04-07T09:11:00.000+02:00", "lat": 53.5511, "lon": 9.9526, "intensity": 0.7, "source": "Tagesschau"}, {"title": "Agrarfahrzeugbauer Reisch: Die Insolvenz und ihre Folgen", "url": "https://www.tagesschau.de/inland/regional/bayern/br-agrarfahrzeugbauer-reisch-die-insolvenz-und-ihre-folgen-102.html", "thumbnailUrl": "https://images.tagesschau.de/image/4b17a329-d6f0-4085-bdf4-0414dddbd5ac/AAABjrdkz1U/AAABjcWesUg/16x9-512.jpg", "date": "2024-04-07T09:08:39.025+02:00", "lat": 48.1351, "lon": 11.5795, "intensity": 0.8, "source": "Tagesschau"}, {"title": "\"Unser Deutschlandm\u00e4rchen\" am Maxim-Gorki-Theater: Dichtende Arbeiterkinder ", "url": "https://www.tagesschau.de/inland/regional/berlin/rbb-unser-deutschlandmaerchen-am-maxim-gorki-theater-dichtende-arbeiterkinder-100.html", "thumbnailUrl": "https://images.tagesschau.de/image/cd773e04-31bd-4f6f-861c-153fc3c0af07/AAABjrdb3ek/AAABjcWesUg/16x9-512.jpg", "date": "2024-04-07T09:04:54.000+02:00", "lat": 52.517, "lon": 13.3889, "intensity": 0.5, "source": "Tagesschau"}, {"title": "Survivor-Gruppe in Mittelhessen: Wie junge Erwachsene nach dem Krebs das Leben feiern", "url": "https://www.tagesschau.de/inland/regional/hessen/hr-survivor-gruppe-in-mittelhessen-wie-junge-erwachsene-nach-dem-krebs-das-leben-feiern-100.html", "thumbnailUrl": "https://images.tagesschau.de/image/e2aeac0e-a103-4b9d-90e2-9defd447a6ca/AAABjrdhAuw/AAABjcWesUg/16x9-512.jpg", "date": "2024-04-07T09:04:18.876+02:00", "lat": 50.5553, "lon": 8.6553, "intensity": 0.7, "source": "Tagesschau"}, {"title": "Geht der deutsche Balkonsolar-Boom weiter?", "url": "https://www.tagesschau.de/wirtschaft/energie/balkonkraftwerke-balkonsolar-100.html", "thumbnailUrl": "https://images.tagesschau.de/image/89244a32-3100-467d-9ae8-563653ff37f2/AAABjIX75iM/AAABjcWesUg/16x9-512.jpg", "date": "2024-04-07T08:57:38.418+02:00", "lat": 51.1657, "lon": 10.4515, "intensity": 0.6, "source": "Tagesschau"}, {"title": "Wetter am Sonntag: Warm mit Saharastaub, am Abend Regen m\u00f6glich", "url": "https://www.tagesschau.de/inland/regional/nordrheinwestfalen/wdr-aprilwetter-am-wochenende-gewitter-rekordverdaechtige-waerme-und-saharastaub-moeglich-100.html", "thumbnailUrl": "https://images.tagesschau.de/image/27012b8f-bcec-4bde-9451-9bcd9563bd39/AAABjrfbhg4/AAABjcWesUg/16x9-512.jpg", "date": "2024-04-07T08:52:00.000+02:00", "lat": 51.8133, "lon": 7.6261, "intensity": 0.8, "source": "Tagesschau"}, {"title": "Hamburger Hochbahn baut Solaranlagen auf Busbahnh\u00f6fe", "url": "https://www.tagesschau.de/inland/regional/hamburg/ndr-hamburger-hochbahn-baut-solaranlagen-auf-busbahnhoefe-100.html", "thumbnailUrl": "https://images.tagesschau.de/image/06a9624e-75a9-4240-8811-ec8002a6f734/AAABjrdWLw8/AAABjcWesUg/16x9-512.jpg", "date": "2024-04-07T08:47:00.000+02:00", "lat": 53.5511, "lon": 9.9937, "intensity": 0.8, "source": "Tagesschau"}, {"title": "Defekte Trafostationen: Stromausfall in Cottbus gr\u00f6\u00dftenteils behoben", "url": "https://www.tagesschau.de/inland/regional/brandenburg/rbb-defekte-trafostationen-stromausfall-in-cottbus-groesstenteils-behoben-100.html", "thumbnailUrl": "https://images.tagesschau.de/image/816ff92c-b4dc-47d8-a70a-ff87bd5d2528/AAABjrdJN-Q/AAABjcWesUg/16x9-512.jpg", "date": "2024-04-07T08:35:18.000+02:00", "lat": 51.7562, "lon": 14.3356, "intensity": 0.8, "source": "Tagesschau"}, {"title": "Brand in Mehrfamilienhaus: Polizist rettet Seniorin aus Wohnung", "url": "https://www.tagesschau.de/inland/regional/niedersachsen/ndr-brand-in-mehrfamilienhaus-polizist-rettet-seniorin-aus-wohnung-100.html", "thumbnailUrl": "https://images.tagesschau.de/image/8f728b88-03cb-4657-a15f-c2cf116cdb2b/AAABjrfPJhg/AAABjcWesUg/16x9-512.jpg", "date": "2024-04-07T08:34:00.000+02:00", "lat": 52.2826, "lon": 9.2633, "intensity": 0.8, "source": "Tagesschau"}, {"title": "Das erwartet Berlin und die Fans aus aller Welt bei der Fu\u00dfball-EM", "url": "https://www.tagesschau.de/inland/regional/berlin/rbb-fanmeile-sicherheit-verkehr-das-erwartet-berlin-und-die-fans-aus-aller-welt-bei-der-em-102.html", "thumbnailUrl": "https://images.tagesschau.de/image/18f23fd5-d79d-4d2c-bca4-40b4c92cf5ad/AAABjrdASIE/AAABjcWesUg/16x9-512.jpg", "date": "2024-04-07T08:27:23.000+02:00", "lat": 52.520008, "lon": 13.404954, "intensity": 0.8, "source": "Tagesschau"}, {"title": "Nach Sonne und Sommerw\u00e4rme: Erst Wolken, dann Aprilwetter", "url": "https://www.tagesschau.de/inland/regional/hamburg/ndr-wetter-am-wochenende-temperatursprung-auf-ueber-20-grad-im-norden-100.html", "thumbnailUrl": "https://images.tagesschau.de/image/32a23675-41cb-4899-8d53-a0d2608679f4/AAABjrc3HOA/AAABjcWesUg/16x9-512.jpg", "date": "2024-04-07T08:19:00.000+02:00", "lat": 53.5511, "lon": 9.9937, "intensity": 0.8, "source": "Tagesschau"}, {"title": "K.o. in der elften Runde: Jack Culcay verpasst WM-Titel im Superweltergewicht", "url": "https://www.tagesschau.de/inland/regional/berlin/rbb-k-o-in-der-elften-runde-jack-culcay-verpasst-wm-titel-im-superweltergewicht-102.html", "thumbnailUrl": "https://images.tagesschau.de/image/53b49549-2046-400a-8447-71d3ccddf74d/AAABjrc8ZOU/AAABjcWesUg/16x9-512.jpg", "date": "2024-04-07T08:17:43.000+02:00", "lat": 52.520008, "lon": 13.404954, "intensity": 0.8, "source": "Tagesschau"}, {"title": "S\u00e4ugling in Neubrandenburg offenbar zu Tode gesch\u00fcttelt", "url": "https://www.tagesschau.de/inland/regional/mecklenburgvorpommern/ndr-saeugling-in-neubrandenburg-offenbar-zu-tode-geschuettet-100.html", "thumbnailUrl": "https://images.tagesschau.de/image/f85f984d-5b82-468f-8d57-b71c601482a9/AAABjrexhdI/AAABjcWesUg/16x9-512.jpg", "date": "2024-04-07T08:05:00.000+02:00", "lat": 53.57444, "lon": 13.26007, "intensity": 0.8, "source": "Tagesschau"}, {"title": "In mehreren Stadtteilen: Stromausfall am Abend in Remscheid", "url": "https://www.tagesschau.de/inland/regional/nordrheinwestfalen/wdr-in-mehreren-stadtteilen-stromausfall-am-abend-in-remscheid-100.html", "thumbnailUrl": "https://images.tagesschau.de/image/445266c3-0f8e-4147-9967-fbe86f359027/AAABjredRcE/AAABjcWesUg/16x9-512.jpg", "date": "2024-04-07T08:00:00.000+02:00", "lat": 51.1796, "lon": 7.206, "intensity": 0.6, "source": "Tagesschau"}, {"title": "Flohm\u00e4rkte in SH: Hier k\u00f6nnen sie Schn\u00e4ppchen finden", "url": "https://www.tagesschau.de/inland/regional/schleswigholstein/ndr-flohmaerkte-in-sh-hier-koennen-sie-schnaeppchen-finden-100.html", "thumbnailUrl": "https://images.tagesschau.de/image/4f22ed7b-aa8e-42b9-b5ac-6e9ca7cd7fc9/AAABjrlRnY8/AAABjcWesUg/16x9-512.jpg", "date": "2024-04-07T07:38:00.000+02:00", "lat": 54.3233, "lon": 10.1276, "intensity": 0.4, "source": "Tagesschau"}, {"title": "Zu hohe Abgas-Werte: Monstertruck-Show in Hamburg abgesagt", "url": "https://www.tagesschau.de/inland/regional/hamburg/ndr-zu-hohe-abgas-werte-monstertruck-show-in-hamburg-abgesagt-100.html", "thumbnailUrl": "https://images.tagesschau.de/image/d487f448-c9d9-4c65-8c11-99bf6c768e87/AAABjrdjAlY/AAABjcWesUg/16x9-512.jpg", "date": "2024-04-07T07:28:00.000+02:00", "lat": 53.5586, "lon": 10.0046, "intensity": 0.7, "source": "Tagesschau"}, {"title": "Hamas-\u00dcberfall und Gaza-Krieg: Was denken Betroffene im Norden?", "url": "https://www.tagesschau.de/inland/regional/schleswigholstein/ndr-hamas-ueberfall-und-gaza-krieg-was-denken-betroffene-im-norden-100.html", "thumbnailUrl": "https://images.tagesschau.de/image/f319930b-d8cf-4c1a-bd85-0adc5e3dfecf/AAABjrjawW0/AAABjcWesUg/16x9-512.jpg", "date": "2024-04-07T06:54:00.000+02:00", "lat": 53.5511, "lon": 9.9977, "intensity": 0.8, "source": "Tagesschau"}, {"title": "Stichwahl in Rottenburg: Neher und Weber wollen OB werden", "url": "https://www.tagesschau.de/inland/regional/badenwuerttemberg/swr-stichwahl-in-rottenburg-neher-und-weber-wollen-ob-werden-100.html", "thumbnailUrl": "https://images.tagesschau.de/image/2f040ef5-ead3-4544-8d68-a75c3c2e44cf/AAABjrlfxJ4/AAABjcWesUg/16x9-512.jpg", "date": "2024-04-07T06:47:00.000+02:00", "lat": 48.4775, "lon": 8.9342, "intensity": 0.8, "source": "Tagesschau"}, {"title": "Landwirte fordern B\u00fcrokratieabbau und Entlastungen - auf Kosten der Umwelt? ", "url": "https://www.tagesschau.de/inland/regional/badenwuerttemberg/swr-landwirte-fordern-buerokratieabbau-und-entlastungen--auf-kosten-der-umwelt-100.html", "thumbnailUrl": "https://images.tagesschau.de/image/c5b5995e-b33d-47cc-a35b-8797e0547948/AAABjrac99w/AAABjcWesUg/16x9-512.jpg", "date": "2024-04-07T06:27:00.000+02:00", "lat": 48.7758, "lon": 9.7356, "intensity": 0.8, "source": "Tagesschau"}, {"title": "\"Man fragt sich: Wof\u00fcr k\u00e4mpfen wir?\"", "url": "https://www.tagesschau.de/ausland/asien/israel-sechs-monate-nach-angriff-hamas-100.html", "thumbnailUrl": "https://images.tagesschau.de/image/b9c35cd1-c2e7-423c-8440-83dd97c87b6c/AAABjpDbVwc/AAABjcWesUg/16x9-512.jpg", "date": "2024-04-07T05:49:35.338+02:00", "lat": 31.5257, "lon": 34.4354, "intensity": 0.8, "source": "Tagesschau"}, {"title": "Budanow rechnet mit russischer Offensive im Fr\u00fchjahr", "url": "https://www.tagesschau.de/ausland/ukraine-geheimdienstchef-interview-100.html", "thumbnailUrl": "https://images.tagesschau.de/image/657fe08e-8342-4e0b-908e-afcd0759d324/AAABjraJ-kw/AAABjcWesUg/16x9-512.jpg", "date": "2024-04-07T05:11:20.191+02:00", "lat": 50.4501, "lon": 30.5234, "intensity": 0.7, "source": "Tagesschau"}, {"title": "\"Schwere Verst\u00f6\u00dfe gegen das V\u00f6lkerrecht\"", "url": "https://www.tagesschau.de/ausland/amerika/ecuador-botschaft-mexiko-100.html", "thumbnailUrl": "https://images.tagesschau.de/image/cf505950-8219-4a6b-801c-8c6478004ae5/AAABjrZzZ_k/AAABjcWesUg/16x9-512.jpg", "date": "2024-04-07T04:46:40.635+02:00", "lat": -0.180653, "lon": -78.467834, "intensity": 0.8, "source": "Tagesschau"}, {"title": "Pellegrini wird neuer Pr\u00e4sident der Slowakei", "url": "https://www.tagesschau.de/ausland/europa/slowakei-praesidentenwahl-pellegrini-100.html", "thumbnailUrl": "https://images.tagesschau.de/image/382169d5-b95f-4a84-9079-174eeb984917/AAABjrXMEGM/AAABjcWesUg/16x9-512.jpg", "date": "2024-04-07T03:21:31.676+02:00", "lat": 48.669026, "lon": 19.699024, "intensity": 0.7, "source": "Tagesschau"}, {"title": "Wenn das mobile Heim zur Falle wird", "url": "https://www.tagesschau.de/ausland/amerika/usa-trailerparks-100.html", "thumbnailUrl": "https://images.tagesschau.de/image/013d3fdf-ccab-4fa5-b888-b1d8fb95ea3c/AAABjrXqHNk/AAABjcWesUg/16x9-512.jpg", "date": "2024-04-07T02:16:44.618+02:00", "lat": 38.003385, "lon": -100.445882, "intensity": 0.8, "source": "Tagesschau"}, {"title": "Mehr als 30 Grad - H\u00f6chstwerte f\u00fcr Anfang April", "url": "https://www.tagesschau.de/inland/gesellschaft/wetter-april-temperaturen-100.html", "thumbnailUrl": "https://images.tagesschau.de/image/20a7b790-ac17-46d3-9895-225b68321d40/AAABjrcpUrw/AAABjcWesUg/16x9-512.jpg", "date": "2024-04-07T02:12:00.906+02:00", "lat": 51.315, "lon": 9.564, "intensity": 0.7, "source": "Tagesschau"}, {"title": "Zehntausende Menschen demonstrieren gegen Netanyahu", "url": "https://www.tagesschau.de/ausland/asien/proteste-netanyahu-israel-100.html", "thumbnailUrl": "https://images.tagesschau.de/image/6eeb20e4-28d5-41a3-8e84-2c74fefd9ec9/AAABjrVybNg/AAABjcWesUg/16x9-512.jpg", "date": "2024-04-07T00:05:59.145+02:00", "lat": 31.7683, "lon": 35.2137, "intensity": 0.8, "source": "Tagesschau"}, {"title": "++ Deutsche Fregatte wehrt Angriff auf Frachtschiff ab ++", "url": "https://www.tagesschau.de/newsticker/liveblog-nahost-samstag-122.html", "thumbnailUrl": "https://images.tagesschau.de/image/e472f3b9-744f-4ed5-9b4c-12e6b0888d82/AAABje1WsbQ/AAABjcWesUg/16x9-512.jpg", "date": "2024-04-07T00:05:36.415+02:00", "lat": 37.09024, "lon": -95.712891, "intensity": 0.8, "source": "Tagesschau"}, {"title": "++ Ukraine dementiert russischen Durchbruch im Osten ++", "url": "https://www.tagesschau.de/newsticker/liveblog-ukraine-samstag-376.html", "thumbnailUrl": "https://images.tagesschau.de/image/a4b88fd7-b3bc-4cf5-870c-3fc1abf9df00/AAABjrLvGFM/AAABjcWesUg/16x9-512.jpg", "date": "2024-04-07T00:04:35.988+02:00", "lat": 47.8388, "lon": 35.1396, "intensity": 0.8, "source": "Tagesschau"}, {"title": "Paus sieht Kindergrundsicherung im Zeitplan", "url": "https://www.br.de/nachrichten/meldungen/index.html#n1", "thumbnailUrl": null, "date": "2024-04-08T03:06:30+02:00", "lat": 30.0444, "lon": 31.2357, "intensity": 0.8, "source": "Bayrischer Rundfunk"}, {"title": "Zehntausende erinnern in Israel an verschleppte Geiseln", "url": "https://www.br.de/nachrichten/meldungen/index.html#n2", "thumbnailUrl": null, "date": "2024-04-08T03:06:30+02:00", "lat": 33.5138, "lon": 36.2021, "intensity": 0.8, "source": "Bayrischer Rundfunk"}, {"title": "Drohnen attackieren ukrainischen Atomreaktor", "url": "https://www.br.de/nachrichten/meldungen/index.html#n3", "thumbnailUrl": null, "date": "2024-04-08T03:06:30+02:00", "lat": 39.9334, "lon": 32.8597, "intensity": 0.8, "source": "Bayrischer Rundfunk"}, {"title": "Selenskyj warnt vor Niederlage seines Landes", "url": "https://www.br.de/nachrichten/meldungen/index.html#n4", "thumbnailUrl": null, "date": "2024-04-08T03:06:30+02:00", "lat": 52.520008, "lon": 13.404954, "intensity": 0.7, "source": "Bayrischer Rundfunk"}, {"title": "Opposition f\u00fchrt bei Kommunalwahlen in Polen", "url": "https://www.br.de/nachrichten/meldungen/index.html#n5", "thumbnailUrl": null, "date": "2024-04-08T03:06:30+02:00", "lat": 52.520008, "lon": 13.404954, "intensity": 0.6, "source": "Bayrischer Rundfunk"}, {"title": "US-Flugzeugbauer Boeing unterl\u00e4uft neue Panne", "url": "https://www.br.de/nachrichten/meldungen/index.html#n6", "thumbnailUrl": null, "date": "2024-04-08T03:06:30+02:00", "lat": 48.135125, "lon": 11.581981, "intensity": 0.6, "source": "Bayrischer Rundfunk"}, {"title": "FC Augsburg verliert 1:3 in Hoffenheim", "url": "https://www.br.de/nachrichten/meldungen/index.html#n7", "thumbnailUrl": null, "date": "2024-04-08T03:06:30+02:00", "lat": 50.110922, "lon": 8.682127, "intensity": 0.8, "source": "Bayrischer Rundfunk"}, {"title": "Das Wetter: In der Nacht oft klar bei 14 bis 9 Grad", "url": "https://www.br.de/nachrichten/meldungen/index.html#n8", "thumbnailUrl": null, "date": "2024-04-08T03:06:30+02:00", "lat": 47.8684, "lon": 12.6394, "intensity": 0.8, "source": "Bayrischer Rundfunk"}, {"title": "Video | Fu\u00dfball-Bundesliga: Turbulente Minuten bei Unions Niederlage gegen Leverkusen", "url": "https://www.rbb24.de/sport/beitrag/av7/video-fussball-bundesliga-spielbericht-union-berlin-bayer-leverkusen.html", "thumbnailUrl": null, "date": "Mon, 08 Apr 2024 00:00:00 +0200", "lat": 52.5159, "lon": 13.4815, "intensity": 0.7, "source": "RBB"}, {"title": "Unter uns Berlins verlassene Tunnel", "url": "https://www.rbb24.de/panorama/beitrag/av7/video-berlin-tunnel-untergrund-strassenbahn.html", "thumbnailUrl": null, "date": "Sun, 07 Apr 2024 21:28:11 +0200", "lat": 52.52001, "lon": 13.38886, "intensity": 0.7, "source": "RBB"}, {"title": "Hoher Schuldenberg bei Berliner Wohnungsbaugesellschaften", "url": "https://www.rbb24.de/wirtschaft/beitrag/av7/video-wohnungs-bau-gesellschaft-hohe-schulden.html", "thumbnailUrl": null, "date": "Sun, 07 Apr 2024 21:27:03 +0200", "lat": 52.52, "lon": 13.405, "intensity": 0.8, "source": "RBB"}, {"title": "Brandenburg: Was haben die Bauernproteste bewegt?", "url": "https://www.rbb24.de/wirtschaft/beitrag/av7/brandenburg-video-bauernproteste-was-ist-daraus-geworden.html", "thumbnailUrl": null, "date": "Sun, 07 Apr 2024 21:13:37 +0200", "lat": 52.3002, "lon": 13.1631, "intensity": 0.7, "source": "RBB"}, {"title": "Jugend-Treffen in Neuk\u00f6lln: Br\u00fccken bauen zwischen Israelis und Arabern", "url": "https://www.rbb24.de/panorama/beitrag/av7/video-berlin-israelis-araber-annaeherungsversuche-austausch.html", "thumbnailUrl": null, "date": "Sun, 07 Apr 2024 21:10:29 +0200", "lat": 52.48115, "lon": 13.448759, "intensity": 0.6, "source": "RBB"}, {"title": "Wetter Berlin und Brandenburg: Wo es Sonntag am w\u00e4rmsten war", "url": "https://www.rbb24.de/panorama/beitrag/2024/04/berlin-brandenburg-wetter-sehr-warm-hohe-temperaturen.html", "thumbnailUrl": null, "date": "Sun, 07 Apr 2024 19:06:00 +0200", "lat": 52.52, "lon": 13.405, "intensity": 0.4, "source": "RBB"}, {"title": "100:91 trotz vieler Ausf\u00e4lle: Albas Rumpfteam ringt Ludwigsburg nieder", "url": "https://www.rbb24.de/sport/beitrag/2024/04/basketball-bundesliga-bbl-alba-berlin-riesen-ludwigsburg.html", "thumbnailUrl": null, "date": "Sun, 07 Apr 2024 18:02:00 +0200", "lat": 52.5166, "lon": 13.2851, "intensity": 0.7, "source": "RBB"}, {"title": "Regionalliga Nordost: Viktoria und Babelsberg gewinnen, Berliner AK ist Tabellenletzter", "url": "https://www.rbb24.de/sport/beitrag/2024/04/fussball-regionalliga-nordost-viktoria-berlin-lok--leipzig-altglienicke-bak.html", "thumbnailUrl": null, "date": "Sun, 07 Apr 2024 17:56:27 +0200", "lat": 52.4125, "lon": 13.0846, "intensity": 0.7, "source": "RBB"}, {"title": "Frauen-Fu\u00dfball Regionalliga: Hertha verpasst sp\u00e4ten Ausgleich, Union siegt in der Nachspielzeit", "url": "https://www.rbb24.de/sport/beitrag/2024/04/regionalliga-nordost-frauen-hertha-bsc-Union-berlin-jena.html", "thumbnailUrl": null, "date": "Sun, 07 Apr 2024 17:30:13 +0200", "lat": 52.52, "lon": 13.4023, "intensity": 0.7, "source": "RBB"}, {"title": "Berlin-Alt-Hohensch\u00f6nhausen: Autofahrer landet im Gleisbett der Stra\u00dfenbahn - zwei Verletzte", "url": "https://www.rbb24.de/panorama/beitrag/2024/04/berlin-hohenschoenhausen-verkehrsunfall-auto-gleisbett.html", "thumbnailUrl": null, "date": "Sun, 07 Apr 2024 17:20:51 +0200", "lat": 52.5477, "lon": 13.4803, "intensity": 0.7, "source": "RBB"}, {"title": "2:3-Niederlage in Straubing: Eisb\u00e4ren Berlin vergeben ersten Matchball zum Finaleinzug knapp", "url": "https://www.rbb24.de/sport/beitrag/2024/04/deutsche-eishockey-liga-playoffs-halbfinale-eisbaeren-berlin-straubing-tigers.html", "thumbnailUrl": null, "date": "Sun, 07 Apr 2024 16:56:00 +0200", "lat": 48.8798, "lon": 12.5674, "intensity": 0.7, "source": "RBB"}, {"title": "Solidarische Landwirtschaft: Wenn sich Bauern und Verbraucher das Risiko teilen", "url": "https://www.rbb24.de/wirtschaft/beitrag/2024/04/solidarische-landwirtschaft-solawi-ackerwesen-berlin-brandenburg.html", "thumbnailUrl": null, "date": "Sun, 07 Apr 2024 16:28:42 +0200", "lat": 53.551086, "lon": 9.993682, "intensity": 0.6, "source": "RBB"}, {"title": "Bauernpr\u00e4sident zu Fl\u00e4chen-Verkaufsstopp: \"F\u00fcr einen Landwirt ist es wichtig, Eigentum zu besitzen\"", "url": "https://www.rbb24.de/wirtschaft/beitrag/2024/04/brandenburg-ostdeutsche-bauern-fordern-von-bund-weiteren-verkauf-flaechen-wendorff-interview.html", "thumbnailUrl": null, "date": "Sun, 07 Apr 2024 16:26:21 +0200", "lat": 52.52, "lon": 13.3996, "intensity": 0.6, "source": "RBB"}, {"title": "Besch\u00e4ftigungsquote steigt langsam: Wie schwerbehinderte Menschen in den Brandenburger Arbeitsmarkt integriert sind", "url": "https://www.rbb24.de/wirtschaft/beitrag/2024/04/menschen-mit-behinderung-beschaeftigungsquote-arbeitsmarkt-brandenburg-schwerbehindert.html", "thumbnailUrl": null, "date": "Sun, 07 Apr 2024 16:15:30 +0200", "lat": 52.4453, "lon": 13.6419, "intensity": 0.7, "source": "RBB"}, {"title": "Berlin: Mehrere Verletzte bei Schl\u00e4gerei in Franz\u00f6sisch Buchholz", "url": "https://www.rbb24.de/panorama/beitrag/2024/04/berlin-franzoesisch-buchholz-schlaegerei-polizei-fruehlingsfest.html", "thumbnailUrl": null, "date": "Sun, 07 Apr 2024 14:58:35 +0200", "lat": 52.609, "lon": 13.422, "intensity": 0.7, "source": "RBB"}, {"title": "Berlin-Prenzlauer Berg: 67-j\u00e4hrige Radfahrerin nach Zusammensto\u00df mit Lkw schwer verletzt", "url": "https://www.rbb24.de/panorama/beitrag/2024/04/berlin-pankow-verkehrsunfall-radfahrerin-lkw-schwerverletzt.html", "thumbnailUrl": null, "date": "Sun, 07 Apr 2024 14:45:57 +0200", "lat": 52.5296, "lon": 13.4146, "intensity": 0.8, "source": "RBB"}, {"title": "BVG verbessert ab Sonntag Angebot auf einigen Buslinien", "url": "https://www.rbb24.de/wirtschaft/beitrag/2024/04/berlin-bvg-verbessertes-angebot-buslinien-200-893-N58-N7-N60.html", "thumbnailUrl": null, "date": "Sun, 07 Apr 2024 13:20:00 +0200", "lat": 52.52, "lon": 13.407, "intensity": 0.4, "source": "RBB"}, {"title": "Berlin-Wilmersdorf: Zweij\u00e4hriges Kind l\u00e4uft auf Stra\u00dfe und wird von Auto angefahren", "url": "https://www.rbb24.de/panorama/beitrag/2024/04/berlin-kind-wilmersdorf-strasse-auto-angefahren-unfall.html", "thumbnailUrl": null, "date": "Sun, 07 Apr 2024 13:10:29 +0200", "lat": 52.4873, "lon": 13.3054, "intensity": 0.8, "source": "RBB"}, {"title": "Berliner Halbmarathon: Daniel Ebenyo und Tekle Muluat gewinnen, Pechstein skatet aufs Podium", "url": "https://www.rbb24.de/sport/beitrag/2024/04/berliner-halbmarathon-2024-daniel-ebenyo-Tekle-mulat-claudia-pechstein.html", "thumbnailUrl": null, "date": "Sun, 07 Apr 2024 12:46:00 +0200", "lat": 52.520008, "lon": 13.401502, "intensity": 0.8, "source": "RBB"}, {"title": "Berlin: A111 nach t\u00f6dlichem Quad-Unfall nach offenbar illegalem Rennen", "url": "https://www.rbb24.de/panorama/beitrag/2024/04/unfall-quad-a111-schulzendorfer-strasse-reinickendorf-unfall-aut.html", "thumbnailUrl": null, "date": "Sun, 07 Apr 2024 12:04:00 +0200", "lat": 52.6159, "lon": 13.3113, "intensity": 0.8, "source": "RBB"}, {"title": "Sprinkleranlage im Gro\u00dfen Haus des Berliner Ensembles ausgel\u00f6st", "url": "https://www.rbb24.de/kultur/beitrag/2024/04/berlin-berliner-ensemble-wasserschaden-sprinkleranlage-theater-iwanow-buehne-wasser.html", "thumbnailUrl": null, "date": "Sun, 07 Apr 2024 11:57:47 +0200", "lat": 52.5225, "lon": 13.3917, "intensity": 0.6, "source": "RBB"}, {"title": "Wer am Sonntag antritt, wo gelaufen wird und welche Stra\u00dfen gesperrt werden", "url": "https://www.rbb24.de/sport/beitrag/2024/04/berlin-halbmarathon-2024-laufen-sperrungen-strecke-verkehr-teilnehmer.html", "thumbnailUrl": null, "date": "Sun, 07 Apr 2024 11:41:00 +0200", "lat": 52.516, "lon": 13.378, "intensity": 0.8, "source": "RBB"}, {"title": "\"Balkonkraftwerke\": Mehr Solaranlagen auf Berliner und Brandenburger Balkonen", "url": "https://www.rbb24.de/wirtschaft/beitrag/2024/04/berlin-brandenburg-mehr-balkonkraftwerke.html", "thumbnailUrl": null, "date": "Sun, 07 Apr 2024 11:26:44 +0200", "lat": 52.520007, "lon": 13.404954, "intensity": 0.7, "source": "RBB"}, {"title": "Union Berlin und technischer Direktor Parensen trennen sich", "url": "https://www.rbb24.de/sport/beitrag/2024/04/berlin-union-fussball-bundesliga-parensen-technischer-direktor-trennung.html", "thumbnailUrl": null, "date": "Sun, 07 Apr 2024 10:20:00 +0200", "lat": 52.5159, "lon": 13.4394, "intensity": 0.6, "source": "RBB"}, {"title": "Berlin: Kriegsverletzte ukrainische Soldaten ziehen in Fl\u00fcchtlingsunterkunft in Charlottenburg", "url": "https://www.rbb24.de/panorama/beitrag/2024/04/berlin-charlottenburg-soldaten-ukraine-fluechtlingsunterkunft-prothesen.html", "thumbnailUrl": null, "date": "Sun, 07 Apr 2024 09:32:16 +0200", "lat": 52.5084, "lon": 13.3024, "intensity": 0.7, "source": "RBB"}, {"title": "Defekte Trafostationen: Stromausfall in Cottbus gr\u00f6\u00dftenteils behoben", "url": "https://www.rbb24.de/panorama/beitrag/2024/04/brandenburg-lausitz-cottbus-stromausfall-groesstenteils-behoben.html", "thumbnailUrl": null, "date": "Sun, 07 Apr 2024 08:35:00 +0200", "lat": 51.7562, "lon": 14.3247, "intensity": 0.6, "source": "RBB"}, {"title": "Das erwartet Berlin und die Fans aus aller Welt bei der Fu\u00dfball-EM", "url": "https://www.rbb24.de/sport/beitrag/2024/04/fussball-em-2024-berlin-sicherheit-verkehr-kultur-fanmeile.html", "thumbnailUrl": null, "date": "Sun, 07 Apr 2024 08:27:23 +0200", "lat": 52.52, "lon": 13.405, "intensity": 0.6, "source": "RBB"}, {"title": "Desinformation: Ist die Kennzeichnung von KI sinnvoll?", "url": "https://www.rbb24.de/panorama/kuenstliche-intelligenz-buschmann-kennzeichnen-nicht-zielfuehrend-gefahr-wahlen-demokratie.html", "thumbnailUrl": null, "date": "Sun, 07 Apr 2024 08:21:00 +0200", "lat": 53.5511, "lon": 9.9937, "intensity": 0.3, "source": "RBB"}, {"title": "Video | Cannabis rauchen im Biergarten erlaubt?", "url": "https://www.rbb24.de/panorama/beitrag/av7/video-cannabis-legalisierung-deutschland-kiffen-gastronomie-berlin.html", "thumbnailUrl": null, "date": "Sat, 06 Apr 2024 21:28:28 +0200", "lat": 51.9612, "lon": 7.6299, "intensity": 0.6, "source": "RBB"}, {"title": "Volleyballerinnen des SC Potsdam scheiden im Playoff-Halbfinale gegen Schwerin aus", "url": "https://www.rbb24.de/sport/beitrag/2024/04/volleyball-bundesliga-vbl-playoffs-halbfinale-sc-potsdam-schwerin-spiel-zwei.html", "thumbnailUrl": null, "date": "Sat, 06 Apr 2024 21:16:00 +0200", "lat": 52.3906, "lon": 13.0645, "intensity": 0.6, "source": "RBB"}, {"title": "Video | Wassertourismus sorgt f\u00fcr Streit im Oderbruch", "url": "https://www.rbb24.de/panorama/beitrag/av7/video-wassertourismus-paddelstrecke-naturschutz-oderbruch-brandenburg.html", "thumbnailUrl": null, "date": "Sat, 06 Apr 2024 21:12:11 +0200", "lat": 52.6261, "lon": 14.6229, "intensity": 0.7, "source": "RBB"}, {"title": "Mark&Metropole: Big Image in Potsdam kann \u00fcberdimensional", "url": "https://www.rbb24.de/kultur/beitrag/av7/video-big-image-film-potsdam-babelsberg-kulissen-theater.html", "thumbnailUrl": null, "date": "Sat, 06 Apr 2024 20:39:10 +0200", "lat": 52.3906, "lon": 13.0645, "intensity": 0.8, "source": "RBB"}, {"title": "Zweierteams stehen zur Wahl: Berliner SPD startet Mitgliederbefragung zur neuen Parteispitze", "url": "https://www.rbb24.de/politik/beitrag/2024/04/berlin-spd-partei-spitze-landesvorstand-mitglieder-befragung.html", "thumbnailUrl": null, "date": "Sat, 06 Apr 2024 17:02:42 +0200", "lat": 52.52, "lon": 13.405, "intensity": 0.7, "source": "RBB"}, {"title": "Berlin-Malchow: 81-J\u00e4hriger nach Fahrrad-Sturz gestorben", "url": "https://www.rbb24.de/panorama/beitrag/2024/04/berlin-verkehr-unfall-malchow-tot.html", "thumbnailUrl": null, "date": "Sat, 06 Apr 2024 16:52:27 +0200", "lat": 52.5775, "lon": 13.5452, "intensity": 0.7, "source": "RBB"}, {"title": "Berlin: Bisherige Juso-Doppelspitze erneut ins Amt gew\u00e4hlt", "url": "https://www.rbb24.de/politik/beitrag/2024/04/berlin-politik-spd-jugend-jusos-doppelspitze-gewaehlt.html", "thumbnailUrl": null, "date": "Sat, 06 Apr 2024 16:50:23 +0200", "lat": 52.520008, "lon": 13.404954, "intensity": 0.4, "source": "RBB"}, {"title": "Berlin-Wilmersdorf: 18-J\u00e4hriger f\u00e4hrt Radfahrer an und begeht Fahrerflucht", "url": "https://www.rbb24.de/panorama/beitrag/2024/04/radfahrer-angefahren-schwer-verletzt-wilmersdorf-fahrerflucht-be.html", "thumbnailUrl": null, "date": "Sat, 06 Apr 2024 16:27:14 +0200", "lat": 52.4883, "lon": 13.3098, "intensity": 0.8, "source": "RBB"}, {"title": "Gewalttat auf Pannierstra\u00dfe: Frauenpaar in Neuk\u00f6lln angegriffen", "url": "https://www.rbb24.de/panorama/beitrag/2024/04/berlin-neukoelln-pannierstrasse-frauenpaar-angegriffen.html", "thumbnailUrl": null, "date": "Sat, 06 Apr 2024 15:48:37 +0200", "lat": 52.4815, "lon": 13.4458, "intensity": 0.7, "source": "RBB"}, {"title": "Regionalliga Nordost: Luckenwalde verliert bitter, Greifswald geht gegen Schlusslicht unter", "url": "https://www.rbb24.de/sport/beitrag/2024/04/fussball-regionalliga-nordost-greifswald-luckenwalde-cottbus.html", "thumbnailUrl": null, "date": "Sat, 06 Apr 2024 15:43:27 +0200", "lat": 52.1167, "lon": 13.1667, "intensity": 0.7, "source": "RBB"}, {"title": "Berlin: Zwei Verletzte bei Wohnungsbrand in Steglitz", "url": "https://www.rbb24.de/panorama/beitrag/2024/04/berlin-steglitz-brand-feuer-flammen-feuerwehr-wohnungsbrand-polizei.html", "thumbnailUrl": null, "date": "Sat, 06 Apr 2024 14:10:39 +0200", "lat": 52.4554, "lon": 13.3264, "intensity": 0.7, "source": "RBB"}, {"title": "Ferienende, Halbmarathon, Baustellen: Staus ab Samstagnachmittag erwartet", "url": "https://www.rbb24.de/panorama/beitrag/2024/04/stau-ostern-adac-berlin-brandenburg-verkehr-autobahn-auto.html", "thumbnailUrl": null, "date": "Sat, 06 Apr 2024 13:38:00 +0200", "lat": 51.5143, "lon": 9.9937, "intensity": 0.3, "source": "RBB"}, {"title": "Mann bei Wohnungsbrand in Berlin-Pankow verletzt", "url": "https://www.rbb24.de/panorama/beitrag/2024/04/berlin-wohnungsbrand-pankow-ein-mann-verletzt.html", "thumbnailUrl": null, "date": "Sat, 06 Apr 2024 11:43:57 +0200", "lat": 52.5694, "lon": 13.4325, "intensity": 0.8, "source": "RBB"}, {"title": "Zu hohe Kosten: \"Tagesspiegel\" und \"Berliner Morgenpost\" erscheinen sonntags nicht mehr gedruckt", "url": "https://www.rbb24.de/wirtschaft/beitrag/2024/04/berlin-zeitungen-morgenpost-tagesspiegel-keine-sonntagsausgaben-mehr.html", "thumbnailUrl": null, "date": "Sat, 06 Apr 2024 09:38:22 +0200", "lat": 52.520008, "lon": 13.404954, "intensity": 0.7, "source": "RBB"}, {"title": "Berlin-Marzahn: Feuerwehr l\u00f6scht Br\u00e4nde in f\u00fcnf Kellerverschl\u00e4gen", "url": "https://www.rbb24.de/panorama/beitrag/2024/04/berlin-feuer-flammen-brand-feuerwehr-marzahn-einsatz-treppenhaus.html", "thumbnailUrl": null, "date": "Sat, 06 Apr 2024 09:19:34 +0200", "lat": 52.5414, "lon": 13.5535, "intensity": 0.7, "source": "RBB"}, {"title": "Wetter in Berlin und Brandenburg: Schlingernder Jetstream weht hei\u00dfen Wind in die Region", "url": "https://www.rbb24.de/panorama/beitrag/2024/04/berlin-brandenburg-wetter-wochenende-prognose-rekordwerte.html", "thumbnailUrl": null, "date": "Fri, 05 Apr 2024 17:27:00 +0200", "lat": 52.520008, "lon": 13.404954, "intensity": 0.8, "source": "RBB"}, {"title": "Hilfsfl\u00fcge f\u00fcr Gaza: Bundeswehr setzt nun A400M aus Wunstorf ein", "url": "https://www.ndr.de/nachrichten/niedersachsen/Hilfsfluege-fuer-Gaza-Bundeswehr-setzt-jetzt-A400M-aus-Wunstorf-ein,bundeswehr2830.html", "thumbnailUrl": "https://www.ndr.de/nachrichten/niedersachsen/hannover_weser-leinegebiet/luftwaffe274_v-contentwidescreen.jpg", "date": "2024-04-07T14:32:03.947+02:00", "lat": 52.3759, "lon": 9.6697, "intensity": 0.8, "source": "NDR"}, {"title": "Brandanschlag auf Synagoge: Hunderte demonstrieren Solidarit\u00e4t", "url": "https://www.ndr.de/nachrichten/niedersachsen/oldenburg_ostfriesland/Brandanschlag-auf-Synagoge-Hunderte-demonstrieren-Solidaritaet,synagoge686.html", "thumbnailUrl": "https://www.eurovision.de/israel956_v-contentwidescreen.jpg", "date": "2024-04-07T22:02:56.654+02:00", "lat": 53.1438, "lon": 8.2275, "intensity": 0.8, "source": "NDR"}, {"title": "Warum der Bahnhof in S\u00fcderbrarup ein ganz besonderer ist", "url": "https://www.ndr.de/nachrichten/schleswig-holstein/Warum-der-Bahnhof-in-Suederbrarup-ein-ganz-besonderer-ist,bahnhof1014.html", "thumbnailUrl": "https://www.ndr.de/nachrichten/schleswig-holstein/bahnhof1038_v-contentwidescreen.jpg", "date": "2024-04-07T18:06:58.735+02:00", "lat": 54.5817, "lon": 9.7512, "intensity": 0.6, "source": "NDR"}, {"title": "Wolfsburg verliert bei Hasenh\u00fcttls Heimdeb\u00fct - Lage \"sehr bedrohlich\"", "url": "https://www.ndr.de/sport/fussball/Bundesliga-Woelfe-VfL-Wolfsburg-Gladbach,wolfsburg19640.html", "thumbnailUrl": "https://www.ndr.de/sport/fussball/bundesliga/wolfsburg19664_v-contentwidescreen.jpg", "date": "2024-04-07T21:25:18.336+02:00", "lat": 52.4226, "lon": 10.7861, "intensity": 0.8, "source": "NDR"}, {"title": "Niedersachsen: Abi-Pr\u00fcfungen f\u00fcr rund 33.000 Sch\u00fcler starten", "url": "https://www.ndr.de/nachrichten/niedersachsen/Niedersachsen-Abi-Pruefungen-fuer-rund-33000-Schueler-starten,abitur574.html", "thumbnailUrl": "https://www.ndr.de/nachrichten/niedersachsen/hannover_weser-leinegebiet/abitur324_v-contentwidescreen.jpg", "date": "2024-04-07T19:32:11.849+02:00", "lat": 52.3759, "lon": 9.8208, "intensity": 0.7, "source": "NDR"}, {"title": "Bekommt die Werra eine Welle? Surferspot am Nadelwehr geplant", "url": "https://www.ndr.de/nachrichten/niedersachsen/braunschweig_harz_goettingen/Bekommt-die-Werra-eine-Welle-Surferspot-am-Nadelwehr-geplant,werrawelle106.html", "thumbnailUrl": "https://www.ndr.de/nachrichten/niedersachsen/braunschweig_harz_goettingen/werrawelle100_v-contentwidescreen.jpg", "date": "2024-04-07T19:33:21.114+02:00", "lat": 51.4167, "lon": 9.6586, "intensity": 0.7, "source": "NDR"}, {"title": "Zu hohe Abgas-Werte: Monstertruck-Show in Hamburg abgesagt", "url": "https://www.ndr.de/nachrichten/hamburg/Zu-hohe-Abgas-Werte-Monstertruck-Show-in-Hamburg-abgesagt,monsterjam100.html", "thumbnailUrl": "https://www.ndr.de/fernsehen/screenshot1728202_v-contentwidescreen.jpg", "date": "2024-04-07T20:57:37.836+02:00", "lat": 53.5511, "lon": 9.9937, "intensity": 0.7, "source": "NDR"}, {"title": "Laage: Christin Zimmermann ist neue B\u00fcrgermeisterin", "url": "https://www.ndr.de/nachrichten/mecklenburg-vorpommern/Laage-Christin-Zimmermann-ist-neue-Buergermeisterin,wahllaage100.html", "thumbnailUrl": "https://www.ndr.de/laagewahl100_v-contentwidescreen.jpg", "date": "2024-04-07T20:16:21.685+02:00", "lat": 53.9243, "lon": 12.4045, "intensity": 0.6, "source": "NDR"}, {"title": "Anklam: Gro\u00dfer Rettungseinsatz in Seniorenresidenz", "url": "https://www.ndr.de/nachrichten/mecklenburg-vorpommern/Anklam-Grosser-Rettungseinsatz-in-Seniorenresidenz,kurzmeldungmv14858.html", "thumbnailUrl": "https://www.ndr.de/home/mecklenburg-vorpommern/brand9214_v-contentwidescreen.jpg", "date": "2024-04-07T20:54:22.900+02:00", "lat": 53.8532, "lon": 13.6943, "intensity": 0.8, "source": "NDR"}, {"title": "Stichwahl: Laage w\u00e4hlt B\u00fcrgermeisterin oder B\u00fcrgermeister", "url": "https://www.ndr.de/nachrichten/mecklenburg-vorpommern/Stichwahl-Laage-waehlt-Buergermeisterin-oder-Buergermeister,buergermeisterwahllaage100.html", "thumbnailUrl": "https://www.ndr.de/home/mecklenburg-vorpommern/buergermeisterstichwahllaage100_v-contentwidescreen.jpg", "date": "2024-04-07T15:00:22.005+02:00", "lat": 53.8867, "lon": 12.2753, "intensity": 0.4, "source": "NDR"}, {"title": "Ferienort warnt mit Schildern vor tieffliegenden St\u00f6rchen", "url": "https://www.ndr.de/nachrichten/niedersachsen/oldenburg_ostfriesland/Ferienort-warnt-mit-Schildern-vor-tieffliegenden-Stoerchen,storch1618.html", "thumbnailUrl": "https://www.ndr.de/nachrichten/niedersachsen/oldenburg_ostfriesland/sandstedt102_v-contentwidescreen.jpg", "date": "2024-04-07T13:50:44.784+02:00", "lat": 53.2386, "lon": 8.63, "intensity": 0.6, "source": "NDR"}, {"title": "Sechs Monate nach Hamas-\u00dcberfall: Gedenkspaziergang in Hannover", "url": "https://www.ndr.de/fernsehen/sendungen/hallo_niedersachsen/Sechs-Monate-nach-Hamas-Ueberfall-Gedenkspaziergang-in-Hannover,hallonds86774.html", "thumbnailUrl": "https://www.ndr.de/fernsehen/screenshot1728276_v-contentwidescreen.jpg", "date": "2024-04-07T20:13:31.467+02:00", "lat": 52.37589, "lon": 9.73322, "intensity": 0.7, "source": "NDR"}, {"title": "Erbschaftssteuer: Hamburg bekommt besonders viel", "url": "https://www.ndr.de/fernsehen/sendungen/hamburg_journal/Erbschaftssteuer-Hamburg-bekommt-besonders-viel,hamj145846.html", "thumbnailUrl": "https://www.ndr.de/fernsehen/screenshot1728304_v-contentwidescreen.jpg", "date": "2024-04-07T19:58:06.432+02:00", "lat": 53.551085, "lon": 9.993682, "intensity": 0.7, "source": "NDR"}, {"title": "Rettungseinsatz nach Brand in Anklamer Altenheim", "url": "https://www.ndr.de/fernsehen/sendungen/nordmagazin/Rettungseinsatz-nach-Brand-in-Anklamer-Altenheim,nordmagazin117034.html", "thumbnailUrl": "https://www.ndr.de/fernsehen/screenshot1728394_v-contentwidescreen.jpg", "date": "2024-04-07T21:08:32.572+02:00", "lat": 53.8527, "lon": 13.6957, "intensity": 0.8, "source": "NDR"}, {"title": "Au\u00dfengastronomie und Cannabis: \u00c4rger im Biergarten?", "url": "https://www.ndr.de/fernsehen/sendungen/hallo_niedersachsen/Aussengastronomie-und-Cannabis-Aerger-im-Biergarten,hallonds86754.html", "thumbnailUrl": "https://www.ndr.de/fernsehen/screenshot1728162_v-contentwidescreen.jpg", "date": "2024-04-07T08:49:20.955+02:00", "lat": 52.268874, "lon": 10.52677, "intensity": 0.5, "source": "NDR"}, {"title": "Hamburg Ehrensache: Andocken - Hilfe f\u00fcr Menschen ohne Papiere", "url": "https://www.ndr.de/fernsehen/sendungen/hamburg_journal/Hamburg-Ehrensache-Andocken-Hilfe-fuer-Menschen-ohne-Papiere,hamj145828.html", "thumbnailUrl": "https://www.ndr.de/fernsehen/sendungen/hamburg_journal/logo1796_v-contentwidescreen.jpg", "date": "2024-04-06T20:28:13.027+02:00", "lat": 53.5511, "lon": 9.9417, "intensity": 0.6, "source": "NDR"}, {"title": "\"W\u00fcnsch Dir Deinen NDR\" - Jetzt f\u00fcr die Publikumsaktion bewerben!", "url": "https://www.ndr.de/wuensch_dir_deinen_ndr/index.html", "thumbnailUrl": "https://www.ndr.de/der_ndr/wunschprogramm131_v-contentwidescreen.jpg", "date": "2024-03-26T07:59:24.876+01:00", "lat": 53.551086, "lon": 9.993682, "intensity": 0.2, "source": "NDR"}, {"title": "Relaunch der vier NDR L\u00e4nder-Apps: Nachrichten aus Ihrer Region!", "url": "https://www.ndr.de/Relaunch-der-vier-NDR-Laender-Apps-Nachrichten-aus-Ihrer-Region,laenderapprelaunch100.html", "thumbnailUrl": "https://www.ndr.de/laenderapprelaunch102_v-contentwidescreen.jpg", "date": "2024-03-19T09:22:34.719+01:00", "lat": 53.8659, "lon": 9.8606, "intensity": 0.4, "source": "NDR"}, {"title": "Gaspreis Dashboard", "url": "https://www.ndr.de/home/gaspreis176.html", "thumbnailUrl": null, "date": "2023-04-06T14:49:06.409+02:00", "lat": 51.3426, "lon": 9.9976, "intensity": 0.7, "source": "NDR"}, {"title": "NDR Radioprogramme", "url": "https://www.ndr.de/radio/radiologobox100.html", "thumbnailUrl": null, "date": "2020-12-01T14:04:26.700+01:00", "lat": 53.5511, "lon": 9.9937, "intensity": 0.3, "source": "NDR"}, {"title": "Krieg und Terror - Die Lage im Nahen Osten und in der Ukraine", "url": "https://www.ndr.de/nachrichten/info/podcast5342.html", "thumbnailUrl": "https://www.ndr.de/nachrichten/info/podcastbild412_v-contentwidescreen.jpg", "date": "2024-04-07T19:30:06.382+02:00", "lat": 46.79651, "lon": 30.739834, "intensity": 0.8, "source": "NDR"}, {"title": "Die Ern\u00e4hrungs-Docs - Essen als Medizin", "url": "https://www.ndr.de/fernsehen/sendungen/die-ernaehrungsdocs/audio-podcast/index.html", "thumbnailUrl": "https://www.ndr.de/fernsehen/sendungen/die-ernaehrungsdocs/podcastbild338_v-contentwidescreen.jpg", "date": "2024-04-04T13:51:10.657+02:00", "lat": 53.5511, "lon": 9.9876, "intensity": 0.3, "source": "NDR"}, {"title": "Unsere Comedy \"Die Kur-Oase\"!", "url": "https://www.ndr.de/ndr2/podcasts/podcast5816.html", "thumbnailUrl": "https://www.ndr.de/ndr2/podcasts/podcast5812_v-contentwidescreen.jpg", "date": "2024-04-05T07:15:05.477+02:00", "lat": 54.9069, "lon": 8.7386, "intensity": 0.2, "source": "NDR"}, {"title": "Organisiertes Verbrechen - Recherchen im Verborgenen", "url": "https://www.ndr.de/nachrichten/info/podcast4992.html", "thumbnailUrl": "https://www.ndr.de/nachrichten/info/podcastbildov100_v-contentwidescreen.jpg", "date": "2024-03-01T06:00:27.490+01:00", "lat": 45.9432, "lon": 24.9668, "intensity": 0.8, "source": "NDR"}, {"title": "eat.READ.sleep. B\u00fccher f\u00fcr dich", "url": "https://www.ndr.de/kultur/sendungen/eat_read_sleep/index.html", "thumbnailUrl": "https://www.ndr.de/mediathek/podcastbild434_v-contentwidescreen.jpg", "date": "2024-03-29T06:00:20.892+01:00", "lat": 53.5511, "lon": 9.9937, "intensity": 0.2, "source": "NDR"}, {"title": "Killed in Action: Afghanistan - Mission ohne Ziel", "url": "https://www.ndr.de/nachrichten/info/sendungen/podcast4574.html", "thumbnailUrl": "https://www.ndr.de/nachrichten/info/podcasts/podcastbild478_v-contentwidescreen.jpg", "date": "2024-02-16T17:44:01.214+01:00", "lat": 33.9391, "lon": 66.2385, "intensity": 0.8, "source": "NDR"}, {"title": "Streitkr\u00e4fte und Strategien", "url": "https://www.ndr.de/nachrichten/info/podcast2998.html", "thumbnailUrl": "https://www.ndr.de/mediathek/mediathekbild566_v-contentwidescreen.jpg", "date": "2024-04-05T16:30:08.852+02:00", "lat": 53.5511, "lon": 9.9937, "intensity": 0.8, "source": "NDR"}, {"title": "Standpunkte", "url": "https://www.ndr.de/nachrichten/info/podcast4700.html", "thumbnailUrl": "https://www.ndr.de/mediathek/podcast5332_v-contentwidescreen.jpg", "date": "2024-04-08T00:09:58.016+02:00", "lat": 53.5511, "lon": 9.9937, "intensity": 0.5, "source": "NDR"}, {"title": "Mein Einsatz - der Feuerwehr-Podcast von NDR Niedersachsen", "url": "https://www.ndr.de/ndr1niedersachsen/podcast5774.html", "thumbnailUrl": "https://www.ndr.de/ndr1niedersachsen/podcasts/podcastbild364_v-contentwidescreen.jpg", "date": "2024-03-28T04:00:07.923+01:00", "lat": 52.3759, "lon": 9.7345, "intensity": 0.7, "source": "NDR"}, {"title": "\"Feel Hamburg\" - alle Folgen", "url": "https://www.ndr.de/903/podcasts/podcast5108.html", "thumbnailUrl": "https://www.ndr.de/mediathek/mediathekbild514_v-contentwidescreen.jpg", "date": "2024-04-03T05:00:09.975+02:00", "lat": 53.55, "lon": 10.0, "intensity": 0.4, "source": "NDR"}, {"title": "Intensiv-Station - Satire von NDR Info", "url": "https://www.ndr.de/nachrichten/info/podcast4274.html", "thumbnailUrl": "https://www.ndr.de/nachrichten/info/programm/intensivstation3272_v-contentwidescreen.jpg", "date": "2024-03-25T22:56:23.803+01:00", "lat": 54.3706, "lon": 10.5038, "intensity": 0.8, "source": "NDR"}, {"title": "Amerika, wir m\u00fcssen reden!", "url": "https://www.ndr.de/nachrichten/info/podcast4932.html", "thumbnailUrl": "https://www.ndr.de/nachrichten/info/podcastbild488_v-contentwidescreen.jpg", "date": "2024-04-03T18:15:10.308+02:00", "lat": 39.78373, "lon": -100.445882, "intensity": 0.7, "source": "NDR"}, {"title": "\u00c4tna auf Sizilien: Europas aktivster Vulkan pustet Rauchkringel", "url": "https://www1.wdr.de/nachrichten/rauchringe-vulkan-aetna-100.html", "thumbnailUrl": null, "date": "2024-04-07T18:15:14Z", "lat": 37.75, "lon": 15.0, "intensity": 0.5, "source": "WDR"}, {"title": "Immer mehr Balkonkraftwerke: Die wichtigsten Antworten zum Strom vom Balkon", "url": "https://www1.wdr.de/nachrichten/balkonkraftwerke-solaranlagen-solarpaket-100.html", "thumbnailUrl": null, "date": "2024-04-07T14:09:34Z", "lat": 51.1657, "lon": 10.4515, "intensity": 0.7, "source": "WDR"}, {"title": "Hochrisikospiel: Revierderby zwischen Essen und Duisburg weitgehend ruhig geblieben", "url": "https://www1.wdr.de/nachrichten/ruhrgebiet/hochrisikospiel-zwischen-essen-und-duisburg-100.html", "thumbnailUrl": null, "date": "2024-04-07T18:14:57Z", "lat": 51.4556, "lon": 7.0106, "intensity": 0.8, "source": "WDR"}, {"title": "R\u00fcckreiseverkehr nach den Osterferien: Keine gr\u00f6\u00dferen Staus in NRW", "url": "https://www1.wdr.de/nachrichten/rueckreiseverkehr-ostern-volle-autobahnen-100.html", "thumbnailUrl": null, "date": "2024-04-07T18:30:04Z", "lat": 51.3774, "lon": 10.8453, "intensity": 0.7, "source": "WDR"}, {"title": "Mann wegen kinderpornografischer Bilder in Essen festgenommen", "url": "https://www1.wdr.de/nachrichten/essen-hauptbahnhof-wohnungsloser-kinderpornografie-mobiltelefon-100.html", "thumbnailUrl": null, "date": "2024-04-07T18:53:47Z", "lat": 51.4624, "lon": 7.0131, "intensity": 0.8, "source": "WDR"}, {"title": "Demo gegen Rechts: 1.000 Teilnehmer bei Menschenkette in Sonsbeck", "url": "https://www1.wdr.de/nachrichten/sonbeck-menschenkette-demo-rechts-100.html", "thumbnailUrl": null, "date": "2024-04-07T19:32:54Z", "lat": 51.6155, "lon": 6.3915, "intensity": 0.8, "source": "WDR"}, {"title": "Wie W\u00fcstensand von der Sahara bis nach NRW geweht wird", "url": "https://www1.wdr.de/nachrichten/wuestensand-sahara-staub-nrw-100.html", "thumbnailUrl": null, "date": "2024-04-06T17:45:17Z", "lat": 51.8133, "lon": 7.6288, "intensity": 0.6, "source": "WDR"}, {"title": "Krieg in Nahost: Nahost-Liveblog: ++ Tausende demonstrieren f\u00fcr R\u00fcckkehr der Geiseln ++", "url": "https://www.tagesschau.de/newsticker/liveblog-nahost-sonntag-128.html", "thumbnailUrl": null, "date": "2024-04-07T21:30:02Z", "lat": 52.51704, "lon": 13.38886, "intensity": 0.8, "source": "WDR"}, {"title": "Gaza und Israel: Wie weit kann Netanjahu noch gehen?", "url": "https://www1.wdr.de/nachrichten/nah-dran-israel-sechs-monate-krieg-hamas-102.html", "thumbnailUrl": null, "date": "2024-04-05T14:40:40Z", "lat": 31.5, "lon": 34.483, "intensity": 0.7, "source": "WDR"}, {"title": "Deutsch-Israelin Shani Louk: Trauer ohne Beerdigung", "url": "https://www1.wdr.de/nachrichten/interview-ricarda-louk-100.html", "thumbnailUrl": null, "date": "2024-04-06T17:49:19Z", "lat": 31.7683, "lon": 35.2137, "intensity": 0.8, "source": "WDR"}, {"title": "M\u00f6glicher Vergeltungsangriff: USA und Israel wegen iranischer Drohungen in Alarmbereitschaft", "url": "https://www.tagesschau.de/ausland/iran-israel-usa-100.html", "thumbnailUrl": null, "date": "2024-04-06T08:03:02Z", "lat": 51.3965, "lon": 35.6895, "intensity": 0.8, "source": "WDR"}, {"title": "Nach Angriff auf Hilfsorganisation: Israel k\u00fcndigt \"sofortige\" Aufstockung von Gaza-Hilfen an", "url": "https://www.tagesschau.de/ausland/asien/biden-netanyahu-zivilisten-104.html", "thumbnailUrl": null, "date": "2024-04-05T09:21:02Z", "lat": 31.9466, "lon": 34.4538, "intensity": 0.8, "source": "WDR"}, {"title": "Nach Angriff auf Hilfsorganisation: Biden bekr\u00e4ftigt Israel-Kritik nach Angriff auf Hilfsorganisation", "url": "https://www.tagesschau.de/ausland/amerika/biden-unter-druck-100.html", "thumbnailUrl": null, "date": "2024-04-05T08:42:01Z", "lat": 31.7683, "lon": 35.2134, "intensity": 0.8, "source": "WDR"}, {"title": "Get\u00f6tete Helfer im Gazastreifen: Hilfsorganisationen \u00fcben massive Kritik an Israels Kriegsf\u00fchrung", "url": "https://www.tagesschau.de/ausland/israel-angriffe-hilfsorganisationen-100.html", "thumbnailUrl": null, "date": "2024-04-04T19:18:02Z", "lat": 31.522833, "lon": 35.303017, "intensity": 0.7, "source": "WDR"}, {"title": "Die wichtigsten Fakten \u00fcber den Gazastreifen", "url": "https://www1.wdr.de/nachrichten/gaza-gazastreifen-israel-hintergrund-100.html", "thumbnailUrl": null, "date": "2023-10-11T15:33:25Z", "lat": 31.5107, "lon": 34.3445, "intensity": 0.8, "source": "WDR"}, {"title": "WDR aktuell Whatsapp-Kanal abonnieren - so geht's", "url": "https://www1.wdr.de/nachrichten/wdr-aktuell-whatsapp-kanal-100.html", "thumbnailUrl": null, "date": "2023-12-22T20:22:52Z", "lat": 51.4818, "lon": 7.6261, "intensity": 0.1, "source": "WDR"}, {"title": "Krieg gegen die Ukraine: Ukraine-Liveblog: ++ Selenskyj: Werden ohne US-Hilfen verlieren ++", "url": "https://www.tagesschau.de/newsticker/liveblog-ukraine-sonntag-412.html", "thumbnailUrl": null, "date": "2024-04-07T21:30:02Z", "lat": 48.0159, "lon": 37.8028, "intensity": 0.8, "source": "WDR"}, {"title": "Kommt Russland wegen Kriegsverbrechen vor den Internationalen Strafgerichtshof?", "url": "https://www1.wdr.de/nachrichten/kriegsverbrechen-fragen-antworten-100.html", "thumbnailUrl": null, "date": "2024-04-02T16:04:42Z", "lat": 52.0705, "lon": 4.3007, "intensity": 0.8, "source": "WDR"}, {"title": "Ukraine: Zwischen Krieg und Normalit\u00e4t", "url": "https://www1.wdr.de/mediathek/audio/wdr5/wdr5-mittagsecho/audio-ukraine-zwischen-krieg-und-normalitaet-100.html", "thumbnailUrl": null, "date": "2024-03-27T13:17:56Z", "lat": 50.4501, "lon": 30.5234, "intensity": 0.7, "source": "WDR"}, {"title": "Wetter am Sonntag in NRW: Warm mit Saharastaub, am Abend Regen m\u00f6glich", "url": "https://www1.wdr.de/nachrichten/wetter-nrw-gewitter-sonne-waerme-saharastaub-100.html", "thumbnailUrl": null, "date": "2024-04-07T15:33:30Z", "lat": 51.8133, "lon": 7.6261, "intensity": 0.8, "source": "WDR"}, {"title": "Auch nach Semesterstart: Viele Studierende ohne Wohnheimzimmer", "url": "https://www1.wdr.de/nachrichten/viele-studierende-warten-auf-wohnheimplatz-100.html", "thumbnailUrl": null, "date": "2024-04-06T16:50:31Z", "lat": 50.775, "lon": 6.083, "intensity": 0.8, "source": "WDR"}, {"title": "Wenn junge Menschen t\u00f6ten: \"Tats\u00e4chlich eine Ver\u00e4nderung im T\u00e4terverhalten\"", "url": "https://www1.wdr.de/nachrichten/dortmund-obdachloser-erstochen-kinder-jugendliche-gewalt-100.html", "thumbnailUrl": null, "date": "2024-04-06T18:11:37Z", "lat": 51.5136, "lon": 7.4683, "intensity": 0.8, "source": "WDR"}, {"title": "Der \"K\u00f6lsche Jesus\" und eine Gedenktafel f\u00fcr Deckenl\u00f6cher", "url": "https://www1.wdr.de/nachrichten/rheinland/koeln-jesus-loecher-hbf-gedenktafel-100.html", "thumbnailUrl": null, "date": "2024-04-06T15:51:46Z", "lat": 50.9375, "lon": 7.0116, "intensity": 0.3, "source": "WDR"}, {"title": "Beeindruckendes bei Techno Classica in Essen", "url": "https://www1.wdr.de/nachrichten/ruhrgebiet/techno-classica-essen-2024-100.html", "thumbnailUrl": null, "date": "2024-04-07T08:29:12Z", "lat": 51.4563, "lon": 7.0106, "intensity": 0.8, "source": "WDR"}, {"title": "Kein Geld f\u00fcr Sport und Kultur?", "url": "https://1.ard.de/sport-kultur-podcast-rheinblick", "thumbnailUrl": null, "date": "2024-04-05T11:50:01Z", "lat": 50.35708, "lon": 7.59064, "intensity": 0.4, "source": "WDR"}, {"title": "Wo NRW noch Handlungsspielraum im Haushalt hat", "url": "https://www1.wdr.de/nachrichten/landespolitik/landeshaushalt-spielraeume-finanzen-100.html", "thumbnailUrl": null, "date": "2024-04-05T11:43:32Z", "lat": 51.9607, "lon": 7.6261, "intensity": 0.7, "source": "WDR"}, {"title": "Solarausbau: Mehrere NRW-St\u00e4dte schneiden gut ab", "url": "https://www1.wdr.de/nachrichten/kommunen-solarausbau-100.html", "thumbnailUrl": null, "date": "2024-04-05T19:27:14Z", "lat": 51.9607, "lon": 7.6261, "intensity": 0.6, "source": "WDR"},