[{"title": "Lage in Charkiw spitzt sich weiter zu", "url": "https://www.tagesschau.de/ausland/europa/charkiw-ukraine-112.html", "thumbnailUrl": "https://images.tagesschau.de/image/9f89f101-4e27-4d13-a123-7e0f60ee4021/AAABj37vxz4/AAABjwnlKNc/16x9-512.jpg", "date": "2024-05-16T03:13:08.991+02:00", "lat": 49.9935, "lon": 36.230383, "intensity": 0.8, "source": "Tagesschau"}, {"title": "++ Lage in Charkiw laut Selenskyj stabiler ++", "url": "https://www.tagesschau.de/newsticker/liveblog-ukraine-mittwoch-362.html", "thumbnailUrl": "https://images.tagesschau.de/image/d4990ab0-e9cb-4259-80dd-87e89458170b/AAABj2KDJao/AAABjwnlKNc/16x9-512.jpg", "date": "2024-05-15T23:29:53.406+02:00", "lat": 50.008412, "lon": 36.230383, "intensity": 0.8, "source": "Tagesschau"}, {"title": "++ Briten senden weitere Hilfsg\u00fcter nach Gaza ++", "url": "https://www.tagesschau.de/newsticker/liveblog-nahost-mittwoch-132.html", "thumbnailUrl": "https://images.tagesschau.de/image/f08cceeb-8180-44bc-874b-8b572950680f/AAABj327FZQ/AAABjwnlKNc/16x9-512.jpg", "date": "2024-05-15T23:29:04.969+02:00", "lat": 31.1656, "lon": 34.3955, "intensity": 0.7, "source": "Tagesschau"}, {"title": "L\u00fcbtheen: Erneut Brand auf ehemaligem Truppen\u00fcbungsplatz", "url": "https://www.tagesschau.de/inland/regional/mecklenburgvorpommern/ndr-luebtheen-brand-auf-ehemaligem-truppenuebungsplatz-100.html", "thumbnailUrl": "https://images.tagesschau.de/image/54cd70ee-f305-465e-a06f-fe4c769a4f42/AAABj33If0Q/AAABjwnlKNc/16x9-512.jpg", "date": "2024-05-15T23:16:00.000+02:00", "lat": 53.3395, "lon": 11.3403, "intensity": 0.8, "source": "Tagesschau"}, {"title": "Entwarnung nach Drohung gegen Einkaufszentrum in Essen", "url": "https://www.tagesschau.de/inland/regional/nordrheinwestfalen/wdr-einkaufszentrum-wegen-drohung-in-essen-geraeumt-100.html", "thumbnailUrl": "https://images.tagesschau.de/image/1e067671-a525-435b-b926-603904e53ec0/AAABj34P5O4/AAABjwnlKNc/16x9-512.jpg", "date": "2024-05-15T23:01:00.000+02:00", "lat": 51.4622, "lon": 7.0107, "intensity": 0.5, "source": "Tagesschau"}, {"title": "Doping-Verhandlung beendet: HSV-Profi Vuskovic hofft, CAS-Urteil erst in einigen Wochen", "url": "https://www.tagesschau.de/inland/regional/hamburg/ndr-doping-verhandlung-beendet-hsv-profi-vuskovic-hofft-cas-urteil-erst-in-einigen-wochen-102.html", "thumbnailUrl": "https://images.tagesschau.de/image/ae9633e8-6cc9-4053-8097-76ba436706ff/AAABj3yacSM/AAABjwnlKNc/16x9-512.jpg", "date": "2024-05-15T22:29:00.000+02:00", "lat": 53.5511, "lon": 9.9937, "intensity": 0.7, "source": "Tagesschau"}, {"title": "Landtag bremst AfD-Projekt Corona-Untersuchungsausschuss aus", "url": "https://www.tagesschau.de/inland/regional/hessen/hr-landtag-bremst-afd-projekt-corona-untersuchungsausschuss-aus-100.html", "thumbnailUrl": "https://images.tagesschau.de/image/936337ae-c0a6-4294-8d01-099404d3b7e9/AAABj33rTWc/AAABjwnlKNc/16x9-512.jpg", "date": "2024-05-15T22:20:35.949+02:00", "lat": 51.1657, "lon": 9.978, "intensity": 0.5, "source": "Tagesschau"}, {"title": "Georgier setzen Proteste fort", "url": "https://www.tagesschau.de/ausland/europa/georgien-gesetz-demonstration-100.html", "thumbnailUrl": "https://images.tagesschau.de/image/4062cde0-2fd8-40aa-bc87-d6918f9ffaa1/AAABj33iwig/AAABjwnlKNc/16x9-512.jpg", "date": "2024-05-15T22:12:44.226+02:00", "lat": 41.7151, "lon": 44.793, "intensity": 0.8, "source": "Tagesschau"}, {"title": "Gefahr von Unwettern mit Starkregen in Rheinland-Pfalz", "url": "https://www.tagesschau.de/inland/regional/rheinlandpfalz/swr-gefahr-von-unwettern-mit-starkregen-in-rheinland-pfalz-100.html", "thumbnailUrl": "https://images.tagesschau.de/image/1539057b-943e-4f8d-a5a6-f1f0c7abd499/AAABj33Y9C4/AAABjwnlKNc/16x9-512.jpg", "date": "2024-05-15T22:09:00.000+02:00", "lat": 49.7933, "lon": 7.4474, "intensity": 0.8, "source": "Tagesschau"}, {"title": "Rechtsextremismus im Fokus: Landtagsfraktionen w\u00fcrdigen Institute - mit Ausnahme der AfD", "url": "https://www.tagesschau.de/inland/regional/badenwuerttemberg/swr-rechtsextremismus-im-fokus-landtagsfraktionen-wuerdigen-institute-mit-ausnahme-der-afd-100.html", "thumbnailUrl": "https://images.tagesschau.de/image/8d777dc9-d238-413b-aa7f-894773d63028/AAABj34RwEk/AAABjwnlKNc/16x9-512.jpg", "date": "2024-05-15T22:07:00.000+02:00", "lat": 48.5236, "lon": 9.1081, "intensity": 0.8, "source": "Tagesschau"}, {"title": "\"Gorch Fock\"-Werft: Erste Urteile in Betrugsprozess gefallen", "url": "https://www.tagesschau.de/inland/regional/niedersachsen/ndr-gorch-fock-werft-erste-urteile-in-betrugsprozess-gefallen-100.html", "thumbnailUrl": "https://images.tagesschau.de/image/9f027017-47fd-49f0-93c5-b175e7f09af6/AAABj33ThwI/AAABjwnlKNc/16x9-512.jpg", "date": "2024-05-15T21:49:00.000+02:00", "lat": 53.2565, "lon": 8.3247, "intensity": 0.7, "source": "Tagesschau"}, {"title": "Slowakischer Premier nach Attentat in Lebensgefahr", "url": "https://www.tagesschau.de/ausland/europa/regierungschef-fico-slowakei-angeschossen-100.html", "thumbnailUrl": "https://images.tagesschau.de/image/fa7af1b2-258a-4840-88f3-1a7aec7a1d7e/AAABj3x9ao0/AAABjwnlKNc/16x9-512.jpg", "date": "2024-05-15T21:36:11.917+02:00", "lat": 48.1486, "lon": 19.5033, "intensity": 1, "source": "Tagesschau"}, {"title": "Viel Regen in den kommenden Tagen - Hochwasser in BW m\u00f6glich", "url": "https://www.tagesschau.de/inland/regional/badenwuerttemberg/swr-neue-unwetter-am-mittwoch-drohen-wieder-ueberschwemmungen-in-bw-100.html", "thumbnailUrl": "https://images.tagesschau.de/image/9831f281-7268-4366-a55c-33ea583e051b/AAABj33Y9is/AAABjwnlKNc/16x9-512.jpg", "date": "2024-05-15T21:33:00.000+02:00", "lat": 48.8566, "lon": 9.0146, "intensity": 0.8, "source": "Tagesschau"}, {"title": "Handball-Bundesliga: Flensburg-Handewitt fertigt HSV Hamburg ab", "url": "https://www.tagesschau.de/inland/regional/hamburg/ndr-handball-bundesliga-flensburg-handewitt-fertigt-hsv-hamburg-ab-102.html", "thumbnailUrl": "https://images.tagesschau.de/image/852a5312-cb73-4645-8a8e-e712c10aefd8/AAABj32VR5Y/AAABjwnlKNc/16x9-512.jpg", "date": "2024-05-15T21:30:00.000+02:00", "lat": 54.7817, "lon": 9.4319, "intensity": 0.8, "source": "Tagesschau"}, {"title": "76. Jahrestag: Pal\u00e4stinensische Demonstration zum \"Nakba\"-Tag friedlich verlaufen", "url": "https://www.tagesschau.de/inland/regional/brandenburg/rbb-76-jahrestag-palaestinensische-demonstration-zum-nakba-tag-friedlich-verlaufen-100.html", "thumbnailUrl": "https://images.tagesschau.de/image/cbb79e5d-e566-4392-b4e0-5f33384eb903/AAABj324Iz4/AAABjwnlKNc/16x9-512.jpg", "date": "2024-05-15T21:23:29.000+02:00", "lat": 52.520008, "lon": 13.404954, "intensity": 0.3, "source": "Tagesschau"}, {"title": "Pfingsten und Schulferien: Zahlreiche Staus im Norden erwartet", "url": "https://www.tagesschau.de/inland/regional/niedersachsen/ndr-pfingsten-und-schulferien-viel-staus-im-norden-erwartet-100.html", "thumbnailUrl": "https://images.tagesschau.de/image/c4e72ab4-94bd-4a1e-a180-316149b71519/AAABj32wqqI/AAABjwnlKNc/16x9-512.jpg", "date": "2024-05-15T21:15:00.000+02:00", "lat": 52.3759, "lon": 9.732, "intensity": 0.8, "source": "Tagesschau"}, {"title": "Deutlich mehr Keuchhusten-F\u00e4lle in BW - Was Eltern wissen m\u00fcssen", "url": "https://www.tagesschau.de/inland/regional/badenwuerttemberg/swr-deutlich-mehr-keuchhusten-faelle-in-bw-was-eltern-wissen-muessen-100.html", "thumbnailUrl": "https://images.tagesschau.de/image/6e996a81-e44d-4539-95cb-9c68789c18bf/AAABj3zW0qM/AAABjwnlKNc/16x9-512.jpg", "date": "2024-05-15T21:05:00.000+02:00", "lat": 48.6616, "lon": 9.4867, "intensity": 0.7, "source": "Tagesschau"}, {"title": "Modekonzern Esprit insolvent: Zukunft der Saar-Filialen unklar", "url": "https://www.tagesschau.de/inland/regional/saarland/sr-modekonzern-esprit-insolvent-zukunft-der-saar-filialen-unklar-100.html", "thumbnailUrl": "https://images.tagesschau.de/image/e57611f1-3fe6-46ae-a906-80d2d1eda87c/AAABj32j2Jk/AAABjwnlKNc/16x9-512.jpg", "date": "2024-05-15T21:00:00.000+02:00", "lat": 49.3964, "lon": 6.9538, "intensity": 0.9, "source": "Tagesschau"}, {"title": "Kasseler Rosenzweig-Professur f\u00fcr Galit Noga-Banai: \"Antisemitismus und Antizionismus sind zwei verschiedene Dinge\"", "url": "https://www.tagesschau.de/inland/regional/hessen/hr-kasseler-rosenzweig-professur-fuer-galit-noga-banai-antisemitismus-und-antizionismus-sind-zwei-verschiedene-dinge-100.html", "thumbnailUrl": "https://images.tagesschau.de/image/37cde230-3f00-4053-a99a-5c5ac89447fc/AAABj32XFeM/AAABjwnlKNc/16x9-512.jpg", "date": "2024-05-15T20:49:45.525+02:00", "lat": 51.3107, "lon": 9.4857, "intensity": 0.7, "source": "Tagesschau"}, {"title": "Jagel: Luftwaffe testet erstmals Drohne im zivilen Luftraum", "url": "https://www.tagesschau.de/inland/regional/schleswigholstein/ndr-jagel-luftwaffe-testet-erstmals-drohne-im-zivilen-luftraum-100.html", "thumbnailUrl": "https://images.tagesschau.de/image/2944a765-2f10-40fb-b17e-89d6f3c133af/AAABj32TkZ0/AAABjwnlKNc/16x9-512.jpg", "date": "2024-05-15T20:44:00.000+02:00", "lat": 54.4111, "lon": 9.518, "intensity": 0.8, "source": "Tagesschau"}, {"title": "Luxus-Schleuser: Spenden auch an Innenminister Reul", "url": "https://www.tagesschau.de/inland/regional/nordrheinwestfalen/wdr-luxus-schleuser-spenden-auch-an-innenminister-reul-100.html", "thumbnailUrl": "https://images.tagesschau.de/image/8641d8db-3b9d-426f-b3ae-0672d3dd6c24/AAABj327pt4/AAABjwnlKNc/16x9-512.jpg", "date": "2024-05-15T20:42:00.000+02:00", "lat": 51.8133, "lon": 7.6261, "intensity": 0.8, "source": "Tagesschau"}, {"title": "\"Was bringt uns die EU?\" - Das sagen Menschen aus Rheinland-Pfalz", "url": "https://www.tagesschau.de/inland/regional/rheinlandpfalz/swr-was-bringt-uns-die-eu-das-sagen-menschen-aus-rheinland-pfalz-102.html", "thumbnailUrl": "https://images.tagesschau.de/image/d36abc56-c669-49ba-a19e-bee91aad9a06/AAABj32P4yA/AAABjwnlKNc/16x9-512.jpg", "date": "2024-05-15T20:38:38.000+02:00", "lat": 49.982, "lon": 7.405, "intensity": 0.5, "source": "Tagesschau"}, {"title": "\"Das ist schon eine russische Art zu herrschen\"", "url": "https://www.tagesschau.de/ausland/europa/georgien-interview-surabischwili-100.html", "thumbnailUrl": "https://images.tagesschau.de/image/dc754e00-c2ea-4960-8521-943c247641d3/AAABj30sTtw/AAABjwnlKNc/16x9-512.jpg", "date": "2024-05-15T20:36:11.088+02:00", "lat": 42.3154, "lon": 43.3569, "intensity": 0.8, "source": "Tagesschau"}, {"title": "B\u00fcndnis Sahra Wagenknecht: Wahlkampfauftakt in Hamburg", "url": "https://www.tagesschau.de/inland/regional/hamburg/ndr-buendnis-sahra-wagenknecht-wahlkampfauftakt-in-hamburg-100.html", "thumbnailUrl": "https://images.tagesschau.de/image/dcc112bd-45a0-4e9b-a856-3f4e25c33d88/AAABj31j1Uw/AAABjwnlKNc/16x9-512.jpg", "date": "2024-05-15T20:19:00.000+02:00", "lat": 53.5511, "lon": 9.9937, "intensity": 0.6, "source": "Tagesschau"}, {"title": "AKW M\u00fclheim-K\u00e4rlich: \"Der spannendste Teil des Abrisses hat begonnen!\"", "url": "https://www.tagesschau.de/inland/regional/rheinlandpfalz/swr-akw-muelheim-kaerlich-der-spannendste-teil-des-abrisses-hat-begonnen-100.html", "thumbnailUrl": "https://images.tagesschau.de/image/01193a29-159c-41f6-8ffb-115a697020d9/AAABj32Eu-Q/AAABjwnlKNc/16x9-512.jpg", "date": "2024-05-15T20:09:00.000+02:00", "lat": 50.397202, "lon": 7.469383, "intensity": 0.8, "source": "Tagesschau"}, {"title": "B\u00fcrgerschaft: Schlagabtausch zu Islamisten-Demos in Hamburg", "url": "https://www.tagesschau.de/inland/regional/hamburg/ndr-buergerschaft-debattiert-ueber-islamisten-demos-in-hamburg-100.html", "thumbnailUrl": "https://images.tagesschau.de/image/fd9ad5c2-3b04-4e65-ab5f-fc657c4d7193/AAABj3yIJcI/AAABjwnlKNc/16x9-512.jpg", "date": "2024-05-15T20:08:00.000+02:00", "lat": 53.55, "lon": 10.0, "intensity": 0.7, "source": "Tagesschau"}, {"title": "Drei Dinge, bei denen die EU in BW f\u00fcr Frust und Verzweiflung sorgt", "url": "https://www.tagesschau.de/inland/regional/badenwuerttemberg/swr-drei-dinge-bei-denen-die-eu-in-bw-fuer-frust-und-verzweiflung-sorgt-100.html", "thumbnailUrl": "https://images.tagesschau.de/image/47795406-463e-4d8c-9984-7926f156606c/AAABj3136fc/AAABjwnlKNc/16x9-512.jpg", "date": "2024-05-15T20:02:13.000+02:00", "lat": 48.6616, "lon": 9.9937, "intensity": 0.7, "source": "Tagesschau"}, {"title": "\"Ich habe \u00fcberhaupt gar keine Angst\" - Verfassungsrichter Rami Suliman aus Pforzheim", "url": "https://www.tagesschau.de/inland/regional/badenwuerttemberg/swr-ich-habe-ueberhaupt-gar-keine-angst-verfassungsrichter-rami-suliman-aus-pforzheim-102.html", "thumbnailUrl": "https://images.tagesschau.de/image/228dbbbf-b222-4c7d-bdc3-80ce48866f1b/AAABj34Run0/AAABjwnlKNc/16x9-512.jpg", "date": "2024-05-15T20:01:53.000+02:00", "lat": 48.7194, "lon": 8.6946, "intensity": 0.7, "source": "Tagesschau"}, {"title": "Frau in Magdeburg angeschossen: Polizei bildet Ermittlungsgruppe", "url": "https://www.tagesschau.de/inland/regional/sachsenanhalt/mdr-frau-in-magdeburg-angeschossen-polizei-gibt-details-zu-tatverdaechtigem-bekannt-100.html", "thumbnailUrl": "https://images.tagesschau.de/image/a817cef9-e101-4154-b615-11d66c93eb66/AAABj31Ibus/AAABjwnlKNc/16x9-512.jpg", "date": "2024-05-15T19:45:35.000+02:00", "lat": 52.1205, "lon": 11.6295, "intensity": 0.7, "source": "Tagesschau"}, {"title": "Eintracht: +++ Ekitik\u00e9 versteht \"hohe Erwartung\" der Fans +++ EM: Trapp trotz Leno-Aus wohl nicht dabei +++ Ekitik\u00e9 tr\u00e4umt von \u00c9quipe Tricolore +++", "url": "https://www.tagesschau.de/inland/regional/hessen/hr--eintracht-wohl-mit-chaibi-einig--glasner-fast-nur-kolo-muani-der-tore-erzielt--bericht-eintracht-sagt-aouar-ab-100.html", "thumbnailUrl": "https://images.tagesschau.de/image/cbf68fec-46a1-467c-8ea3-e6781d336d5c/AAABj31ckko/AAABjwnlKNc/16x9-512.jpg", "date": "2024-05-15T19:43:13.983+02:00", "lat": 50.110922, "lon": 8.682127, "intensity": 0.6, "source": "Tagesschau"}, {"title": "Esprit meldet Insolvenz an: Warum viele Modeketten pleite gehen", "url": "https://www.tagesschau.de/inland/regional/nordrheinwestfalen/wdr-esprit-meldet-insolvenz-an-warum-viele-modeketten-pleite-gehen-100.html", "thumbnailUrl": "https://images.tagesschau.de/image/eadb1e2c-bd8c-4240-b34e-eb2b36ab7c25/AAABj32asIg/AAABjwnlKNc/16x9-512.jpg", "date": "2024-05-15T19:39:00.000+02:00", "lat": 51.2955, "lon": 6.8245, "intensity": 0.8, "source": "Tagesschau"}, {"title": "Krankenhausreform: Minister Philippi will kleine Kliniken retten", "url": "https://www.tagesschau.de/inland/regional/niedersachsen/ndr-krankenhausreform-philippi-will-kleine-kliniken-retten-100.html", "thumbnailUrl": "https://images.tagesschau.de/image/166cf8df-75ba-4221-8be7-6b12947842a3/AAABj3zs5i4/AAABjwnlKNc/16x9-512.jpg", "date": "2024-05-15T19:30:00.000+02:00", "lat": 52.3759, "lon": 9.7839, "intensity": 0.8, "source": "Tagesschau"}, {"title": "Nach Polizei-Gro\u00dfeinsatz an Schule in Wachtberg ermittelt die Kripo", "url": "https://www.tagesschau.de/inland/regional/nordrheinwestfalen/wdr-grosseinsatz-der-polizei-an-schule-in-wachtberg-102.html", "thumbnailUrl": "https://images.tagesschau.de/image/1c5c9986-452d-40ef-bb61-90bdbf8b843e/AAABj33OAg4/AAABjwnlKNc/16x9-512.jpg", "date": "2024-05-15T19:28:00.000+02:00", "lat": 50.6447, "lon": 7.1408, "intensity": 0.8, "source": "Tagesschau"}, {"title": "Gesichtsverh\u00fcllung an Hamburger Schulen wird verboten", "url": "https://www.tagesschau.de/inland/regional/hamburg/ndr-gesichtsverhuellung-an-hamburger-schulen-wird-verboten-100.html", "thumbnailUrl": "https://images.tagesschau.de/image/074d3156-12d2-486d-851b-c17c125ece5e/AAABj32axVA/AAABjwnlKNc/16x9-512.jpg", "date": "2024-05-15T19:27:00.000+02:00", "lat": 53.5511, "lon": 9.9937, "intensity": 0.7, "source": "Tagesschau"}, {"title": "Droht Frankreich eine \"Mexikanisierung\"?", "url": "https://www.tagesschau.de/ausland/europa/ueberfall-gefangenentransport-frankreich-102.html", "thumbnailUrl": "https://images.tagesschau.de/image/d348a96c-5574-4b1e-9561-bcf57a6c5751/AAABj31FwQI/AAABjwnlKNc/16x9-512.jpg", "date": "2024-05-15T19:21:14.858+02:00", "lat": 48.8566, "lon": 2.3522, "intensity": 0.8, "source": "Tagesschau"}, {"title": "Urteil im Brokstedt-Prozess: Ibrahim A. \"hatte sich entschlossen\"", "url": "https://www.tagesschau.de/inland/regional/schleswigholstein/ndr-urteil-im-brokstedt-prozess-ibrahim-a-hatte-sich-entschlossen-100.html", "thumbnailUrl": "https://images.tagesschau.de/image/7333f008-8450-4952-8015-09d567ec951c/AAABj32Rnp0/AAABjwnlKNc/16x9-512.jpg", "date": "2024-05-15T19:21:00.000+02:00", "lat": 53.9514, "lon": 9.8506, "intensity": 0.8, "source": "Tagesschau"}, {"title": "Letzter Tag im St. Marien Krankenhaus in Ratingen", "url": "https://www.tagesschau.de/inland/regional/nordrheinwestfalen/wdr-letzter-tag-im-st-marien-krankenhaus-in-ratingen-102.html", "thumbnailUrl": "https://images.tagesschau.de/image/92a62c53-2943-40f1-a621-bd822e26a56f/AAABj36TuO4/AAABjwnlKNc/16x9-512.jpg", "date": "2024-05-15T19:06:00.000+02:00", "lat": 51.2969, "lon": 6.8665, "intensity": 0.8, "source": "Tagesschau"}, {"title": "Demokratie-Defizit: Wie demokratisch ist die EU?", "url": "https://www.tagesschau.de/inland/regional/berlin/rbb-demokratie-defizit-wie-demokratisch-ist-die-eu-100.html", "thumbnailUrl": "https://images.tagesschau.de/image/dabe4793-a3a7-4bca-9627-fca83cc23e55/AAABj302DxA/AAABjwnlKNc/16x9-512.jpg", "date": "2024-05-15T19:01:22.000+02:00", "lat": 52.520008, "lon": 13.404954, "intensity": 0.8, "source": "Tagesschau"}, {"title": "So erleben nieders\u00e4chsische Abgeordnete Hass und Hetze", "url": "https://www.tagesschau.de/inland/regional/niedersachsen/ndr-so-erleben-niedersaechsische-abgeordnete-hass-und-hetze-100.html", "thumbnailUrl": "https://images.tagesschau.de/image/284bcda5-9993-4e2c-8a56-f52283ca4565/AAABj32DA40/AAABjwnlKNc/16x9-512.jpg", "date": "2024-05-15T19:00:00.000+02:00", "lat": 52.37392, "lon": 9.993682, "intensity": 0.8, "source": "Tagesschau"}, {"title": "Mann nach Angriff in Magdeburg gestorben", "url": "https://www.tagesschau.de/inland/regional/sachsenanhalt/mdr-polizei-bittet-um-hilfe-mann-muss-nach-angriff-in-magdeburg-notoperiert-werden-100.html", "thumbnailUrl": "https://images.tagesschau.de/image/316d8b80-4717-4ec8-9b2b-9caee92ac066/AAABj3y7gsg/AAABjwnlKNc/16x9-512.jpg", "date": "2024-05-15T18:58:27.000+02:00", "lat": 52.1205, "lon": 11.6276, "intensity": 1, "source": "Tagesschau"}, {"title": "Hamburger Zoll zieht Bilanz: 35 Tonnen Kokain beschlagnahmt", "url": "https://www.tagesschau.de/inland/regional/hamburg/ndr-hamburger-zoll-zieht-bilanz-fuer-das-vergangene-jahr-100.html", "thumbnailUrl": "https://images.tagesschau.de/image/8538ca88-b3a7-4304-80ea-0f5e91af9f25/AAABj3zXDw4/AAABjwnlKNc/16x9-512.jpg", "date": "2024-05-15T18:51:00.000+02:00", "lat": 53.5511, "lon": 9.9937, "intensity": 0.9, "source": "Tagesschau"}, {"title": "Homosexualit\u00e4t im Fu\u00dfball: Gruppen-Coming-out f\u00fcr Freitag angek\u00fcndigt", "url": "https://www.tagesschau.de/inland/regional/berlin/rbb-homosexualitaet-im-fussball-gruppen-coming-out-fuer-freitag-angekuendigt-102.html", "thumbnailUrl": "https://images.tagesschau.de/image/f65b90b2-e435-4889-95ca-43f6c1922a53/AAABj30rH7M/AAABjwnlKNc/16x9-512.jpg", "date": "2024-05-15T18:47:15.000+02:00", "lat": 52.52, "lon": 13.405, "intensity": 0.8, "source": "Tagesschau"}, {"title": "Hamburger Hafenbetreiber HHLA rutscht in die roten Zahlen", "url": "https://www.tagesschau.de/inland/regional/hamburg/ndr-hamburger-hafenbetreiber-hhla-rutscht-in-die-roten-zahlen-100.html", "thumbnailUrl": "https://images.tagesschau.de/image/922cccb9-dff0-4fd4-8a1f-4a4d6f9c6f92/AAABj3wYdsI/AAABjwnlKNc/16x9-512.jpg", "date": "2024-05-15T18:41:00.000+02:00", "lat": 53.5511, "lon": 9.9937, "intensity": 0.7, "source": "Tagesschau"}, {"title": "Brokstedt-Urteil: Gericht hebt Eingreifen von Fahrgast hervor", "url": "https://www.tagesschau.de/inland/regional/schleswigholstein/ndr-brokstedt-urteil-gericht-hebt-eingreifen-von-fahrgast-hervor-100.html", "thumbnailUrl": "https://images.tagesschau.de/image/97a1073a-eb2c-4833-9c81-46dc3c59ccbb/AAABj32RsxM/AAABjwnlKNc/16x9-512.jpg", "date": "2024-05-15T18:36:00.000+02:00", "lat": 54.1167, "lon": 9.7712, "intensity": 0.7, "source": "Tagesschau"}, {"title": "Zur EM fahren zus\u00e4tzliche Sonderz\u00fcge und S-Bahnen nach Frankfurt", "url": "https://www.tagesschau.de/inland/regional/hessen/hr-zur-em-fahren-zusaetzliche-sonderzuege-und-s-bahnen-nach-frankfurt-100.html", "thumbnailUrl": "https://images.tagesschau.de/image/f09a9561-c53e-47bb-bc1b-371f9943113a/AAABj30cXWY/AAABjwnlKNc/16x9-512.jpg", "date": "2024-05-15T18:34:30.353+02:00", "lat": 50.110922, "lon": 8.682127, "intensity": 0.6, "source": "Tagesschau"}, {"title": "Aufsichtsratschef Plattner verabschiedet sich ", "url": "https://www.tagesschau.de/inland/regional/badenwuerttemberg/sap-plattner-abschied-100.html", "thumbnailUrl": "https://images.tagesschau.de/image/1af1f04e-bc68-42e9-ab8b-b990ba14b6b3/AAABj3wyC5o/AAABjwnlKNc/16x9-512.jpg", "date": "2024-05-15T18:27:00.000+02:00", "lat": 49.294287, "lon": 8.31496, "intensity": 0.8, "source": "Tagesschau"}, {"title": "Spiekeroog: Bergung des gesunkenen Krans verz\u00f6gert sich", "url": "https://www.tagesschau.de/inland/regional/niedersachsen/ndr-kran-stuerzt-ins-hafenbecken-kranfuehrer-rettet-sich-mit-sprung-100.html", "thumbnailUrl": "https://images.tagesschau.de/image/13dc846a-4ac9-441b-a538-db114b23813c/AAABj309cTY/AAABjwnlKNc/16x9-512.jpg", "date": "2024-05-15T18:26:00.000+02:00", "lat": 53.788046, "lon": 7.689346, "intensity": 0.6, "source": "Tagesschau"}, {"title": "Gemmingen: Anwohner sorgen sich vor erneutem Unwetter - B\u00fcrgermeister beruhigt", "url": "https://www.tagesschau.de/inland/regional/badenwuerttemberg/swr-wetterexperte-jahrtausend-unwetter-in-gemmingen-kaum-vorherzusagen-100.html", "thumbnailUrl": "https://images.tagesschau.de/image/fe36ba0d-1a53-425d-8377-4e62ca9c1d15/AAABj30RZMg/AAABjwnlKNc/16x9-512.jpg", "date": "2024-05-15T18:22:00.000+02:00", "lat": 49.141, "lon": 9.035, "intensity": 0.7, "source": "Tagesschau"}, {"title": "A43 Vollsperrung bis in den Abend: zwei Unf\u00e4lle zwischen Lavesum und Marl-Nord", "url": "https://www.tagesschau.de/inland/regional/nordrheinwestfalen/wdr-a43-vollsperrung-unfall-mit-drei-lkw-100.html", "thumbnailUrl": "https://images.tagesschau.de/image/7f536c34-edec-4cfb-9845-bc222c049306/AAABj30YsGI/AAABjwnlKNc/16x9-512.jpg", "date": "2024-05-15T18:13:00.000+02:00", "lat": 51.6884, "lon": 7.6123, "intensity": 0.8, "source": "Tagesschau"}, {"title": "Rammstein startet Tour in Dresden: News rund ums Konzert", "url": "https://www.tagesschau.de/inland/regional/sachsen/mdr-rammstein-startet-tour-in-dresden-news-rund-ums-konzert-100.html", "thumbnailUrl": "https://images.tagesschau.de/image/6b2125ab-2a6c-4a2b-bc42-fae9a502637a/AAABj36G9xg/AAABjwnlKNc/16x9-512.jpg", "date": "2024-05-15T18:08:12.000+02:00", "lat": 51.050409, "lon": 13.737262, "intensity": 0.8, "source": "Tagesschau"}, {"title": "Jugendberufsagentur hilft Tausenden Jugendlichen", "url": "https://www.tagesschau.de/inland/regional/saarland/sr-jugendberufsagentur-hilft-tausenden-jugendlichen-100.html", "thumbnailUrl": "https://images.tagesschau.de/image/811ec44c-df5d-4fb1-b442-235a92b65bb0/AAABj30EjI4/AAABjwnlKNc/16x9-512.jpg", "date": "2024-05-15T18:06:00.000+02:00", "lat": 49.2402, "lon": 6.9964, "intensity": 0.8, "source": "Tagesschau"}, {"title": "Motorrad-Staffel \u00fcbt Polizei-Eskorte f\u00fcr EM in Leipzig", "url": "https://www.tagesschau.de/inland/regional/sachsen/mdr-motorrad-staffel-uebt-polizei-eskorte-fuer-em-in-leipzig-100.html", "thumbnailUrl": "https://images.tagesschau.de/image/fd28b134-f7e0-47f7-894e-91acdb2e61a6/AAABj36HSk0/AAABjwnlKNc/16x9-512.jpg", "date": "2024-05-15T17:57:43.000+02:00", "lat": 51.33962, "lon": 12.38886, "intensity": 0.6, "source": "Tagesschau"}, {"title": "Ins falsche Hotel eingecheckt: Irrt\u00fcmer l\u00f6sen Polizeieinsatz aus", "url": "https://www.tagesschau.de/inland/regional/niedersachsen/ndr-ins-falsche-hotel-eingecheckt-irrtuemer-loesen-polizeieinsatz-aus-100.html", "thumbnailUrl": "https://images.tagesschau.de/image/53a614c6-5d70-4e52-811d-6f91f10de0ee/AAABj30Y39I/AAABjwnlKNc/16x9-512.jpg", "date": "2024-05-15T17:53:00.000+02:00", "lat": 52.4049, "lon": 9.5992, "intensity": 0.7, "source": "Tagesschau"}, {"title": "Streik im Saar-Einzelhandel bis Samstag", "url": "https://www.tagesschau.de/inland/regional/saarland/sr-streik-im-saar-einzelhandel-bis-samstag-100.html", "thumbnailUrl": "https://images.tagesschau.de/image/5e519ee1-76b2-4b87-8513-9823816e1d70/AAABj3z15b4/AAABjwnlKNc/16x9-512.jpg", "date": "2024-05-15T17:51:00.000+02:00", "lat": 49.3964, "lon": 6.9934, "intensity": 0.8, "source": "Tagesschau"}, {"title": "Ausnahmezustand in Neukaledonien erkl\u00e4rt", "url": "https://www.tagesschau.de/ausland/ozeanien/neukaledonien-ausschreitungen-wahlrecht-102.html", "thumbnailUrl": "https://images.tagesschau.de/image/6e304ca9-d12b-4718-86cc-a322c67d95e0/AAABj3yxhLA/AAABjwnlKNc/16x9-512.jpg", "date": "2024-05-15T17:48:11.875+02:00", "lat": -22.276269, "lon": 166.448853, "intensity": 0.9, "source": "Tagesschau"}, {"title": "Aufbau von IT-Infrastruktur: Amazon will als Cloud-Anbieter 8 Milliarden Euro in Brandenburg investieren", "url": "https://www.tagesschau.de/inland/regional/brandenburg/rbb-aufbau-von-it-infrastruktur-amazon-will-als-cloud-anbieter-8-milliarden-euro-in-brandenburg-investieren-100.html", "thumbnailUrl": "https://images.tagesschau.de/image/0e35cb34-dd7a-4ac5-8577-b07da3b2cdea/AAABj3zyRxQ/AAABjwnlKNc/16x9-512.jpg", "date": "2024-05-15T17:46:47.000+02:00", "lat": 52.5013, "lon": 13.4999, "intensity": 0.8, "source": "Tagesschau"}, {"title": "\"Kita-Kollaps\": Etwa 200 Brandenburger Kitas  wegen Protest geschlossen ", "url": "https://www.tagesschau.de/inland/regional/brandenburg/rbb-kita-kollaps-etwa-200-brandenburger-kitas-am-mittwoch-wegen-protests-geschlossen-100.html", "thumbnailUrl": "https://images.tagesschau.de/image/152ac18f-5658-4774-9241-3bf796f1fba7/AAABj3zyatI/AAABjwnlKNc/16x9-512.jpg", "date": "2024-05-15T17:46:15.000+02:00", "lat": 52.5016, "lon": 13.5007, "intensity": 0.8, "source": "Tagesschau"}, {"title": "Landtag: Viel Zuspruch f\u00fcr Jagdrecht-Initiative zum Wolf - trotz unklaren Nutzens", "url": "https://www.tagesschau.de/inland/regional/hessen/hr-landtag-viel-zuspruch-fuer-jagdrecht-initiative-zum-wolf-trotz-unklaren-nutzens-100.html", "thumbnailUrl": "https://images.tagesschau.de/image/6751528b-9f83-430f-9db0-f41aba14be8b/AAABj3zlfT4/AAABjwnlKNc/16x9-512.jpg", "date": "2024-05-15T17:34:58.286+02:00", "lat": 50.7933, "lon": 9.7065, "intensity": 0.7, "source": "Tagesschau"}, {"title": "Einschr\u00e4nkungen f\u00fcr B\u00fcrgerentscheide in SH werden zur\u00fcckgenommen", "url": "https://www.tagesschau.de/inland/regional/schleswigholstein/ndr-einschraenkungen-fuer-buergerentscheide-in-sh-werden-zurueckgenommen-100.html", "thumbnailUrl": "https://images.tagesschau.de/image/18258004-f8da-4e4d-a86c-e5f11526254b/AAABj3zpKfI/AAABjwnlKNc/16x9-512.jpg", "date": "2024-05-15T17:32:00.000+02:00", "lat": 54.3327, "lon": 9.6961, "intensity": 0.7, "source": "Tagesschau"}, {"title": "Wetterlage und Temperaturen", "url": "https://www.tagesschau.de/wetter/europa-welt", "thumbnailUrl": "https://images.tagesschau.de/image/6e7d3b16-79c8-4308-822b-20c3035236b5/AAABj3tKR8A/AAABjwnlKNc/16x9-512.jpg", "date": "2024-05-15T17:29:15.368+02:00", "lat": 51.1657, "lon": 10.4515, "intensity": 0.3, "source": "Tagesschau"}, {"title": "Rechte Parteien einigen sich auf Koalition", "url": "https://www.tagesschau.de/ausland/europa/wilders-regierung-niederlande-koalition-100.html", "thumbnailUrl": "https://images.tagesschau.de/image/b0a6a053-e54c-4242-bc2e-82bbf9bc1bc9/AAABj3y6QrQ/AAABjwnlKNc/16x9-512.jpg", "date": "2024-05-15T17:24:02.441+02:00", "lat": 52.1326, "lon": 5.2913, "intensity": 0.8, "source": "Tagesschau"}, {"title": "Nach Training vermisst: Showadler \"Milow\" zur\u00fcck im Zoo Stralsund", "url": "https://www.tagesschau.de/inland/regional/mecklenburgvorpommern/ndr-nach-training-vermisst-zoo-stralsund-sucht-showadler-milow-100.html", "thumbnailUrl": "https://images.tagesschau.de/image/b8673b6d-69c2-43e9-bccd-c8f41cc06013/AAABj30L5qk/AAABjwnlKNc/16x9-512.jpg", "date": "2024-05-15T17:24:00.000+02:00", "lat": 54.3077, "lon": 12.6952, "intensity": 0.7, "source": "Tagesschau"}, {"title": "Hochwasserschutz in der Prignitz: Elb-Deiche nach Winterhochwasser in gutem Zustand", "url": "https://www.tagesschau.de/inland/regional/brandenburg/rbb-hochwasserschutz-in-der-prignitz-elb-deiche-nach-winterhochwasser-in-gutem-zustand-100.html", "thumbnailUrl": "https://images.tagesschau.de/image/55d02673-d281-4bd4-8444-f1862f3f35b0/AAABj3zeJH4/AAABjwnlKNc/16x9-512.jpg", "date": "2024-05-15T17:21:56.000+02:00", "lat": 52.6255, "lon": 12.4311, "intensity": 0.8, "source": "Tagesschau"}, {"title": "Mit Nebel gegen Sprengung von Geldautomaten in Bad Kreuznach ", "url": "https://www.tagesschau.de/inland/regional/rheinlandpfalz/swr-mit-nebel-gegen-sprengung-von-geldautomaten-in-bad-kreuznach-100.html", "thumbnailUrl": "https://images.tagesschau.de/image/8b4ebc7b-c475-4ee6-82a4-0def95b540e7/AAABj3zq7WM/AAABjwnlKNc/16x9-512.jpg", "date": "2024-05-15T17:19:20.000+02:00", "lat": 49.8419, "lon": 7.8661, "intensity": 0.8, "source": "Tagesschau"}, {"title": "\"Reichsb\u00fcrger\"-Prozess in Stuttgart: Video dokumentiert Sch\u00fcsse auf Polizei", "url": "https://www.tagesschau.de/inland/regional/badenwuerttemberg/swr-reichsbuerger-prozess-in-stuttgart-beweisaufnahme-gegen-reutlinger-beginnt-100.html", "thumbnailUrl": "https://images.tagesschau.de/image/64da20de-93da-4b5d-abdc-bbc39c54497f/AAABj3xwQww/AAABjwnlKNc/16x9-512.jpg", "date": "2024-05-15T17:12:00.000+02:00", "lat": 48.7758, "lon": 9.1829, "intensity": 0.7, "source": "Tagesschau"}, {"title": "Gro\u00dfeinsatz gegen mutma\u00dfliche Drogenh\u00e4ndler: Mehrere Festnahmen", "url": "https://www.tagesschau.de/inland/regional/niedersachsen/ndr-grosse-drogenrazzia-in-landkreisen-hameln-pyrmont-und-holzminden-100.html", "thumbnailUrl": "https://images.tagesschau.de/image/8f728b88-03cb-4657-a15f-c2cf116cdb2b/AAABj3z9SvU/AAABjwnlKNc/16x9-512.jpg", "date": "2024-05-15T17:04:00.000+02:00", "lat": 52.1031, "lon": 9.3879, "intensity": 0.8, "source": "Tagesschau"}, {"title": "Pal\u00e4stinenser erinnern an Flucht und Vertreibung", "url": "https://www.tagesschau.de/ausland/asien/nakba-gazastreifen-israel-106.html", "thumbnailUrl": "https://images.tagesschau.de/image/bdcf7f72-13e0-41f5-b8a2-540fa3eec6c1/AAABj3zrUZw/AAABjwnlKNc/16x9-512.jpg", "date": "2024-05-15T17:03:56.710+02:00", "lat": 31.94657, "lon": 35.302728, "intensity": 0.8, "source": "Tagesschau"}, {"title": "Landtag debattiert Lauterbachs Krankenhausreform: Scharfe Kritik von BW-Minister Lucha", "url": "https://www.tagesschau.de/inland/regional/badenwuerttemberg/swr-finanznot-und-insolvenzverfahren-landtag-debattiert-ueber-lage-der-kliniken-in-bw-100.html", "thumbnailUrl": "https://images.tagesschau.de/image/2e39909c-26e7-4319-8dc2-db7d865203e3/AAABj3x-48c/AAABjwnlKNc/16x9-512.jpg", "date": "2024-05-15T16:55:00.000+02:00", "lat": 48.7758, "lon": 9.7356, "intensity": 0.7, "source": "Tagesschau"}, {"title": "Krankenhausreform: Nordl\u00e4nder w\u00fcnschen sich mehr Zusammenarbeit", "url": "https://www.tagesschau.de/inland/regional/schleswigholstein/ndr-kabinett-beschliesst-krankenhausreform-wirksam-oder-fehlanreiz-102.html", "thumbnailUrl": "https://images.tagesschau.de/image/6da9cff5-f45c-4b24-a74f-cb41fbb213c8/AAABj327x1k/AAABjwnlKNc/16x9-512.jpg", "date": "2024-05-15T16:54:00.000+02:00", "lat": 54.3233, "lon": 9.9912, "intensity": 0.8, "source": "Tagesschau"}, {"title": "Paus verteidigt Recht auf Teilzeit", "url": "https://www.tagesschau.de/inland/paus-teilzeit-debatte-arbeitszeit-100.html", "thumbnailUrl": "https://images.tagesschau.de/image/25f3998f-cb1e-4605-a816-a190ea6afda9/AAABj3xRjp8/AAABjwnlKNc/16x9-512.jpg", "date": "2024-05-15T16:50:00.281+02:00", "lat": 52.520008, "lon": 13.404954, "intensity": 0.4, "source": "Tagesschau"}, {"title": "Urteil in Berlin: Mann bet\u00e4ubt und ausgeraubt - 25-j\u00e4hrige T\u00e4terin erh\u00e4lt Haftstrafe", "url": "https://www.tagesschau.de/inland/regional/berlin/rbb-urteil-in-berlin-mann-betaeubt-und-ausgeraubt-25-jaehrige-taeterin-erhaelt-haftstrafe-100.html", "thumbnailUrl": "https://images.tagesschau.de/image/7ee2484c-9b05-4343-a47f-898ad31891be/AAABj3y9NGI/AAABjwnlKNc/16x9-512.jpg", "date": "2024-05-15T16:48:58.000+02:00", "lat": 52.520008, "lon": 13.404954, "intensity": 0.7, "source": "Tagesschau"}, {"title": "Inklusive Demokratie: Menschen mit Behinderung als Wahlhelfende", "url": "https://www.tagesschau.de/inland/regional/mecklenburgvorpommern/ndr-inklusive-demokratie-menschen-mit-behinderung-als-wahlhelfende-100.html", "thumbnailUrl": "https://images.tagesschau.de/image/7589d9c9-a267-4eb0-adc4-e19004748075/AAABj32tIMk/AAABjwnlKNc/16x9-512.jpg", "date": "2024-05-15T16:48:00.000+02:00", "lat": 53.61265, "lon": 13.29935, "intensity": 0.7, "source": "Tagesschau"}, {"title": "Dachstuhlbrand in Pankow ausgebrochen - Tram- und Stra\u00dfenverkehr eingeschr\u00e4nkt", "url": "https://www.tagesschau.de/inland/regional/berlin/rbb-feuerwehr-rueckt-zu-brennendem-dachstuhl-in-pankow-aus-es-kommt-zu-verkehrsbehinderungen-100.html", "thumbnailUrl": "https://images.tagesschau.de/image/4fb75482-e457-4f67-acab-939ab04c356e/AAABj30Ga2c/AAABjwnlKNc/16x9-512.jpg", "date": "2024-05-15T16:45:00.000+02:00", "lat": 52.5715, "lon": 13.4333, "intensity": 0.8, "source": "Tagesschau"}, {"title": "Rechtsruck, KI, Klimaschutz: Was Erstw\u00e4hlerinnen und-w\u00e4hler aus Fulda vor der Europawahl besch\u00e4ftigt", "url": "https://www.tagesschau.de/inland/regional/hessen/hr-rechtsruck-ki-klimaschutz-was-erstwaehlerinnen-und-waehler-aus-fulda-vor-der-europawahl-beschaeftigt-100.html", "thumbnailUrl": "https://images.tagesschau.de/image/1eee473a-e9a7-4a81-b992-0f9c5ca25c1a/AAABj3yyMFw/AAABjwnlKNc/16x9-512.jpg", "date": "2024-05-15T16:38:16.543+02:00", "lat": 50.5541, "lon": 9.6773, "intensity": 0.4, "source": "Tagesschau"}, {"title": "Halle: Falsche Polizisten stehlen 10.000 Euro von Rentner", "url": "https://www.tagesschau.de/inland/regional/sachsenanhalt/mdr-halle-falsche-polizisten-stehlen-10-000-euro-von-rentner-100.html", "thumbnailUrl": "https://images.tagesschau.de/image/a855b991-b813-40a1-a205-bf8f6657744b/AAABj36Fh7w/AAABjwnlKNc/16x9-512.jpg", "date": "2024-05-15T16:35:05.000+02:00", "lat": 51.4828, "lon": 11.9629, "intensity": 0.8, "source": "Tagesschau"}, {"title": "Amir Shapourzadeh neuer Sportchef bei Hansa Rostock", "url": "https://www.tagesschau.de/inland/regional/mecklenburgvorpommern/ndr-amir-shapourzadeh-neuer-sportchef-bei-hansa-rostock-104.html", "thumbnailUrl": "https://images.tagesschau.de/image/f45dd237-6f34-4bad-85ca-1c6ff8675c8d/AAABj3y7USY/AAABjwnlKNc/16x9-512.jpg", "date": "2024-05-15T16:35:00.000+02:00", "lat": 54.0884, "lon": 12.1353, "intensity": 0.6, "source": "Tagesschau"}, {"title": "Esoterik-Kanal aus Berlin k\u00fcnftig digital: Aus f\u00fcr umstrittenen Sender AstroTV", "url": "https://www.tagesschau.de/inland/regional/berlin/rbb-esoterik-kanal-aus-berlin-kuenftig-digital-aus-fuer-umstrittenen-sender-astrotv-100.html", "thumbnailUrl": "https://images.tagesschau.de/image/39e4de23-65bf-45bc-81de-eb0daaea4a2b/AAABj3yuhi4/AAABjwnlKNc/16x9-512.jpg", "date": "2024-05-15T16:31:49.000+02:00", "lat": 52.520008, "lon": 13.404954, "intensity": 0.7, "source": "Tagesschau"}, {"title": "Urteil im Brokstedt-Prozess: Lebenslange Haft f\u00fcr t\u00f6dliche Messerattacke", "url": "https://www.tagesschau.de/inland/regional/schleswigholstein/ndr-messerattacke-in-brokstedt-urteil-fuer-mittwoch-erwartet-100.html", "thumbnailUrl": "https://images.tagesschau.de/image/24af031d-c041-4525-a31b-2b25f0a22aba/AAABj32Rq38/AAABjwnlKNc/16x9-512.jpg", "date": "2024-05-15T16:24:00.000+02:00", "lat": 53.9561, "lon": 9.7425, "intensity": 0.9, "source": "Tagesschau"}, {"title": "Hungerstreik in Berlin-Mitte: Klima-Aktivist in Krankenhaus eingeliefert", "url": "https://www.tagesschau.de/inland/regional/berlin/rbb-hungerstreik-in-berlin-mitte-klima-aktivist-in-krankenhaus-eingeliefert-100.html", "thumbnailUrl": "https://images.tagesschau.de/image/cc15d941-c78a-4139-9910-589edbc0f014/AAABj3yhvoc/AAABjwnlKNc/16x9-512.jpg", "date": "2024-05-15T16:21:02.000+02:00", "lat": 52.520007, "lon": 13.404954, "intensity": 0.8, "source": "Tagesschau"}, {"title": "Kampf gegen Jakobskreuzkraut: Landwirte fordern mehr Unterst\u00fctzung", "url": "https://www.tagesschau.de/inland/regional/sachsenanhalt/mdr-kampf-gegen-jakobskreuzkraut-landwirte-fordern-mehr-unterstuetzung-100.html", "thumbnailUrl": "https://images.tagesschau.de/image/115ca5bb-6274-44fc-a94c-e00b32fccfb7/AAABj36FHV8/AAABjwnlKNc/16x9-512.jpg", "date": "2024-05-15T16:17:22.000+02:00", "lat": 52.1335, "lon": 11.582, "intensity": 0.8, "source": "Tagesschau"}, {"title": "Bunsenbrenner l\u00f6st Brand aus: Mehrfamilienhaus unbewohnbar", "url": "https://www.tagesschau.de/inland/regional/niedersachsen/ndr-bunsenbrenner-loest-brand-aus-mehrfamilienhaus-unbewohnbar-100.html", "thumbnailUrl": "https://images.tagesschau.de/image/2ad6ec83-1983-429c-937c-707a4efec01c/AAABj3ywZP4/AAABjwnlKNc/16x9-512.jpg", "date": "2024-05-15T16:09:00.000+02:00", "lat": 53.3667, "lon": 9.8333, "intensity": 0.8, "source": "Tagesschau"}, {"title": "200 Schulen in RLP bekommen mehr Geld zur F\u00f6rderung der Kinder", "url": "https://www.tagesschau.de/inland/regional/rheinlandpfalz/swr-200-schulen-in-rlp-bekommen-mehr-geld-zur-foerderung-der-kinder-100.html", "thumbnailUrl": "https://images.tagesschau.de/image/6e4f6e54-0e25-4873-8bb5-b86b72f42ffa/AAABj3yWsWY/AAABjwnlKNc/16x9-512.jpg", "date": "2024-05-15T16:04:26.000+02:00", "lat": 49.992862, "lon": 8.239761, "intensity": 0.7, "source": "Tagesschau"}, {"title": "Trotz Kirchenasyl: Beh\u00f6rden schieben russische Familie ab", "url": "https://www.tagesschau.de/inland/regional/niedersachsen/ndr-kirchenasyl-gebrochen-behoerden-schieben-russische-familie-ab-100.html", "thumbnailUrl": "https://images.tagesschau.de/image/d692637f-478c-47df-bfc4-830aa29d0258/AAABj3zPhuk/AAABjwnlKNc/16x9-512.jpg", "date": "2024-05-15T16:03:00.000+02:00", "lat": 53.148, "lon": 10.572, "intensity": 0.7, "source": "Tagesschau"}, {"title": "Suche nach Missst\u00e4nden: Kontrolle in der Hamburger Billstra\u00dfe", "url": "https://www.tagesschau.de/inland/regional/hamburg/ndr-erneut-kontrolle-in-der-hamburger-billstrasse-100.html", "thumbnailUrl": "https://images.tagesschau.de/image/6f50df44-3210-4068-97c8-dc72644fab9d/AAABj3y7ZP0/AAABjwnlKNc/16x9-512.jpg", "date": "2024-05-15T15:55:00.000+02:00", "lat": 53.5535, "lon": 10.0127, "intensity": 0.8, "source": "Tagesschau"}, {"title": "DEL 2: Todd Woodcroft ist neuer Trainer der Kassel Huskies", "url": "https://www.tagesschau.de/inland/regional/hessen/hr-del-2-todd-woodcroft-ist-neuer-trainer-der-kassel-huskies-102.html", "thumbnailUrl": "https://images.tagesschau.de/image/bcf7a5d7-16b2-4f66-918f-e40e7d81e87c/AAABj3znU3E/AAABjwnlKNc/16x9-512.jpg", "date": "2024-05-15T15:53:13.879+02:00", "lat": 51.3127, "lon": 9.4937, "intensity": 0.7, "source": "Tagesschau"}, {"title": "Ab dem 25. Mai: A111 wird stadtausw\u00e4rts f\u00fcr zwei Wochen gesperrt ", "url": "https://www.tagesschau.de/inland/regional/berlin/rbb-ab-dem-25-mai-a111-wird-stadtauswaerts-fuer-zwei-wochen-gesperrt-100.html", "thumbnailUrl": "https://images.tagesschau.de/image/899c3e84-fcbb-40dc-9c66-c72dc74542f5/AAABj3yJ8MY/AAABjwnlKNc/16x9-512.jpg", "date": "2024-05-15T15:52:12.000+02:00", "lat": 52.6744, "lon": 13.3392, "intensity": 0.7, "source": "Tagesschau"}, {"title": "Z\u00f6gern zur falschen Zeit", "url": "https://www.tagesschau.de/kommentar/eu-reaktion-georgien-100.html", "thumbnailUrl": "https://images.tagesschau.de/image/7194ceaa-8cce-4b1a-b0e9-b19e1b88206a/AAABj3x1pf0/AAABjwnlKNc/16x9-512.jpg", "date": "2024-05-15T15:44:44.069+02:00", "lat": 41.7171, "lon": 44.793, "intensity": 0.8, "source": "Tagesschau"}, {"title": "EU-Kommission senkt Konjunkturprognose ab", "url": "https://www.tagesschau.de/wirtschaft/konjunktur/konjunkturprognose-europa-abgesenkt-deutschland-100.html", "thumbnailUrl": "https://images.tagesschau.de/image/be6a7662-c20f-4bcb-91ea-90217e3a85b4/AAABj3ueSaY/AAABjwnlKNc/16x9-512.jpg", "date": "2024-05-15T15:38:15.581+02:00", "lat": 52.52, "lon": 13.405, "intensity": 0.8, "source": "Tagesschau"}, {"title": "Waldbrand treibt Tausende Menschen in die Flucht", "url": "https://www.tagesschau.de/ausland/ozeanien/kanada-waldbrand-alberta-100.html", "thumbnailUrl": "https://images.tagesschau.de/image/0716ffb9-6b1e-4050-9840-335aa3780726/AAABj3x5GpU/AAABjwnlKNc/16x9-512.jpg", "date": "2024-05-15T15:37:42.884+02:00", "lat": 56.7267, "lon": -111.4683, "intensity": 0.8, "source": "Tagesschau"}, {"title": "\"Wirtschaftsweise\" erwarten weniger Wachstum", "url": "https://www.tagesschau.de/wirtschaft/wirtschaftsweise-prognose-104.html", "thumbnailUrl": "https://images.tagesschau.de/image/ba7d83b0-0b6e-4171-bf75-b0cca5efeaf7/AAABj3xdIH8/AAABjwnlKNc/16x9-512.jpg", "date": "2024-05-15T15:36:16.910+02:00", "lat": 51.3304, "lon": 9.9937, "intensity": 0.5, "source": "Tagesschau"}, {"title": "Selenskyj sagt alle Auslandsreisen ab", "url": "https://www.tagesschau.de/ausland/europa/ukraine-russland-charkiw-100.html", "thumbnailUrl": "https://images.tagesschau.de/image/93282ac8-6972-4729-9e8e-e89cb5cca1e0/AAABj3x3V7Q/AAABjwnlKNc/16x9-512.jpg", "date": "2024-05-15T15:35:47.437+02:00", "lat": 49.9935, "lon": 36.2316, "intensity": 0.8, "source": "Tagesschau"}, {"title": "Nach brutalem Angriff auf Frau: Polizei fahndet mit Phantombild", "url": "https://www.tagesschau.de/inland/regional/niedersachsen/ndr-nach-brutalem-angriff-auf-frau-polizei-fahndet-mit-phantombild-100.html", "thumbnailUrl": "https://images.tagesschau.de/image/e581c542-6ac3-4904-8960-ce465d4b0e24/AAABj3yKN5Q/AAABjwnlKNc/16x9-512.jpg", "date": "2024-05-15T15:28:00.000+02:00", "lat": 52.986944, "lon": 8.322222, "intensity": 0.8, "source": "Tagesschau"}, {"title": "Frau in Eilenriede attackiert - Passanten verhindern Vergewaltigung", "url": "https://www.tagesschau.de/inland/regional/niedersachsen/ndr-frau-in-stadtwald-attackiert-passanten-verhindern-vergewaltigung-100.html", "thumbnailUrl": "https://images.tagesschau.de/image/53a614c6-5d70-4e52-811d-6f91f10de0ee/AAABj30Y39I/AAABjwnlKNc/16x9-512.jpg", "date": "2024-05-15T15:27:00.000+02:00", "lat": 52.375, "lon": 9.732, "intensity": 0.8, "source": "Tagesschau"}, {"title": "Regierender B\u00fcrgermeister und Bildungssenatorin: Gericht beschlie\u00dft mehr Transparenz von Senatskanzlei zur privaten Beziehung", "url": "https://www.tagesschau.de/inland/regional/berlin/rbb-regierender-buergermeister-und-bildungssenatorin-gericht-beschliesst-mehr-transparenz-von-senatskanzlei-zur-privaten-beziehung-100.html", "thumbnailUrl": "https://images.tagesschau.de/image/959e467c-a75c-43e5-b65f-cba99a63cc3d/AAABj3xudrM/AAABjwnlKNc/16x9-512.jpg", "date": "2024-05-15T15:24:40.000+02:00", "lat": 52.52, "lon": 13.403, "intensity": 0.7, "source": "Tagesschau"}, {"title": "\"W\u00e4re verwerflich, H\u00f6cke nicht als Faschisten zu bezeichnen\"", "url": "https://www.tagesschau.de/inland/regional/nordrheinwestfalen/wdr-waere-verwerflich-hoecke-nicht-als-faschisten-zu-bezeichnen-100.html", "thumbnailUrl": "https://images.tagesschau.de/image/a347c74b-6ed4-4cf5-871c-d233603b526b/AAABj30NtJA/AAABjwnlKNc/16x9-512.jpg", "date": "2024-05-15T15:23:00.000+02:00", "lat": 51.9607, "lon": 7.6261, "intensity": 0.8, "source": "Tagesschau"}, {"title": "KKH: Betrug bei Abrechnungen verursacht Millionenschaden", "url": "https://www.tagesschau.de/inland/regional/niedersachsen/ndr-kkh-betrug-bei-abrechnungen-verursacht-millionenschaden-100.html", "thumbnailUrl": "https://images.tagesschau.de/image/fc0e2a6c-37ee-4742-9b4d-83ece207a8ee/AAABj3xq6Cs/AAABjwnlKNc/16x9-512.jpg", "date": "2024-05-15T15:19:00.000+02:00", "lat": 52.3759, "lon": 9.7332, "intensity": 0.8, "source": "Tagesschau"}, {"title": "Konferenz: Gewalt an Kindern und Jugendlichen in MV nimmt zu", "url": "https://www.tagesschau.de/inland/regional/mecklenburgvorpommern/ndr-konferenz-gewalt-an-kindern-und-jugendlichen-in-mv-nimmt-zu-100.html", "thumbnailUrl": "https://images.tagesschau.de/image/8964cf9c-fdf0-4874-9166-52ae28819e63/AAABj32tA4Q/AAABjwnlKNc/16x9-512.jpg", "date": "2024-05-15T15:16:00.000+02:00", "lat": 54.092441, "lon": 12.099147, "intensity": 0.7, "source": "Tagesschau"}, {"title": "Toter und Schwerverletzter bei Autounfall in Homberg (Ohm)", "url": "https://www.tagesschau.de/inland/regional/hessen/hr-toter-und-schwerverletzter-bei-autounfall-in-homberg-ohm-100.html", "thumbnailUrl": "https://images.tagesschau.de/image/38189fe3-09c6-4cb0-9f02-06e51f0aa642/AAABj3xlU4o/AAABjwnlKNc/16x9-512.jpg", "date": "2024-05-15T15:15:01.110+02:00", "lat": 50.67, "lon": 9.1228, "intensity": 0.8, "source": "Tagesschau"}, {"title": "Kommunalwahl RLP: Wenn der Bus ausnahmsweise mal h\u00e4ufig kommt", "url": "https://www.tagesschau.de/inland/regional/rheinlandpfalz/swr-kommunalwahl-rlp-wenn-der-bus-ausnahmsweise-mal-haeufig-kommt-100.html", "thumbnailUrl": "https://images.tagesschau.de/image/a60d5774-502e-454e-b248-d00a4bc326c2/AAABj37y-0Y/AAABjwnlKNc/16x9-512.jpg", "date": "2024-05-15T15:13:13.000+02:00", "lat": 50.0833, "lon": 7.3167, "intensity": 0.4, "source": "Tagesschau"}, {"title": "\"Problemb\u00e4rin\" JJ4 kommt nach Deutschland", "url": "https://www.tagesschau.de/inland/problembaer-jj4-deutschland-italien-100.html", "thumbnailUrl": "https://images.tagesschau.de/image/e9d102e7-da3d-4e6e-adfd-db25a3aa0314/AAABj3wDUag/AAABjwnlKNc/16x9-512.jpg", "date": "2024-05-15T15:11:06.187+02:00", "lat": 48.135125, "lon": 11.581981, "intensity": 0.8, "source": "Tagesschau"}, {"title": "Demo, Rathaus, Festival: So feiert St. Pauli den Bundesliga-Aufstieg", "url": "https://www.tagesschau.de/inland/regional/hamburg/ndr-demo-rathaus-festival-so-feiert-st-pauli-den-bundesliga-aufstieg-102.html", "thumbnailUrl": "https://images.tagesschau.de/image/51f7f1bf-4f94-4f63-bd14-9252ee88e036/AAABj3x9HVU/AAABjwnlKNc/16x9-512.jpg", "date": "2024-05-15T15:11:00.000+02:00", "lat": 53.551, "lon": 9.979, "intensity": 0.8, "source": "Tagesschau"}, {"title": "Saar-SPD will Klausel gegen Antisemitismus im Grundgesetz", "url": "https://www.tagesschau.de/inland/regional/saarland/sr-saar-spd-will-klausel-gegen-antisemitismus-im-grundgesetz-100.html", "thumbnailUrl": "https://images.tagesschau.de/image/a2ab2fda-4249-4174-8c93-43460d58ccd6/AAABj3wNWKg/AAABjwnlKNc/16x9-512.jpg", "date": "2024-05-15T15:07:00.000+02:00", "lat": 49.3964, "lon": 7.0, "intensity": 0.8, "source": "Tagesschau"}, {"title": "Petition gegen Lithiumabbau in Altmark ", "url": "https://www.tagesschau.de/inland/regional/sachsenanhalt/mdr-petition-gegen-lithiumabbau-in-altmark-100.html", "thumbnailUrl": "https://images.tagesschau.de/image/8a092474-5f74-4b3a-8fae-09bf9b4bc074/AAABj36FRvM/AAABjwnlKNc/16x9-512.jpg", "date": "2024-05-15T15:06:54.000+02:00", "lat": 52.7317, "lon": 11.5004, "intensity": 0.8, "source": "Tagesschau"}, {"title": "Saarland fordert Grundgesetz\u00e4nderung zum Schutz j\u00fcdischen Lebens", "url": "https://www.tagesschau.de/inland/regional/saarland/sr-saarland-fordert-grundgesetzaenderung-zum-schutz-juedischen-lebens-100.html", "thumbnailUrl": "https://images.tagesschau.de/image/223dbfdc-3d33-47a4-9f83-64dda4ed26e3/AAABj3yf1W8/AAABjwnlKNc/16x9-512.jpg", "date": "2024-05-15T15:04:00.000+02:00", "lat": 49.3964, "lon": 7.0, "intensity": 0.7, "source": "Tagesschau"}, {"title": "Wegner will Datenschutz in Deutschland neu diskutieren", "url": "https://www.tagesschau.de/inland/regional/berlin/rbb-wegner-will-datenschutz-in-deutschland-neu-diskutieren-100.html", "thumbnailUrl": "https://images.tagesschau.de/image/84ef629e-a63e-4a1e-9cab-afddb463dd14/AAABj3xeANc/AAABjwnlKNc/16x9-512.jpg", "date": "2024-05-15T15:03:52.000+02:00", "lat": 52.520008, "lon": 13.404954, "intensity": 0.7, "source": "Tagesschau"}, {"title": "\u00dcber 1.100 Bewerbungen: Wangerooge hat neuen Leuchtturmw\u00e4rter", "url": "https://www.tagesschau.de/inland/regional/niedersachsen/ndr-ueber-1-100-bewerbungen-wangerooge-hat-neuen-leuchtturmwaechter-100.html", "thumbnailUrl": "https://images.tagesschau.de/image/eef1a0a1-c567-43f6-9ffe-d946c309792b/AAABj3zVC1k/AAABjwnlKNc/16x9-512.jpg", "date": "2024-05-15T15:03:00.000+02:00", "lat": 53.783, "lon": 7.9036, "intensity": 0.6, "source": "Tagesschau"}, {"title": "Waldbrandgefahr: Neun Regionen mit h\u00f6chster Warnstufe", "url": "https://www.tagesschau.de/inland/regional/niedersachsen/ndr-waldbrandgefahr-steigt-hoechste-warnstufe-in-fuenf-regionen-100.html", "thumbnailUrl": "https://images.tagesschau.de/image/2160b046-0c24-4cd2-823f-3bb4f3ce6273/AAABj3rm9ZM/AAABjwnlKNc/16x9-512.jpg", "date": "2024-05-15T15:00:00.000+02:00", "lat": 52.8932, "lon": 10.3127, "intensity": 0.8, "source": "Tagesschau"}, {"title": "Region Osnabr\u00fcck: Warnung vor falschen Kontrolleuren in Bussen", "url": "https://www.tagesschau.de/inland/regional/niedersachsen/ndr-region-osnabrueck-warnung-vor-falschen-kontrolleuren-in-bussen-100.html", "thumbnailUrl": "https://images.tagesschau.de/image/dae066ad-91ff-4d78-8a16-2cc680c33c01/AAABj3wGIj8/AAABjwnlKNc/16x9-512.jpg", "date": "2024-05-15T14:57:00.000+02:00", "lat": 52.2799, "lon": 8.0468, "intensity": 0.8, "source": "Tagesschau"}, {"title": "Kultur: +++ Begehbares Streetart-Kunstwerk in Darmstadt +++ Kein Neubau der Bundesbank in Frankfurt +++ Golda-Preview nun im English Theatre +++", "url": "https://www.tagesschau.de/inland/regional/hessen/hr--schauspiel-frankfurt-bringt-putin-und-macbeth-zusammen--die-filmfestival-saison-2023-startet--lichter-filmfest-zum-thema-liebe-startet-am-dienstag-100.html", "thumbnailUrl": "https://images.tagesschau.de/image/d517ed59-2bad-42c3-a431-a5a6f77955a5/AAABj3xTEXM/AAABjwnlKNc/16x9-512.jpg", "date": "2024-05-15T14:54:26.223+02:00", "lat": 50.1109, "lon": 8.5683, "intensity": 0.4, "source": "Tagesschau"}, {"title": "Buschmann plant Anpassung der SED-Opferrente", "url": "https://www.tagesschau.de/inland/ddr-sed-opferrente-100.html", "thumbnailUrl": "https://images.tagesschau.de/image/64be410d-69fc-41f6-ac81-cf86f4a49f27/AAABj3wOd3E/AAABjwnlKNc/16x9-512.jpg", "date": "2024-05-15T14:54:01.211+02:00", "lat": 52.52, "lon": 13.405, "intensity": 0.7, "source": "Tagesschau"}, {"title": "Lage der Krankenh\u00e4user in Deutschland ", "url": "https://www.tagesschau.de/inland/gesellschaft/krankenhaeuser-deutschland-100.html", "thumbnailUrl": "https://images.tagesschau.de/image/722f6a41-96a5-45bc-a478-ffdd0b918cc8/AAABj3xQ_hE/AAABjwnlKNc/16x9-512.jpg", "date": "2024-05-15T14:53:54.574+02:00", "lat": 51.3397, "lon": 9.9937, "intensity": 0.3, "source": "Tagesschau"}, {"title": "Lachgas als Partydroge: \u00c4rztekammer fordert Verkaufsverbot", "url": "https://www.tagesschau.de/inland/regional/niedersachsen/ndr-lachgas-als-partydroge-aerztekammer-fordert-verkaufsverbot-100.html", "thumbnailUrl": "https://images.tagesschau.de/image/a9132402-4283-4b8e-b984-8cf98e44e8f7/AAABj3vd1Uw/AAABjwnlKNc/16x9-512.jpg", "date": "2024-05-15T14:49:00.000+02:00", "lat": 52.3759, "lon": 9.7347, "intensity": 0.8, "source": "Tagesschau"}, {"title": "Nach Party-Besuch: 25-J\u00e4hriger stirbt durch K\u00f6rperverletzung", "url": "https://www.tagesschau.de/inland/regional/niedersachsen/ndr-tod-durch-gewalt-25-jaehriger-leblos-in-wohnung-aufgefunden-100.html", "thumbnailUrl": "https://images.tagesschau.de/image/97c72692-65b2-4228-816e-b2f9d56a4a57/AAABj3x5gKg/AAABjwnlKNc/16x9-512.jpg", "date": "2024-05-15T14:48:00.000+02:00", "lat": 53.0153, "lon": 8.6717, "intensity": 0.7, "source": "Tagesschau"}, {"title": "Schwerlaster durchbricht Br\u00fcckengel\u00e4nder - langer Stau auf A3 in Richtung Frankfurt", "url": "https://www.tagesschau.de/inland/regional/hessen/hr-lkw-faehrt-auf-a3-in-baustelle-sperrung-und-stau-in-richtung-frankfurt-100.html", "thumbnailUrl": "https://images.tagesschau.de/image/69833b97-a31f-44a7-93c4-a08decb2842e/AAABj3xGMdk/AAABjwnlKNc/16x9-512.jpg", "date": "2024-05-15T14:41:04.846+02:00", "lat": 50.0782, "lon": 8.2392, "intensity": 0.7, "source": "Tagesschau"}, {"title": "LC Rehlingen schlie\u00dft Benfares-Familie endg\u00fcltig aus", "url": "https://www.tagesschau.de/inland/regional/saarland/sr-lc-rehlingen-schliesst-benfares-familie-endgueltig-aus-102.html", "thumbnailUrl": "https://images.tagesschau.de/image/a64b0252-73e9-486c-9833-9660701b17b8/AAABj3xWmdk/AAABjwnlKNc/16x9-512.jpg", "date": "2024-05-15T14:41:00.000+02:00", "lat": 49.3152, "lon": 6.8189, "intensity": 0.8, "source": "Tagesschau"}, {"title": "Tramunfall in Prenzlauer Berg: Mann wird von Stra\u00dfenbahn angefahren und schwer verletzt", "url": "https://www.tagesschau.de/inland/regional/berlin/rbb-tramunfall-in-prenzlauer-berg-mann-wird-von-strassenbahn-angefahren-und-schwer-verletzt-100.html", "thumbnailUrl": "https://images.tagesschau.de/image/7bfc9dc5-a2d9-4feb-aa3f-cfe723212a19/AAABj3xIEno/AAABjwnlKNc/16x9-512.jpg", "date": "2024-05-15T14:40:56.000+02:00", "lat": 52.5371, "lon": 13.4325, "intensity": 0.8, "source": "Tagesschau"}, {"title": "Konstanzer Studie: Homeoffice ist ges\u00fcnder als Arbeiten im B\u00fcro", "url": "https://www.tagesschau.de/inland/regional/badenwuerttemberg/swr-konstanzer-studie-homeoffice-ist-gesuender-als-arbeiten-im-buero-100.html", "thumbnailUrl": "https://images.tagesschau.de/image/4ef8d2b4-9792-44e4-bd9a-ae01115bccb1/AAABj3xH9VQ/AAABjwnlKNc/16x9-512.jpg", "date": "2024-05-15T14:22:39.000+02:00", "lat": 48.69205, "lon": 9.17702, "intensity": 0.8, "source": "Tagesschau"}, {"title": "Nienburg: 40 Menschen liefern sich Massenschl\u00e4gerei auf Parkplatz", "url": "https://www.tagesschau.de/inland/regional/niedersachsen/ndr-nienburg-40-menschen-liefern-sich-massenschlaegerei-auf-parkplatz-100.html", "thumbnailUrl": "https://images.tagesschau.de/image/3ba4fead-3390-4efd-813b-af778fdd6e17/AAABj3wz56Q/AAABjwnlKNc/16x9-512.jpg", "date": "2024-05-15T14:20:00.000+02:00", "lat": 52.6383, "lon": 9.2117, "intensity": 0.8, "source": "Tagesschau"}, {"title": "Greifswalder FC glaubt an Fu\u00dfball-Wunder: \"Die wilde Fahrt geht weiter\"", "url": "https://www.tagesschau.de/inland/regional/mecklenburgvorpommern/ndr-greifswalder-fc-glaubt-an-fussball-wunder-die-wilde-fahrt-geht-weiter-102.html", "thumbnailUrl": "https://images.tagesschau.de/image/9c161757-9a09-4571-b431-7c1f10ba239f/AAABj3zGTQg/AAABjwnlKNc/16x9-512.jpg", "date": "2024-05-15T14:20:00.000+02:00", "lat": 54.0924, "lon": 13.3827, "intensity": 0.7, "source": "Tagesschau"}, {"title": "Prozess um Betrug bei Corona-Hilfen in Hamburg gestartet", "url": "https://www.tagesschau.de/inland/regional/hamburg/ndr-prozess-um-betrug-bei-corona-hilfen-in-hamburg-gestartet-100.html", "thumbnailUrl": "https://images.tagesschau.de/image/311c9cd3-a36a-45b0-91fd-23a06b592481/AAABj3wUwjQ/AAABjwnlKNc/16x9-512.jpg", "date": "2024-05-15T14:11:00.000+02:00", "lat": 53.5511, "lon": 10.0003, "intensity": 0.8, "source": "Tagesschau"}, {"title": "Westen fordert R\u00fccknahme von \"Agenten-Gesetz\"", "url": "https://www.tagesschau.de/ausland/europa/georgien-gesetz-kritik-102.html", "thumbnailUrl": "https://images.tagesschau.de/image/ce1d8591-751f-408c-8835-979cd1ae2df5/AAABj3wLMY4/AAABjwnlKNc/16x9-512.jpg", "date": "2024-05-15T14:06:54.261+02:00", "lat": 41.7151, "lon": 44.793, "intensity": 0.8, "source": "Tagesschau"}, {"title": "Sexueller Missbrauch in Vaihingen-Kleinglattbach: Polizei pr\u00fcft auch \u00e4ltere F\u00e4lle", "url": "https://www.tagesschau.de/inland/regional/badenwuerttemberg/swr-mann-soll-maedchen-auf-schulgelaende-missbraucht-haben-polizei-sucht-zeugen-100.html", "thumbnailUrl": "https://images.tagesschau.de/image/e41882c9-5527-4f69-ac8f-acb159892b58/AAABj3xPXMo/AAABjwnlKNc/16x9-512.jpg", "date": "2024-05-15T14:06:00.000+02:00", "lat": 48.935774, "lon": 8.947287, "intensity": 0.8, "source": "Tagesschau"}, {"title": "Streit um Badestelle: Flussbad in Rostock bleibt vorerst geschlossen", "url": "https://www.tagesschau.de/inland/regional/mecklenburgvorpommern/ndr-streit-um-badestelle-flussbad-in-rostock-bleibt-vorerst-geschlossen-100.html", "thumbnailUrl": "https://images.tagesschau.de/image/979f21b7-95c7-46d2-9754-a2fc8e4adc5e/AAABj3xU1qE/AAABjwnlKNc/16x9-512.jpg", "date": "2024-05-15T13:59:00.000+02:00", "lat": 54.0995, "lon": 12.1216, "intensity": 0.6, "source": "Tagesschau"}, {"title": "Klimawandel: Immer mehr Quallen in den Ozeanen", "url": "https://www.tagesschau.de/inland/regional/niedersachsen/ndr-klimawandel-immer-mehr-quallen-in-den-ozeanen-100.html", "thumbnailUrl": "https://images.tagesschau.de/image/193f5a6b-9a00-4309-923b-ebcc85c916b5/AAABj3wYkgA/AAABjwnlKNc/16x9-512.jpg", "date": "2024-05-15T13:47:00.000+02:00", "lat": 53.5753, "lon": 8.5404, "intensity": 0.8, "source": "Tagesschau"}, {"title": "Nach Sch\u00e4ndung von Sch\u00e4uble-Grab: Noch keine \"hei\u00dfe Spur\"", "url": "https://www.tagesschau.de/inland/regional/badenwuerttemberg/swr-nach-schaendung-von-schaeuble-grab-noch-keine-heisse-spur-100.html", "thumbnailUrl": "https://images.tagesschau.de/image/0dd7698b-6d56-471c-8098-1ada2b6b96a0/AAABj3wYX9g/AAABjwnlKNc/16x9-512.jpg", "date": "2024-05-15T13:45:31.000+02:00", "lat": 49.0069, "lon": 9.9937, "intensity": 0.5, "source": "Tagesschau"}, {"title": "Kliniken, \u00c4rzte und Krankenkassen gegen Krankenhausreform", "url": "https://www.tagesschau.de/inland/regional/mecklenburgvorpommern/ndr-kliniken-aerzte-und-krankenkassen-gegen-krankenhausreform-100.html", "thumbnailUrl": "https://images.tagesschau.de/image/891216a4-8450-4099-9c29-6a5b27ed7e84/AAABj30P0_A/AAABjwnlKNc/16x9-512.jpg", "date": "2024-05-15T13:44:00.000+02:00", "lat": 53.6127, "lon": 13.1077, "intensity": 0.8, "source": "Tagesschau"}, {"title": "Darum braucht Frankfurt f\u00fcr den Reichsb\u00fcrger-Prozess eine Extra-Halle", "url": "https://www.tagesschau.de/inland/regional/hessen/hr-darum-braucht-frankfurter-fuer-den-reichsbuerger-prozess-eine-extra-halle-100.html", "thumbnailUrl": "https://images.tagesschau.de/image/426ecd1d-4d35-4a86-9303-e1a36d052fbf/AAABj3wJvIE/AAABjwnlKNc/16x9-512.jpg", "date": "2024-05-15T13:40:36.147+02:00", "lat": 50.1109, "lon": 8.6821, "intensity": 0.8, "source": "Tagesschau"}, {"title": "Hessen am Morgen: +++ Auto f\u00e4hrt auf A3 bei Hainburg auf Lkw auf +++ T\u00f6dlicher Unfall bei Homberg/Ohm +++ Braunb\u00e4r-Nachwuchs im Naturpark Kn\u00fcll +++ ", "url": "https://www.tagesschau.de/inland/regional/hessen/hr-hessen-am-morgen--schwerlasttransporter-blockiert-a3-bei-wiesbaden-100.html", "thumbnailUrl": "https://images.tagesschau.de/image/a06cff2a-9bdf-458a-9377-e17d2dc2b7ce/AAABj3tCOBQ/AAABjwnlKNc/16x9-512.jpg", "date": "2024-05-15T13:35:17.924+02:00", "lat": 50.0753, "lon": 9.0317, "intensity": 0.7, "source": "Tagesschau"}, {"title": "Krankenhausreform: Was geplant ist und warum aus NRW Kritik kommt", "url": "https://www.tagesschau.de/inland/regional/nordrheinwestfalen/wdr-krankenhausreform-was-geplant-ist-und-warum-aus-nrw-kritik-kommt-100.html", "thumbnailUrl": "https://images.tagesschau.de/image/d3457239-b313-4083-b2f3-37fe4f9562a0/AAABj3xUxCI/AAABjwnlKNc/16x9-512.jpg", "date": "2024-05-15T13:31:00.000+02:00", "lat": 51.1657, "lon": 7.6261, "intensity": 0.6, "source": "Tagesschau"}, {"title": "Ein Muss auf dem Teller f\u00fcr Fischfans in MV: Die Maischolle", "url": "https://www.tagesschau.de/inland/regional/mecklenburgvorpommern/ndr-ein-muss-auf-dem-teller-fuer-fischfans-in-mv-die-maischolle-100.html", "thumbnailUrl": "https://images.tagesschau.de/image/2f46e654-3741-453e-8f48-e3ddbfbc3af1/AAABj3xPb2U/AAABjwnlKNc/16x9-512.jpg", "date": "2024-05-15T13:15:00.000+02:00", "lat": 53.612, "lon": 13.211, "intensity": 0.7, "source": "Tagesschau"}, {"title": "Flutung des Cottbuser Ostsees vorerst wieder gestoppt", "url": "https://www.tagesschau.de/inland/regional/brandenburg/rbb-flutung-des-cottbuser-ostsees-vorerst-wieder-gestoppt-100.html", "thumbnailUrl": "https://images.tagesschau.de/image/3f3fd47e-6321-4263-b0b9-8ecfbd1a07be/AAABj3vz0XM/AAABjwnlKNc/16x9-512.jpg", "date": "2024-05-15T13:05:51.000+02:00", "lat": 51.7571, "lon": 14.3296, "intensity": 0.8, "source": "Tagesschau"}, {"title": "Esprit meldet Insolvenz f\u00fcr Europagesch\u00e4ft an", "url": "https://www.tagesschau.de/wirtschaft/esprit-modekette-insolvenz-europa-geschaeft-100.html", "thumbnailUrl": "https://images.tagesschau.de/image/55e83c1a-e261-4511-900a-3d4b52d33db5/AAABj3vICYU/AAABjwnlKNc/16x9-512.jpg", "date": "2024-05-15T13:02:07.471+02:00", "lat": 53.5511, "lon": 9.9876, "intensity": 0.8, "source": "Tagesschau"}, {"title": "US-Investor mit gro\u00dfem Namen steigt beim SSV Ulm 1846 Fu\u00dfball ein", "url": "https://www.tagesschau.de/inland/regional/badenwuerttemberg/swr-us-investor-mit-grossem-namen-steigt-beim-ssv-ulm-1846-fussball-ein-100.html", "thumbnailUrl": "https://images.tagesschau.de/image/1ce10b8b-1c43-4539-9638-694396dcec12/AAABj3w5VI0/AAABjwnlKNc/16x9-512.jpg", "date": "2024-05-15T13:00:54.000+02:00", "lat": 48.3984, "lon": 9.9925, "intensity": 0.8, "source": "Tagesschau"}, {"title": "Modekonzern Esprit meldet f\u00fcr das Europagesch\u00e4ft Insolvenz an", "url": "https://www.tagesschau.de/inland/regional/berlin/rbb-modekonzern-esprit-meldet-fuer-das-europageschaeft-insolvenz-an-100.html", "thumbnailUrl": "https://images.tagesschau.de/image/4341cce9-76df-4c1e-b9ca-d032c3223343/AAABj3wGEfI/AAABjwnlKNc/16x9-512.jpg", "date": "2024-05-15T12:57:07.000+02:00", "lat": 52.520008, "lon": 13.404954, "intensity": 0.8, "source": "Tagesschau"}, {"title": "3.000 Jahre altes Rad: Kreismuseum Syke zeigt Nachbau", "url": "https://www.tagesschau.de/inland/regional/niedersachsen/ndr-3-000-jahre-altes-rad-kreismuseum-syke-zeigt-nachbau-100.html", "thumbnailUrl": "https://images.tagesschau.de/image/91b11985-12e1-4e22-b70d-c80edfaa7f0a/AAABj3wqzyI/AAABjwnlKNc/16x9-512.jpg", "date": "2024-05-15T12:56:00.000+02:00", "lat": 52.7984, "lon": 8.6739, "intensity": 0.2, "source": "Tagesschau"}, {"title": "Milliarden sparen durch gemeinsamen EU-Klimaschutz", "url": "https://www.tagesschau.de/wirtschaft/weltwirtschaft/klimaschutz-eu-sparen-kosten-100.html", "thumbnailUrl": "https://images.tagesschau.de/image/f6abee90-58dd-40b2-bf23-45b7f89921c6/AAABj3tv1WM/AAABjwnlKNc/16x9-512.jpg", "date": "2024-05-15T12:50:09.424+02:00", "lat": 51.319, "lon": 9.5018, "intensity": 0.8, "source": "Tagesschau"}, {"title": "Lebenslange Haft f\u00fcr t\u00f6dliche Messerattacke in Zug", "url": "https://www.tagesschau.de/inland/regional/urteil-zug-brokstedt-100.html", "thumbnailUrl": "https://images.tagesschau.de/image/f9adf4f3-b159-41c7-812f-584f32d26a4d/AAABj3uj9XE/AAABjwnlKNc/16x9-512.jpg", "date": "2024-05-15T12:49:17.656+02:00", "lat": 53.9728, "lon": 9.9675, "intensity": 0.8, "source": "Tagesschau"}, {"title": "Lebenslange Haft f\u00fcr Eltern - Kind misshandelt und im Kanal versenkt", "url": "https://www.tagesschau.de/inland/regional/nordrheinwestfalen/wdr-lebenslange-haft-fuer-eltern-kind-misshandelt-und-im-kanal-versenkt-100.html", "thumbnailUrl": "https://images.tagesschau.de/image/d659e782-1c54-44f7-bce9-1956c7adeefa/AAABj3whf2Y/AAABjwnlKNc/16x9-512.jpg", "date": "2024-05-15T12:47:00.000+02:00", "lat": 51.4344, "lon": 6.7754, "intensity": 1, "source": "Tagesschau"}, {"title": "Saar-Landtag stimmt f\u00fcnftem Medien\u00e4nderungsstaatsvertrag zu", "url": "https://www.tagesschau.de/inland/regional/saarland/sr-saar-landtag-stimmt-fuenftem-medienaenderungsstaatsvertrag-zu-100.html", "thumbnailUrl": "https://images.tagesschau.de/image/92ec885f-7877-4405-b2e7-384aacfbfe1b/AAABj33Rngk/AAABjwnlKNc/16x9-512.jpg", "date": "2024-05-15T12:35:00.000+02:00", "lat": 49.3964, "lon": 0.8356, "intensity": 0.6, "source": "Tagesschau"}, {"title": "Stalker bel\u00e4stigt und bedroht Dorf in der Prignitz", "url": "https://www.tagesschau.de/inland/regional/brandenburg/rbb-prignitz-stalker-belaestigt-und-bedroht-dorf-100.html", "thumbnailUrl": "https://images.tagesschau.de/image/b75f4397-01c4-4e97-adcb-75f8b4b4e902/AAABj3vS_84/AAABjwnlKNc/16x9-512.jpg", "date": "2024-05-15T12:34:22.000+02:00", "lat": 53.1817, "lon": 12.0599, "intensity": 0.7, "source": "Tagesschau"}, {"title": "35-J\u00e4hriger bei Bauerndemo \u00fcberfahren: Emsl\u00e4nder angeklagt", "url": "https://www.tagesschau.de/inland/regional/niedersachsen/ndr-35-jaehriger-bei-bauerndemo-ueberfahren-emslaender-angeklagt-100.html", "thumbnailUrl": "https://images.tagesschau.de/image/f7e90cf0-3b24-4739-b8af-1e9833517dff/AAABj3zjriQ/AAABjwnlKNc/16x9-512.jpg", "date": "2024-05-15T12:33:00.000+02:00", "lat": 52.2742, "lon": 7.2089, "intensity": 0.8, "source": "Tagesschau"}, {"title": "Am Mittwoch weiter Streik bei der City-Bahn", "url": "https://www.tagesschau.de/inland/regional/sachsen/mdr-am-mittwoch-weiter-streik-bei-der-city-bahn-100.html", "thumbnailUrl": "https://images.tagesschau.de/image/a9b72775-ff69-424a-9b95-890263b0a03c/AAABj36Heaw/AAABjwnlKNc/16x9-512.jpg", "date": "2024-05-15T12:32:03.000+02:00", "lat": 50.8278, "lon": 12.9276, "intensity": 0.8, "source": "Tagesschau"}, {"title": "Bremer CDU fordert Rausschmiss von Bildungssenatorin Aulepp ", "url": "https://www.tagesschau.de/inland/regional/bremen/rb-bremer-cdu-fordert-rausschmiss-von-bildungssenatorin-aulepp-100.html", "thumbnailUrl": "https://images.tagesschau.de/image/5c2b945c-5f9e-4012-9c7b-7c4d5da7a36e/AAABj3vS0y0/AAABjwnlKNc/16x9-512.jpg", "date": "2024-05-15T12:30:00.000+02:00", "lat": 53.0793, "lon": 8.8017, "intensity": 0.8, "source": "Tagesschau"}, {"title": "\u00dcber 12.000 Anrufe bei Telefonseelsorge Saar ", "url": "https://www.tagesschau.de/inland/regional/saarland/sr-ueber-12-000-anrufe-bei-telefonseelsorge-saar-100.html", "thumbnailUrl": "https://images.tagesschau.de/image/c05f1332-8408-48b7-a724-9ad738c955e5/AAABj3wx-JE/AAABjwnlKNc/16x9-512.jpg", "date": "2024-05-15T12:20:00.000+02:00", "lat": 49.3964, "lon": 6.9468, "intensity": 0.8, "source": "Tagesschau"}, {"title": "Kein Cannabis-Anbau im Kleingarten", "url": "https://www.tagesschau.de/inland/cannabis-anbau-kleingarten-100.html", "thumbnailUrl": "https://images.tagesschau.de/image/9529c9e7-94e3-413f-ab0d-6327fa9d985f/AAABj3usaPw/AAABjwnlKNc/16x9-512.jpg", "date": "2024-05-15T12:19:17.053+02:00", "lat": 53.5511, "lon": 9.9937, "intensity": 0.6, "source": "Tagesschau"}, {"title": "Um Betrug zu verhindern: Osnabr\u00fcck l\u00e4sst M\u00fclltonnen chippen", "url": "https://www.tagesschau.de/inland/regional/niedersachsen/ndr-um-betrug-zu-verhindern-osnabrueck-laesst-muelltonnen-chippen-100.html", "thumbnailUrl": "https://images.tagesschau.de/image/92bc5593-21a3-4d0f-a9bb-664ccb611040/AAABj3vGGOY/AAABjwnlKNc/16x9-512.jpg", "date": "2024-05-15T12:13:00.000+02:00", "lat": 52.2799, "lon": 8.0476, "intensity": 0.7, "source": "Tagesschau"}, {"title": "Bundesbank kippt Neubaupl\u00e4ne in Frankfurt", "url": "https://www.tagesschau.de/inland/regional/hessen/hr-bundesbank-kippt-neubauplaene-in-frankfurt-100.html", "thumbnailUrl": "https://images.tagesschau.de/image/6c959167-a29b-44bc-bd07-c757ef3b3efd/AAABj3usXgQ/AAABjwnlKNc/16x9-512.jpg", "date": "2024-05-15T11:52:44.809+02:00", "lat": 50.1109, "lon": 8.6821, "intensity": 0.6, "source": "Tagesschau"}, {"title": "Hessen: Neue Streiks bei privaten Bus-Unternehmen ab Freitag", "url": "https://www.tagesschau.de/inland/regional/hessen/hr-hessen-neue-streiks-bei-privaten-bus-unternehmen-ab-freitag-100.html", "thumbnailUrl": "https://images.tagesschau.de/image/c8dac324-8a6c-40f0-bf23-365f6a31c4ad/AAABj3usgk0/AAABjwnlKNc/16x9-512.jpg", "date": "2024-05-15T11:52:12.854+02:00", "lat": 50.586, "lon": 9.4306, "intensity": 0.7, "source": "Tagesschau"}, {"title": "R\u00fcdiger Ziehl bleibt Trainer und Manager des 1. FC Saarbr\u00fccken ", "url": "https://www.tagesschau.de/inland/regional/saarland/sr-ruediger-ziehl-bleibt-trainer-und-manager-des-1-fc-saarbruecken-102.html", "thumbnailUrl": "https://images.tagesschau.de/image/8a2f5404-9338-4603-a9fe-3de920366df8/AAABj3u-nR4/AAABjwnlKNc/16x9-512.jpg", "date": "2024-05-15T11:52:00.000+02:00", "lat": 49.2461, "lon": 6.9814, "intensity": 0.5, "source": "Tagesschau"}, {"title": "Brand in F\u00f6rderschule in Westerburg: Umzug nach Hachenburg n\u00f6tig", "url": "https://www.tagesschau.de/inland/regional/rheinlandpfalz/swr-brand-in-foerderschule-in-westerburg-geloescht-100.html", "thumbnailUrl": "https://images.tagesschau.de/image/bce4387f-1220-49b6-ad0d-b70dc03dab3d/AAABj3v89AI/AAABjwnlKNc/16x9-512.jpg", "date": "2024-05-15T11:49:00.000+02:00", "lat": 50.6106, "lon": 7.9446, "intensity": 0.8, "source": "Tagesschau"}, {"title": "Hohe Preise in der Gastronomie: Wird essen gehen bald zum Luxus?", "url": "https://www.tagesschau.de/inland/regional/mecklenburgvorpommern/ndr-hohe-preise-in-der-gastronomie-wird-essen-gehen-bald-zum-luxus-100.html", "thumbnailUrl": "https://images.tagesschau.de/image/c6580bbd-699b-44fb-a325-2fecba895312/AAABj3vEMRc/AAABjwnlKNc/16x9-512.jpg", "date": "2024-05-15T11:37:00.000+02:00", "lat": 52.52, "lon": 13.4305, "intensity": 0.6, "source": "Tagesschau"}, {"title": "Prignitz: Christopher Street Day in Wittenberge abgesagt", "url": "https://www.tagesschau.de/inland/regional/brandenburg/rbb-prignitz-christopher-street-day-in-wittenberge-abgesagt-100.html", "thumbnailUrl": "https://images.tagesschau.de/image/91bd473d-1e71-4c71-a28f-0bdcaafa7de4/AAABj3ulDsE/AAABjwnlKNc/16x9-512.jpg", "date": "2024-05-15T11:36:17.000+02:00", "lat": 52.9938, "lon": 11.7553, "intensity": 0.4, "source": "Tagesschau"}, {"title": "Zwei Saarl\u00e4nder wegen Missbrauch an 13-J\u00e4hriger verurteilt ", "url": "https://www.tagesschau.de/inland/regional/saarland/sr-zwei-saarlaender-wegen-missbrauch-an-13-jaehriger-verurteilt-100.html", "thumbnailUrl": "https://images.tagesschau.de/image/f3238e75-a6f0-457d-a87e-f61a343f6236/AAABj3vx4tg/AAABjwnlKNc/16x9-512.jpg", "date": "2024-05-15T11:36:00.000+02:00", "lat": 49.6488, "lon": 7.1087, "intensity": 0.9, "source": "Tagesschau"}, {"title": "AfD-Politiker H\u00f6cke zu Geldstrafe verurteilt: Beide Seiten pr\u00fcfen Revision", "url": "https://www.tagesschau.de/inland/regional/sachsenanhalt/mdr-bjoern-hoecke-in-halle-vor-gericht-keine-freiheitsstrafe-fuer-afd-politiker-zu-erwarten-100.html", "thumbnailUrl": "https://images.tagesschau.de/image/87e898d6-45d6-4aa7-be13-4f95683fe3c2/AAABj3uYXdg/AAABjwnlKNc/16x9-512.jpg", "date": "2024-05-15T11:31:51.000+02:00", "lat": 51.4818, "lon": 11.9676, "intensity": 0.8, "source": "Tagesschau"}, {"title": "Hunderttausende Phishing-Nachrichten verschickt: Vier M\u00e4nner in Frankfurt festgenommen", "url": "https://www.tagesschau.de/inland/regional/hessen/hr-hunderttausende-phishing-nachrichten-verschickt-vier-maenner-in-frankfurt-festgenommen-100.html", "thumbnailUrl": "https://images.tagesschau.de/image/2ef87dd0-943d-40ea-b7ab-8adcace39d8f/AAABj3u3Wes/AAABjwnlKNc/16x9-512.jpg", "date": "2024-05-15T11:30:24.550+02:00", "lat": 50.110922, "lon": 8.682127, "intensity": 0.8, "source": "Tagesschau"}, {"title": "Jugendliche sollen sich im Saarland k\u00fcnftig mehr an der Politik beteiligen k\u00f6nnen", "url": "https://www.tagesschau.de/inland/regional/saarland/sr-jugendliche-sollen-sich-im-saarland-kuenftig-mehr-an-der-politik-beteiligen-koennen-100.html", "thumbnailUrl": "https://images.tagesschau.de/image/f6307537-f9f5-4d4c-9107-c3add266ba1f/AAABj33Rn1Y/AAABjwnlKNc/16x9-512.jpg", "date": "2024-05-15T11:27:00.000+02:00", "lat": 49.3964, "lon": 6.945, "intensity": 0.7, "source": "Tagesschau"}, {"title": "1. FC Saarbr\u00fccken verpflichtet Zweitligaspieler Maurice Multhaup", "url": "https://www.tagesschau.de/inland/regional/saarland/sr-1-fc-saarbruecken-verpflichtet-zweitligaspieler-maurice-multhaup-100.html", "thumbnailUrl": "https://images.tagesschau.de/image/03d7a0f0-1e16-4591-87c1-5d961469a311/AAABj3u-ntc/AAABjwnlKNc/16x9-512.jpg", "date": "2024-05-15T11:20:00.000+02:00", "lat": 49.2354, "lon": 6.9814, "intensity": 0.3, "source": "Tagesschau"}, {"title": "Schwere Ausschreitungen in Neukaledonien", "url": "https://www.tagesschau.de/ausland/ozeanien/neukaledonien-ausschreitungen-wahlrecht-100.html", "thumbnailUrl": "https://images.tagesschau.de/image/637bdda3-722b-4093-9133-a85a720b567f/AAABj3uFaIY/AAABjwnlKNc/16x9-512.jpg", "date": "2024-05-15T11:11:32.020+02:00", "lat": -22.263045, "lon": 166.442418, "intensity": 0.8, "source": "Tagesschau"}, {"title": "Krebserregendes Material illegal in der Natur entsorgt: Umweltsch\u00fctzer deckt Skandal auf", "url": "https://www.tagesschau.de/inland/regional/badenwuerttemberg/swr-irreparable-schaeden-giftiger-asphalt-illegal-im-schwarzwald-entsorgt-100.html", "thumbnailUrl": "https://images.tagesschau.de/image/748506f1-a20d-433c-b7f1-54b9c0962897/AAABj3uJh2c/AAABjwnlKNc/16x9-512.jpg", "date": "2024-05-15T11:10:00.000+02:00", "lat": 47.9022, "lon": 8.2285, "intensity": 0.9, "source": "Tagesschau"}, {"title": "Nach Lkw-Brand: A39 zwischen L\u00fcneburg und Hamburg wieder frei", "url": "https://www.tagesschau.de/inland/regional/niedersachsen/ndr-nach-lkw-brand-a39-zwischen-lueneburg-und-hamburg-gesperrt-100.html", "thumbnailUrl": "https://images.tagesschau.de/image/64804865-4c82-4610-960a-cb0852bdbfa3/AAABj3uJ8E4/AAABjwnlKNc/16x9-512.jpg", "date": "2024-05-15T11:09:00.000+02:00", "lat": 53.2577, "lon": 10.4541, "intensity": 0.6, "source": "Tagesschau"}, {"title": "Warum die Stadt S\u00fc\u00dfen trotz Wohnungsnot auf Baupl\u00e4tzen sitzen bleibt", "url": "https://www.tagesschau.de/inland/regional/badenwuerttemberg/swr-warum-die-stadt-suessen-trotz-wohnungsnot-auf-bauplaetzen-sitzen-bleibt-100.html", "thumbnailUrl": "https://images.tagesschau.de/image/ba025760-7309-48fb-8241-1c5a977f2d2e/AAABj3uJo6s/AAABjwnlKNc/16x9-512.jpg", "date": "2024-05-15T10:53:37.000+02:00", "lat": 48.6814, "lon": 9.672, "intensity": 0.6, "source": "Tagesschau"}, {"title": "Luxair bef\u00f6rderte 2023 mehr als 2,5 Millionen Passagiere", "url": "https://www.tagesschau.de/inland/regional/saarland/sr-fluggesellschaft-luxair-meldet-neuen-passagierrekord-100.html", "thumbnailUrl": "https://images.tagesschau.de/image/dedcd5e5-eb70-4eef-8daf-bcf026daa23d/AAABj3uPAqw/AAABjwnlKNc/16x9-512.jpg", "date": "2024-05-15T10:51:00.000+02:00", "lat": 49.6116, "lon": 6.9326, "intensity": 0.8, "source": "Tagesschau"}, {"title": "Ungew\u00f6hnliche Familienmodelle: \"Wir machen, was wir uns jahrelang w\u00fcnschten: eine Familie sein\"", "url": "https://www.tagesschau.de/inland/regional/hessen/hr-ungewoehnliche-familienmodelle-wir-machen-was-wir-uns-jahrelang-wuenschten-eine-familie-sein-100.html", "thumbnailUrl": "https://images.tagesschau.de/image/8e540e77-eb3a-4039-b5ab-0180aa2e2905/AAABj3tzleA/AAABjwnlKNc/16x9-512.jpg", "date": "2024-05-15T10:50:54.533+02:00", "lat": 50.5841, "lon": 9.1865, "intensity": 0.4, "source": "Tagesschau"}, {"title": "Candice Breitz spricht erstmals bei Podiumsdiskussion", "url": "https://www.tagesschau.de/inland/regional/saarland/sr-candice-breitz-spricht-erstmals-bei-podiumsdiskussion-100.html", "thumbnailUrl": "https://images.tagesschau.de/image/2798fa05-eac0-4660-ba08-6c7799b9daca/AAABj3wRBD8/AAABjwnlKNc/16x9-512.jpg", "date": "2024-05-15T10:46:00.000+02:00", "lat": 49.2388, "lon": 6.9944, "intensity": 0.8, "source": "Tagesschau"}, {"title": "Lindner will keinen h\u00f6heren Mindestlohn", "url": "https://www.tagesschau.de/inland/innenpolitik/lindner-mindestlohn-veto-100.html", "thumbnailUrl": "https://images.tagesschau.de/image/3c068d71-f6e5-4590-8757-8f40c6c805fc/AAABj3tkQsk/AAABjwnlKNc/16x9-512.jpg", "date": "2024-05-15T10:44:26.119+02:00", "lat": 53.5511, "lon": 9.9937, "intensity": 0.8, "source": "Tagesschau"}, {"title": "Offenbar falsch einget\u00fctete Briefwahlzettel landen bei Kreisverwaltung Trier-Saarburg", "url": "https://www.tagesschau.de/inland/regional/rheinlandpfalz/swr-offenbar-falsch-eingetuetete-briefwahlzettel-landen-bei-kreisverwaltung-100.html", "thumbnailUrl": "https://images.tagesschau.de/image/6f9056cd-63b1-4436-b7ff-30917b60272c/AAABj3u3TB4/AAABjwnlKNc/16x9-512.jpg", "date": "2024-05-15T10:44:04.000+02:00", "lat": 49.7556, "lon": 6.943, "intensity": 0.7, "source": "Tagesschau"}, {"title": "Bombe in Barmstedt entdeckt: Entsch\u00e4rfung f\u00fcr Freitag geplant", "url": "https://www.tagesschau.de/inland/regional/schleswigholstein/ndr-bombe-in-barmstedt-entdeckt-entschaerfung-am-freitag-geplant-100.html", "thumbnailUrl": "https://images.tagesschau.de/image/b60468b6-8ef0-42db-b3a3-8be382bd51c5/AAABj3tm2Zg/AAABjwnlKNc/16x9-512.jpg", "date": "2024-05-15T10:40:00.000+02:00", "lat": 53.7928, "lon": 9.8886, "intensity": 0.8, "source": "Tagesschau"}, {"title": "Nilg\u00e4nse kapern Storchennest - und br\u00fcten K\u00fcken aus", "url": "https://www.tagesschau.de/inland/regional/niedersachsen/ndr-nilgaense-kapern-strochennest-und-brueten-kueken-aus-100.html", "thumbnailUrl": "https://images.tagesschau.de/image/902e072d-aa21-4a1a-9046-d2b48242feda/AAABj3tqokg/AAABjwnlKNc/16x9-512.jpg", "date": "2024-05-15T10:38:00.000+02:00", "lat": 52.1936, "lon": 10.4515, "intensity": 0.6, "source": "Tagesschau"}, {"title": "AfD Niedersachsen: Haben Mitarbeitende Kontakte zur rechten Szene?", "url": "https://www.tagesschau.de/inland/regional/niedersachsen/ndr-afd-niedersachsen-haben-mitarbeitende-kontakte-zur-rechten-szene-100.html", "thumbnailUrl": "https://images.tagesschau.de/image/28230e2b-fab4-4ba0-898e-bcd3331ef144/AAABj3t8xjo/AAABjwnlKNc/16x9-512.jpg", "date": "2024-05-15T10:37:00.000+02:00", "lat": 52.3759, "lon": 10.4515, "intensity": 0.7, "source": "Tagesschau"}, {"title": "Streit um Klavier eskaliert - Mann bedroht 23-J\u00e4hrigen mit Waffe", "url": "https://www.tagesschau.de/inland/regional/niedersachsen/ndr-streit-um-klavier-eskaliert-mann-bedroht-23-jaehrigen-mit-waffe-100.html", "thumbnailUrl": "https://images.tagesschau.de/image/8cb9a70e-5aca-4645-b1d4-9a2bb857b988/AAABj3hawU8/AAABjwnlKNc/16x9-512.jpg", "date": "2024-05-15T10:37:00.000+02:00", "lat": 52.3759, "lon": 9.7332, "intensity": 0.8, "source": "Tagesschau"}, {"title": "SPD und Gr\u00fcne im Landtag fordern Entlassung von AfD-Mitarbeitenden", "url": "https://www.tagesschau.de/inland/regional/niedersachsen/ndr-spd-und-gruene-im-landtag-fordern-entlassung-von-afd-mitarbeitenden-100.html", "thumbnailUrl": "https://images.tagesschau.de/image/49e0e874-76f8-4d6e-9eb0-6c5aaa00e47f/AAABj32DCZo/AAABjwnlKNc/16x9-512.jpg", "date": "2024-05-15T10:37:00.000+02:00", "lat": 52.3759, "lon": 10.4515, "intensity": 0.8, "source": "Tagesschau"}, {"title": "Hardegsen: Gro\u00dfbrand in Biogasanlage - sechs Verletzte", "url": "https://www.tagesschau.de/inland/regional/niedersachsen/ndr-hardegsen-grossbrand-in-biogasanlage-ausgebrochen-100.html", "thumbnailUrl": "https://images.tagesschau.de/image/5a75f8d5-ed57-4307-81a1-7806104405ac/AAABj3ictJk/AAABjwnlKNc/16x9-512.jpg", "date": "2024-05-15T10:35:00.000+02:00", "lat": 51.7103, "lon": 9.8888, "intensity": 0.8, "source": "Tagesschau"}, {"title": "Umfrage #NDRfragt: Viele Hamburger sorgen sich um die Demokratie", "url": "https://www.tagesschau.de/inland/regional/hamburg/ndr-umfrage-ndrfragt-viele-hamburger-sorgen-sich-um-die-demokratie-100.html", "thumbnailUrl": "https://images.tagesschau.de/image/cc636b7a-0d84-418e-b4c9-bd5320caf315/AAABj3xW1yI/AAABjwnlKNc/16x9-512.jpg", "date": "2024-05-15T10:33:00.000+02:00", "lat": 53.551086, "lon": 9.993682, "intensity": 0.7, "source": "Tagesschau"}, {"title": "Stromausfall im ICE: 600 Reisende sitzen drei Stunden im Zug fest", "url": "https://www.tagesschau.de/inland/regional/niedersachsen/ndr-stromausfall-im-ice-600-reisende-sitzen-drei-stunden-im-zug-fest-100.html", "thumbnailUrl": "https://images.tagesschau.de/image/495ae522-c806-4669-89a0-2c8d7558bc0a/AAABj3a-xxE/AAABjwnlKNc/16x9-512.jpg", "date": "2024-05-15T10:31:00.000+02:00", "lat": 51.0571, "lon": 9.0146, "intensity": 0.8, "source": "Tagesschau"}, {"title": "Nach Abg\u00e4ngen von Topspielerinnen: Wohin f\u00fchrt der Weg des VfL Wolfsburg?", "url": "https://www.tagesschau.de/inland/regional/niedersachsen/ndr-nach-abgaengen-von-topspielerinnen-wohin-fuehrt-der-weg-des-vfl-wolfsburg-102.html", "thumbnailUrl": "https://images.tagesschau.de/image/55daf7fc-7648-4312-89df-212bdd57fec3/AAABj3xLyTI/AAABjwnlKNc/16x9-512.jpg", "date": "2024-05-15T10:30:00.000+02:00", "lat": 52.4, "lon": 10.75, "intensity": 0.8, "source": "Tagesschau"}, {"title": "IHK L\u00fcneburg sagt Podiumsdiskussion mit AfD-Mann Krah ab", "url": "https://www.tagesschau.de/inland/regional/niedersachsen/ndr-ihk-lueneburg-sagt-podiumsdiskussion-mit-afd-mann-krah-ab-100.html", "thumbnailUrl": "https://images.tagesschau.de/image/b8474e9c-a374-4cea-83db-c7291b852e66/AAABj3vGDgc/AAABjwnlKNc/16x9-512.jpg", "date": "2024-05-15T10:30:00.000+02:00", "lat": 53.2454, "lon": 10.4167, "intensity": 0.7, "source": "Tagesschau"}, {"title": "Von Pannen und Whistleblowern", "url": "https://www.tagesschau.de/wirtschaft/boeing-timeline-flugzeughersteller-probleme-100.html", "thumbnailUrl": "https://images.tagesschau.de/image/0e7b7c98-8d06-4ba5-9236-e411013008c7/AAABjsvvB4s/AAABjwnlKNc/16x9-512.jpg", "date": "2024-05-15T10:26:11.057+02:00", "lat": 47.443611, "lon": -122.292897, "intensity": 0.7, "source": "Tagesschau"}, {"title": "Feuer am Schlachtensee ausgebrochen, Waldbrandgefahrenstufe f\u00fcnf in ganz Brandenburg", "url": "https://www.tagesschau.de/inland/regional/berlin/rbb-feuer-am-schlachtensee-ausgebrochen-waldbrandgefahrenstufe-fuenf-in-ganz-brandenburg-100.html", "thumbnailUrl": "https://images.tagesschau.de/image/f8492cbb-10c3-4708-8104-ae3ce32c8ced/AAABj3tbyeU/AAABjwnlKNc/16x9-512.jpg", "date": "2024-05-15T10:22:35.000+02:00", "lat": 52.4329, "lon": 13.2174, "intensity": 0.8, "source": "Tagesschau"}, {"title": "Interview | Verfassungsrechtler Dieter Grimm: \"Die EU ist eben kein Staat\"", "url": "https://www.tagesschau.de/inland/regional/berlin/rbb-interview--verfassungsrechtler-dieter-grimm-die-eu-ist-eben-kein-staat-100.html", "thumbnailUrl": "https://images.tagesschau.de/image/f05d13d7-0cb4-43bf-9818-27e355abeed5/AAABj302Eww/AAABjwnlKNc/16x9-512.jpg", "date": "2024-05-15T10:21:27.000+02:00", "lat": 52.520008, "lon": 13.404954, "intensity": 0.7, "source": "Tagesschau"}, {"title": "Politisches System und Gewaltenteilung: Wer darf was in der EU?", "url": "https://www.tagesschau.de/inland/regional/berlin/rbb-politisches-system-und-gewaltenteilung-wer-darf-was-in-der-eu-100.html", "thumbnailUrl": "https://images.tagesschau.de/image/3eece88b-c4b6-4b3a-b9da-3755dfe12ffa/AAABj302F2w/AAABjwnlKNc/16x9-512.jpg", "date": "2024-05-15T10:21:12.000+02:00", "lat": 52.52, "lon": 13.405, "intensity": 0.3, "source": "Tagesschau"}, {"title": "\u00c4rzte lehnen weitere Verantwortung f\u00fcr hungernden Klima-Aktivisten ab ", "url": "https://www.tagesschau.de/inland/regional/berlin/rbb-kritischer-zustand-aerzte-koennen-zustand-eines-hungerstreikenden-nicht-laenger-verantworten-100.html", "thumbnailUrl": "https://images.tagesschau.de/image/d3356166-9684-4134-bbc6-949cc2cd0390/AAABj3wLsSQ/AAABjwnlKNc/16x9-512.jpg", "date": "2024-05-15T10:19:08.000+02:00", "lat": 52.520008, "lon": 13.404954, "intensity": 0.7, "source": "Tagesschau"}, {"title": "Saar-Richterbund widerspricht AfD-Vorw\u00fcrfen zur Unabh\u00e4ngigkeit", "url": "https://www.tagesschau.de/inland/regional/saarland/sr-saar-richterbund-widerspricht-afd-vorwuerfen-100.html", "thumbnailUrl": "https://images.tagesschau.de/image/250b0f72-25a7-49c9-bed6-6692094379a9/AAABj3hC5NA/AAABjwnlKNc/16x9-512.jpg", "date": "2024-05-15T10:12:00.000+02:00", "lat": 49.3964, "lon": 6.9538, "intensity": 0.8, "source": "Tagesschau"}, {"title": "Brandenburg startet offiziell in die Freibadsaison", "url": "https://www.tagesschau.de/inland/regional/brandenburg/rbb-brandenburg-startet-offiziell-in-die-freibadsaison-100.html", "thumbnailUrl": "https://images.tagesschau.de/image/abea5377-7107-48de-b0a2-9a0da1636c85/AAABj3tPAkY/AAABjwnlKNc/16x9-512.jpg", "date": "2024-05-15T10:09:19.000+02:00", "lat": 52.3957, "lon": 13.0645, "intensity": 0.6, "source": "Tagesschau"}, {"title": "\"Chris F\u00fchrich f\u00fcr Deutschland\": Eine B\u00e4ckerei in Nagold wusste es zuerst", "url": "https://www.tagesschau.de/inland/regional/badenwuerttemberg/swr-chris-fuehrich-fuer-deutschland-eine-baeckerei-in-nagold-wusste-es-zuerst-100.html", "thumbnailUrl": "https://images.tagesschau.de/image/5fe98b63-d6fd-47eb-8d4d-5474a6f89af2/AAABj3tO7zI/AAABjwnlKNc/16x9-512.jpg", "date": "2024-05-15T10:06:00.000+02:00", "lat": 48.5591, "lon": 8.7227, "intensity": 0.7, "source": "Tagesschau"}, {"title": "RLP-Newsticker: Razzia gegen Schleuser, Tag der Familie, Demokratieforum zu Hate Speech und Antisemitismus", "url": "https://www.tagesschau.de/inland/regional/rheinlandpfalz/swr-ehemalige-rechtsextreme-arbeiten-fuer-afd-razzia-gegen-schleuser-infos-zum-rueckbau-des-akw-muelheim-kaerlich-100.html", "thumbnailUrl": "https://images.tagesschau.de/image/7057d77c-14da-4dd0-a757-3dfe995971d4/AAABj3sdoW4/AAABjwnlKNc/16x9-512.jpg", "date": "2024-05-15T10:03:00.000+02:00", "lat": 50.1205, "lon": 7.4286, "intensity": 0.7, "source": "Tagesschau"}, {"title": "BW-Newsticker am Morgen: Warnung vor Starkregen und \u00dcberflutungen, Finanznot der Kliniken Thema im Landtag", "url": "https://www.tagesschau.de/inland/regional/badenwuerttemberg/swr-bw-newsticker-am-morgen-weitere-ueberschwemmungen-drohen-finanznot-der-kliniken-thema-im-landtag-100.html", "thumbnailUrl": "https://images.tagesschau.de/image/a0254f2e-12ca-45b5-a07b-341115bd1dfb/AAABj3pvjM8/AAABjwnlKNc/16x9-512.jpg", "date": "2024-05-15T10:00:00.000+02:00", "lat": 48.7758, "lon": 9.3077, "intensity": 0.7, "source": "Tagesschau"}, {"title": "LKA: Fast jeder zweite Befragte ist Opfer von Hasskriminalit\u00e4t", "url": "https://www.tagesschau.de/inland/regional/niedersachsen/ndr-lka-studie-fast-jeder-zweite-ist-opfer-von-hasskriminalitaet-100.html", "thumbnailUrl": "https://images.tagesschau.de/image/ae9b97e3-ad21-426e-840c-abdf38eebbde/AAABj31OASw/AAABjwnlKNc/16x9-512.jpg", "date": "2024-05-15T10:00:00.000+02:00", "lat": 52.6367, "lon": 10.4515, "intensity": 0.8, "source": "Tagesschau"}, {"title": "Arbeitsunfall in Hildesheim: Mann stirbt bei Lkw-Reparatur", "url": "https://www.tagesschau.de/inland/regional/niedersachsen/ndr-arbeitsunfall-in-hildesheim-mann-stirbt-bei-lkw-reparatur-100.html", "thumbnailUrl": "https://images.tagesschau.de/image/9d7f7ea3-961d-4c05-98c0-a5cb3459ff2e/AAABj3tCl2M/AAABjwnlKNc/16x9-512.jpg", "date": "2024-05-15T09:56:00.000+02:00", "lat": 52.1508, "lon": 9.9612, "intensity": 0.8, "source": "Tagesschau"}, {"title": "Flugzeugbauer Boeing droht neuer \u00c4rger", "url": "https://www.tagesschau.de/wirtschaft/unternehmen/boeing-verstoss-auflagen-100.html", "thumbnailUrl": "https://images.tagesschau.de/image/d650f0d2-1f8b-4c76-a489-700fe0f7bd0d/AAABjq2cUYo/AAABjwnlKNc/16x9-512.jpg", "date": "2024-05-15T09:45:01.881+02:00", "lat": 47.606209, "lon": -122.334837, "intensity": 0.8, "source": "Tagesschau"}, {"title": "Dopingfall HSV-Profi Vuskovic: Die wichtigsten Fragen und Antworten", "url": "https://www.tagesschau.de/inland/regional/hamburg/ndr-dopingfall-hsv-profi-vuskovic-die-wichtigsten-fragen-und-antworten-110.html", "thumbnailUrl": "https://images.tagesschau.de/image/a1ebf540-a57b-4c2a-b0bd-a3bdd8ab7ed6/AAABj3yadrY/AAABjwnlKNc/16x9-512.jpg", "date": "2024-05-15T09:39:00.000+02:00", "lat": 53.551086, "lon": 9.993682, "intensity": 0.7, "source": "Tagesschau"}, {"title": "Geldautomat in Hannover gesprengt: T\u00e4ter sind fl\u00fcchtig ", "url": "https://www.tagesschau.de/inland/regional/niedersachsen/ndr-geldautomat-in-hannover-gesprengt-taeter-sind-fluechtig-100.html", "thumbnailUrl": "https://images.tagesschau.de/image/1581c28b-8ade-4091-83a3-fb3e0c63d366/AAABj3wU1So/AAABjwnlKNc/16x9-512.jpg", "date": "2024-05-15T09:39:00.000+02:00", "lat": 52.375891, "lon": 9.73201, "intensity": 0.8, "source": "Tagesschau"}, {"title": "Wetterumschwung in Sicht: Wieder Starkregen und Gewitter m\u00f6glich", "url": "https://www.tagesschau.de/inland/regional/nordrheinwestfalen/wdr-wetterumschwung-in-sicht-wieder-starkregen-und-gewitter-moeglich-100.html", "thumbnailUrl": "https://images.tagesschau.de/image/08cae1c4-a9a1-4f7c-b103-b98fb3cd13c9/AAABj3szd64/AAABjwnlKNc/16x9-512.jpg", "date": "2024-05-15T09:33:00.000+02:00", "lat": 51.4332, "lon": 7.6261, "intensity": 0.7, "source": "Tagesschau"}, {"title": "Gro\u00dffeuer zerst\u00f6rt Reetdach-Restaurant in Bad Zwischenahn", "url": "https://www.tagesschau.de/inland/regional/niedersachsen/ndr-grossfeuer-zerstoert-reetdach-restaurant-in-bad-zwischenahn-100.html", "thumbnailUrl": "https://images.tagesschau.de/image/b24f30c6-8ae8-4cbf-b4eb-842fabe7e03e/AAABj3ywb78/AAABjwnlKNc/16x9-512.jpg", "date": "2024-05-15T09:31:00.000+02:00", "lat": 53.2007, "lon": 8.0501, "intensity": 0.8, "source": "Tagesschau"}, {"title": "Stolperstein gestohlen: \"Omas gegen Rechts\" halten Mahnwache", "url": "https://www.tagesschau.de/inland/regional/niedersachsen/ndr-stolperstein-gestohlen-omas-gegen-rechts-halten-mahnwache-100.html", "thumbnailUrl": "https://images.tagesschau.de/image/a9b24336-28d5-4728-a4ee-812272ee1404/AAABj3jIn2A/AAABjwnlKNc/16x9-512.jpg", "date": "2024-05-15T09:29:00.000+02:00", "lat": 52.1902, "lon": 8.0464, "intensity": 0.7, "source": "Tagesschau"}, {"title": "Lkw rutscht in Graben: B214 bei Gehrde stundenlang gesperrt", "url": "https://www.tagesschau.de/inland/regional/niedersachsen/ndr-lkw-rutscht-in-graben-b214-bei-gehrde-stundenlang-gesperrt-100.html", "thumbnailUrl": "https://images.tagesschau.de/image/62f5488e-7e3e-48fa-890c-44c8df7be64b/AAABj3sqfR4/AAABjwnlKNc/16x9-512.jpg", "date": "2024-05-15T09:03:00.000+02:00", "lat": 52.4477, "lon": 8.2611, "intensity": 0.7, "source": "Tagesschau"}, {"title": "Rocken f\u00fcr eine \"freie Welt\"", "url": "https://www.tagesschau.de/ausland/europa/blinken-ukraine-auftritt-100.html", "thumbnailUrl": "https://images.tagesschau.de/image/de2d345e-91ea-4102-8eb8-eda299fb49b0/AAABj3rXAG8/AAABjwnlKNc/16x9-512.jpg", "date": "2024-05-15T09:02:21.484+02:00", "lat": 50.4501, "lon": 30.5234, "intensity": 0.7, "source": "Tagesschau"}, {"title": "Ihme-Zentrum Hannover: Stadt und Land investieren 4,4 Millionen", "url": "https://www.tagesschau.de/inland/regional/niedersachsen/ndr-ihme-zentrum-hannover-stadt-und-land-investieren-44-millionen-100.html", "thumbnailUrl": "https://images.tagesschau.de/image/023b7534-e83f-4d82-8746-a0948eb806f1/AAABj3sUbiE/AAABjwnlKNc/16x9-512.jpg", "date": "2024-05-15T08:50:00.000+02:00", "lat": 52.3759, "lon": 9.7435, "intensity": 0.8, "source": "Tagesschau"}, {"title": "\"Keine Demokratie, aber auch keine Autokratie\"", "url": "https://www.tagesschau.de/ausland/asien/singapur-lee-wong-100.html", "thumbnailUrl": "https://images.tagesschau.de/image/4e156b03-8f3a-4244-b75b-df8a6d4307d1/AAABj3tFGzw/AAABjwnlKNc/16x9-512.jpg", "date": "2024-05-15T08:46:18.246+02:00", "lat": 1.3521, "lon": 103.8198, "intensity": 0.7, "source": "Tagesschau"}, {"title": "Unfall nach Verfolgungsfahrt - Motorradfahrer lebensbedrohlich verletzt", "url": "https://www.tagesschau.de/inland/regional/mecklenburgvorpommern/ndr-unfall-nach-verfolgungsfahrt-motorradfahrer-lebensbedrohlich-verletzt-100.html", "thumbnailUrl": "https://images.tagesschau.de/image/4473f1e8-dac5-49e6-882c-b145bfd4688a/AAABj3uAXqo/AAABjwnlKNc/16x9-512.jpg", "date": "2024-05-15T08:39:00.000+02:00", "lat": 53.86, "lon": 11.38, "intensity": 0.8, "source": "Tagesschau"}, {"title": "Landesregierung schickt Osnabr\u00fccker Landr\u00e4tin nach Br\u00fcssel ", "url": "https://www.tagesschau.de/inland/regional/niedersachsen/ndr-landesregierung-schickt-osnabruecker-landraetin-nach-bruessel-100.html", "thumbnailUrl": "https://images.tagesschau.de/image/f765959e-9553-4356-899e-6746162cc07d/AAABj3sdlZU/AAABjwnlKNc/16x9-512.jpg", "date": "2024-05-15T08:35:00.000+02:00", "lat": 52.2799, "lon": 7.0356, "intensity": 0.6, "source": "Tagesschau"}, {"title": "Bremen erwartet den bislang w\u00e4rmsten Tag des Jahres", "url": "https://www.tagesschau.de/inland/regional/bremen/rb-heute-bis-zu-27-grad-in-bremen--weniger-gutes-wetter-an-pfingsten-100.html", "thumbnailUrl": "https://images.tagesschau.de/image/fe256252-b19f-4ff9-8c64-c774733b105d/AAABj3tmyEo/AAABjwnlKNc/16x9-512.jpg", "date": "2024-05-15T08:31:00.000+02:00", "lat": 53.0793, "lon": 8.8017, "intensity": 0.8, "source": "Tagesschau"}, {"title": "Abschieben trotz Job: Restriktive Fl\u00fcchtlingspolitik in Bayern", "url": "https://www.tagesschau.de/inland/regional/bayern/br-abschieben-trotz-job-restriktive-fluechtlingspolitik-in-bayern-102.html", "thumbnailUrl": "https://images.tagesschau.de/image/8f4efe19-b763-42f0-85a4-cd9d0be76808/AAABj3rvzwk/AAABjwnlKNc/16x9-512.jpg", "date": "2024-05-15T08:27:03.164+02:00", "lat": 48.7904, "lon": 10.4515, "intensity": 0.8, "source": "Tagesschau"}, {"title": "Rod Stewart in Hannover: Welthits im Gep\u00e4ck, keine Experimente", "url": "https://www.tagesschau.de/inland/regional/niedersachsen/ndr-rod-stewart-in-hannover-welthits-im-gepaeck-keine-experimente-100.html", "thumbnailUrl": "https://images.tagesschau.de/image/284d2a76-b200-4a0b-bfcf-e6ad48fef6c0/AAABj3u5lug/AAABjwnlKNc/16x9-512.jpg", "date": "2024-05-15T08:26:00.000+02:00", "lat": 52.37589, "lon": 9.73322, "intensity": 0.7, "source": "Tagesschau"}, {"title": "Mitbestimmung in Amberg: Eine Million in den H\u00e4nden der B\u00fcrger", "url": "https://www.tagesschau.de/inland/regional/bayern/br-mitbestimmung-in-amberg-eine-million-in-den-haenden-der-buerger-102.html", "thumbnailUrl": "https://images.tagesschau.de/image/f476f7c9-7854-4d03-8f0a-41b63f9505bc/AAABj3rsFNc/AAABjwnlKNc/16x9-512.jpg", "date": "2024-05-15T08:23:33.644+02:00", "lat": 49.4424, "lon": 11.8635, "intensity": 0.6, "source": "Tagesschau"}, {"title": "Aus dem Jahr 891: Papyruspapier als Papsturkunde identifiziert", "url": "https://www.tagesschau.de/inland/regional/niedersachsen/ndr-aus-dem-jahr-891-papyruspapier-als-papsturkunde-identifiziert-100.html", "thumbnailUrl": "https://images.tagesschau.de/image/ccae46b9-4a75-4b24-8de1-be2d3560f943/AAABj3r-wx4/AAABjwnlKNc/16x9-512.jpg", "date": "2024-05-15T08:22:00.000+02:00", "lat": 51.5413, "lon": 9.935904, "intensity": 0.3, "source": "Tagesschau"}, {"title": "Sylt: B\u00fcrgermeister H\u00e4ckel lehnt R\u00fccktritt ab", "url": "https://www.tagesschau.de/inland/regional/schleswigholstein/ndr-sylt-buergermeister-haeckel-lehnt-ruecktritt-ab-100.html", "thumbnailUrl": "https://images.tagesschau.de/image/2fa4bbee-cf2b-42d2-80e3-d2d2dfed2381/AAABj3rsKJ0/AAABjwnlKNc/16x9-512.jpg", "date": "2024-05-15T08:21:00.000+02:00", "lat": 54.9, "lon": 8.3176, "intensity": 0.7, "source": "Tagesschau"}, {"title": "Azubis am Tag der Pflege: \"Der sch\u00f6nste Beruf, den es gibt\"", "url": "https://www.tagesschau.de/inland/regional/bayern/br-azubis-am-tag-der-pflege-der-schoenste-beruf-den-es-gibt-102.html", "thumbnailUrl": "https://images.tagesschau.de/image/092dda98-57f2-4338-9216-359550ac3c3c/AAABj3rqPf8/AAABjwnlKNc/16x9-512.jpg", "date": "2024-05-15T08:20:36.467+02:00", "lat": 51.1657, "lon": 10.4234, "intensity": 0.8, "source": "Tagesschau"}, {"title": "Identit\u00e4t der verstorbenen Frau aus Malstatt gekl\u00e4rt ", "url": "https://www.tagesschau.de/inland/regional/saarland/sr-wer-kennt-die-verstorbene-frau-aus-malstatt-100.html", "thumbnailUrl": "https://images.tagesschau.de/image/9c8d29f8-5ba9-49e6-8d95-6c8862be8f92/AAABj3sNAPE/AAABjwnlKNc/16x9-512.jpg", "date": "2024-05-15T08:20:00.000+02:00", "lat": 49.2402, "lon": 6.9954, "intensity": 0.3, "source": "Tagesschau"}, {"title": "\"Armutszeugnis\": Das Warten auf Barrierefreiheit bei der Bahn", "url": "https://www.tagesschau.de/inland/regional/bayern/br-armutszeugnis-das-warten-auf-barrierefreiheit-bei-der-bahn-100.html", "thumbnailUrl": "https://images.tagesschau.de/image/7dd9b107-eaf2-4e1e-a923-65d680bd15bd/AAABj3rm00U/AAABjwnlKNc/16x9-512.jpg", "date": "2024-05-15T08:17:46.860+02:00", "lat": 48.135125, "lon": 11.581981, "intensity": 0.7, "source": "Tagesschau"}, {"title": "Pfalz: Hier gibt's Geld f\u00fcr Ihre Klima-Projekte", "url": "https://www.tagesschau.de/inland/regional/rheinlandpfalz/swr-pfalz-hier-gibts-geld-fuer-ihre-klima-projekte-100.html", "thumbnailUrl": "https://images.tagesschau.de/image/6778b086-63ba-4ba7-a462-c7325babb0c7/AAABj3tqfOs/AAABjwnlKNc/16x9-512.jpg", "date": "2024-05-15T08:17:34.000+02:00", "lat": 49.2768, "lon": 8.2738, "intensity": 0.6, "source": "Tagesschau"}, {"title": "Waldbrand bei Altentreptow: Zwei verletzte Feuerwehrm\u00e4nner", "url": "https://www.tagesschau.de/inland/regional/mecklenburgvorpommern/ndr-waldbrand-bei-altentreptow-zwei-verletzte-feuerwehrmaenner-100.html", "thumbnailUrl": "https://images.tagesschau.de/image/a11422ab-9168-4649-834e-f9c9dbfd898d/AAABj33Inw4/AAABjwnlKNc/16x9-512.jpg", "date": "2024-05-15T08:17:00.000+02:00", "lat": 53.6831, "lon": 13.4016, "intensity": 0.8, "source": "Tagesschau"}, {"title": "Waldbrandrisiko: H\u00f6chste Gefahrenstufe im S\u00fcden von MV", "url": "https://www.tagesschau.de/inland/regional/mecklenburgvorpommern/ndr-waldbrandrisiko-mehrere-forstaemter-rufen-gefahrenstufe-4-aus-100.html", "thumbnailUrl": "https://images.tagesschau.de/image/0f55af35-163c-4642-9cf9-234ce4a4554e/AAABj3rm-w0/AAABjwnlKNc/16x9-512.jpg", "date": "2024-05-15T08:15:00.000+02:00", "lat": 53.6127, "lon": 13.2105, "intensity": 0.8, "source": "Tagesschau"}, {"title": "500.000 Euro Steuern hinterzogen: Bew\u00e4hrungsstrafe f\u00fcr Emsl\u00e4nder", "url": "https://www.tagesschau.de/inland/regional/niedersachsen/ndr-500-000-euro-steuern-hinterzogen-bewaehrungsstrafe-fuer-emslaender-100.html", "thumbnailUrl": "https://images.tagesschau.de/image/ff18fb8c-0284-4574-afde-d429b65f257c/AAABj3sQz1o/AAABjwnlKNc/16x9-512.jpg", "date": "2024-05-15T08:13:00.000+02:00", "lat": 52.455, "lon": 7.3233, "intensity": 0.6, "source": "Tagesschau"}, {"title": "Saarl\u00e4ndische Imbissbetreiber erh\u00f6hen Rostwurst-Preise", "url": "https://www.tagesschau.de/inland/regional/saarland/sr-saarlaendische-imbissbetreiber-erhoehen-rostwurst-preise-100.html", "thumbnailUrl": "https://images.tagesschau.de/image/b98ff8dc-828e-4da0-8ead-7c36e691c122/AAABj3uSq5U/AAABjwnlKNc/16x9-512.jpg", "date": "2024-05-15T08:13:00.000+02:00", "lat": 49.3964, "lon": 7.0, "intensity": 0.5, "source": "Tagesschau"}, {"title": "Kritische Fragen zur Laufzeitverl\u00e4ngerung des Atomkraftwerks Cattenom", "url": "https://www.tagesschau.de/inland/regional/saarland/sr-infoveranstaltung-zur-laufzeitverlaengerung-des-akw-cattenom-100.html", "thumbnailUrl": "https://images.tagesschau.de/image/368ff41c-0fde-41e9-9180-e43852c2d284/AAABj3WB7-g/AAABjwnlKNc/16x9-512.jpg", "date": "2024-05-15T08:00:00.000+02:00", "lat": 49.4236, "lon": 6.2434, "intensity": 0.6, "source": "Tagesschau"}, {"title": "Theatertreffen-Kritik | \"Laios\": Kranker Schei\u00df, oder?", "url": "https://www.tagesschau.de/inland/regional/berlin/rbb-theatertreffen-kritik--laios-kranker-scheiss-oder-100.html", "thumbnailUrl": "https://images.tagesschau.de/image/eb320af3-8c16-48c6-aacf-5cf3bf72b7c9/AAABj3rWOy4/AAABjwnlKNc/16x9-512.jpg", "date": "2024-05-15T07:54:00.000+02:00", "lat": 52.520008, "lon": 13.404954, "intensity": 0.6, "source": "Tagesschau"}, {"title": "Frontalzusammensto\u00df bei Filsum: Sechs Menschen verletzt", "url": "https://www.tagesschau.de/inland/regional/niedersachsen/ndr-frontalzusammenstoss-bei-filsum-sechs-menschen-verletzt-100.html", "thumbnailUrl": "https://images.tagesschau.de/image/22d00e2d-a5bc-496a-a8ca-59185248c115/AAABj3r6zXI/AAABjwnlKNc/16x9-512.jpg", "date": "2024-05-15T07:53:00.000+02:00", "lat": 53.2367, "lon": 7.6673, "intensity": 0.8, "source": "Tagesschau"},