[{"title": "Irak stellt homosexuelle Beziehungen unter Strafe", "url": "https://www.tagesschau.de/ausland/asien/irak-haftstrafe-homosexualitaet-100.html", "thumbnailUrl": "https://images.tagesschau.de/image/8bc06c72-9977-45b6-823c-faaddc93671c/AAABjTuXRek/AAABjwnlKNc/16x9-512.jpg", "date": "2024-04-28T02:19:02.702+02:00", "lat": 33.3152, "lon": 44.3661, "intensity": 0.9, "source": "Tagesschau"}, {"title": "Der ewig streitbare Fu\u00dfballfunktion\u00e4r - Martin Kind wird 80", "url": "https://www.tagesschau.de/inland/regional/niedersachsen/ndr-der-ewig-streitbare-fussballfunktionaer-martin-kind-wird-80-102.html", "thumbnailUrl": "https://images.tagesschau.de/image/2a9e7a2c-403b-4a73-9284-93b0720610b8/AAABjyCr6O0/AAABjwnlKNc/16x9-512.jpg", "date": "2024-04-28T00:01:00.000+02:00", "lat": 52.3759, "lon": 9.7371, "intensity": 0.8, "source": "Tagesschau"}, {"title": "Vermisste lag tot im Main in Frankfurt - Leiche des Ehemannes in der Schweiz entdeckt", "url": "https://www.tagesschau.de/inland/regional/hessen/hr-frau-im-main-bei-frankfurt-entdeckt-ehemann-von-wasserleiche-ebenfalls-tot-100.html", "thumbnailUrl": "https://images.tagesschau.de/image/1e5ed39d-0a71-427b-8e2b-96b80e134bd3/AAABjyFfQ_M/AAABjwnlKNc/16x9-512.jpg", "date": "2024-04-27T23:03:11.681+02:00", "lat": 50.107492, "lon": 8.682127, "intensity": 0.8, "source": "Tagesschau"}, {"title": "Einsatz zuvor wohl nicht Ursache f\u00fcr den Tod eines Polizisten", "url": "https://www.tagesschau.de/inland/regional/thueringen/mdr-einsatz-zuvor-wohl-nicht-ursache-fuer-den-tod-eines-polizisten-100.html", "thumbnailUrl": "https://images.tagesschau.de/image/28236f2c-b6f1-48b0-97cb-5a3028d4ad9d/AAABjyHO9SQ/AAABjwnlKNc/16x9-512.jpg", "date": "2024-04-27T22:57:25.000+02:00", "lat": 51.361, "lon": 11.084, "intensity": 0.6, "source": "Tagesschau"}, {"title": "St. Pauli nach Sieg gegen Hansa Rostock Spitzenreiter - Aufstieg ganz nah", "url": "https://www.tagesschau.de/inland/regional/mecklenburgvorpommern/ndr-arbeitssieg-gegen-hansa-rostock-st-pauli-ganz-dicht-vor-dem-aufstieg-102.html", "thumbnailUrl": "https://images.tagesschau.de/image/671ca43e-2bf0-4ad4-9d05-1f2f57657127/AAABjx_QHHQ/AAABjwnlKNc/16x9-512.jpg", "date": "2024-04-27T22:48:00.000+02:00", "lat": 53.8703, "lon": 10.6885, "intensity": 0.8, "source": "Tagesschau"}, {"title": "++ Kiews Milit\u00e4rf\u00fchrung spricht von schwieriger Lage ++", "url": "https://www.tagesschau.de/newsticker/liveblog-ukraine-samstag-382.html", "thumbnailUrl": "https://images.tagesschau.de/image/6c2e5dc0-358c-47b0-b07b-3cb3daf00df5/AAABjwQ1s_Q/AAABjwnlKNc/16x9-512.jpg", "date": "2024-04-27T22:46:13.860+02:00", "lat": 50.4501, "lon": 30.5234, "intensity": 0.8, "source": "Tagesschau"}, {"title": "++ Erneut Gro\u00dfdemo gegen Netanyahu in Tel Aviv ++", "url": "https://www.tagesschau.de/newsticker/liveblog-nahost-samstag-128.html", "thumbnailUrl": "https://images.tagesschau.de/image/c5a3e814-1993-43b1-91bb-e0682650251e/AAABjyEqrRU/AAABjwnlKNc/16x9-512.jpg", "date": "2024-04-27T22:45:08.727+02:00", "lat": 31.046051, "lon": 34.851612, "intensity": 0.5, "source": "Tagesschau"}, {"title": "HSV gewinnt bei Eintracht Braunschweig und hofft weiter auf Aufstieg", "url": "https://www.tagesschau.de/inland/regional/hamburg/ndr-hsv-gewinnt-in-braunschweig-und-kann-weiter-auf-aufstieg-hoffen-102.html", "thumbnailUrl": "https://images.tagesschau.de/image/39448c0e-e408-4aff-834d-ccc86a9fa663/AAABjx-xGFw/AAABjwnlKNc/16x9-512.jpg", "date": "2024-04-27T22:44:00.000+02:00", "lat": 52.2689, "lon": 10.4036, "intensity": 0.8, "source": "Tagesschau"}, {"title": "Handball: F\u00fcchse Berlin verlieren in Melsungen", "url": "https://www.tagesschau.de/inland/regional/berlin/rbb-handball-fuechse-berlin-verlieren-in-melsungen-102.html", "thumbnailUrl": "https://images.tagesschau.de/image/3ca576f6-98ff-46d6-9895-3a7893cbda05/AAABjyFO3AU/AAABjwnlKNc/16x9-512.jpg", "date": "2024-04-27T22:39:40.000+02:00", "lat": 51.3121, "lon": 9.5733, "intensity": 0.7, "source": "Tagesschau"}, {"title": "R\u00fcckschlag im Titelkampf f\u00fcr Holstein Kiel gegen Lautern", "url": "https://www.tagesschau.de/inland/regional/schleswigholstein/ndr-rueckschlag-im-titelkampf-fuer-holstein-kiel-gegen-lautern-102.html", "thumbnailUrl": "https://images.tagesschau.de/image/2c0913a0-fd40-436c-a7cf-30bfdce11d77/AAABjx-rhPA/AAABjwnlKNc/16x9-512.jpg", "date": "2024-04-27T22:38:00.000+02:00", "lat": 54.3213, "lon": 10.1374, "intensity": 0.8, "source": "Tagesschau"}, {"title": "MT Melsungen l\u00e4sst auch Berlin abblitzen", "url": "https://www.tagesschau.de/inland/regional/hessen/hr-mt-melsungen-laesst-auch-berlin-abblitzen-102.html", "thumbnailUrl": "https://images.tagesschau.de/image/89ac58bd-7c88-4a34-96e0-35ae29a2f7a3/AAABjyE-WWw/AAABjwnlKNc/16x9-512.jpg", "date": "2024-04-27T22:19:59.103+02:00", "lat": 51.3061, "lon": 9.4931, "intensity": 0.7, "source": "Tagesschau"}, {"title": "Hamas ver\u00f6ffentlicht erneut Video von Geiseln ", "url": "https://www.tagesschau.de/ausland/asien/israel-geiselvideo-rafah-geiselfreilassung-100.html", "thumbnailUrl": "https://images.tagesschau.de/image/02acdc89-6a1e-4c3c-b6a1-bb8378334192/AAABjyEYm58/AAABjwnlKNc/16x9-512.jpg", "date": "2024-04-27T21:46:52.198+02:00", "lat": 31.897423, "lon": 34.851612, "intensity": 0.8, "source": "Tagesschau"}, {"title": "Bei diesen Sportlerinnen und Sportlern aus Berlin und Brandenburg funkte es privat ", "url": "https://www.tagesschau.de/inland/regional/brandenburg/rbb-bei-diesen-sportlerinnen-und-sportlern-aus-berlin-und-brandenburg-funkte-es-privat-102.html", "thumbnailUrl": "https://images.tagesschau.de/image/2f1b2b4e-18c5-40b3-a462-fd794cf6de75/AAABjyEFrFc/AAABjwnlKNc/16x9-512.jpg", "date": "2024-04-27T21:22:46.000+02:00", "lat": 52.520008, "lon": 13.404954, "intensity": 0.3, "source": "Tagesschau"}, {"title": "AfD sieht Krah-Aff\u00e4re als Kampagne und geht zum Gegenangriff \u00fcber", "url": "https://www.tagesschau.de/inland/regional/badenwuerttemberg/swr-massive-vorwuerfe-gegen-krah-schadet-die-affaere-der-afd-100.html", "thumbnailUrl": "https://images.tagesschau.de/image/3d42d4df-104b-45c1-befb-02662e4a6023/AAABjyDzPWk/AAABjwnlKNc/16x9-512.jpg", "date": "2024-04-27T21:02:00.000+02:00", "lat": 47.9566, "lon": 8.5223, "intensity": 0.7, "source": "Tagesschau"}, {"title": "Galeria-Insolvenz: Filialen in Mannheim und Leonberg m\u00fcssen schlie\u00dfen", "url": "https://www.tagesschau.de/inland/regional/badenwuerttemberg/swr-kaufhof-insolvenz-filialen-in-mannheim-und-leonberg-muessen-schliessen-100.html", "thumbnailUrl": "https://images.tagesschau.de/image/cb94f2a0-623d-4f14-b40e-2d9e739143c7/AAABjyCbUY0/AAABjwnlKNc/16x9-512.jpg", "date": "2024-04-27T20:51:00.000+02:00", "lat": 49.48746, "lon": 8.45944, "intensity": 0.8, "source": "Tagesschau"}, {"title": "Rund 800 Einsatzkr\u00e4fte sollen vermissten Arian aus Bremerv\u00f6rde finden", "url": "https://www.tagesschau.de/inland/regional/bremen/rb-polizisten-suchen-in-ihrer-freizeit-nach-arian-bei-bremervoerde-100.html", "thumbnailUrl": "https://images.tagesschau.de/image/480ab001-ffa9-4dca-a849-0d7056583ec7/AAABjyDQi7k/AAABjwnlKNc/16x9-512.jpg", "date": "2024-04-27T20:49:00.000+02:00", "lat": 53.277548, "lon": 8.805826, "intensity": 0.8, "source": "Tagesschau"}, {"title": "HSG Wetzlar ohne Chance in Gummersbach", "url": "https://www.tagesschau.de/inland/regional/hessen/hr-hsg-wetzlar-ohne-chance-in-gummersbach-102.html", "thumbnailUrl": "https://images.tagesschau.de/image/67f88c37-731a-4604-9836-d5a0c90419ce/AAABjyDxbo8/AAABjwnlKNc/16x9-512.jpg", "date": "2024-04-27T20:41:03.877+02:00", "lat": 50.9647, "lon": 7.5875, "intensity": 0.3, "source": "Tagesschau"}, {"title": "Oberleitungsschaden auf Zugstrecke Saarbr\u00fccken-Paris", "url": "https://www.tagesschau.de/inland/regional/saarland/sr-oberleitungsschaden-auf-zugstrecke-saarbruecken-paris-100.html", "thumbnailUrl": "https://images.tagesschau.de/image/dde8c735-c01b-49a8-a07d-7cb01c13fc59/AAABjx-E_x8/AAABjwnlKNc/16x9-512.jpg", "date": "2024-04-27T20:37:00.000+02:00", "lat": 49.2354, "lon": 6.9742, "intensity": 0.7, "source": "Tagesschau"}, {"title": "Oder-Spree: Linke-Kandidaten beim Plakatieren f\u00fcr die Wahl attackiert", "url": "https://www.tagesschau.de/inland/regional/brandenburg/rbb-oder-spree-linke-kandidaten-beim-plakatieren-fuer-die-wahl-attackiert-100.html", "thumbnailUrl": "https://images.tagesschau.de/image/f469e967-bc8d-4d30-9628-a7472da8d79f/AAABjyDZmbQ/AAABjwnlKNc/16x9-512.jpg", "date": "2024-04-27T20:32:41.000+02:00", "lat": 52.181, "lon": 13.8884, "intensity": 0.7, "source": "Tagesschau"}, {"title": "Auch Karstadt Kaufhof-Filialen in Mainz und Trier sollen geschlossen werden", "url": "https://www.tagesschau.de/inland/regional/rheinlandpfalz/swr-auch-karstadt-kaufhof-filialen-in-mainz-und-trier-sollen-geschlossen-werden-100.html", "thumbnailUrl": "https://images.tagesschau.de/image/71c60e91-f448-410e-bae0-a0d95b5c9834/AAABjyEHZhA/AAABjwnlKNc/16x9-512.jpg", "date": "2024-04-27T20:22:00.000+02:00", "lat": 49.9929, "lon": 8.2711, "intensity": 0.8, "source": "Tagesschau"}, {"title": "CDU-Landeschef Hagel nennt AfD \"Vaterlandsverr\u00e4ter\"", "url": "https://www.tagesschau.de/inland/regional/badenwuerttemberg/swr-cdu-landeschef-hagel-nennt-afd-vaterlandsverraeter-100.html", "thumbnailUrl": "https://images.tagesschau.de/image/8a5cddd0-8916-4123-a1d5-86a72422a991/AAABjx9ysmE/AAABjwnlKNc/16x9-512.jpg", "date": "2024-04-27T20:04:00.000+02:00", "lat": 48.7371, "lon": 9.9937, "intensity": 0.8, "source": "Tagesschau"}, {"title": "Einbruchsserie in Bad Vilbel beunruhigt Anwohner: Polizei l\u00e4sst Verd\u00e4chtigen laufen", "url": "https://www.tagesschau.de/inland/regional/hessen/hr-einbruchsserie-in-bad-vilbel-beunruhigt-anwohner-polizei-laesst-verdaechtigen-laufen-100.html", "thumbnailUrl": "https://images.tagesschau.de/image/4426e329-75be-462a-89c2-5be5c9ba903f/AAABjyCmVBY/AAABjwnlKNc/16x9-512.jpg", "date": "2024-04-27T19:37:34.843+02:00", "lat": 50.1785, "lon": 8.7436, "intensity": 0.7, "source": "Tagesschau"}, {"title": "Internationales Alphorntreffen am Rande des Sauerlandes", "url": "https://www.tagesschau.de/inland/regional/nordrheinwestfalen/wdr-internationales-alphorntreffen-am-rande-des-sauerlandes-100.html", "thumbnailUrl": "https://images.tagesschau.de/image/f4174193-817d-4456-b06a-d4d21afa948b/AAABjyDQbBg/AAABjwnlKNc/16x9-512.jpg", "date": "2024-04-27T19:32:00.000+02:00", "lat": 51.4875, "lon": 8.3665, "intensity": 0.7, "source": "Tagesschau"}, {"title": "Kanuslalom: Olympia-Siegerin Funk l\u00f6st Ticket f\u00fcr Paris 2024", "url": "https://www.tagesschau.de/inland/regional/rheinlandpfalz/swr-kanuslalom-104.html", "thumbnailUrl": "https://images.tagesschau.de/image/a19744a6-f7e1-4758-b697-0568bb546e38/AAABjyDfEr4/AAABjwnlKNc/16x9-512.jpg", "date": "2024-04-27T19:05:45.000+02:00", "lat": 49.997443, "lon": 7.266155, "intensity": 0.7, "source": "Tagesschau"}, {"title": "Angeh\u00f6rige von Opfern der Ahrflut bringen Skulpturen nach Mainz", "url": "https://www.tagesschau.de/inland/regional/rheinlandpfalz/swr-angehoerige-von-opfern-der-ahrflut-bringen-botschaft-per-schiff-nach-mainz-100.html", "thumbnailUrl": "https://images.tagesschau.de/image/e887e75e-0282-435f-b169-9089197519d2/AAABjx8_bTQ/AAABjwnlKNc/16x9-512.jpg", "date": "2024-04-27T19:01:00.000+02:00", "lat": 49.9929, "lon": 8.2711, "intensity": 0.7, "source": "Tagesschau"}, {"title": "Hohe Tierarztkosten: Immer mehr Menschen auf Hilfe angewiesen", "url": "https://www.tagesschau.de/inland/regional/saarland/sr-hohe-tierarztkosten-immer-mehr-menschen-auf-hilfe-angewiesen-100.html", "thumbnailUrl": "https://images.tagesschau.de/image/926fe025-5983-4585-928d-cb6f965ac49b/AAABjyBzCL0/AAABjwnlKNc/16x9-512.jpg", "date": "2024-04-27T18:42:00.000+02:00", "lat": 49.3964, "lon": 6.9538, "intensity": 0.7, "source": "Tagesschau"}, {"title": "Eintracht: +++ Trapp nimmt Koch in Schutz  +++ Eintracht unterliegt den Bayern +++ Tuta zur\u00fcck in der Startelf +++", "url": "https://www.tagesschau.de/inland/regional/hessen/hr--eintracht-wohl-mit-chaibi-einig--glasner-fast-nur-kolo-muani-der-tore-erzielt--bericht-eintracht-sagt-aouar-ab-100.html", "thumbnailUrl": "https://images.tagesschau.de/image/56476383-012f-484c-a0ef-022c2c627862/AAABjyBvkJk/AAABjwnlKNc/16x9-512.jpg", "date": "2024-04-27T18:41:41.062+02:00", "lat": 50.110922, "lon": 8.682127, "intensity": 0.6, "source": "Tagesschau"}, {"title": "Regionalliga Nordost: Cottbus gewinnt spektakul\u00e4r gegen Lok Leipzig \u2013 Luckenwalde verliert", "url": "https://www.tagesschau.de/inland/regional/brandenburg/rbb-regionalliga-nordost-cottbus-gewinnt-spektakulaer-gegen-lok-leipzig--luckenwalde-verliert-102.html", "thumbnailUrl": "https://images.tagesschau.de/image/908e26ea-fcb8-43fe-b897-35025ff2074c/AAABjyBmXuo/AAABjwnlKNc/16x9-512.jpg", "date": "2024-04-27T18:31:18.000+02:00", "lat": 51.75898, "lon": 14.33006, "intensity": 0.9, "source": "Tagesschau"}, {"title": "Stimmen zur Niederlage von Eintracht Frankfurt: \"Das war nie und nimmer Absicht\"", "url": "https://www.tagesschau.de/inland/regional/hessen/hr-stimmen-zur-niederlage-von-eintracht-frankfurt-das-war-nie-und-nimmer-absicht-102.html", "thumbnailUrl": "https://images.tagesschau.de/image/fce80491-d145-49d1-8b62-61f94bb533c8/AAABjyBp8Mg/AAABjwnlKNc/16x9-512.jpg", "date": "2024-04-27T18:29:23.778+02:00", "lat": 50.1109, "lon": 8.6821, "intensity": 0.7, "source": "Tagesschau"}, {"title": "Galeria Karstadt Kaufhof: Diese NRW-Filialen schlie\u00dfen bis Ende August", "url": "https://www.tagesschau.de/inland/regional/nordrheinwestfalen/wdr-galeria-karstadt-kaufhof-drei-schliessungen-in-nrw-100.html", "thumbnailUrl": "https://images.tagesschau.de/image/525192e3-17b0-4764-b653-0ffff1e128f8/AAABjyDUFX0/AAABjwnlKNc/16x9-512.jpg", "date": "2024-04-27T18:25:00.000+02:00", "lat": 51.4556, "lon": 7.0112, "intensity": 0.8, "source": "Tagesschau"}, {"title": "Sieg in Augsburg - Werder Bremen kann f\u00fcr Bundesliga planen", "url": "https://www.tagesschau.de/inland/regional/niedersachsen/ndr-sieg-in-augsburg-werder-bremen-kann-fuer-bundesliga-planen-102.html", "thumbnailUrl": "https://images.tagesschau.de/image/ed1a7081-7494-436d-894b-e983a0884a43/AAABjyBDgbE/AAABjwnlKNc/16x9-512.jpg", "date": "2024-04-27T18:20:00.000+02:00", "lat": 48.3705, "lon": 10.8978, "intensity": 0.8, "source": "Tagesschau"}, {"title": "SPD startet Europa-Wahlkampf auf dem Hamburger Fischmarkt", "url": "https://www.tagesschau.de/inland/regional/hamburg/ndr-spd-startet-europa-wahlkampf-auf-dem-hamburger-fischmarkt-100.html", "thumbnailUrl": "https://images.tagesschau.de/image/45f531e6-003f-4552-bc8e-4c95f2408f1e/AAABjyBT91M/AAABjwnlKNc/16x9-512.jpg", "date": "2024-04-27T18:06:00.000+02:00", "lat": 53.5461, "lon": 9.958, "intensity": 0.7, "source": "Tagesschau"}, {"title": "Rund 180 Teilnehmer bei Kinder-Fahrraddemo durch Saarbr\u00fccken", "url": "https://www.tagesschau.de/inland/regional/saarland/sr-rund-180-teilnehmer-bei-kinder-fahrraddemo-durch-saarbruecken-100.html", "thumbnailUrl": "https://images.tagesschau.de/image/96f34436-4a1b-47f5-b4c0-8f3d07f4b0aa/AAABjyBQPt4/AAABjwnlKNc/16x9-512.jpg", "date": "2024-04-27T18:05:00.000+02:00", "lat": 49.2402, "lon": 6.9797, "intensity": 0.7, "source": "Tagesschau"}, {"title": "\"Es soll nicht um Krah, Krah, Krah gehen\"", "url": "https://www.tagesschau.de/inland/innenpolitik/afd-wahlkampfauftakt-europawahl-100.html", "thumbnailUrl": "https://images.tagesschau.de/image/15944cdd-f91d-46b7-ac02-ff1aa2798de4/AAABjyBGZY0/AAABjwnlKNc/16x9-512.jpg", "date": "2024-04-27T17:57:16.170+02:00", "lat": 50.1109, "lon": 10.1148, "intensity": 0.8, "source": "Tagesschau"}, {"title": "M\u00f6gliches juristisches Nachspiel: Strafverfahren nach R\u00e4umung von Pal\u00e4stina-Protestcamp eingeleitet ", "url": "https://www.tagesschau.de/inland/regional/berlin/rbb-moegliches-juristisches-nachspiel-strafverfahren-nach-raeumung-von-palaestina-protestcamp-eingeleitet-100.html", "thumbnailUrl": "https://images.tagesschau.de/image/bcc43e52-40b4-43e1-923c-ac35489bb04a/AAABjyBJAB4/AAABjwnlKNc/16x9-512.jpg", "date": "2024-04-27T17:55:30.000+02:00", "lat": 52.5145, "lon": 13.3691, "intensity": 0.8, "source": "Tagesschau"}, {"title": "Wetterlage und Temperaturen", "url": "https://www.tagesschau.de/wetter/europa-welt", "thumbnailUrl": "https://images.tagesschau.de/image/6e7d3b16-79c8-4308-822b-20c3035236b5/AAABjyA2xyc/AAABjwnlKNc/16x9-512.jpg", "date": "2024-04-27T17:46:00.454+02:00", "lat": 51.1657, "lon": 10.4515, "intensity": 0.3, "source": "Tagesschau"}, {"title": "Europawahl 2024: So will die Nord-CDU \u00fcberzeugen", "url": "https://www.tagesschau.de/inland/regional/schleswigholstein/ndr-europawahl-2024-so-will-die-nord-cdu-ueberzeugen-100.html", "thumbnailUrl": "https://images.tagesschau.de/image/41d96e83-d4b4-4bc8-846b-a46fb37bcccf/AAABjyB2ztE/AAABjwnlKNc/16x9-512.jpg", "date": "2024-04-27T17:45:00.000+02:00", "lat": 54.657, "lon": 9.6869, "intensity": 0.7, "source": "Tagesschau"}, {"title": "Serie \"Sam - Ein Sachse\" erh\u00e4lt Grimme-Preis", "url": "https://www.tagesschau.de/inland/regional/sachsen/mdr-serie-sam-ein-sachse-erhaelt-grimme-preis-100.html", "thumbnailUrl": "https://images.tagesschau.de/image/e230c55b-1766-4750-a5c4-33bcc1421c2f/AAABjyHStIc/AAABjwnlKNc/16x9-512.jpg", "date": "2024-04-27T17:34:11.000+02:00", "lat": 51.174291, "lon": 12.496365, "intensity": 0.7, "source": "Tagesschau"}, {"title": "VfL Wolfsburg gelingt sp\u00e4ter Befreiungsschlag beim SC Freiburg", "url": "https://www.tagesschau.de/inland/regional/niedersachsen/ndr-wolfsburg-gelingt-spaeter-befreiungsschlag-in-freiburg-102.html", "thumbnailUrl": "https://images.tagesschau.de/image/11302116-ba15-4b51-9fb3-59dd4c561227/AAABjyBZcoA/AAABjwnlKNc/16x9-512.jpg", "date": "2024-04-27T17:29:00.000+02:00", "lat": 51.0504, "lon": 7.0123, "intensity": 0.7, "source": "Tagesschau"}, {"title": "Kochs Blackout bringt Eintracht um den Lohn", "url": "https://www.tagesschau.de/inland/regional/hessen/hr-kochs-blackout-bringt-eintracht-um-den-lohn-100.html", "thumbnailUrl": "https://images.tagesschau.de/image/dc7395ef-d128-40c9-9e0e-06dcd53683cb/AAABjyCMtLE/AAABjwnlKNc/16x9-512.jpg", "date": "2024-04-27T17:25:46.561+02:00", "lat": 48.135125, "lon": 11.576124, "intensity": 0.7, "source": "Tagesschau"}, {"title": "Lindner schw\u00f6rt FDP auf \"Wirtschaftswende\" ein", "url": "https://www.tagesschau.de/inland/innenpolitik/fdp-parteitag-lindner-110.html", "thumbnailUrl": "https://images.tagesschau.de/image/28fcbb93-8742-45c1-8288-3d7043134b92/AAABjx87nwY/AAABjwnlKNc/16x9-512.jpg", "date": "2024-04-27T17:24:57.209+02:00", "lat": 51.1657, "lon": 10.4515, "intensity": 0.7, "source": "Tagesschau"}, {"title": "Schule ohne Rassismus: Damit sich die Geschichte nicht wiederholt", "url": "https://www.tagesschau.de/inland/regional/rheinlandpfalz/swr-schule-ohne-rassismus-damit-sich-die-geschichte-nicht-wiederholt-100.html", "thumbnailUrl": "https://images.tagesschau.de/image/428f4f1f-62bb-4257-885d-a7d52f36d291/AAABjx1Utbc/AAABjwnlKNc/16x9-512.jpg", "date": "2024-04-27T17:23:00.000+02:00", "lat": 50.125, "lon": 7.868, "intensity": 0.7, "source": "Tagesschau"}, {"title": "Galeria Karstadt in Saarbr\u00fccken bleibt erhalten", "url": "https://www.tagesschau.de/inland/regional/saarland/sr-entscheidung-bei-galeria-saarbruecker-standort-bleibt-erhalten-100.html", "thumbnailUrl": "https://images.tagesschau.de/image/c3041204-46f1-4b6a-809e-114dc70ae437/AAABjx5urD0/AAABjwnlKNc/16x9-512.jpg", "date": "2024-04-27T17:21:00.000+02:00", "lat": 49.2334, "lon": 6.9803, "intensity": 0.4, "source": "Tagesschau"}, {"title": "Rudern: Deutschland-Achter erk\u00e4mpft EM-Silber", "url": "https://www.tagesschau.de/inland/regional/berlin/rbb-rudern-deutschland-achter-erkaempft-em-silber-102.html", "thumbnailUrl": "https://images.tagesschau.de/image/1e56322e-a9eb-4c31-aec2-760b0e11853e/AAABjyAp4cE/AAABjwnlKNc/16x9-512.jpg", "date": "2024-04-27T17:18:46.000+02:00", "lat": 52.520008, "lon": 13.404954, "intensity": 0.8, "source": "Tagesschau"}, {"title": "Zu wenig, zu langsam", "url": "https://www.tagesschau.de/ausland/asien/gazastreifen-hilfslieferungen-zivilisten-100.html", "thumbnailUrl": "https://images.tagesschau.de/image/e223ba6c-413a-401b-b417-a4e182f99a62/AAABjyAG96I/AAABjwnlKNc/16x9-512.jpg", "date": "2024-04-27T17:16:08.585+02:00", "lat": 31.5012, "lon": 34.3444, "intensity": 0.8, "source": "Tagesschau"}, {"title": "Berlin: Ein Verletzter nach Hochhausbrand in Marzahn", "url": "https://www.tagesschau.de/inland/regional/berlin/rbb-berlin-ein-verletzter-nach-hochhausbrand-in-marzahn-100.html", "thumbnailUrl": "https://images.tagesschau.de/image/324910ae-dadf-4149-8b30-926d31c80489/AAABjyAoIWs/AAABjwnlKNc/16x9-512.jpg", "date": "2024-04-27T17:12:11.000+02:00", "lat": 52.5256, "lon": 13.5785, "intensity": 0.8, "source": "Tagesschau"}, {"title": "Galeria Karstadt Kaufhof: Keine Schlie\u00dfung in Wismar und Rostock", "url": "https://www.tagesschau.de/inland/regional/mecklenburgvorpommern/ndr-galeria-karstadt-kaufhof-entscheidung-ueber-filialen-in-mv-faellt-100.html", "thumbnailUrl": "https://images.tagesschau.de/image/97960a49-ba8a-4f7d-9ba8-8253988d1465/AAABjyAe3BM/AAABjwnlKNc/16x9-512.jpg", "date": "2024-04-27T17:10:00.000+02:00", "lat": 54.3076, "lon": 12.0945, "intensity": 0.8, "source": "Tagesschau"}, {"title": "Hund und Halterin an Stausee Nonnweiler mit Pfefferspray verletzt", "url": "https://www.tagesschau.de/inland/regional/saarland/sr-hund-und-halterin-an-stausee-nonnweiler-mit-pfefferspray-verletzt-100.html", "thumbnailUrl": "https://images.tagesschau.de/image/78a99a7e-e9d6-4f3b-929f-6b6c9a0ddaa9/AAABjyAbJLE/AAABjwnlKNc/16x9-512.jpg", "date": "2024-04-27T17:09:00.000+02:00", "lat": 49.6347, "lon": 6.9957, "intensity": 0.8, "source": "Tagesschau"}, {"title": "Eishockey | F\u00fcnf Gr\u00fcnde f\u00fcr den zehnten Meistertitel der Eisb\u00e4ren Berlin", "url": "https://www.tagesschau.de/inland/regional/berlin/rbb-deutsche-eishockey-liga-fuenf-gruende-fuer-den-zehnten-meistertitel-der-eisbaeren-berlin-102.html", "thumbnailUrl": "https://images.tagesschau.de/image/a8a5ec8d-a6fe-48e7-8ea7-de6d93d0008a/AAABjx-8C_g/AAABjwnlKNc/16x9-512.jpg", "date": "2024-04-27T17:07:32.000+02:00", "lat": 52.520008, "lon": 13.404954, "intensity": 0.8, "source": "Tagesschau"}, {"title": "Tausende demonstrieren f\u00fcr S\u00e1nchez' Verbleib im Amt", "url": "https://www.tagesschau.de/ausland/europa/demonstrationen-regierungschef-sanchez-100.html", "thumbnailUrl": "https://images.tagesschau.de/image/10a9e3e4-c96b-43bf-9396-6385df606fa7/AAABjyAL_Hs/AAABjwnlKNc/16x9-512.jpg", "date": "2024-04-27T16:53:27.838+02:00", "lat": 40.4168, "lon": -3.7038, "intensity": 0.8, "source": "Tagesschau"}, {"title": "VfB L\u00fcbeck steigt in die Regionalliga Nord ab", "url": "https://www.tagesschau.de/inland/regional/schleswigholstein/ndr-vfb-luebeck-steigt-in-die-regionalliga-nord-ab-100.html", "thumbnailUrl": "https://images.tagesschau.de/image/fa6ee2d6-d2df-4421-b64e-29da8dc9d20f/AAABjxvFlG8/AAABjwnlKNc/16x9-512.jpg", "date": "2024-04-27T16:52:00.000+02:00", "lat": 53.8659, "lon": 10.6849, "intensity": 0.8, "source": "Tagesschau"}, {"title": "Schnippschnapp: 99-Cent-Frisur lockt Castrop-Rauxeler an", "url": "https://www.tagesschau.de/inland/regional/nordrheinwestfalen/wdr-schnippschnapp-99-cent-frisur-lockt-castrop-rauxeler-an-100.html", "thumbnailUrl": "https://images.tagesschau.de/image/56992ed5-5464-4179-87e3-d651cd0805ca/AAABjyCg0I8/AAABjwnlKNc/16x9-512.jpg", "date": "2024-04-27T16:44:00.000+02:00", "lat": 51.549, "lon": 7.315, "intensity": 0.6, "source": "Tagesschau"}, {"title": "Deutschlandachter mit Ocik und John holt Silber bei Ruder-EM", "url": "https://www.tagesschau.de/inland/regional/mecklenburgvorpommern/ndr-deutschlandachter-mit-ocik-und-john-holt-silber-bei-ruder-em-100.html", "thumbnailUrl": "https://images.tagesschau.de/image/0f746c4f-2e81-41aa-b091-b5c9025b099a/AAABjyCr2Sg/AAABjwnlKNc/16x9-512.jpg", "date": "2024-04-27T16:38:00.000+02:00", "lat": 53.6127, "lon": 12.6501, "intensity": 0.8, "source": "Tagesschau"}, {"title": "Ramelow f\u00fchrt Th\u00fcringer Linke in den Landtagswahlkampf", "url": "https://www.tagesschau.de/inland/regional/thueringen/mdr-ramelow-fuehrt-thueringer-linke-in-den-landtagswahlkampf-100.html", "thumbnailUrl": "https://images.tagesschau.de/image/6c290c35-f70a-41df-aca3-c254e9b72bd8/AAABjyHPBWI/AAABjwnlKNc/16x9-512.jpg", "date": "2024-04-27T16:35:53.000+02:00", "lat": 51.0109, "lon": 11.6295, "intensity": 0.6, "source": "Tagesschau"}, {"title": "Campingmesse im Bexbach gestartet", "url": "https://www.tagesschau.de/inland/regional/saarland/sr-campingmesse-startet-in-bexbach-100.html", "thumbnailUrl": "https://images.tagesschau.de/image/a4780304-3822-4ae5-9e9a-f6e86d45096c/AAABjx5rAtU/AAABjwnlKNc/16x9-512.jpg", "date": "2024-04-27T16:33:00.000+02:00", "lat": 49.3142, "lon": 7.2437, "intensity": 0.6, "source": "Tagesschau"}, {"title": "Hoffnung auf Fortschritte in Gaza-Verhandlungen", "url": "https://www.tagesschau.de/ausland/asien/israel-gaza-hamas-verhandlungen-100.html", "thumbnailUrl": "https://images.tagesschau.de/image/4964f8e7-f5b4-452c-937a-7b6eb10eed61/AAABjx_0dE0/AAABjwnlKNc/16x9-512.jpg", "date": "2024-04-27T16:27:45.668+02:00", "lat": 24.7136, "lon": 46.6753, "intensity": 0.7, "source": "Tagesschau"}, {"title": "Berlin-Gropiusstadt: Frau und Elfj\u00e4hriger mit Messer bedroht und rassistisch beleidigt", "url": "https://www.tagesschau.de/inland/regional/berlin/rbb-berlin-gropiusstadt-frau-und-elfjaehriger-mit-messer-bedroht-und-rassistisch-beleidigt-100.html", "thumbnailUrl": "https://images.tagesschau.de/image/9c285a30-39bd-4616-9efb-458680f80227/AAABjyADbdQ/AAABjwnlKNc/16x9-512.jpg", "date": "2024-04-27T16:22:34.000+02:00", "lat": 52.4387, "lon": 13.4402, "intensity": 0.8, "source": "Tagesschau"}, {"title": "So feiern Alemannia-Fans in Aachen den Aufstieg", "url": "https://www.tagesschau.de/inland/regional/nordrheinwestfalen/wdr-rueckkehr-nach-elf-jahren-in-aachen-brechen-alle-daemme-102.html", "thumbnailUrl": "https://images.tagesschau.de/image/9bf54849-9058-498d-9227-43eaf6cb8870/AAABjyC-I5Q/AAABjwnlKNc/16x9-512.jpg", "date": "2024-04-27T16:21:00.000+02:00", "lat": 50.7766, "lon": 6.08, "intensity": 0.8, "source": "Tagesschau"}, {"title": "300 Menschen demonstrieren in Gr\u00f6pelingen gegen Rechtsextremismus", "url": "https://www.tagesschau.de/inland/regional/bremen/rb-demonstration-gegen-rechtsextremismus-in-bremen-groepelingen-102.html", "thumbnailUrl": "https://images.tagesschau.de/image/10a3df18-b9ca-47a7-b903-dca8aa1c0358/AAABjx5_Kqw/AAABjwnlKNc/16x9-512.jpg", "date": "2024-04-27T16:14:00.000+02:00", "lat": 53.1147, "lon": 8.6534, "intensity": 0.5, "source": "Tagesschau"}, {"title": "FCK schl\u00e4gt Holstein Kiel: Ein Sieg gegen die \"Weltuntergangsstimmung\" ", "url": "https://www.tagesschau.de/inland/regional/rheinlandpfalz/swr-fck-schlaegt-holstein-kiel-ein-sieg-gegen-die-weltuntergangsstimmung-104.html", "thumbnailUrl": "https://images.tagesschau.de/image/2a788fef-9309-4a35-883b-60c6f35e0e54/AAABjyAe-Eg/AAABjwnlKNc/16x9-512.jpg", "date": "2024-04-27T16:13:54.000+02:00", "lat": 49.4521, "lon": 7.7692, "intensity": 0.7, "source": "Tagesschau"}, {"title": "Vogelgrippe: Warum die WHO in den USA vor Rohmilch warnt", "url": "https://www.tagesschau.de/inland/regional/nordrheinwestfalen/wdr-vogelgrippe-warum-die-who-in-den-usa-vor-milch-warnt-100.html", "thumbnailUrl": "https://images.tagesschau.de/image/b05bbe8c-4760-4d71-a60a-3663726caa72/AAABjyA_wx8/AAABjwnlKNc/16x9-512.jpg", "date": "2024-04-27T16:13:00.000+02:00", "lat": 51.9607, "lon": 7.5996, "intensity": 0.5, "source": "Tagesschau"}, {"title": "Regionalliga: OFC verliert beim Letzten \u2013 Big Points f\u00fcr Steinbach", "url": "https://www.tagesschau.de/inland/regional/hessen/hr-regionalliga-ofc-verliert-beim-letzten--big-points-fuer-steinbach-102.html", "thumbnailUrl": "https://images.tagesschau.de/image/3d472cca-ca85-4cca-ad45-9b929556578f/AAABjyABlQM/AAABjwnlKNc/16x9-512.jpg", "date": "2024-04-27T16:09:05.514+02:00", "lat": 50.354, "lon": 8.2718, "intensity": 0.7, "source": "Tagesschau"}, {"title": "FC Homburg verliert in Kassel 1:2", "url": "https://www.tagesschau.de/inland/regional/saarland/sr-homburg-verliert-in-kassel-1-102.html", "thumbnailUrl": "https://images.tagesschau.de/image/5e03d9bb-11f5-477b-8674-50ed89666ed1/AAABjx_0r3Y/AAABjwnlKNc/16x9-512.jpg", "date": "2024-04-27T16:09:00.000+02:00", "lat": 51.3128, "lon": 9.4895, "intensity": 0.7, "source": "Tagesschau"}, {"title": "1. FC Saarbr\u00fccken verliert gegen Halle 0:1", "url": "https://www.tagesschau.de/inland/regional/saarland/sr-fcs-will-gegen-halle-alles-in-die-waagschale-werfen-102.html", "thumbnailUrl": "https://images.tagesschau.de/image/a8825b31-0e5a-4b0f-94fb-9b1b361fd3b3/AAABjx_mCmg/AAABjwnlKNc/16x9-512.jpg", "date": "2024-04-27T16:01:00.000+02:00", "lat": 49.2411, "lon": 6.9814, "intensity": 0.8, "source": "Tagesschau"}, {"title": "Weil warnt vor einem vorzeitigen Aus der Ampel-Koalition", "url": "https://www.tagesschau.de/inland/regional/niedersachsen/ndr-weil-warnt-vor-einem-vorzeitigen-aus-der-ampel-koalition-100.html", "thumbnailUrl": "https://images.tagesschau.de/image/d340a34e-b97f-4fac-b56f-8f8885460db7/AAABjx_4cWs/AAABjwnlKNc/16x9-512.jpg", "date": "2024-04-27T16:00:00.000+02:00", "lat": 52.3759, "lon": 9.984, "intensity": 0.7, "source": "Tagesschau"}, {"title": "Senioren auf der Stra\u00dfe ausgeraubt - Polizei sucht Zeugen", "url": "https://www.tagesschau.de/inland/regional/niedersachsen/ndr-senioren-auf-der-strasse-ausgeraubt-polizei-sucht-zeugen-100.html", "thumbnailUrl": "https://images.tagesschau.de/image/2ce8ad0c-a268-461c-a789-9d6026d70bc5/AAABjx_kaBs/AAABjwnlKNc/16x9-512.jpg", "date": "2024-04-27T15:50:00.000+02:00", "lat": 53.0793, "lon": 8.8017, "intensity": 0.8, "source": "Tagesschau"}, {"title": "K\u00f6nigstag in den Niederlanden: Deutsche feiern mit den Nachbarn", "url": "https://www.tagesschau.de/inland/regional/niedersachsen/ndr-koenigstag-in-den-niederlanden-deutsche-feiern-mit-den-nachbarn-100.html", "thumbnailUrl": "https://images.tagesschau.de/image/4bf6b173-b20c-4a04-8433-4e360dbcf240/AAABjx_SKxE/AAABjwnlKNc/16x9-512.jpg", "date": "2024-04-27T15:48:00.000+02:00", "lat": 52.1326, "lon": 5.2913, "intensity": 0.6, "source": "Tagesschau"}, {"title": "Wetter im Norden: Fr\u00fchsommer im Anmarsch", "url": "https://www.tagesschau.de/inland/regional/hamburg/ndr-wetter-im-norden-fruehsommer-im-anmarsch-100.html", "thumbnailUrl": "https://images.tagesschau.de/image/a3010f89-bc76-4cb6-91b9-6cc4e556e918/AAABjx3193A/AAABjwnlKNc/16x9-512.jpg", "date": "2024-04-27T15:48:00.000+02:00", "lat": 53.5511, "lon": 9.9937, "intensity": 0.6, "source": "Tagesschau"}, {"title": "OB-Wahl: Saarlouis fordert einfachere Kandidaten-Pr\u00fcfung", "url": "https://www.tagesschau.de/inland/regional/saarland/sr-ob-wahl-saarlouis-fordert-einfachere-kandidaten-pruefung-100.html", "thumbnailUrl": "https://images.tagesschau.de/image/524922f7-4332-4b7a-a1f7-b373768346e9/AAABjx_IwRU/AAABjwnlKNc/16x9-512.jpg", "date": "2024-04-27T15:36:00.000+02:00", "lat": 49.3071, "lon": 6.7533, "intensity": 0.7, "source": "Tagesschau"}, {"title": "Fragen und Antworten: Was beim Grillen in Berlin und Brandenburg erlaubt ist - und was nicht", "url": "https://www.tagesschau.de/inland/regional/brandenburg/rbb-fragen-und-antworten-was-beim-grillen-in-berlin-und-brandenburg-erlaubt-ist-und-was-nicht-100.html", "thumbnailUrl": "https://images.tagesschau.de/image/6b640725-f717-4779-8528-7dcade788d6b/AAABjx_HGBI/AAABjwnlKNc/16x9-512.jpg", "date": "2024-04-27T15:32:59.000+02:00", "lat": 52.52, "lon": 13.4049, "intensity": 0.7, "source": "Tagesschau"}, {"title": "Eishockey: Kassel Huskies stehen nach Final-Debakel vor Umbruch", "url": "https://www.tagesschau.de/inland/regional/hessen/hr-eishockey-kassel-huskies-stehen-nach-final-debakel-vor-umbruch-102.html", "thumbnailUrl": "https://images.tagesschau.de/image/89f1ba31-0f18-4b6e-92d0-5a5580dd18e8/AAABjx-91dQ/AAABjwnlKNc/16x9-512.jpg", "date": "2024-04-27T15:28:00.419+02:00", "lat": 51.312711, "lon": 9.4867, "intensity": 0.8, "source": "Tagesschau"}, {"title": "Burkhard Redemski: Der Lukenmann in der Brauerei Flensburg ", "url": "https://www.tagesschau.de/inland/regional/schleswigholstein/ndr-burkhard-redemski-der-lukenmann-in-der-brauerei-flensburg-102.html", "thumbnailUrl": "https://images.tagesschau.de/image/3e19a9e8-f76b-4e9b-b354-d8392ba0eb2c/AAABjx_2pZM/AAABjwnlKNc/16x9-512.jpg", "date": "2024-04-27T15:24:00.000+02:00", "lat": 54.793, "lon": 9.4246, "intensity": 0.3, "source": "Tagesschau"}, {"title": "Hamburgs Gr\u00fcne starten mit Landesparteitag in den Wahlkampf ", "url": "https://www.tagesschau.de/inland/regional/hamburg/ndr-hamburgs-gruene-starten-mit-landesparteitag-in-den-wahlkampf-100.html", "thumbnailUrl": "https://images.tagesschau.de/image/36d02539-b62b-411e-9544-be8eb99a8fcb/AAABjx-95r4/AAABjwnlKNc/16x9-512.jpg", "date": "2024-04-27T15:24:00.000+02:00", "lat": 53.5511, "lon": 9.9937, "intensity": 0.8, "source": "Tagesschau"}, {"title": "Ausstellung zu Comiczeichner Volker Reiche in Frankfurt: \"Mecki\" und \"Strizz\" h\u00e4ngen jetzt im Museum", "url": "https://www.tagesschau.de/inland/regional/hessen/hr-ausstellung-zu-comiczeichner-volker-reiche-in-frankfurt-mecki-und-strizz-haengen-jetzt-im-museum-100.html", "thumbnailUrl": "https://images.tagesschau.de/image/db84088d-01bc-4440-8afe-402d0dca3641/AAABjx-6Hz8/AAABjwnlKNc/16x9-512.jpg", "date": "2024-04-27T15:23:41.535+02:00", "lat": 50.1109, "lon": 8.6821, "intensity": 0.4, "source": "Tagesschau"}, {"title": "Wie Firmen die Personalnot in Kitas lindern k\u00f6nnen", "url": "https://www.tagesschau.de/wirtschaft/arbeitsmarkt/kitas-fachkraeftemangel-kinderbetreuung-firmen-100.html", "thumbnailUrl": "https://images.tagesschau.de/image/c1ca9ad5-07f2-4da7-9360-47c964dd0dff/AAABhnRT12U/AAABjwnlKNc/16x9-512.jpg", "date": "2024-04-27T15:22:44.061+02:00", "lat": 53.5511, "lon": 9.9976, "intensity": 0.6, "source": "Tagesschau"}, {"title": "Jetzt live: Die Partien des 31. Spieltags", "url": "https://www.sportschau.de/live-und-ergebnisse/fussball/deutschland-bundesliga/spiele-und-ergebnisse/", "thumbnailUrl": "https://images.tagesschau.de/image/9f8165ba-ca30-4328-b2f7-799fe3637a8c/AAABiNkNSio/AAABjwnlKNc/16x9-512.jpg", "date": "2024-04-27T15:13:28.388+02:00", "lat": 51.4816, "lon": 7.227, "intensity": 0.6, "source": "Tagesschau"}, {"title": "Herber D\u00e4mpfer f\u00fcr die SV Elversberg gegen Paderborn", "url": "https://www.tagesschau.de/inland/regional/saarland/sr-sv-elversberg-kann-klassenerhalt-perfekt-machen-102.html", "thumbnailUrl": "https://images.tagesschau.de/image/59dd317d-0246-42a6-8b4c-55471238c7b9/AAABjx-vHDc/AAABjwnlKNc/16x9-512.jpg", "date": "2024-04-27T15:07:00.000+02:00", "lat": 49.3033, "lon": 7.1164, "intensity": 0.4, "source": "Tagesschau"}, {"title": "Mit der \"Bayern-Agenda\" nach Europa", "url": "https://www.tagesschau.de/inland/innenpolitik/bayern-csu-parteitag-wahlkampfauftakt-100.html", "thumbnailUrl": "https://images.tagesschau.de/image/e1e0d7f8-f0f9-48ca-93df-2af335cc8cff/AAABjx-jLU0/AAABjwnlKNc/16x9-512.jpg", "date": "2024-04-27T14:58:59.334+02:00", "lat": 48.135125, "lon": 11.581981, "intensity": 0.3, "source": "Tagesschau"}, {"title": "Frontalzusammensto\u00df mit Lkw: Autofahrer lebensgef\u00e4hrlich verletzt", "url": "https://www.tagesschau.de/inland/regional/niedersachsen/ndr-frontalzusammenstoss-mit-lkw-autofahrer-lebensgefaehrlich-verletzt-100.html", "thumbnailUrl": "https://images.tagesschau.de/image/e4b449e9-610b-4cf1-8322-9f249969a604/AAABjyAZZEk/AAABjwnlKNc/16x9-512.jpg", "date": "2024-04-27T14:49:00.000+02:00", "lat": 52.669, "lon": 7.5845, "intensity": 0.8, "source": "Tagesschau"}, {"title": "AfD beschlie\u00dft Wahlprogramm f\u00fcr Landtagswahl", "url": "https://www.tagesschau.de/inland/regional/thueringen/mdr-afd-beschliesst-wahlprogramm-fuer-landtagswahl-100.html", "thumbnailUrl": "https://images.tagesschau.de/image/b23835ea-a87f-4de9-8f49-952568d6646a/AAABjyHPImI/AAABjwnlKNc/16x9-512.jpg", "date": "2024-04-27T14:47:57.000+02:00", "lat": 50.827264, "lon": 11.291046, "intensity": 0.6, "source": "Tagesschau"}, {"title": "Wegen Pferde\u00e4pfeln: Aalen macht versehentlich Weidehaltung unm\u00f6glich", "url": "https://www.tagesschau.de/inland/regional/badenwuerttemberg/swr-wegen-pferdeaepfeln-aalen-macht-versehentlich-weidehaltung-unmoeglich-100.html", "thumbnailUrl": "https://images.tagesschau.de/image/d2c8b3c6-199e-4c87-aae4-b9f76e568e29/AAABjyGFvbM/AAABjwnlKNc/16x9-512.jpg", "date": "2024-04-27T14:39:06.000+02:00", "lat": 48.84, "lon": 10.093, "intensity": 0.7, "source": "Tagesschau"}, {"title": "Umzug steht an: Im Bremerhavener Ameos-Klinikum wird aufger\u00e4umt", "url": "https://www.tagesschau.de/inland/regional/bremen/rb-umzug-steht-an-im-bremerhavener-ameos-klinikum-wird-aufgeraeumt-100.html", "thumbnailUrl": "https://images.tagesschau.de/image/cc29570e-35f5-4386-af8a-0c0ea8996c90/AAABjx-R8Pc/AAABjwnlKNc/16x9-512.jpg", "date": "2024-04-27T14:37:00.000+02:00", "lat": 53.5396, "lon": 8.5784, "intensity": 0.6, "source": "Tagesschau"}, {"title": "Unfall mit mehreren Fahrzeugen auf der A7: Eine Person verletzt", "url": "https://www.tagesschau.de/inland/regional/niedersachsen/ndr-unfall-mit-mehreren-fahrzeugen-auf-der-a7-eine-person-verletzt-100.html", "thumbnailUrl": "https://images.tagesschau.de/image/c3b33c93-1cac-41df-8bdb-542e881f16a6/AAABjx-ZN8g/AAABjwnlKNc/16x9-512.jpg", "date": "2024-04-27T14:35:00.000+02:00", "lat": 51.8272, "lon": 9.8751, "intensity": 0.8, "source": "Tagesschau"}, {"title": "Kaputte Eisenbahnbr\u00fccke: Millionenverlust f\u00fcr den Seehafen Brake", "url": "https://www.tagesschau.de/inland/regional/niedersachsen/ndr-kaputte-eisenbahnbruecke-millionenverlust-fuer-seehafen-brake-100.html", "thumbnailUrl": "https://images.tagesschau.de/image/5f518b69-6d6f-4b94-befd-e1577c528079/AAABjx-DN-A/AAABjwnlKNc/16x9-512.jpg", "date": "2024-04-27T14:22:00.000+02:00", "lat": 53.3375, "lon": 8.4833, "intensity": 0.7, "source": "Tagesschau"}, {"title": "44-J\u00e4hriger f\u00e4hrt ohne F\u00fchrerschein, baut Unfall und fl\u00fcchtet", "url": "https://www.tagesschau.de/inland/regional/niedersachsen/ndr-44-jaehriger-faehrt-ohne-fuehrerschein-baut-unfall-und-fluechtet-100.html", "thumbnailUrl": "https://images.tagesschau.de/image/1940cecd-5be1-4549-9e56-6e5f4e5b7a80/AAABjx-KkaA/AAABjwnlKNc/16x9-512.jpg", "date": "2024-04-27T14:14:00.000+02:00", "lat": 52.3735, "lon": 9.7356, "intensity": 0.7, "source": "Tagesschau"}, {"title": "Sch\u00fcler aus NRW bei Busunfall in Frankreich verletzt", "url": "https://www.tagesschau.de/inland/regional/hessen/hr-schueler-aus-frankfurt-bei-busunfall-in-frankreich-verletzt-100.html", "thumbnailUrl": "https://images.tagesschau.de/image/39ef4d60-7da0-43f9-ae99-8fa5ccf2d4ad/AAABjx96CHU/AAABjwnlKNc/16x9-512.jpg", "date": "2024-04-27T14:12:29.365+02:00", "lat": 50.951378, "lon": 1.858686, "intensity": 0.8, "source": "Tagesschau"}, {"title": "Galeria-Filialen in Hessen bleiben von Schlie\u00dfungen verschont", "url": "https://www.tagesschau.de/inland/regional/hessen/hr-galeria-standorte-in-hessen-bleiben-von-schliessungen-verschont-100.html", "thumbnailUrl": "https://images.tagesschau.de/image/7b11debd-6322-4787-9700-d9309efe40cf/AAABjx94Ouw/AAABjwnlKNc/16x9-512.jpg", "date": "2024-04-27T14:10:08.744+02:00", "lat": 50.583, "lon": 9.692, "intensity": 0.8, "source": "Tagesschau"}, {"title": "Oberb\u00fcrgermeister, Minister und K\u00f6nig bei der Er\u00f6ffnung des Maimarkts ", "url": "https://www.tagesschau.de/inland/regional/badenwuerttemberg/swr-oberbuergermeister-minister-und-koenig-bei-der-eroeffnung-des-maimarkts-100.html", "thumbnailUrl": "https://images.tagesschau.de/image/8a27be40-07ff-4a40-936b-c81886ad8f2b/AAABjyAxIz0/AAABjwnlKNc/16x9-512.jpg", "date": "2024-04-27T14:07:33.000+02:00", "lat": 49.4875, "lon": 8.4596, "intensity": 0.7, "source": "Tagesschau"}, {"title": "Berlin lehnt Verhandlungen mit Verdi zu besseren Arbeitsbedingungen an Kitas ab", "url": "https://www.tagesschau.de/inland/regional/berlin/rbb-berlin-lehnt-verhandlungen-mit-verdi-zu-besseren-arbeitsbedingungen-an-kitas-ab-102.html", "thumbnailUrl": "https://images.tagesschau.de/image/9a5d0417-b2cc-419d-b73e-b3dc7a48448e/AAABjx9vGrk/AAABjwnlKNc/16x9-512.jpg", "date": "2024-04-27T13:52:00.000+02:00", "lat": 52.520008, "lon": 13.404954, "intensity": 0.6, "source": "Tagesschau"}, {"title": "Alarmstart \u00fcber der Ostsee: Eurofighter fangen russische Maschine ab", "url": "https://www.tagesschau.de/inland/regional/mecklenburgvorpommern/ndr-alarmstart-ueber-der-ostsee-eurofighter-fangen-russische-maschine-ab-100.html", "thumbnailUrl": "https://images.tagesschau.de/image/e5023808-22ec-4a28-a833-bf2e2b95a1d9/AAABjx-_orE/AAABjwnlKNc/16x9-512.jpg", "date": "2024-04-27T13:39:00.000+02:00", "lat": 54.196, "lon": 14.3153, "intensity": 0.8, "source": "Tagesschau"}, {"title": "Ritter Sport ruft Schokolade mit Joghurtf\u00fcllung zur\u00fcck", "url": "https://www.tagesschau.de/inland/regional/badenwuerttemberg/swr-ritter-sport-ruft-schokolade-mit-joghurtfuellung-zurueck-100.html", "thumbnailUrl": "https://images.tagesschau.de/image/30a4fea0-ac50-4398-b199-97d978a720e9/AAABjx9gYS0/AAABjwnlKNc/16x9-512.jpg", "date": "2024-04-27T13:36:53.000+02:00", "lat": 48.6258, "lon": 9.0057, "intensity": 0.7, "source": "Tagesschau"}, {"title": "Gro\u00df\u00fcbung in Halle mit rund 400 Einsatzkr\u00e4ften ", "url": "https://www.tagesschau.de/inland/regional/sachsenanhalt/mdr-grossuebung-in-halle-mit-rund-400-einsatzkraeften-100.html", "thumbnailUrl": "https://images.tagesschau.de/image/2563ea4c-e519-4101-81d4-280e63090f93/AAABjyHNJjA/AAABjwnlKNc/16x9-512.jpg", "date": "2024-04-27T13:09:55.000+02:00", "lat": 51.4828, "lon": 11.9678, "intensity": 0.7, "source": "Tagesschau"}, {"title": "Galeria Karstadt Kaufhof schlie\u00dft Filialen in Berlin-Lichtenberg, Spandau, Tempelhof und in Potsdam", "url": "https://www.tagesschau.de/inland/regional/berlin/rbb-galeria-karstadt-kaufhof-will-16-filialen-schliessen-wohl-auch-berlin-betroffen-100.html", "thumbnailUrl": "https://images.tagesschau.de/image/cec8e902-c15b-4c4c-a6b9-333f88cf1083/AAABjx7yjs4/AAABjwnlKNc/16x9-512.jpg", "date": "2024-04-27T13:08:20.000+02:00", "lat": 52.520008, "lon": 13.404954, "intensity": 0.8, "source": "Tagesschau"}, {"title": "Ukraine meldet schwere Sch\u00e4den an Kraftwerken", "url": "https://www.tagesschau.de/ausland/europa/ukraine-angriffe-kraftwerke-100.html", "thumbnailUrl": "https://images.tagesschau.de/image/2cd2767a-2ab2-4387-800f-203d6e412268/AAABjx7x4bY/AAABjwnlKNc/16x9-512.jpg", "date": "2024-04-27T13:07:25.187+02:00", "lat": 50.4501, "lon": 30.5234, "intensity": 0.8, "source": "Tagesschau"}, {"title": "Tornados verw\u00fcsten Orte in den USA", "url": "https://www.tagesschau.de/ausland/amerika/tornado-omaha-100.html", "thumbnailUrl": "https://images.tagesschau.de/image/d05f8700-76e3-44a4-9106-5dd303743f58/AAABjx8xVsU/AAABjwnlKNc/16x9-512.jpg", "date": "2024-04-27T12:58:08.031+02:00", "lat": 38.9072, "lon": -97.7431, "intensity": 0.7, "source": "Tagesschau"}, {"title": "Berlin-Kladow: Seniorin wird von BVG-Bus \u00fcberrollt und stirbt", "url": "https://www.tagesschau.de/inland/regional/berlin/rbb-berlin-kladow-seniorin-wird-von-bvg-bus-ueberrollt-und-stirbt-100.html", "thumbnailUrl": "https://images.tagesschau.de/image/9c6212c6-cabe-4eae-8c04-915bb42a7c2e/AAABjx8w4Ek/AAABjwnlKNc/16x9-512.jpg", "date": "2024-04-27T12:52:02.000+02:00", "lat": 52.4494, "lon": 13.1879, "intensity": 0.8, "source": "Tagesschau"}, {"title": "Polizei stellt mehr als 5.200 zu schnelle Fahrzeuge fest", "url": "https://www.tagesschau.de/inland/regional/sachsenanhalt/mdr-polizei-stellt-mehr-als-5-200-zu-schnelle-fahrzeuge-fest-100.html", "thumbnailUrl": "https://images.tagesschau.de/image/84c8f9fb-414d-43cc-86b4-1af6b437e1a9/AAABjyHNUYo/AAABjwnlKNc/16x9-512.jpg", "date": "2024-04-27T12:47:08.000+02:00", "lat": 52.1125, "lon": 11.6276, "intensity": 0.8, "source": "Tagesschau"}, {"title": "Zug rammt Bagger auf Gleisen bei Oberzent", "url": "https://www.tagesschau.de/inland/regional/hessen/hr-zug-rammt-bagger-auf-gleisen-bei-oberzent-100.html", "thumbnailUrl": "https://images.tagesschau.de/image/5f7e6f5f-c98c-4cba-9893-9c96cc3c990e/AAABjx8a0Pc/AAABjwnlKNc/16x9-512.jpg", "date": "2024-04-27T12:29:43.023+02:00", "lat": 49.5725, "lon": 9.0125, "intensity": 0.8, "source": "Tagesschau"}, {"title": "Konkurrenz zu Fahrdienstleistern: Taxis in Berlin k\u00f6nnen bald Festpreise anbieten ", "url": "https://www.tagesschau.de/inland/regional/berlin/rbb-konkurrenz-zu-fahrdienstleistern-taxen-in-berlin-koennen-bald-festpreise-anbieten-100.html", "thumbnailUrl": "https://images.tagesschau.de/image/ef04d5fc-9a9d-443a-9d20-763f0e8c1ade/AAABjx6XE98/AAABjwnlKNc/16x9-512.jpg", "date": "2024-04-27T12:26:18.000+02:00", "lat": 52.520008, "lon": 13.404954, "intensity": 0.8, "source": "Tagesschau"}, {"title": "Diese Galeria-Standorte werden geschlossen", "url": "https://www.tagesschau.de/wirtschaft/galeria-filialen-schliessung-102.html", "thumbnailUrl": "https://images.tagesschau.de/image/fcdb03c2-57a2-490c-889a-cecd497bc634/AAABjx6j0bQ/AAABjwnlKNc/16x9-512.jpg", "date": "2024-04-27T12:14:01.484+02:00", "lat": 53.554639, "lon": 9.986212, "intensity": 0.8, "source": "Tagesschau"}, {"title": "Hochschule Fulda sperrt Sporthalle aus Sicherheitsgr\u00fcnden", "url": "https://www.tagesschau.de/inland/regional/hessen/hr-hochschule-fulda-sperrt-gebaeude-aus-sicherheitsgruenden-100.html", "thumbnailUrl": "https://images.tagesschau.de/image/c0272608-2f10-4e32-b16d-e529203a291a/AAABjx8MLQ8/AAABjwnlKNc/16x9-512.jpg", "date": "2024-04-27T12:13:13.175+02:00", "lat": 50.5666, "lon": 9.6822, "intensity": 0.6, "source": "Tagesschau"}, {"title": "Diskussionen in CDU und SPD: Wie umgehen mit t\u00fcrkischen Extremisten?", "url": "https://www.tagesschau.de/inland/regional/badenwuerttemberg/swr-diskussionen-in-cdu-und-spd-wie-umgehen-mit-tuerkischen-extremisten-100.html", "thumbnailUrl": "https://images.tagesschau.de/image/2929cac8-15e0-4636-a1ba-cee462ade6b8/AAABjyDHRBs/AAABjwnlKNc/16x9-512.jpg", "date": "2024-04-27T12:02:18.000+02:00", "lat": 48.6616, "lon": 9.6606, "intensity": 0.8, "source": "Tagesschau"}, {"title": "Fl\u00fcchtlingsunterkunft in Berlin-Tegel: Zwei Personen erleiden Rauchgasvergiftung bei Brandl\u00f6schung", "url": "https://www.tagesschau.de/inland/regional/berlin/rbb-fluechtlingsunterkunft-in-berlin-tegel-zwei-personen-erleiden-rauchgasvergiftung-bei-brandloeschung-100.html", "thumbnailUrl": "https://images.tagesschau.de/image/bc6681df-298c-44a0-9e66-43fe460efcd8/AAABjx8BV00/AAABjwnlKNc/16x9-512.jpg", "date": "2024-04-27T11:58:00.000+02:00", "lat": 52.5597, "lon": 13.2903, "intensity": 0.8, "source": "Tagesschau"}, {"title": "Galeria Karstadt Kaufhof: Filiale in Oldenburg muss schlie\u00dfen", "url": "https://www.tagesschau.de/inland/regional/niedersachsen/ndr-galeria-karstadt-kaufhof-filiale-in-oldenburg-muss-schliessen-100.html", "thumbnailUrl": "https://images.tagesschau.de/image/493202af-7bb0-4d3d-82ac-a02537b2a0b3/AAABjyAe5S8/AAABjwnlKNc/16x9-512.jpg", "date": "2024-04-27T11:54:00.000+02:00", "lat": 53.14345, "lon": 8.21509, "intensity": 0.8, "source": "Tagesschau"}, {"title": "Gefahr f\u00fcr Bidens Wahlkampf?", "url": "https://www.tagesschau.de/ausland/amerika/campus-demos-propalaestina-100.html", "thumbnailUrl": "https://images.tagesschau.de/image/c9c27c07-290e-461d-8664-3755b389c226/AAABjx73tF0/AAABjwnlKNc/16x9-512.jpg", "date": "2024-04-27T11:51:41.412+02:00", "lat": 37.0902, "lon": -95.7129, "intensity": 0.8, "source": "Tagesschau"}, {"title": "Die Optionen der FDP", "url": "https://www.tagesschau.de/inland/fdp-koalition-streit-100.html", "thumbnailUrl": "https://images.tagesschau.de/image/65a89b49-fad3-4d01-877d-7277c906e79d/AAABjxy4Xqk/AAABjwnlKNc/16x9-512.jpg", "date": "2024-04-27T11:40:18.278+02:00", "lat": 51.4873, "lon": 9.9937, "intensity": 0.3, "source": "Tagesschau"}, {"title": "Interview | Modigliani-Ausstellung im Museum Barberini: \"Ein K\u00fcnstler voller Geheimnisse\"", "url": "https://www.tagesschau.de/inland/regional/brandenburg/rbb-interview--modigliani-ausstellung-im-museum-barberini-ein-kuenstler-voller-geheimnisse-100.html", "thumbnailUrl": "https://images.tagesschau.de/image/4086ccc9-fd50-469d-bb64-96ac3f516091/AAABjx8BOrk/AAABjwnlKNc/16x9-512.jpg", "date": "2024-04-27T11:33:00.000+02:00", "lat": 52.4008, "lon": 13.0333, "intensity": 0.5, "source": "Tagesschau"}, {"title": "Auto in Lagerhalle f\u00e4ngt Feuer: Ein Mann verletzt", "url": "https://www.tagesschau.de/inland/regional/niedersachsen/ndr-auto-in-lagerhalle-faengt-feuer-ein-mann-verletzt-100.html", "thumbnailUrl": "https://images.tagesschau.de/image/a5a83926-c578-4ae1-8340-4636fc8d886d/AAABjx-UHao/AAABjwnlKNc/16x9-512.jpg", "date": "2024-04-27T11:23:00.000+02:00", "lat": 52.4153, "lon": 7.7461, "intensity": 0.8, "source": "Tagesschau"}, {"title": "Die ewigen Rivalen: F\u00fcnf besondere Final-Duelle zwischen den BR Volleys und Friedrichshafen", "url": "https://www.tagesschau.de/inland/regional/berlin/rbb-die-ewigen-rivalen-fuenf-besondere-final-duelle-zwischen-den-br-volleys-und-friedrichshafen-102.html", "thumbnailUrl": "https://images.tagesschau.de/image/cbe0f631-dc7f-4444-8dfe-dca745f9b2d5/AAABjx7Id1I/AAABjwnlKNc/16x9-512.jpg", "date": "2024-04-27T10:55:22.000+02:00", "lat": 52.520008, "lon": 13.404954, "intensity": 0.8, "source": "Tagesschau"}, {"title": "Antisemitismus: G\u00e4steb\u00fccher in KZ-Gedenkst\u00e4tte Sachsenhausen voll mit Hasskommentaren", "url": "https://www.tagesschau.de/inland/regional/brandenburg/rbb-antisemitismus-gaestebuecher-in-kz-gedenkstaette-sachsenhausen-voll-mit-hasskommentaren-100.html", "thumbnailUrl": "https://images.tagesschau.de/image/aa0cf5ee-ec65-4014-bca1-8903cf52a64a/AAABjx6_VhI/AAABjwnlKNc/16x9-512.jpg", "date": "2024-04-27T10:45:02.000+02:00", "lat": 52.7657, "lon": 13.2394, "intensity": 0.8, "source": "Tagesschau"}, {"title": "Sechs Zu-Null-Spiele in Folge: Holstein-Kiel-Keeper Weiner jagt gegen Lautern den Rekord", "url": "https://www.tagesschau.de/inland/regional/schleswigholstein/ndr-sechs-zu-null-spiele-in-folge-holstein-kiel-keeper-weiner-jagt-gegen-lautern-den-rekord-100.html", "thumbnailUrl": "https://images.tagesschau.de/image/ab41a6fd-9451-4ebe-ae1e-82ae74d4be10/AAABjxT_mBo/AAABjwnlKNc/16x9-512.jpg", "date": "2024-04-27T10:38:00.000+02:00", "lat": 54.3233, "lon": 10.1393, "intensity": 0.8, "source": "Tagesschau"}, {"title": "Katar \u00fcberdenkt sein Verh\u00e4ltnis zur Hamas", "url": "https://www.tagesschau.de/ausland/asien/katar-hamas-100.html", "thumbnailUrl": "https://images.tagesschau.de/image/950a14d2-4637-4d0a-a3d8-2bdf42b4b8ca/AAABjx60ASo/AAABjwnlKNc/16x9-512.jpg", "date": "2024-04-27T10:37:44.713+02:00", "lat": 25.354826, "lon": 51.183884, "intensity": 0.6, "source": "Tagesschau"}, {"title": "Wenn das Wasser alles nimmt", "url": "https://www.tagesschau.de/ausland/afrika/ueberflutungen-kenia-100.html", "thumbnailUrl": "https://images.tagesschau.de/image/9afc14f5-f1ac-4188-941c-55ed5383ef28/AAABjx6xvt4/AAABjwnlKNc/16x9-512.jpg", "date": "2024-04-27T10:35:17.234+02:00", "lat": 0.0236, "lon": 37.9062, "intensity": 0.8, "source": "Tagesschau"}, {"title": "Sparkassenautomaten in Dessau werden nachts geschlossen", "url": "https://www.tagesschau.de/inland/regional/sachsenanhalt/mdr-sparkassenautomaten-in-dessau-werden-nachts-geschlossen-100.html", "thumbnailUrl": "https://images.tagesschau.de/image/e051a5d5-6711-4938-9c77-ef253f81a22c/AAABjyHNk7E/AAABjwnlKNc/16x9-512.jpg", "date": "2024-04-27T10:31:03.000+02:00", "lat": 51.843257, "lon": 12.236007, "intensity": 0.5, "source": "Tagesschau"}, {"title": "Bremer Karstadt-Filiale bleibt erhalten \u2013 16 andere machen dicht", "url": "https://www.tagesschau.de/inland/regional/bremen/rb-bremer-karstadt-filiale-bleibt-erhalten--16-andere-machen-dicht-100.html", "thumbnailUrl": "https://images.tagesschau.de/image/ee4cd994-d14c-4753-8df5-2158557c40cc/AAABjx6lp8c/AAABjwnlKNc/16x9-512.jpg", "date": "2024-04-27T10:17:00.000+02:00", "lat": 53.0793, "lon": 8.8017, "intensity": 0.7, "source": "Tagesschau"}, {"title": "Brandenburger Landtag beschlie\u00dft Verfassungstreue-Check f\u00fcr Beamte", "url": "https://www.tagesschau.de/inland/regional/brandenburg/rbb-brandenburger-landtag-angehende-beamte-werden-in-brandenburg-kuenftig-auf-verfassungstreue-geprueft-100.html", "thumbnailUrl": "https://images.tagesschau.de/image/17a92e4e-ab59-44bb-a654-58644a543295/AAABjx6PuK8/AAABjwnlKNc/16x9-512.jpg", "date": "2024-04-27T09:55:35.000+02:00", "lat": 52.52, "lon": 13.403, "intensity": 0.7, "source": "Tagesschau"}, {"title": "Bezahlkarte f\u00fcr Asylbewerber: Arbeitskreis Asyl spricht von Katastrophe", "url": "https://www.tagesschau.de/inland/regional/badenwuerttemberg/swr-bezahlkarte-fuer-asylbewerber-arbeitskreis-asyl-spricht-von-katastrophe-100.html", "thumbnailUrl": "https://images.tagesschau.de/image/1d5fe361-695a-4c55-86d3-a1b28c35cbc7/AAABjx6MAj0/AAABjwnlKNc/16x9-512.jpg", "date": "2024-04-27T09:53:00.000+02:00", "lat": 49.4924, "lon": 9.7752, "intensity": 0.8, "source": "Tagesschau"}, {"title": "Stadtallendorf: Millionenschaden durch Brand in Eisengie\u00dferei", "url": "https://www.tagesschau.de/inland/regional/hessen/hr-millionenschaden-durch-brand-in-eisengiesserei-100.html", "thumbnailUrl": "https://images.tagesschau.de/image/1ab51157-587a-4212-903a-07c3069adfbc/AAABjx6lvx0/AAABjwnlKNc/16x9-512.jpg", "date": "2024-04-27T09:40:53.026+02:00", "lat": 50.8491, "lon": 8.9765, "intensity": 0.8, "source": "Tagesschau"}, {"title": "Weiter Probleme am Hamburger Hauptbahnhof", "url": "https://www.tagesschau.de/inland/regional/hamburg-zugunfall-einschraenkungen-100.html", "thumbnailUrl": "https://images.tagesschau.de/image/0b985d5c-ac3b-454c-978e-3762f614666a/AAABjx58Om4/AAABjwnlKNc/16x9-512.jpg", "date": "2024-04-27T09:39:46.458+02:00", "lat": 53.5528, "lon": 9.9937, "intensity": 0.8, "source": "Tagesschau"}, {"title": "Volksfest: Baumbl\u00fctenfest in Werder hat begonnen", "url": "https://www.tagesschau.de/inland/regional/brandenburg/rbb-volksfest-baumbluetenfest-in-werder-hat-begonnen-100.html", "thumbnailUrl": "https://images.tagesschau.de/image/bc332f9e-a2d0-41f2-90cf-ec50ccde51de/AAABjx6BHDU/AAABjwnlKNc/16x9-512.jpg", "date": "2024-04-27T09:36:35.000+02:00", "lat": 52.3892, "lon": 12.926, "intensity": 0.6, "source": "Tagesschau"}, {"title": "La Familia: Truckerfestival in Meinerzhagen f\u00fcr guten Zweck", "url": "https://www.tagesschau.de/inland/regional/nordrheinwestfalen/wdr-la-familia-truckerfestival-in-meinerzhagen-fuer-guten-zweck-100.html", "thumbnailUrl": "https://images.tagesschau.de/image/3fd5b568-3d94-4919-a31d-3cd41b16758c/AAABjx8E0vU/AAABjwnlKNc/16x9-512.jpg", "date": "2024-04-27T09:32:44.000+02:00", "lat": 51.1033, "lon": 7.6184, "intensity": 0.6, "source": "Tagesschau"}, {"title": "Traktorgespann mit Insektizid in Romrod umgekippt", "url": "https://www.tagesschau.de/inland/regional/hessen/hr-traktorgespann-mit-insektizid-in-romrod-umgekippt-100.html", "thumbnailUrl": "https://images.tagesschau.de/image/557c7b50-2745-46e6-9889-c5fcd3ce9798/AAABjx6BPfY/AAABjwnlKNc/16x9-512.jpg", "date": "2024-04-27T09:28:33.856+02:00", "lat": 50.7238, "lon": 9.1678, "intensity": 0.7, "source": "Tagesschau"}, {"title": "Schlie\u00dft die Bremer Karstadt-Filiale? Bekanntgabe am Vormittag", "url": "https://www.tagesschau.de/inland/regional/bremen/rb-schliesst-die-bremer-karstadt-filiale-bekanntgabe-am-vormittag-100.html", "thumbnailUrl": "https://images.tagesschau.de/image/b86bd19e-800f-42da-9dea-8ccf6ebb39df/AAABjx8yodg/AAABjwnlKNc/16x9-512.jpg", "date": "2024-04-27T09:24:00.000+02:00", "lat": 53.0793, "lon": 8.8017, "intensity": 0.8, "source": "Tagesschau"}, {"title": "Alles Wichtige zum Radrennen Eschborn-Frankfurt 2024: Strecke, Favoriten, Hot Spots", "url": "https://www.tagesschau.de/inland/regional/hessen/hr-strecke-106.html", "thumbnailUrl": "https://images.tagesschau.de/image/02acd89e-cf13-4aee-8a76-000195c278d5/AAABjx6BBO8/AAABjwnlKNc/16x9-512.jpg", "date": "2024-04-27T09:18:37.026+02:00", "lat": 50.1109, "lon": 8.5769, "intensity": 0.7, "source": "Tagesschau"}, {"title": "19-J\u00e4hriger stirbt bei Unfall mit Stadtbahn in Stuttgart ", "url": "https://www.tagesschau.de/inland/regional/badenwuerttemberg/swr-19-jaehriger-stirbt-bei-unfall-mit-stadtbahn-in-stuttgart-100.html", "thumbnailUrl": "https://images.tagesschau.de/image/6dd03203-2eda-4654-960d-8bcbc2a1b52e/AAABjxuCBY8/AAABjwnlKNc/16x9-512.jpg", "date": "2024-04-27T09:01:00.000+02:00", "lat": 48.7758, "lon": 9.1267, "intensity": 0.8, "source": "Tagesschau"}, {"title": "Entscheidung bei Galeria: Filialschlie\u00dfungen werden heute verk\u00fcndet", "url": "https://www.tagesschau.de/inland/regional/saarland/sr-entscheidung-ueber-zukunft-von-galeria-karstadt-kaufhof-gefallen-100.html", "thumbnailUrl": "https://images.tagesschau.de/image/c3041204-46f1-4b6a-809e-114dc70ae437/AAABjx5urD0/AAABjwnlKNc/16x9-512.jpg", "date": "2024-04-27T08:57:00.000+02:00", "lat": 49.2354, "lon": 6.9742, "intensity": 0.8, "source": "Tagesschau"}, {"title": "Die Lage nach der Flutkatastrophe", "url": "https://www.tagesschau.de/inland/regional/rheinlandpfalz/swr-liveticker-keine-anklage-gegen-ex-landrat-pfoehler-nach-der-flutkatastrophe-100.html", "thumbnailUrl": "https://images.tagesschau.de/image/a3ffd8e5-475d-441a-8973-37067d997bf4/AAABjx8_bqg/AAABjwnlKNc/16x9-512.jpg", "date": "2024-04-27T08:54:00.000+02:00", "lat": 50.2035, "lon": 7.2662, "intensity": 0.8, "source": "Tagesschau"}, {"title": "Feuerwehr in Freinsheim bringt vier Storcheneier zu Pflegeeltern", "url": "https://www.tagesschau.de/inland/regional/rheinlandpfalz/swr-feuerwehr-in-freinsheim-bringt-vier-storcheneier-zu-pflegeeltern-100.html", "thumbnailUrl": "https://images.tagesschau.de/image/114b64ea-5a09-4704-9fec-3ca985d49728/AAABjyAxONU/AAABjwnlKNc/16x9-512.jpg", "date": "2024-04-27T08:53:14.000+02:00", "lat": 49.5197, "lon": 8.2128, "intensity": 0.6, "source": "Tagesschau"}, {"title": "Hat die EU-Abgeordnete Ripa interne Informationen weitergegeben?", "url": "https://www.tagesschau.de/inland/regional/saarland/sr-hat-die-eu-abgeordnete-ripa-interne-informationen-weitergegeben-100.html", "thumbnailUrl": "https://images.tagesschau.de/image/76276206-c930-410f-b201-db4953538540/AAABjx5RYT0/AAABjwnlKNc/16x9-512.jpg", "date": "2024-04-27T08:53:00.000+02:00", "lat": 49.2502, "lon": 6.9969, "intensity": 0.7, "source": "Tagesschau"}, {"title": "Aufbewahrung von Beweismitteln: 274 Waffen nicht wie vorgesehen vernichtet", "url": "https://www.tagesschau.de/inland/regional/sachsenanhalt/mdr-polizist-soll-beweismittel-privat-gelagert-haben-100.html", "thumbnailUrl": "https://images.tagesschau.de/image/2433f97d-a9ce-4a29-a2e9-69773cb61d87/AAABjx5TQQY/AAABjwnlKNc/16x9-512.jpg", "date": "2024-04-27T08:51:49.000+02:00", "lat": 51.9503, "lon": 11.8575, "intensity": 0.8, "source": "Tagesschau"}, {"title": "Kommentar: Da ist noch immer Krieg vor unserer Haust\u00fcr", "url": "https://www.tagesschau.de/inland/regional/hamburg/ndr-kommentar-da-ist-noch-immer-krieg-vor-unserer-haustuer-102.html", "thumbnailUrl": "https://images.tagesschau.de/image/bb944274-973f-4a10-bb59-d75ef6a4f1e7/AAABjx5IWhw/AAABjwnlKNc/16x9-512.jpg", "date": "2024-04-27T08:40:00.000+02:00", "lat": 53.5511, "lon": 9.9937, "intensity": 0.6, "source": "Tagesschau"}, {"title": "Neue Hamburger Bildungspl\u00e4ne: Katastrophenschutz in der Schule", "url": "https://www.tagesschau.de/inland/regional/hamburg/ndr-neue-hamburger-bildungsplaene-katastrophenschutz-in-der-schule-100.html", "thumbnailUrl": "https://images.tagesschau.de/image/d1190089-80a8-4076-932d-7a6cb8228012/AAABjx5A90I/AAABjwnlKNc/16x9-512.jpg", "date": "2024-04-27T08:28:00.000+02:00", "lat": 53.5511, "lon": 9.9937, "intensity": 0.7, "source": "Tagesschau"}, {"title": "Ein Jahr schwarz-roter Senat in Berlin: Gute-Laune-Truppe mit Luft nach oben", "url": "https://www.tagesschau.de/inland/regional/berlin/rbb-ein-jahr-schwarz-roter-senat-in-berlin-gute-laune-truppe-mit-luft-nach-oben-100.html", "thumbnailUrl": "https://images.tagesschau.de/image/d3f858c0-14d2-4f20-8866-32a2b3e5fa9d/AAABjx4up8E/AAABjwnlKNc/16x9-512.jpg", "date": "2024-04-27T08:05:09.000+02:00", "lat": 52.52, "lon": 13.405, "intensity": 0.7, "source": "Tagesschau"}, {"title": "Schnellere Integration: \"Job-Turbo\" hilft Gefl\u00fcchteten auf dem Arbeitsmarkt", "url": "https://www.tagesschau.de/inland/regional/hessen/hr-schnellere-integration-job-turbo-hilft-gefluechteten-auf-dem-arbeitsmarkt-100.html", "thumbnailUrl": "https://images.tagesschau.de/image/01ee70c5-f7fa-4634-a263-777b762c37f9/AAABjx4RU8c/AAABjwnlKNc/16x9-512.jpg", "date": "2024-04-27T07:39:18.751+02:00", "lat": 50.6521, "lon": 9.6752, "intensity": 0.8, "source": "Tagesschau"}, {"title": "Warum nur wenige Ukraine-Gefl\u00fcchtete arbeiten", "url": "https://www.tagesschau.de/wirtschaft/arbeitsmarkt/ukraine-arbeitsmarkt-100.html", "thumbnailUrl": "https://images.tagesschau.de/image/17a2f6e3-d324-458e-bd49-99216eab7c36/AAABjx67LrY/AAABjwnlKNc/16x9-512.jpg", "date": "2024-04-27T07:08:27.010+02:00", "lat": 52.520008, "lon": 13.404954, "intensity": 0.7, "source": "Tagesschau"}, {"title": "Florian Asche bleibt Pr\u00e4sidenten des Landesjagdverbandes MV ", "url": "https://www.tagesschau.de/inland/regional/mecklenburgvorpommern/ndr-landesjagdverband-in-mv-waehlt-praesidenten-100.html", "thumbnailUrl": "https://images.tagesschau.de/image/e176c15f-0c47-45c0-b962-7fd66def24db/AAABjyA9_-Q/AAABjwnlKNc/16x9-512.jpg", "date": "2024-04-27T06:55:00.000+02:00", "lat": 54.0924, "lon": 12.1363, "intensity": 0.5, "source": "Tagesschau"}, {"title": "Das wird wichtig im Mai 2024 in Baden-W\u00fcrttemberg und Rheinland-Pfalz  ", "url": "https://www.tagesschau.de/inland/regional/badenwuerttemberg/swr-das-wird-wichtig-im-mai-2024-in-baden-wuerttemberg-und-rheinland-pfalz-100.html", "thumbnailUrl": "https://images.tagesschau.de/image/224f918f-8ca1-43e9-873d-f9a1dcffe8aa/AAABjx3aYP0/AAABjwnlKNc/16x9-512.jpg", "date": "2024-04-27T06:30:06.000+02:00", "lat": 48.7758, "lon": 9.1752, "intensity": 0.8, "source": "Tagesschau"}, {"title": "Messe Dresden verwandelt sich in Eldorado f\u00fcr Lego-Fans", "url": "https://www.tagesschau.de/inland/regional/sachsen/mdr-messe-dresden-verwandelt-sich-in-eldorado-fuer-lego-fans-100.html", "thumbnailUrl": "https://images.tagesschau.de/image/3c5daa9f-8acb-43e2-b402-73c9977a427c/AAABjyHSz-w/AAABjwnlKNc/16x9-512.jpg", "date": "2024-04-27T05:00:03.000+02:00", "lat": 51.050407, "lon": 13.737262, "intensity": 0.7, "source": "Tagesschau"}, {"title": "Unverst\u00e4ndnis in Hollywood nach Weinstein-Urteil", "url": "https://www.tagesschau.de/ausland/amerika/reaktionen-weinstein-urteil-100.html", "thumbnailUrl": "https://images.tagesschau.de/image/44370783-885e-48b6-93d4-8f25e1553322/AAABjx0Z2k4/AAABjwnlKNc/16x9-512.jpg", "date": "2024-04-27T04:19:43.588+02:00", "lat": 34.101, "lon": -118.352, "intensity": 0.8, "source": "Tagesschau"}, {"title": "Bandenkriminalit\u00e4t: Mehrere Razzien im Ruhrgebiet", "url": "https://www.tagesschau.de/inland/regional/nordrheinwestfalen/wdr-bandenkriminalitaet-mehrere-razzien-im-ruhrgebiet-100.html", "thumbnailUrl": "https://images.tagesschau.de/image/acbad3b8-95af-4998-bd90-7ec169296b6b/AAABjx_2llA/AAABjwnlKNc/16x9-512.jpg", "date": "2024-04-27T04:02:00.000+02:00", "lat": 51.5367, "lon": 7.3189, "intensity": 0.8, "source": "Tagesschau"}, {"title": "Schwerer Verkehrsunfall bei Ubstadt-Weiher: ein Toter und drei Schwerverletzte", "url": "https://www.tagesschau.de/inland/regional/badenwuerttemberg/swr-schwerer-verkehrsunfall-bei-ubstadt-weiher-ein-toter-und-drei-schwerverletzte-100.html", "thumbnailUrl": "https://images.tagesschau.de/image/b1de8a51-eaed-4982-99f2-4481fb0b1469/AAABjx0YRoI/AAABjwnlKNc/16x9-512.jpg", "date": "2024-04-27T03:03:06.000+02:00", "lat": 49.1872, "lon": 8.6189, "intensity": 0.8, "source": "Tagesschau"}, {"title": "Eintracht Braunschweig gegen HSV: \"Wir k\u00f6nnen jedem Team wehtun\"", "url": "https://www.tagesschau.de/inland/regional/niedersachsen/ndr-eintracht-braunschweig-gegen-hsv-wir-koennen-jedem-team-wehtun-102.html", "thumbnailUrl": "https://images.tagesschau.de/image/f04f2848-f7f7-4c93-b855-37965eb9f2f4/AAABjx6yhQk/AAABjwnlKNc/16x9-512.jpg", "date": "2024-04-27T00:04:00.000+02:00", "lat": 52.2689, "lon": 10.5289, "intensity": 0.7, "source": "Tagesschau"}, {"title": "Kemfert sieht Klimaziele bis 2030 in Gefahr", "url": "https://www.tagesschau.de/inland/innenpolitik/klimaschutzgesetz-kemfert-100.html", "thumbnailUrl": "https://images.tagesschau.de/image/2652cd09-bf4c-4fd2-a65f-2175b5fed095/AAABjx670h0/AAABjwnlKNc/16x9-512.jpg", "date": "2024-04-27T00:01:52.113+02:00", "lat": 52.5105, "lon": 13.3762, "intensity": 0.8, "source": "Tagesschau"}, {"title": "Verdi kritisiert geplante Schlie\u00dfung von 16 Kaufh\u00e4usern", "url": "https://www.br.de/nachrichten/meldungen/index.html#n1", "thumbnailUrl": null, "date": "2024-04-28T03:05:24+02:00", "lat": 30.0444, "lon": 31.2357, "intensity": 0.8, "source": "Bayrischer Rundfunk"}, {"title": "S\u00f6der nennt AfD \"Kremlknechte und Vaterlandsverr\u00e4ter\"", "url": "https://www.br.de/nachrichten/meldungen/index.html#n2", "thumbnailUrl": null, "date": "2024-04-28T03:05:24+02:00", "lat": 33.5138, "lon": 36.2021, "intensity": 0.8, "source": "Bayrischer Rundfunk"}, {"title": "FDP-Parteitag verabschiedet Leitantrag zu \"Wirtschaftswende\"", "url": "https://www.br.de/nachrichten/meldungen/index.html#n3", "thumbnailUrl": null, "date": "2024-04-28T03:05:24+02:00", "lat": 39.9334, "lon": 32.8597, "intensity": 0.8, "source": "Bayrischer Rundfunk"}, {"title": "Scholz erteilt Abkehr von Rente mit 63 eine Absage", "url": "https://www.br.de/nachrichten/meldungen/index.html#n4", "thumbnailUrl": null, "date": "2024-04-28T03:05:24+02:00", "lat": 52.520008, "lon": 13.404954, "intensity": 0.7, "source": "Bayrischer Rundfunk"}, {"title": "Hamas ver\u00f6ffentlicht weiteres Geisel-Video", "url": "https://www.br.de/nachrichten/meldungen/index.html#n5", "thumbnailUrl": null, "date": "2024-04-28T03:05:24+02:00", "lat": 52.520008, "lon": 13.404954, "intensity": 0.6, "source": "Bayrischer Rundfunk"}, {"title": "Irak stellt Homosexualit\u00e4t unter Strafe", "url": "https://www.br.de/nachrichten/meldungen/index.html#n6", "thumbnailUrl": null, "date": "2024-04-28T03:05:24+02:00", "lat": 48.135125, "lon": 11.581981, "intensity": 0.6, "source": "Bayrischer Rundfunk"}, {"title": "Polizei nimmt Verd\u00e4chtigen nach Gewalttat in Murnau fest", "url": "https://www.br.de/nachrichten/meldungen/index.html#n7", "thumbnailUrl": null, "date": "2024-04-28T03:05:24+02:00", "lat": 50.110922, "lon": 8.682127, "intensity": 0.8, "source": "Bayrischer Rundfunk"}, {"title": "Bayer Leverkusen und VfB Stuttgart trennen sich 2:2", "url": "https://www.br.de/nachrichten/meldungen/index.html#n8", "thumbnailUrl": null, "date": "2024-04-28T03:05:24+02:00", "lat": 47.8684, "lon": 12.6394, "intensity": 0.8, "source": "Bayrischer Rundfunk"}, {"title": "Das Wetter: In der Nacht meist klar", "url": "https://www.br.de/nachrichten/meldungen/index.html#n9", "thumbnailUrl": null, "date": "2024-04-28T03:05:24+02:00", "lat": 48.5844, "lon": 13.6722, "intensity": 0.8, "source": "Bayrischer Rundfunk"}, {"title": "Handball: F\u00fcchse Berlin verlieren in Melsungen", "url": "https://www.rbb24.de/sport/beitrag/2024/04/handball-hbl-bundesliga-fuechse-berlin-mt-melsungen-spielbericht.html", "thumbnailUrl": null, "date": "Sat, 27 Apr 2024 22:39:40 +0200", "lat": 51.1325, "lon": 9.4102, "intensity": 0.6, "source": "RBB"}, {"title": "Video | Parteitag: Linke meldet mehr als 1.000 neue Mitglieder", "url": "https://www.rbb24.de/politik/beitrag/av7/video-berlin-parteitag-die-linke.html", "thumbnailUrl": null, "date": "Sat, 27 Apr 2024 21:33:09 +0200", "lat": 52.520008, "lon": 13.38886, "intensity": 0.6, "source": "RBB"}, {"title": "Video | Babelsberger Sehs\u00fcchte Festival wieder mit interessantem Programm", "url": "https://www.rbb24.de/panorama/beitrag/av7/video-filmfestival-sehsuechte-babelsberg.html", "thumbnailUrl": null, "date": "Sat, 27 Apr 2024 21:31:02 +0200", "lat": 52.3906, "lon": 13.0592, "intensity": 0.6, "source": "RBB"}, {"title": "Bei diesen Sportlerinnen und Sportlern aus Berlin und Brandenburg funkte es privat", "url": "https://www.rbb24.de/sport/beitrag/2024/04/berlin-brandenburg-liebe-sport-alba-volleys-union-hase-mattisseck-eta-hinze-levy-zillekens.html", "thumbnailUrl": null, "date": "Sat, 27 Apr 2024 21:22:46 +0200", "lat": 52.520008, "lon": 13.404954, "intensity": 0.5, "source": "RBB"}, {"title": "Video |\u00a0Polnisch und deutsche Sch\u00fcler Schule in Gartz wiederbelebt", "url": "https://www.rbb24.de/panorama/beitrag/av7/video-brandenburg-polen-gartz.html", "thumbnailUrl": null, "date": "Sat, 27 Apr 2024 21:09:37 +0200", "lat": 53.0214, "lon": 14.2908, "intensity": 0.8, "source": "RBB"}, {"title": "Video | Feuerwehrleute in Oder-Spree trainieren f\u00fcr den Ernstfall", "url": "https://www.rbb24.de/panorama/beitrag/av7/video-brandenburg-feuerwehr-einsatz-uebung.html", "thumbnailUrl": null, "date": "Sat, 27 Apr 2024 21:02:20 +0200", "lat": 52.154, "lon": 13.884, "intensity": 0.6, "source": "RBB"}, {"title": "Oder-Spree: Linke-Kandidaten beim Plakatieren f\u00fcr die Wahl attackiert", "url": "https://www.rbb24.de/politik/wahl/kommunalwahlen/2024/oder-spree-schoeneiche-linke-wahlkampf-attacke.html", "thumbnailUrl": null, "date": "Sat, 27 Apr 2024 20:32:41 +0200", "lat": 52.373, "lon": 13.8841, "intensity": 0.7, "source": "RBB"}, {"title": "Klausurtagung in Dresden: CDU will h\u00e4rter gegen Clankriminalit\u00e4t vorgehen", "url": "https://www.rbb24.de/politik/beitrag/2024/04/berlin-cdu-klausurtagung-dresden-clankriminalitaet.html", "thumbnailUrl": null, "date": "Sat, 27 Apr 2024 18:56:16 +0200", "lat": 51.050409, "lon": 13.737262, "intensity": 0.6, "source": "RBB"}, {"title": "Regionalliga Nordost: Cottbus gewinnt spektakul\u00e4r gegen Lok Leipzig \u2013 Luckenwalde verliert", "url": "https://www.rbb24.de/sport/beitrag/2024/04/fussball-regionalliga-nordost-energie-cottbus-lok-leipzig-erfurt-luckenwalde-spielbericht.html", "thumbnailUrl": null, "date": "Sat, 27 Apr 2024 18:31:00 +0200", "lat": 51.76147, "lon": 13.57035, "intensity": 0.8, "source": "RBB"}, {"title": "M\u00f6gliches juristisches Nachspiel: Strafverfahren nach R\u00e4umung von Pal\u00e4stina-Protestcamp eingeleitet", "url": "https://www.rbb24.de/politik/beitrag/2024/04/berlin-palaestina-protestcamp-strafverfahren-eingeleitet.html", "thumbnailUrl": null, "date": "Sat, 27 Apr 2024 17:55:30 +0200", "lat": 52.5145, "lon": 13.3736, "intensity": 0.8, "source": "RBB"}, {"title": "Rudern: Deutschland-Achter erk\u00e4mpft EM-Silber", "url": "https://www.rbb24.de/sport/beitrag/2024/04/berlin-brandenburg-rudern-deutschland-achter-europamiesterschaft-silber-szeged.html", "thumbnailUrl": null, "date": "Sat, 27 Apr 2024 17:18:00 +0200", "lat": 48.139128, "lon": 11.576124, "intensity": 0.3, "source": "RBB"}, {"title": "Berlin: Ein Verletzter nach Hochhausbrand in Marzahn", "url": "https://www.rbb24.de/panorama/beitrag/2024/04/berlin-brand-feuerwehr-hochhaus-marzahn-verletzter.html", "thumbnailUrl": null, "date": "Sat, 27 Apr 2024 17:12:11 +0200", "lat": 52.533, "lon": 13.582, "intensity": 0.8, "source": "RBB"}, {"title": "Eishockey | F\u00fcnf Gr\u00fcnde f\u00fcr den zehnten Meistertitel der Eisb\u00e4ren Berlin", "url": "https://www.rbb24.de/sport/beitrag/2024/04/eishockey-eisbaeren-berlin-deutscher-meister-del-gruende-titel-aubin-hildebrand-ronning-pfoederl-wissmann-bothstede.html", "thumbnailUrl": null, "date": "Sat, 27 Apr 2024 17:07:00 +0200", "lat": 52.5167, "lon": 13.3833, "intensity": 0.8, "source": "RBB"}, {"title": "Berlin-Gropiusstadt: Frau und Elfj\u00e4hriger mit Messer bedroht und rassistisch beleidigt", "url": "https://www.rbb24.de/panorama/beitrag/2024/04/berlin-gropiusstadt-rassismus-bedrohung-polizei-staatsschutz.html", "thumbnailUrl": null, "date": "Sat, 27 Apr 2024 16:22:34 +0200", "lat": 52.419, "lon": 13.442, "intensity": 0.8, "source": "RBB"}, {"title": "Fragen und Antworten: Was beim Grillen in Berlin und Brandenburg erlaubt ist - und was nicht", "url": "https://www.rbb24.de/panorama/beitrag/2024/04/grillen-regeln-berlin-brandenburg-parks-balkon-erlaubt-verboten.html", "thumbnailUrl": null, "date": "Sat, 27 Apr 2024 15:55:27 +0200", "lat": 52.52, "lon": 13.405, "intensity": 0.7, "source": "RBB"}, {"title": "Berlin lehnt Verhandlungen mit Verdi zu besseren Arbeitsbedingungen an Kitas ab", "url": "https://www.rbb24.de/wirtschaft/beitrag/2024/04/tarifstreit-verdi-kita-beschaeftigte-berlin-lehnt-verhandlungen-ab.html", "thumbnailUrl": null, "date": "Sat, 27 Apr 2024 13:52:00 +0200", "lat": 52.520008, "lon": 13.404954, "intensity": 0.7, "source": "RBB"}, {"title": "Galeria Karstadt Kaufhof schlie\u00dft Filialen in Berlin-Lichtenberg, Spandau, Tempelhof und in Potsdam", "url": "https://www.rbb24.de/wirtschaft/beitrag/2024/04/berlin-galeria-kaufhof-16-filialen-schliessen.html", "thumbnailUrl": null, "date": "Sat, 27 Apr 2024 13:08:00 +0200", "lat": 52.520008, "lon": 13.404954, "intensity": 0.8, "source": "RBB"}, {"title": "Video | Spree-Nei\u00dfe: Kritik an Gaskraftwerkstrategie", "url": "https://www.rbb24.de/wirtschaft/beitrag/av7/video-brandenburg-spree-neisse-gaskraftwerk-strategie-leag.html", "thumbnailUrl": null, "date": "Sat, 27 Apr 2024 12:59:20 +0200", "lat": 51.7206, "lon": 14.4011, "intensity": 0.7, "source": "RBB"}, {"title": "Berlin-Kladow: Seniorin wird von BVG-Bus \u00fcberrollt und stirbt", "url": "https://www.rbb24.de/panorama/beitrag/2024/04/berlin-kladow-seniorin-stirbt-nach-busunfall-bvg.html", "thumbnailUrl": null, "date": "Sat, 27 Apr 2024 12:52:02 +0200", "lat": 52.4399, "lon": 13.1956, "intensity": 0.8, "source": "RBB"}, {"title": "Konkurrenz zu Fahrdienstleistern: Taxis in Berlin k\u00f6nnen bald Festpreise anbieten", "url": "https://www.rbb24.de/wirtschaft/beitrag/2024/04/berlin-verkehrssenatorin-manja-schreiner-taxi-festpreise-uber-bolt.html", "thumbnailUrl": null, "date": "Sat, 27 Apr 2024 12:26:18 +0200", "lat": 52.520008, "lon": 13.404954, "intensity": 0.6, "source": "RBB"}, {"title": "Fl\u00fcchtlingsunterkunft in Berlin-Tegel: Zwei Personen erleiden Rauchgasvergiftung bei Brandl\u00f6schung", "url": "https://www.rbb24.de/panorama/beitrag/2024/04/berlin-tegel-brand-fluechtlingsunterkunft-zwei-verletzte.html", "thumbnailUrl": null, "date": "Sat, 27 Apr 2024 11:58:00 +0200", "lat": 52.588, "lon": 13.2877, "intensity": 0.6, "source": "RBB"}, {"title": "Die ewigen Rivalen: F\u00fcnf besondere Final-Duelle zwischen den BR Volleys und Friedrichshafen", "url": "https://www.rbb24.de/sport/beitrag/2024/04/volleyball-bundesliga-finale-br-volleys-vfb-friedrichshafen-duelle-historie.html", "thumbnailUrl": null, "date": "Sat, 27 Apr 2024 10:55:22 +0200", "lat": 52.52, "lon": 13.3701, "intensity": 0.7, "source": "RBB"}, {"title": "Antisemitismus: G\u00e4steb\u00fccher in KZ-Gedenkst\u00e4tte Sachsenhausen voll mit Hasskommentaren", "url": "https://www.rbb24.de/politik/beitrag/2024/04/kz-gedenkstaette-sachsenhausen-oranienburg-hass-antisemitismus.html", "thumbnailUrl": null, "date": "Sat, 27 Apr 2024 10:45:00 +0200", "lat": 52.7653, "lon": 13.2561, "intensity": 0.8, "source": "RBB"}, {"title": "Volksfest: Baumbl\u00fctenfest in Werder hat begonnen", "url": "https://www.rbb24.de/panorama/beitrag/2024/04/baumbluetenfest-werder-brandenburg.html", "thumbnailUrl": null, "date": "Sat, 27 Apr 2024 09:36:00 +0200", "lat": 52.394, "lon": 12.9249, "intensity": 0.7, "source": "RBB"}, {"title": "Bildergalerie | Ein Jahr schwarz-roter Senat: Das sind die Senatorinnen und Senatoren der Berliner Regierung", "url": "https://www.rbb24.de/politik/beitrag/2024/04/fotos-bildergalerie-100-tage-berliner-senat-buergermeister-kai-wegner-landesregierung-kabinett-hauptstadt.html", "thumbnailUrl": null, "date": "Sat, 27 Apr 2024 08:27:30 +0200", "lat": 52.520008, "lon": 13.404954, "intensity": 0.5, "source": "RBB"}, {"title": "Ein Jahr schwarz-roter Senat in Berlin: Gute-Laune-Truppe mit Luft nach oben", "url": "https://www.rbb24.de/politik/beitrag/2024/04/jahresbilanz-berliner-regierung-schwarz-roter-senat-cdu-spd.html", "thumbnailUrl": null, "date": "Sat, 27 Apr 2024 08:05:00 +0200", "lat": 52.52, "lon": 13.4069, "intensity": 0.6, "source": "RBB"}, {"title": "Regionalliga Nordost: BFC Dynamo verliert in Rostock und den Anschluss an die Tabellenspitze", "url": "https://www.rbb24.de/sport/beitrag/2024/04/fussball-regionalliga-nordost-rostock-bfc-dynamo-altglienicke-eilenburg-chemie-leipzig-babelsberg.html", "thumbnailUrl": null, "date": "Fri, 26 Apr 2024 22:21:24 +0200", "lat": 54.0834, "lon": 12.0991, "intensity": 0.7, "source": "RBB"}, {"title": "2:0 in Bremerhaven: Eisb\u00e4ren Berlin sind zum 10. Mal deutscher Eishockey-Meister", "url": "https://www.rbb24.de/sport/beitrag/2024/04/eishockey-del-finale-bremerhaven-pinguins-eisbaeren-berlin-spiel-fuenf-liveticker-stream-highlights.html", "thumbnailUrl": null, "date": "Fri, 26 Apr 2024 22:19:00 +0200", "lat": 53.539444, "lon": 8.583333, "intensity": 0.8, "source": "RBB"}, {"title": "Video | \"Kenia\"-Bilanz: Was hat Koalition ein halbes Jahr vor der Wahl nicht geschafft?", "url": "https://www.rbb24.de/panorama/beitrag/av7/video-was-hat-koalition-ein-halbes-jahr-vor-der-wahl-alles-nicht.html", "thumbnailUrl": null, "date": "Fri, 26 Apr 2024 21:22:59 +0200", "lat": 0.0236, "lon": 37.9062, "intensity": 0.5, "source": "RBB"}, {"title": "Video | 850-Jahr-Feier J\u00fcterbog: Streit zwischen Kirche und B\u00fcrgermeister eskaliert", "url": "https://www.rbb24.de/panorama/beitrag/av7/video-streit-kirche-und-buergermeister-von-jueterbog.html", "thumbnailUrl": null, "date": "Fri, 26 Apr 2024 21:06:09 +0200", "lat": 52.0047, "lon": 13.2411, "intensity": 0.7, "source": "RBB"}, {"title": "Zweiter Sieg gegen Keltern: Albas Basketballerinnen stehen kurz vor dem ersten Titelgewinn", "url": "https://www.rbb24.de/sport/beitrag/2024/04/basketball-frauen-bundesliga-finale-alba-berlin-keltern-spiel-drei.html", "thumbnailUrl": null, "date": "Fri, 26 Apr 2024 21:03:00 +0200", "lat": 52.5622, "lon": 12.6561, "intensity": 0.8, "source": "RBB"}, {"title": "Gescheiterte H\u00e4ftlingsbefreiung an der JVA Heidering - Trio durchschneidet Zaun", "url": "https://www.rbb24.de/panorama/beitrag/2024/04/jva-heidering-fluchtversuch-gescheitert-.html", "thumbnailUrl": null, "date": "Fri, 26 Apr 2024 20:58:00 +0200", "lat": 52.3683, "lon": 13.1989, "intensity": 0.8, "source": "RBB"}, {"title": "Nahverkehr in Berlin: Nachfrage bei BVG dank Deutschlandticket wieder auf Vor-Corona-Niveau", "url": "https://www.rbb24.de/wirtschaft/beitrag/2024/04/berlin-bvg-deutschlandticket-bilanz-vorcoronaniveau.html", "thumbnailUrl": null, "date": "Fri, 26 Apr 2024 18:00:00 +0200", "lat": 52.517, "lon": 13.3833, "intensity": 0.7, "source": "RBB"}, {"title": "Frau bei Wohnungsbrand in Berlin-Sch\u00f6neberg lebensgef\u00e4hrlich verletzt", "url": "https://www.rbb24.de/panorama/beitrag/2024/04/berlin-schoeneberg-wohnungsbrand-eisackstrasse.html", "thumbnailUrl": null, "date": "Fri, 26 Apr 2024 17:31:46 +0200", "lat": 52.483056, "lon": 13.348974, "intensity": 0.8, "source": "RBB"}, {"title": "B\u00fcrgerbeteiligung zum Tempelhofer Feld ist gestartet", "url": "https://www.rbb24.de/politik/beitrag/2024/04/berlin-tempelhofer-feld-zukunft-buergerbefragung-gestartet.html", "thumbnailUrl": null, "date": "Fri, 26 Apr 2024 16:23:00 +0200", "lat": 52.4734, "lon": 13.4014, "intensity": 0.6, "source": "RBB"}, {"title": "Staatssekret\u00e4r Kellner begr\u00fc\u00dft Tesla-Pl\u00e4ne f\u00fcr G\u00fcterbahnhof in Gr\u00fcnheide", "url": "https://www.rbb24.de/wirtschaft/beitrag/2024/04/tesla-werk-gueter-bahnhof-ausbau-michael-kellner-gruene.html", "thumbnailUrl": null, "date": "Fri, 26 Apr 2024 16:18:00 +0200", "lat": 52.4496, "lon": 13.5651, "intensity": 0.6, "source": "RBB"}, {"title": "Film-Saga: \"Star Wars\"-Ausstellung gastiert in Berlin", "url": "https://www.rbb24.de/kultur/beitrag/2024/04/berlin-star-wars-fan-ausstellung.html", "thumbnailUrl": null, "date": "Fri, 26 Apr 2024 16:07:10 +0200", "lat": 52.520008, "lon": 13.404954, "intensity": 0.4, "source": "RBB"}, {"title": "Duldung bis zum Jahresende: Fleischer aus Spremberg wird vorerst nicht abgeschoben", "url": "https://www.rbb24.de/panorama/beitrag/2024/04/streit-abschiebung-fleischer-spremberg-venezuela.html", "thumbnailUrl": null, "date": "Fri, 26 Apr 2024 14:55:00 +0200", "lat": 51.5697, "lon": 14.3724, "intensity": 0.7, "source": "RBB"}, {"title": "\u00d6kologische Wiesenpflege: Schafe grasen wieder auf Wiese hinter Schloss Sanssouci", "url": "https://www.rbb24.de/panorama/beitrag/2024/04/brandenburg-potsdam-beweidung-park-sanssouci-wiesenpflege-schafe.html", "thumbnailUrl": null, "date": "Fri, 26 Apr 2024 13:10:54 +0200", "lat": 52.4048, "lon": 13.0333, "intensity": 0.6, "source": "RBB"}, {"title": "Polizei durchsucht Geb\u00e4ude und Fahrzeuge in Cottbus nach Drogen", "url": "https://www.rbb24.de/panorama/beitrag/2024/04/durchsuchungen-drogen-cottbus-polizei-staatsanwaltschaft.html", "thumbnailUrl": null, "date": "Fri, 26 Apr 2024 11:08:00 +0200", "lat": 51.7562, "lon": 14.3306, "intensity": 0.7, "source": "RBB"}, {"title": "Potsdamer Museum Barberini zeigt Modigliani-Ausstellung", "url": "https://www.rbb24.de/kultur/beitrag/2024/04/brandenburg-potsdam-barberini-museum-modigliani-ausstellung.html", "thumbnailUrl": null, "date": "Fri, 26 Apr 2024 10:33:00 +0200", "lat": 52.395247, "lon": 13.057748, "intensity": 0.6, "source": "RBB"}, {"title": "Teltow-Fl\u00e4ming: Lastwagen kippt auf der A10 in einen Graben", "url": "https://www.rbb24.de/panorama/beitrag/2024/04/autobahn-a10-unfall-lkw-graben-teltow-flaeming-brandenburg.html", "thumbnailUrl": null, "date": "Fri, 26 Apr 2024 10:03:15 +0200", "lat": 52.2951, "lon": 13.1955, "intensity": 0.8, "source": "RBB"}, {"title": "Video | Rathenow und Wittenberge k\u00e4mpfen gegen sterbende Innenst\u00e4dte", "url": "https://www.rbb24.de/panorama/beitrag/av7/video-brandenburg-rathenow-innenstadt.html", "thumbnailUrl": null, "date": "Thu, 25 Apr 2024 22:28:46 +0200", "lat": 52.6023, "lon": 12.3167, "intensity": 0.7, "source": "RBB"}, {"title": "Video | Brandenburger Baubranche beklagt schwindende Auftr\u00e4ge", "url": "https://www.rbb24.de/panorama/beitrag/av7/video-brandenburg-bauwirtschaft-krise.html", "thumbnailUrl": null, "date": "Thu, 25 Apr 2024 22:25:19 +0200", "lat": 52.520008, "lon": 13.404954, "intensity": 0.6, "source": "RBB"}, {"title": "Hamburg-Marathon: Melderekord und Party-Stimmung", "url": "https://www.ndr.de/sport/mehr_sport/Hamburg-Marathon-Melderekord-und-Party-Stimmung,marathon2318.html", "thumbnailUrl": "https://www.ndr.de/sport/mehr_sport/marathon1458_v-contentwidescreen.jpg", "date": "2024-04-26T16:55:00.608+02:00", "lat": 53.5511, "lon": 9.9937, "intensity": 0.7, "source": "NDR"}, {"title": "Der ewig streitbare Fu\u00dfballfunktion\u00e4r - Martin Kind wird 80", "url": "https://www.ndr.de/sport/fussball/Der-ewig-streitbare-Fussballfunktionaer-Martin-Kind-wird-80,hannover18378.html", "thumbnailUrl": "https://www.ndr.de/sport/fussball/kind872_v-contentwidescreen.jpg", "date": "2024-04-28T00:01:01.973+02:00", "lat": 52.3773, "lon": 9.7516, "intensity": 0.7, "source": "NDR"}, {"title": "Weiter kein Lebenszeichen vom vermissten Arian aus Bremerv\u00f6rde", "url": "https://www.ndr.de/nachrichten/niedersachsen/lueneburg_heide_unterelbe/Weiter-kein-Lebenszeichen-vom-vermissten-Arian-aus-Bremervoerde,vermisster554.html", "thumbnailUrl": "https://www.ndr.de/nachrichten/niedersachsen/lueneburg_heide_unterelbe/vermisster654_v-contentwidescreen.jpg", "date": "2024-04-27T19:36:50.305+02:00", "lat": 53.4852, "lon": 9.1088, "intensity": 0.8, "source": "NDR"}, {"title": "Galeria Karstadt Kaufhof: Filiale in Oldenburg muss schlie\u00dfen", "url": "https://www.ndr.de/nachrichten/niedersachsen/Galeria-Karstadt-Kaufhof-Filiale-in-Oldenburg-wird-geschlossen,galeria158.html", "thumbnailUrl": "https://www.ndr.de/nachrichten/info/galeria156_v-contentwidescreen.jpg", "date": "2024-04-27T13:56:42.102+02:00", "lat": 53.1435, "lon": 8.2159, "intensity": 0.7, "source": "NDR"}, {"title": "Scholz schlie\u00dft Lieferung von Taurus-Marschflugk\u00f6rpern aus", "url": "https://www.ndr.de/nachrichten/niedersachsen/lueneburg_heide_unterelbe/Scholz-schliesst-Lieferung-von-Taurus-Marschflugkoerpern-aus,scholz2788.html", "thumbnailUrl": "https://www.ndr.de/nachrichten/info/podcasts/scholz2756_v-contentwidescreen.jpg", "date": "2024-04-27T18:42:15.136+02:00", "lat": 53.2451, "lon": 10.4017, "intensity": 0.7, "source": "NDR"}, {"title": "Nach Zugunfall in Hamburg: Weiter kein S-Bahnverkehr \u00fcber den Hauptbahnhof", "url": "https://www.ndr.de/nachrichten/hamburg/Nach-Zugunfall-in-Hamburg-Weiter-kein-S-Bahnverkehr-ueber-den-Hauptbahnhof,hauptbahnhof702.html", "thumbnailUrl": "https://www.ndr.de/nachrichten/info/hauptbahnhof700_v-contentwidescreen.jpg", "date": "2024-04-27T20:33:52.126+02:00", "lat": 53.5511, "lon": 9.9937, "intensity": 0.8, "source": "NDR"}, {"title": "Europawahl 2024: So will die Nord-CDU \u00fcberzeugen", "url": "https://www.ndr.de/nachrichten/schleswig-holstein/Europawahl-2024-So-will-die-Nord-CDU-ueberzeugen,cduklausur110.html", "thumbnailUrl": "https://www.ndr.de/nachrichten/schleswig-holstein/cdu1872_v-contentwidescreen.jpg", "date": "2024-04-27T21:42:47.366+02:00", "lat": 54.4902, "lon": 9.9207, "intensity": 0.8, "source": "NDR"}, {"title": "K\u00f6nigstag in den Niederlanden: Deutsche feiern mit den Nachbarn", "url": "https://www.ndr.de/nachrichten/niedersachsen/osnabrueck_emsland/Koenigstag-in-den-Niederlanden-Deutsche-feiern-mit-ihren-Nachbarn,aktuellosnabrueck11316.html", "thumbnailUrl": "https://www.ndr.de/nachrichten/niedersachsen/koenigstag174_v-contentwidescreen.jpg", "date": "2024-04-27T15:48:38.653+02:00", "lat": 52.7891, "lon": 6.9167, "intensity": 0.8, "source": "NDR"}, {"title": "Wetter im Norden: Fr\u00fchsommer im Anmarsch", "url": "https://www.ndr.de/nachrichten/info/Wetter-im-Norden-Fruehsommer-im-Anmarsch,maiwetter126.html", "thumbnailUrl": "https://www.ndr.de/nachrichten/schleswig-holstein/strandkorb758_v-contentwidescreen.jpg", "date": "2024-04-27T20:56:10.106+02:00", "lat": 54.4085, "lon": 9.6961, "intensity": 0.3, "source": "NDR"}, {"title": "Nationalpark Harz ist auf Waldbrandsaison vorbereitet", "url": "https://www.ndr.de/nachrichten/niedersachsen/braunschweig_harz_goettingen/Nationalpark-Harz-ist-auf-Waldbrandsaison-vorbereitet,waldbrand1008.html", "thumbnailUrl": "https://www.ndr.de/nachrichten/niedersachsen/braunschweig_harz_goettingen/waldbrand1006_v-contentwidescreen.jpg", "date": "2024-04-27T13:53:47.741+02:00", "lat": 51.7717, "lon": 10.5696, "intensity": 0.3, "source": "NDR"}, {"title": "Neue Hamburger Bildungspl\u00e4ne: Katastrophenschutz in der Schule", "url": "https://www.ndr.de/nachrichten/hamburg/Neue-Hamburger-Bildungsplaene-Katastrophenschutz-in-der-Schule,katastrophenschutz352.html", "thumbnailUrl": "https://www.ndr.de/nachrichten/hamburg/katastrophenschutz350_v-contentwidescreen.jpg", "date": "2024-04-27T08:29:43.441+02:00", "lat": 53.55, "lon": 10.0, "intensity": 0.8, "source": "NDR"}, {"title": "CDU in SH stimmt f\u00fcr die Wiedereinf\u00fchrung der Wehrpflicht", "url": "https://www.ndr.de/nachrichten/schleswig-holstein/CDU-in-SH-stimmt-fuer-die-Wiedereinfuehrung-der-Wehrpflicht,kielererklaerung100.html", "thumbnailUrl": "https://www.ndr.de/nachrichten/info/danielguenther206_v-contentwidescreen.jpg", "date": "2024-04-26T22:35:47.353+02:00", "lat": 54.3233, "lon": 10.1305, "intensity": 0.8, "source": "NDR"}, {"title": "Pano aus Itzehoe: Wasserstoff ersetzt Erdgas", "url": "https://www.ndr.de/fernsehen/sendungen/schleswig-holstein_magazin/Pano-aus-Itzehoe-Wasserstoff-ersetzt-Erdgas,shmag115928.html", "thumbnailUrl": "https://www.ndr.de/nachrichten/schleswig-holstein/wasserstoff508_v-contentwidescreen.jpg", "date": "2024-04-27T21:02:23.680+02:00", "lat": 53.9227, "lon": 9.5189, "intensity": 0.6, "source": "NDR"}, {"title": "\"Muslim Interaktiv\": Gro\u00dfdemo am Steindamm", "url": "https://www.ndr.de/fernsehen/sendungen/hamburg_journal/Muslim-Interaktiv-Grossdemo-am-Steindamm,hamj146546.html", "thumbnailUrl": "https://www.ndr.de/fernsehen/screenshot1739812_v-contentwidescreen.jpg", "date": "2024-04-27T21:28:05.502+02:00", "lat": 53.555825, "lon": 9.999675, "intensity": 0.8, "source": "NDR"}, {"title": "Kiel: Forscher testen neue Tablette gegen Schuppenflechte", "url": "https://www.ndr.de/fernsehen/sendungen/schleswig-holstein_magazin/Kiel-Forscher-testen-neue-Tablette-gegen-Schuppenflechte-,shmag115920.html", "thumbnailUrl": "https://www.ndr.de/nachrichten/schleswig-holstein/screenshot1739126_v-contentwidescreen.jpg", "date": "2024-04-27T14:24:25.578+02:00", "lat": 54.3233, "lon": 10.1228, "intensity": 0.6, "source": "NDR"}, {"title": "FPD-Parteitag: Lindner fordert eine \"echte Wirtschaftswende\"", "url": "https://www.ndr.de/nachrichten/info/FPD-Parteitag-Lindner-fordert-eine-echte-Wirtschaftswende,audio1623846.html", "thumbnailUrl": "https://www.ndr.de/nachrichten/info/lindner532_v-contentwidescreen.jpg", "date": "2024-04-27T19:24:05.882+02:00", "lat": 52.520008, "lon": 13.404954, "intensity": 0.7, "source": "NDR"}, {"title": "Rapsbauern in Schleswig-Holstein besorgt", "url": "https://www.ndr.de/nachrichten/info/Rapsbauern-in-Schleswig-Holstein-besorgt,audio1623486.html", "thumbnailUrl": "https://www.ndr.de/home/mecklenburg-vorpommern/bilderaktionmv3060_v-contentwidescreen.jpg", "date": "2024-04-27T08:39:55.937+02:00", "lat": 54.2194, "lon": 9.8969, "intensity": 0.7, "source": "NDR"}, {"title": "Kurzarbeit beim W\u00e4rmepumpen-Hersteller aus Holzminden", "url": "https://www.ndr.de/fernsehen/sendungen/hallo_niedersachsen/Kurzarbeit-beim-Waermepumpen-Hersteller-aus-Holzminden,hallonds87170.html", "thumbnailUrl": "https://www.ndr.de/fernsehen/screenshot1739370_v-contentwidescreen.jpg", "date": "2024-04-26T21:59:43.360+02:00", "lat": 51.8215, "lon": 9.4491, "intensity": 0.7, "source": "NDR"}, {"title": "Debatte um Schwesigs \"Osterhasen-Aff\u00e4re\" im Landtag", "url": "https://www.ndr.de/fernsehen/sendungen/nordmagazin/Debatte-um-Schwesigs-Osterhasenaeffaere-im-Landtag,nordmagazin117622.html", "thumbnailUrl": "https://www.ndr.de/fernsehen/screenshot1739454_v-contentwidescreen.jpg", "date": "2024-04-26T21:11:27.904+02:00", "lat": 52.5186, "lon": 13.3733, "intensity": 0.6, "source": "NDR"}, {"title": "Gaspreis Dashboard", "url": "https://www.ndr.de/home/gaspreis176.html", "thumbnailUrl": null, "date": "2023-04-06T14:49:06.409+02:00", "lat": 51.3426, "lon": 9.9976, "intensity": 0.7, "source": "NDR"}, {"title": "NDR Radioprogramme", "url": "https://www.ndr.de/radio/radiologobox100.html", "thumbnailUrl": null, "date": "2020-12-01T14:04:26.700+01:00", "lat": 53.5511, "lon": 9.9937, "intensity": 0.3, "source": "NDR"}, {"title": "Raus aus der Depression", "url": "https://www.ndr.de/nachrichten/info/podcast5110.html", "thumbnailUrl": "https://www.ndr.de/mediathek/podcast5112_v-contentwidescreen.jpg", "date": "2024-04-25T11:31:12.507+02:00", "lat": 53.5511, "lon": 9.9937, "intensity": 0.8, "source": "NDR"}, {"title": "Streitkr\u00e4fte und Strategien", "url": "https://www.ndr.de/nachrichten/info/podcast2998.html", "thumbnailUrl": "https://www.ndr.de/mediathek/mediathekbild652_v-contentwidescreen.jpg", "date": "2024-04-26T15:15:09.566+02:00", "lat": 53.5511, "lon": 9.9937, "intensity": 0.8, "source": "NDR"}, {"title": "Podcast: \"Gerichtssaal 237. True Crime aus dem Strafgericht\"", "url": "https://www.ndr.de/podcast/Podcast-Gerichtssaal-237-True-Crime-aus-dem-Strafgericht,gerichtssaalzweidreisieben104.html", "thumbnailUrl": "https://www.ndr.de/podcast/gerichtssaalzweidreisieben100_v-contentwidescreen.jpg", "date": "2024-04-24T18:38:08.865+02:00", "lat": 53.550341, "lon": 10.000348, "intensity": 0.3, "source": "NDR"}, {"title": "Krieg und Terror - Die Lage im Nahen Osten und in der Ukraine", "url": "https://www.ndr.de/nachrichten/info/podcast5342.html", "thumbnailUrl": "https://www.ndr.de/nachrichten/info/podcastbild412_v-contentwidescreen.jpg", "date": "2024-04-27T17:01:38.036+02:00", "lat": 46.79651, "lon": 30.739834, "intensity": 0.8, "source": "NDR"}, {"title": "Unsere Comedy \"Die Kur-Oase\"!", "url": "https://www.ndr.de/ndr2/podcasts/podcast5816.html", "thumbnailUrl": "https://www.ndr.de/ndr2/podcasts/podcast5812_v-contentwidescreen.jpg", "date": "2024-04-26T07:15:06.927+02:00", "lat": 54.9069, "lon": 8.7386, "intensity": 0.2, "source": "NDR"}, {"title": "Standpunkte", "url": "https://www.ndr.de/nachrichten/info/podcast4700.html", "thumbnailUrl": "https://www.ndr.de/mediathek/podcast5332_v-contentwidescreen.jpg", "date": "2024-04-27T00:01:06.564+02:00", "lat": 53.5511, "lon": 9.9937, "intensity": 0.5, "source": "NDR"}, {"title": "eat.READ.sleep. B\u00fccher f\u00fcr dich", "url": "https://www.ndr.de/kultur/sendungen/eat_read_sleep/index.html", "thumbnailUrl": "https://www.ndr.de/mediathek/podcastbild434_v-contentwidescreen.jpg", "date": "2024-04-26T06:00:24.550+02:00", "lat": 53.5511, "lon": 9.9937, "intensity": 0.2, "source": "NDR"}, {"title": "Die Ern\u00e4hrungs-Docs - Essen als Medizin", "url": "https://www.ndr.de/fernsehen/sendungen/die-ernaehrungsdocs/audio-podcast/index.html", "thumbnailUrl": "https://www.ndr.de/fernsehen/sendungen/die-ernaehrungsdocs/podcastbild338_v-contentwidescreen.jpg", "date": "2024-04-24T08:00:10.758+02:00", "lat": 53.5511, "lon": 9.9876, "intensity": 0.3, "source": "NDR"}, {"title": "Mein Einsatz - der Feuerwehr-Podcast von NDR Niedersachsen", "url": "https://www.ndr.de/ndr1niedersachsen/podcast5774.html", "thumbnailUrl": "https://www.ndr.de/ndr1niedersachsen/podcasts/podcastbild364_v-contentwidescreen.jpg", "date": "2024-04-25T04:00:08.575+02:00", "lat": 52.3759, "lon": 9.7345, "intensity": 0.7, "source": "NDR"}, {"title": "\"Feel Hamburg\" - alle Folgen", "url": "https://www.ndr.de/903/podcasts/podcast5108.html", "thumbnailUrl": "https://www.ndr.de/mediathek/mediathekbild514_v-contentwidescreen.jpg", "date": "2024-04-23T16:10:34.282+02:00", "lat": 53.55, "lon": 10.0, "intensity": 0.4, "source": "NDR"}, {"title": "Intensiv-Station - Satire von NDR Info", "url": "https://www.ndr.de/nachrichten/info/podcast4274.html", "thumbnailUrl": "https://www.ndr.de/nachrichten/info/programm/intensivstation3272_v-contentwidescreen.jpg", "date": "2024-04-22T19:03:40.804+02:00", "lat": 54.3706, "lon": 10.5038, "intensity": 0.8, "source": "NDR"}, {"title": "Amerika, wir m\u00fcssen reden!", "url": "https://www.ndr.de/nachrichten/info/podcast4932.html", "thumbnailUrl": "https://www.ndr.de/nachrichten/info/podcastbild488_v-contentwidescreen.jpg", "date": "2024-04-15T18:53:54.188+02:00", "lat": 39.78373, "lon": -100.445882, "intensity": 0.7, "source": "NDR"}, {"title": "Galeria Karstadt Kaufhof: Diese NRW-Filialen schlie\u00dfen bis Ende August", "url": "https://www1.wdr.de/nachrichten/galeria-karstadt-kaufhof-drei-schliessungen-in-nrw-100.html", "thumbnailUrl": null, "date": "2024-04-27T18:30:25Z", "lat": 50.9416, "lon": 6.9584, "intensity": 0.8, "source": "WDR"}, {"title": "Mutwald-Festival f\u00fcr schwer kranke Kinder in D\u00fcsseldorf", "url": "https://www1.wdr.de/nachrichten/rheinland/festival-schwer-kranke-kinder-duesseldorf-hilden-100.html", "thumbnailUrl": null, "date": "2024-04-27T14:18:35Z", "lat": 51.2277, "lon": 6.7826, "intensity": 0.8, "source": "WDR"}, {"title": "Vogelgrippe: Warum die WHO in den USA vor Rohmilch warnt", "url": "https://www1.wdr.de/nachrichten/who-vogelgrippe-risiko-milch-uebertragung-100.html", "thumbnailUrl": null, "date": "2024-04-27T15:49:34Z", "lat": 37.0902, "lon": -95.7129, "intensity": 0.7, "source": "WDR"}, {"title": "Fu\u00dfball, 3. Liga: R\u00fcckkehr nach elf Jahren: In Aachen brechen alle D\u00e4mme", "url": "https://www1.wdr.de/sport/fussball/amateure/aufstieg-alemannia-aachen100.html", "thumbnailUrl": null, "date": "2024-04-27T18:05:44Z", "lat": 50.7766, "lon": 6.0846, "intensity": 0.8, "source": "WDR"}, {"title": "Internationales Alphorntreffen am Rande des Sauerlandes", "url": "https://www1.wdr.de/nachrichten/internationales-alphorntreffen-ruethen-100.html", "thumbnailUrl": null, "date": "2024-04-27T18:27:58Z", "lat": 51.4902, "lon": 8.3342, "intensity": 0.6, "source": "WDR"}, {"title": "Teneriffa, & Co.: Wie der Massentourismus den Einwohnern schadet", "url": "https://www1.wdr.de/nachrichten/kanaren-massentourismus-nah-dran-100.html", "thumbnailUrl": null, "date": "2024-04-27T06:52:39Z", "lat": 28.291563, "lon": -16.62913, "intensity": 0.8, "source": "WDR"}, {"title": "Schnippschnapp: 99-Cent-Frisur lockt Castrop-Rauxeler an", "url": "https://www1.wdr.de/nachrichten/ruhrgebiet/99-cent-haarschnitt-castrop-rauxel-tafel-100.html", "thumbnailUrl": null, "date": "2024-04-27T17:33:00Z", "lat": 51.5362, "lon": 7.3357, "intensity": 0.3, "source": "WDR"}, {"title": "Gro\u00dfes Interesse an Bonner Seilbahn", "url": "https://www1.wdr.de/nachrichten/grosses-interesse-an-bonner-seilbahn-100.html", "thumbnailUrl": null, "date": "2024-04-27T16:09:42Z", "lat": 50.7344, "lon": 7.0982, "intensity": 0.6, "source": "WDR"}, {"title": "Bandenkriminalit\u00e4t: Mehrere Razzien im Ruhrgebiet", "url": "https://www1.wdr.de/nachrichten/Razzia-Castrop-Rauxel-100.html", "thumbnailUrl": null, "date": "2024-04-27T14:27:11Z", "lat": 51.55, "lon": 7.316667, "intensity": 0.8, "source": "WDR"}, {"title": "La Familia: Truckerfestival in Meinerzhagen f\u00fcr guten Zweck", "url": "https://www1.wdr.de/nachrichten/truckerfestival-meinerzhagen-olpe-kinderhospiz-100.html", "thumbnailUrl": null, "date": "2024-04-27T10:02:39Z", "lat": 51.106, "lon": 7.6197, "intensity": 0.5, "source": "WDR"}, {"title": "Nahost-Krieg: Nahost-Liveblog: ++ Erneut Gro\u00dfdemo gegen Netanyahu in Tel Aviv ++", "url": "https://www.tagesschau.de/newsticker/liveblog-nahost-samstag-128.html", "thumbnailUrl": null, "date": "2024-04-27T20:48:02Z", "lat": 32.0853, "lon": 34.7754, "intensity": 0.8, "source": "WDR"}, {"title": "Nach Repr\u00e4sentantenhaus: Auch US-Senat billigt milliardenschwere Ukraine-Hilfen", "url": "https://www.tagesschau.de/ausland/amerika/us-senat-ukraine-hilfe-104.html", "thumbnailUrl": null, "date": "2024-04-24T08:25:47Z", "lat": 38.9072, "lon": -77.0369, "intensity": 0.8, "source": "WDR"}, {"title": "Hochkommissar T\u00fcrk: UN-Hochkommissar T\u00fcrk warnt Israel vor Gro\u00dfangriff auf Rafah", "url": "https://www.tagesschau.de/ausland/asien/un-warnung-offensive-rafah-100.html", "thumbnailUrl": null, "date": "2024-04-23T14:48:02Z", "lat": 31.666589, "lon": 34.260215, "intensity": 0.8, "source": "WDR"}, {"title": "Bericht zu Pal\u00e4stinenserhilfswerk: Bericht: \"Probleme mit Neutralit\u00e4t\" bei UN-Pal\u00e4stinenserhilfswerk", "url": "https://www.tagesschau.de/ausland/asien/unrwa-untersuchung-100.html", "thumbnailUrl": null, "date": "2024-04-22T19:12:02Z", "lat": 31.7717, "lon": 35.222, "intensity": 0.6, "source": "WDR"}, {"title": "Israels Geheimdienstchef geht: Israels Geheimdienstchef geht: Verantwortung f\u00fcr einen \"schwarzen Tag\"", "url": "https://www.tagesschau.de/ausland/asien/israel-ruecktritt-geheimdienstchef-102.html", "thumbnailUrl": null, "date": "2024-04-22T19:30:02Z", "lat": 31.7717, "lon": 35.2137, "intensity": 0.8, "source": "WDR"}, {"title": "Geplantes Opferritual in Jerusalem: Geplantes Opferritual in Jerusalem: Das Spiel mit dem Feuer", "url": "https://www.tagesschau.de/faktenfinder/tempel-institut-opfer-kuh-100.html", "thumbnailUrl": null, "date": "2024-04-22T11:34:11Z", "lat": 31.7683, "lon": 35.2345, "intensity": 0.8, "source": "WDR"}, {"title": "Iran und Israel: Droht ein neuer Krieg im Nahen Osten?", "url": "https://www1.wdr.de/nachrichten/iran-israel-angriff-faq-102.html", "thumbnailUrl": null, "date": "2024-04-19T13:29:16Z", "lat": 32.6546, "lon": 51.6736, "intensity": 0.8, "source": "WDR"},