[{"title": "\"Jetzt kann man nicht einfach abhauen\"", "url": "https://www.tagesschau.de/ausland/ukraine-krieg-auslandsukrainer-100.html", "thumbnailUrl": "https://images.tagesschau.de/image/db3e5d60-e293-4674-896b-2f58ec306674/AAABjyxd7Dc/AAABjwnlKNc/16x9-512.jpg", "date": "2024-04-30T02:37:34.953+02:00", "lat": 50.4501, "lon": 30.5234, "intensity": 0.7, "source": "Tagesschau"}, {"title": "++ Tausende demonstrieren in Israel f\u00fcr Geisel-Abkommen ++", "url": "https://www.tagesschau.de/newsticker/liveblog-nahost-montag-134.html", "thumbnailUrl": "https://images.tagesschau.de/image/a6959723-5b4f-40cf-a71c-3b3034e0c357/AAABjysmmbo/AAABjwnlKNc/16x9-512.jpg", "date": "2024-04-29T23:40:38.620+02:00", "lat": 31.7683, "lon": 35.2137, "intensity": 0.8, "source": "Tagesschau"}, {"title": "++ Tote und Verletzte nach russischem Angriff auf Odessa ++", "url": "https://www.tagesschau.de/newsticker/liveblog-ukraine-montag-362.html", "thumbnailUrl": "https://images.tagesschau.de/image/0444c57c-ff7f-452e-9bba-b7eae7c71a76/AAABjysR_ZI/AAABjwnlKNc/16x9-512.jpg", "date": "2024-04-29T23:39:42.133+02:00", "lat": 46.4775, "lon": 30.7106, "intensity": 0.8, "source": "Tagesschau"}, {"title": "Wall Street schlie\u00dft mit moderaten Gewinnen", "url": "https://www.tagesschau.de/wirtschaft/finanzen/marktberichte/marktbericht-dax-kurs-rekordhoch-inflation-zinsen-dow-aktien-gold-oelpreis-boerse-100.html", "thumbnailUrl": "https://images.tagesschau.de/image/3f6eb5ca-3f5f-49ff-9da7-fc84f1c34001/AAABi_E7LWw/AAABjwnlKNc/16x9-512.jpg", "date": "2024-04-29T22:36:57.052+02:00", "lat": 40.7074, "lon": -74.011301, "intensity": 0.3, "source": "Tagesschau"}, {"title": "Reisebus auf A2 bei Garbsen ausgebrannt - Stau am Abend", "url": "https://www.tagesschau.de/inland/regional/niedersachsen/ndr-reisebus-auf-a2-bei-garbsen-ausgebrannt-autobahn-gesperrt-100.html", "thumbnailUrl": "https://images.tagesschau.de/image/a5887ae6-e547-4d51-a929-fc8a81930879/AAABjyuDuXQ/AAABjwnlKNc/16x9-512.jpg", "date": "2024-04-29T22:13:00.000+02:00", "lat": 52.4186, "lon": 9.6535, "intensity": 0.7, "source": "Tagesschau"}, {"title": "Konfrontation in Georgien versch\u00e4rft sich", "url": "https://www.tagesschau.de/ausland/europa/georgien-proteste-gesetzentwurf-100.html", "thumbnailUrl": "https://images.tagesschau.de/image/942c5212-a0c9-41d2-a939-fcbf00a94d50/AAABjytU4Zw/AAABjwnlKNc/16x9-512.jpg", "date": "2024-04-29T21:39:31.479+02:00", "lat": 41.7178, "lon": 44.793, "intensity": 0.8, "source": "Tagesschau"}, {"title": "Gericht weist Hunderte Beweisantr\u00e4ge der AfD ab", "url": "https://www.tagesschau.de/inland/innenpolitik/afd-verfssungsschutz-ovg-100.html", "thumbnailUrl": "https://images.tagesschau.de/image/28ff1d23-9d58-426a-aa82-abb0a73690e5/AAABjysCMug/AAABjwnlKNc/16x9-512.jpg", "date": "2024-04-29T21:39:08.439+02:00", "lat": 53.5511, "lon": 9.9937, "intensity": 0.6, "source": "Tagesschau"}, {"title": "Kaufhof-Schlie\u00dfungen: Gibt es f\u00fcr Mannheim noch Hoffnung?", "url": "https://www.tagesschau.de/inland/regional/badenwuerttemberg/swr-kaufhof-schliessungen-gibt-es-fuer-mannheim-noch-hoffnung-100.html", "thumbnailUrl": "https://images.tagesschau.de/image/93c42dbe-3419-440d-9ead-dd7f855da611/AAABjyrp3mY/AAABjwnlKNc/16x9-512.jpg", "date": "2024-04-29T21:38:00.000+02:00", "lat": 49.4875, "lon": 8.4636, "intensity": 0.8, "source": "Tagesschau"}, {"title": "Terror-Prozess: Milit\u00e4rstruktur von \"Reichsb\u00fcrgern\" in BW weit fortgeschritten", "url": "https://www.tagesschau.de/inland/regional/badenwuerttemberg/swr-hochverrat-und-terror-prozess-um-reichsbuerger-in-stuttgart-gestartet-100.html", "thumbnailUrl": "https://images.tagesschau.de/image/56059d9e-2995-483d-9559-cf9ae5d9c6d6/AAABjypIvOw/AAABjwnlKNc/16x9-512.jpg", "date": "2024-04-29T21:29:00.000+02:00", "lat": 48.7758, "lon": 9.7356, "intensity": 0.8, "source": "Tagesschau"}, {"title": "Nach ABC-Einsatz in Neunkirchen: Uniklinik Homburg untersucht Fl\u00fcssigkeit", "url": "https://www.tagesschau.de/inland/regional/saarland/sr-abc-einsatz-nach-einbruch-in-gebaeude-der-neunkircher-verkehrsbetriebe-100.html", "thumbnailUrl": "https://images.tagesschau.de/image/2adb28b3-694d-4584-a9a6-839ef1e3c0c1/AAABjyQ7qoo/AAABjwnlKNc/16x9-512.jpg", "date": "2024-04-29T21:14:00.000+02:00", "lat": 49.3443, "lon": 7.1808, "intensity": 0.7, "source": "Tagesschau"}, {"title": "Platzmangel: Hessische Frauenh\u00e4user m\u00fcssen hunderte Schutzsuchende zur\u00fcckweisen", "url": "https://www.tagesschau.de/inland/regional/hessen/hr-platzmangel-hessische-frauenhaeuser-muessen-hunderte-schutzsuchende-zurueckweisen-100.html", "thumbnailUrl": "https://images.tagesschau.de/image/b62cd3c9-e9fd-456e-9d99-686cbccdeb17/AAABjytHXbc/AAABjwnlKNc/16x9-512.jpg", "date": "2024-04-29T21:12:02.157+02:00", "lat": 50.8902, "lon": 9.7923, "intensity": 0.8, "source": "Tagesschau"}, {"title": "Derby-Krawalle in Hannover: 251 Strafverfahren eingeleitet", "url": "https://www.tagesschau.de/inland/regional/niedersachsen/ndr-derby-krawalle-in-hannover-251-strafverfahren-eingeleitet-100.html", "thumbnailUrl": "https://images.tagesschau.de/image/b3583f6d-067f-4834-af60-3f8d716f71e8/AAABjyo9-sw/AAABjwnlKNc/16x9-512.jpg", "date": "2024-04-29T21:02:00.000+02:00", "lat": 52.3759, "lon": 9.7332, "intensity": 0.7, "source": "Tagesschau"}, {"title": "Pflegenotstand: Verdi fordert detaillierte Personalvorgaben", "url": "https://www.tagesschau.de/inland/regional/berlin/rbb-pflegenotstand-verdi-fordert-detaillierte-personalvorgaben-100.html", "thumbnailUrl": "https://images.tagesschau.de/image/cc506120-d2e4-4d9b-843f-807effdc6849/AAABjys29FI/AAABjwnlKNc/16x9-512.jpg", "date": "2024-04-29T20:52:12.000+02:00", "lat": 52.520007, "lon": 13.404954, "intensity": 0.8, "source": "Tagesschau"}, {"title": "Lehrer aus Ostfriesland gewinnt \"Deutschen Lehrkr\u00e4ftepreis\"", "url": "https://www.tagesschau.de/inland/regional/niedersachsen/ndr-lehrer-aus-ostfriesland-gewinnt-deutschen-lehrkraeftepreis-100.html", "thumbnailUrl": "https://images.tagesschau.de/image/48e308b6-9575-4447-876e-3a9c2f88dede/AAABjysqCxQ/AAABjwnlKNc/16x9-512.jpg", "date": "2024-04-29T20:40:00.000+02:00", "lat": 53.5494, "lon": 7.201, "intensity": 0.6, "source": "Tagesschau"}, {"title": "Nach Islamisten-Demo in Hamburg: Forderungen nach Konsequenzen", "url": "https://www.tagesschau.de/inland/regional/hamburg/ndr-muslim-interaktiv-hunderte-bei-demo-in-hamburg-100.html", "thumbnailUrl": "https://images.tagesschau.de/image/ac0513bc-1820-4ff5-b5bb-b8a84d7a4696/AAABjysK5Bw/AAABjwnlKNc/16x9-512.jpg", "date": "2024-04-29T20:38:00.000+02:00", "lat": 53.5511, "lon": 9.9833, "intensity": 0.7, "source": "Tagesschau"}, {"title": "Kitaverband kritisiert Sprachf\u00f6rderkonzept der BW-Landesregierung", "url": "https://www.tagesschau.de/inland/regional/badenwuerttemberg/swr-kitaverband-kritisiert-sprachfoerderkonzept-der-bw-landesregierung-100.html", "thumbnailUrl": "https://images.tagesschau.de/image/09239e14-03cc-4219-b26d-8431c52ad570/AAABjysr0Wk/AAABjwnlKNc/16x9-512.jpg", "date": "2024-04-29T20:31:49.000+02:00", "lat": 48.6616, "lon": 9.9937, "intensity": 0.7, "source": "Tagesschau"}, {"title": "Das sind die Favoriten beim Radrennen Eschborn-Frankfurt 2024", "url": "https://www.tagesschau.de/inland/regional/hessen/hr-das-sind-die-favoriten-beim-radrennen-eschborn-frankfurt-2024-102.html", "thumbnailUrl": "https://images.tagesschau.de/image/0e6f5227-77f9-4a53-850d-095242ffe6d5/AAABjyuB6vQ/AAABjwnlKNc/16x9-512.jpg", "date": "2024-04-29T20:31:15.625+02:00", "lat": 50.1109, "lon": 8.5777, "intensity": 0.7, "source": "Tagesschau"}, {"title": "Wie wirken sich Muscheln und Algen auf Offshore-Windparks aus?", "url": "https://www.tagesschau.de/inland/regional/niedersachsen/ndr-wie-wirken-sich-muscheln-und-algen-auf-offshore-windparks-aus-100.html", "thumbnailUrl": "https://images.tagesschau.de/image/0b17aeea-1633-49a9-853d-8e87c0fff72c/AAABjyiGiaU/AAABjwnlKNc/16x9-512.jpg", "date": "2024-04-29T20:25:00.000+02:00", "lat": 52.2689, "lon": 10.5296, "intensity": 0.7, "source": "Tagesschau"}, {"title": "Fahrradstra\u00dfe in Saarbr\u00fccker Hohenzollernstra\u00dfe wird erweitert", "url": "https://www.tagesschau.de/inland/regional/saarland/sr-fahrradstrasse-in-saarbruecker-hohenzollernstrasse-wird-erweitert-100.html", "thumbnailUrl": "https://images.tagesschau.de/image/7ab7b935-1671-4af4-a159-b87b08f20c24/AAABjxudPmQ/AAABjwnlKNc/16x9-512.jpg", "date": "2024-04-29T20:15:00.000+02:00", "lat": 49.234138, "lon": 6.994849, "intensity": 0.6, "source": "Tagesschau"}, {"title": "Preis als \"Ausgezeichnete Lehrkraft\" geht nach Halberstadt", "url": "https://www.tagesschau.de/inland/regional/sachsenanhalt/mdr-preis-als-ausgezeichnete-lehrkraft-geht-nach-halberstadt-100.html", "thumbnailUrl": "https://images.tagesschau.de/image/b4396d72-ffaa-46ee-ba9e-c2019ef6d2a5/AAABjywCFEg/AAABjwnlKNc/16x9-512.jpg", "date": "2024-04-29T20:05:42.000+02:00", "lat": 51.89602, "lon": 11.05191, "intensity": 0.6, "source": "Tagesschau"}, {"title": "Eintracht: +++ Barkok in Lokal angegriffen +++ Bayer-Coach Alonso gelbgesperrt in Frankfurt +++ Knauff sprintet allen davon +++", "url": "https://www.tagesschau.de/inland/regional/hessen/hr--eintracht-wohl-mit-chaibi-einig--glasner-fast-nur-kolo-muani-der-tore-erzielt--bericht-eintracht-sagt-aouar-ab-100.html", "thumbnailUrl": "https://images.tagesschau.de/image/7ca8e807-9aab-429b-9397-b353b08556a9/AAABjysBwPI/AAABjwnlKNc/16x9-512.jpg", "date": "2024-04-29T19:54:46.832+02:00", "lat": 50.110922, "lon": 8.682127, "intensity": 0.6, "source": "Tagesschau"}, {"title": "Kampf gegen Drogen: Kampagne richtet sich an Hafenbesch\u00e4ftigte", "url": "https://www.tagesschau.de/inland/regional/hamburg/ndr-kampf-gegen-drogen-kampagne-richtet-sich-an-hafenbeschaeftigte-100.html", "thumbnailUrl": "https://images.tagesschau.de/image/9c8a1a81-73e4-41ff-ba2d-3089c22fa26b/AAABjyo93tw/AAABjwnlKNc/16x9-512.jpg", "date": "2024-04-29T19:54:00.000+02:00", "lat": 53.5511, "lon": 9.9937, "intensity": 0.7, "source": "Tagesschau"}, {"title": "Prozessbeginn gegen Flughafen-Geiselnehmer", "url": "https://www.tagesschau.de/inland/regional/hamburg/geiselnahme-am-hamburger-flughafen-prozess-100.html", "thumbnailUrl": "https://images.tagesschau.de/image/c0c49159-fcb4-4898-8887-1d3d5aec8de8/AAABi6BcQms/AAABjwnlKNc/16x9-512.jpg", "date": "2024-04-29T19:51:00.000+02:00", "lat": 53.6309, "lon": 9.9885, "intensity": 0.8, "source": "Tagesschau"}, {"title": "Hamburger Polizei bereitet sich auf Mai-Demos vor", "url": "https://www.tagesschau.de/inland/regional/hamburg/ndr-hamburger-polizei-bereitet-sich-auf-mai-demos-vor-100.html", "thumbnailUrl": "https://images.tagesschau.de/image/c87c0715-5a8b-4133-9796-615d0ddaa99f/AAABjyrzOP4/AAABjwnlKNc/16x9-512.jpg", "date": "2024-04-29T19:40:00.000+02:00", "lat": 53.5511, "lon": 9.9937, "intensity": 0.6, "source": "Tagesschau"}, {"title": "Scharfe Kritik aus dem Saarland nach Islamistendemo in Hamburg", "url": "https://www.tagesschau.de/inland/regional/saarland/sr-scharfe-kritik-aus-dem-saarland-nach-islamistendemo-in-hamburg-100.html", "thumbnailUrl": "https://images.tagesschau.de/image/97f5a14a-f986-4d1f-a2a1-8afacd17f0d6/AAABjyrzBY0/AAABjwnlKNc/16x9-512.jpg", "date": "2024-04-29T19:38:00.000+02:00", "lat": 49.3964, "lon": 6.9538, "intensity": 0.8, "source": "Tagesschau"}, {"title": "US-Popstar Billie Eilish kommt f\u00fcr ein Konzert nach Berlin", "url": "https://www.tagesschau.de/inland/regional/berlin/rbb-us-popstar-billie-eilish-kommt-fuer-ein-konzert-nach-berlin-102.html", "thumbnailUrl": "https://images.tagesschau.de/image/6752d338-89a6-4acd-a218-22786e8afdd5/AAABjysDjF0/AAABjwnlKNc/16x9-512.jpg", "date": "2024-04-29T19:25:00.000+02:00", "lat": 52.520008, "lon": 13.404954, "intensity": 0.7, "source": "Tagesschau"}, {"title": "Mehr Sch\u00fcler an Gymnasien und Gemeinschaftsschulen in SH", "url": "https://www.tagesschau.de/inland/regional/schleswigholstein/ndr-mehr-schueler-an-gymnasien-und-gemeinschaftsschulen-in-sh-100.html", "thumbnailUrl": "https://images.tagesschau.de/image/566db536-9328-43e1-9ceb-314437a296af/AAABjyrinhs/AAABjwnlKNc/16x9-512.jpg", "date": "2024-04-29T19:21:00.000+02:00", "lat": 54.3327, "lon": 9.6961, "intensity": 0.7, "source": "Tagesschau"}, {"title": "Zahl der \"Reichsb\u00fcrger\" in Brandenburg auf H\u00f6chststand", "url": "https://www.tagesschau.de/inland/regional/brandenburg/rbb-verfassungsschutzbericht-zahl-der-reichsbuerger-in-brandenburg-auf-hoechststand-100.html", "thumbnailUrl": "https://images.tagesschau.de/image/16122141-6fe5-4fb4-b3e4-4d3181cb808d/AAABjyrgwlA/AAABjwnlKNc/16x9-512.jpg", "date": "2024-04-29T19:19:04.000+02:00", "lat": 52.4226, "lon": 13.2027, "intensity": 0.8, "source": "Tagesschau"}, {"title": "Polizeipr\u00e4sident f\u00fcr Verbot von \"Muslim Interaktiv\"", "url": "https://www.tagesschau.de/inland/innenpolitik/demonstration-islamisten-faeser-schnabel-100.html", "thumbnailUrl": "https://images.tagesschau.de/image/d26b6382-840d-4a75-a94d-59e5843a1311/AAABjyo44Co/AAABjwnlKNc/16x9-512.jpg", "date": "2024-04-29T19:18:53.051+02:00", "lat": 53.551085, "lon": 9.993682, "intensity": 0.8, "source": "Tagesschau"}, {"title": "Wetterlage und Temperaturen", "url": "https://www.tagesschau.de/wetter/europa-welt", "thumbnailUrl": "https://images.tagesschau.de/image/6e7d3b16-79c8-4308-822b-20c3035236b5/AAABjylSBMQ/AAABjwnlKNc/16x9-512.jpg", "date": "2024-04-29T19:15:07.444+02:00", "lat": 51.1657, "lon": 10.4515, "intensity": 0.3, "source": "Tagesschau"}, {"title": "NATO hat \"nicht geliefert wie versprochen\"", "url": "https://www.tagesschau.de/ausland/europa/stoltenberg-ukraine-nato-100.html", "thumbnailUrl": "https://images.tagesschau.de/image/f8072fe5-d642-4648-ab49-1356ee1e7a52/AAABjyqNGGM/AAABjwnlKNc/16x9-512.jpg", "date": "2024-04-29T19:14:44.717+02:00", "lat": 50.4501, "lon": 30.5234, "intensity": 0.8, "source": "Tagesschau"}, {"title": "Diskussion um Zukunft des Saarbr\u00fccker Finanzamts", "url": "https://www.tagesschau.de/inland/regional/saarland/sr-diskussion-um-zukunft-des-saarbruecker-finanzamts-100.html", "thumbnailUrl": "https://images.tagesschau.de/image/3927f6a5-31c5-4e4c-aa98-509678e03acd/AAABjyrXqbc/AAABjwnlKNc/16x9-512.jpg", "date": "2024-04-29T19:10:00.000+02:00", "lat": 49.2334, "lon": 6.9808, "intensity": 0.8, "source": "Tagesschau"}, {"title": "Einsatzkr\u00e4fte stellen fl\u00e4chendeckende Suche ein", "url": "https://www.ndr.de/nachrichten/niedersachsen/lueneburg_heide_unterelbe/Vermisster-Arian-aus-bremervoerde-Einsatzkraefte-stellen-flaechendeckende-Suche-ein,vermisster554.html", "thumbnailUrl": "https://images.tagesschau.de/image/26e1ee63-9a47-484c-961c-1ae269d19d30/AAABjyqKN2o/AAABjwnlKNc/16x9-512.jpg", "date": "2024-04-29T19:08:55.503+02:00", "lat": 52.022, "lon": 10.543, "intensity": 0.8, "source": "Tagesschau"}, {"title": "Handelsexperte bef\u00fcrchtet weitere Galeria-Insolvenz", "url": "https://www.tagesschau.de/inland/regional/saarland/sr-handelsexperte-befuerchtet-weitere-galeria-insolvenz-100.html", "thumbnailUrl": "https://images.tagesschau.de/image/97ea816d-cec0-48c8-a411-fab31c9d1faf/AAABjyrXjsY/AAABjwnlKNc/16x9-512.jpg", "date": "2024-04-29T19:07:00.000+02:00", "lat": 49.2331, "lon": 6.9772, "intensity": 0.7, "source": "Tagesschau"}, {"title": "Stralsund: \"Gorch Fock I\" erstrahlt in neuem Glanz", "url": "https://www.tagesschau.de/inland/regional/mecklenburgvorpommern/ndr-stralsund-gorch-fock-i-erstrahlt-in-neuem-glanz-100.html", "thumbnailUrl": "https://images.tagesschau.de/image/bc266763-6474-4345-9875-6549afa0d19b/AAABjyrzFQ4/AAABjwnlKNc/16x9-512.jpg", "date": "2024-04-29T18:52:00.000+02:00", "lat": 54.3128, "lon": 13.0878, "intensity": 0.7, "source": "Tagesschau"}, {"title": "Volleys-Gesch\u00e4ftsf\u00fchrer Niroomand im Interview: \"Dieses Ziel hatten wir in den vergangenen Jahren als Traum vor Augen\"", "url": "https://www.tagesschau.de/inland/regional/berlin/rbb-volleys-geschaeftsfuehrer-niroomand-im-interview-dieses-ziel-hatten-wir-in-den-vergangenen-jahren-als-traum-vor-augen-102.html", "thumbnailUrl": "https://images.tagesschau.de/image/1832e4d5-7a3a-4d8d-b86f-c104409d4e9d/AAABjyrBuiQ/AAABjwnlKNc/16x9-512.jpg", "date": "2024-04-29T18:44:17.000+02:00", "lat": 52.520008, "lon": 13.404954, "intensity": 0.8, "source": "Tagesschau"}, {"title": "Verletzter pr\u00fcgelt Sanit\u00e4ter mit Besenstiel krankenhausreif", "url": "https://www.tagesschau.de/inland/regional/hessen/hr-verletzter-pruegelt-sanitaeter-mit-besenstiel-krankenhausreif-100.html", "thumbnailUrl": "https://images.tagesschau.de/image/c5cf94a5-95f4-4a0f-ace3-b738b22461fd/AAABjyq2xKY/AAABjwnlKNc/16x9-512.jpg", "date": "2024-04-29T18:35:49.027+02:00", "lat": 50.22124, "lon": 8.26711, "intensity": 0.7, "source": "Tagesschau"}, {"title": "\"Right in the Night\" von Jam & Spoon: Vor 30 Jahren eroberte der Dancehit aus Frankfurt weltweit die Charts ", "url": "https://www.tagesschau.de/inland/regional/hessen/hr-right-in-the-night-von-jam--spoon-vor-30-jahren-eroberte-der-dancehit-aus-frankfurt-weltweit-die-charts-100.html", "thumbnailUrl": "https://images.tagesschau.de/image/92d835cf-f880-44bd-a831-98d2f94df673/AAABjyq2qLk/AAABjwnlKNc/16x9-512.jpg", "date": "2024-04-29T18:35:46.573+02:00", "lat": 50.1109, "lon": 8.6821, "intensity": 0.3, "source": "Tagesschau"}, {"title": "Aktive Suche nach vermisstem Arian wird eingestellt", "url": "https://www.tagesschau.de/inland/regional/nordrheinwestfalen/wdr-aktive-suche-nach-vermisstem-arian-wird-eingestellt-100.html", "thumbnailUrl": "https://images.tagesschau.de/image/ff976e6b-e0bb-4c90-ab07-3259271feaf3/AAABjyrBmIQ/AAABjwnlKNc/16x9-512.jpg", "date": "2024-04-29T18:33:00.000+02:00", "lat": 51.9607, "lon": 7.6261, "intensity": 0.8, "source": "Tagesschau"}, {"title": "Genehmigungsverfahren f\u00fcr Intel: Mehrere Einw\u00e4nde gegen Bau der Fabrik", "url": "https://www.tagesschau.de/inland/regional/sachsenanhalt/mdr-genehmigungsverfahren-fuer-intel-mehrere-einwaende-gegen-bau-der-fabrik-100.html", "thumbnailUrl": "https://images.tagesschau.de/image/eff0899a-02d1-4837-8eab-5281f4d67572/AAABjywCPQw/AAABjwnlKNc/16x9-512.jpg", "date": "2024-04-29T18:27:04.000+02:00", "lat": 52.1205, "lon": 11.6276, "intensity": 0.8, "source": "Tagesschau"}, {"title": "Flaschen und Scherben auf A28: Lkw verliert Getr\u00e4nkekisten", "url": "https://www.tagesschau.de/inland/regional/niedersachsen/ndr-flaschen-und-scherben-auf-a28-lkw-verliert-getraenkekisten-100.html", "thumbnailUrl": "https://images.tagesschau.de/image/863890da-246d-43ac-9025-d96adc49fb68/AAABjyqif04/AAABjwnlKNc/16x9-512.jpg", "date": "2024-04-29T18:10:00.000+02:00", "lat": 53.2447, "lon": 7.914, "intensity": 0.7, "source": "Tagesschau"}, {"title": "Cottbus-St\u00fcrmer Timmy Thiele: \"Dieser Film wird bildlich nat\u00fcrlich mit dem Aufstieg enden\"", "url": "https://www.tagesschau.de/inland/regional/brandenburg/rbb-cottbus-stuermer-timmy-thiele-dieser-film-wird-bildlich-natuerlich-mit-dem-aufstieg-enden-102.html", "thumbnailUrl": "https://images.tagesschau.de/image/6513f0de-5d67-4fb3-8e9d-fa7dce5d946d/AAABjyqe1Cw/AAABjwnlKNc/16x9-512.jpg", "date": "2024-04-29T18:01:14.000+02:00", "lat": 51.756, "lon": 14.335, "intensity": 0.8, "source": "Tagesschau"}, {"title": "Tr\u00fcber Himmel trotz Sonnenschein: Was steckt hinter dem Ph\u00e4nomen?", "url": "https://www.tagesschau.de/inland/regional/brandenburg/rbb-trueber-himmel-trotz-sonnenschein-was-steckt-hinter-dem-phaenomen-100.html", "thumbnailUrl": "https://images.tagesschau.de/image/d9e3badb-9c74-472f-82bf-89dc4f377536/AAABjyqVyjY/AAABjwnlKNc/16x9-512.jpg", "date": "2024-04-29T17:56:51.000+02:00", "lat": 52.520007, "lon": 13.404954, "intensity": 0.6, "source": "Tagesschau"}, {"title": "Nach Macheten-Vorfall auf Fr\u00fchlingsfest: Sicherheitskonzept funktioniert laut Veranstalter", "url": "https://www.tagesschau.de/inland/regional/badenwuerttemberg/swr-mann-mit-machete-auf-stuttgarter-fruehlingsfest-festgenommen-100.html", "thumbnailUrl": "https://images.tagesschau.de/image/ef41835e-97b2-473c-b21c-193d2fd6f513/AAABjypQFJk/AAABjwnlKNc/16x9-512.jpg", "date": "2024-04-29T17:54:00.000+02:00", "lat": 48.775845, "lon": 9.182932, "intensity": 0.7, "source": "Tagesschau"}, {"title": "Kanaltunnel Rendsburg: L\u00e4uft es bald besser?", "url": "https://www.tagesschau.de/inland/regional/schleswigholstein/ndr-kanaltunnel-rendsburg-laeuft-es-bald-besser-100.html", "thumbnailUrl": "https://images.tagesschau.de/image/32ee33a3-ca35-428f-82bd-77a62452735a/AAABjyqZWsw/AAABjwnlKNc/16x9-512.jpg", "date": "2024-04-29T17:53:00.000+02:00", "lat": 54.3043, "lon": 9.6678, "intensity": 0.4, "source": "Tagesschau"}, {"title": "Wetter in Hessen: 1. Mai soll w\u00e4rmster Tag des Jahres werden ", "url": "https://www.tagesschau.de/inland/regional/hessen/hr-wetter-in-hessen-1-mai-soll-waermster-tag-des-jahres-werden-100.html", "thumbnailUrl": "https://images.tagesschau.de/image/cdc09279-cb71-4316-a597-590df1db2991/AAABjyqKvBQ/AAABjwnlKNc/16x9-512.jpg", "date": "2024-04-29T17:47:19.263+02:00", "lat": 50.1109, "lon": 8.4206, "intensity": 0.7, "source": "Tagesschau"}, {"title": "Scholz will klare Kante gegen Islamisten", "url": "https://www.tagesschau.de/inland/innenpolitik/scholz-islamisten-demo-konsequenzen-100.html", "thumbnailUrl": "https://images.tagesschau.de/image/2a44f242-17c2-44a7-906a-10a70fac2e7c/AAABjyophAA/AAABjwnlKNc/16x9-512.jpg", "date": "2024-04-29T17:46:03.241+02:00", "lat": 53.5511, "lon": 9.9937, "intensity": 0.8, "source": "Tagesschau"}, {"title": "Plan B f\u00fcr Galeria Kaufhof in Chemnitz", "url": "https://www.tagesschau.de/inland/regional/sachsen/mdr-plan-b-fuer-galeria-kaufhof-in-chemnitz-100.html", "thumbnailUrl": "https://images.tagesschau.de/image/8769b377-6af1-4834-8895-887515e92a36/AAABjyv-ZyM/AAABjwnlKNc/16x9-512.jpg", "date": "2024-04-29T17:35:20.000+02:00", "lat": 50.8278, "lon": 12.9276, "intensity": 0.8, "source": "Tagesschau"}, {"title": "Eine Gruppe mit enormem Waffenarsenal", "url": "https://www.tagesschau.de/inland/gesellschaft/prozess-reichsbuerger-104.html", "thumbnailUrl": "https://images.tagesschau.de/image/25af5feb-d27a-4f34-8f2a-5d25fe60551b/AAABjypyWTs/AAABjwnlKNc/16x9-512.jpg", "date": "2024-04-29T17:29:54.219+02:00", "lat": 48.7758, "lon": 9.1829, "intensity": 0.8, "source": "Tagesschau"}, {"title": "Obstbauern und Winzer in Not: Frost sorgt f\u00fcr massiven Ernteausfall", "url": "https://www.tagesschau.de/inland/regional/sachsen/mdr-obstbauern-und-winzer-in-not-frost-sorgt-fuer-massiven-ernteausfall-100.html", "thumbnailUrl": "https://images.tagesschau.de/image/fc9cf818-4a94-4ddc-9155-6341221aaf62/AAABjyv-tBo/AAABjwnlKNc/16x9-512.jpg", "date": "2024-04-29T17:28:55.000+02:00", "lat": 51.079153, "lon": 13.737262, "intensity": 0.8, "source": "Tagesschau"}, {"title": "Nachfrage nach Fernw\u00e4rme in Hamburg gestiegen", "url": "https://www.tagesschau.de/inland/regional/hamburg/ndr-nachfrage-nach-fernwaerme-in-hamburg-gestiegen-100.html", "thumbnailUrl": "https://images.tagesschau.de/image/4d85e93b-d603-4e02-a079-f6b14c0a56ec/AAABjyp93xE/AAABjwnlKNc/16x9-512.jpg", "date": "2024-04-29T17:28:00.000+02:00", "lat": 53.55, "lon": 10.0, "intensity": 0.8, "source": "Tagesschau"}, {"title": "Waldumbau in Europa wird immer schwieriger", "url": "https://www.tagesschau.de/wissen/klima/klimawandel-waldbau-100.html", "thumbnailUrl": "https://images.tagesschau.de/image/cf070eb8-3c95-48a5-8434-42c96645a4b3/AAABjyp4TsI/AAABjwnlKNc/16x9-512.jpg", "date": "2024-04-29T17:27:59.144+02:00", "lat": 47.46469, "lon": 9.55932, "intensity": 0.7, "source": "Tagesschau"}, {"title": "Oder-Spree: 14-J\u00e4hriger attackiert mit Jugendlichen Linke-Kandidaten beim Plakatieren", "url": "https://www.tagesschau.de/inland/regional/brandenburg/rbb-oder-spree-linke-kandidaten-beim-plakatieren-fuer-die-wahl-attackiert-100.html", "thumbnailUrl": "https://images.tagesschau.de/image/f469e967-bc8d-4d30-9628-a7472da8d79f/AAABjyW2tZk/AAABjwnlKNc/16x9-512.jpg", "date": "2024-04-29T17:24:27.000+02:00", "lat": 52.181, "lon": 13.8884, "intensity": 0.7, "source": "Tagesschau"}, {"title": "Lieferdienst Getir verl\u00e4sst deutschen Markt", "url": "https://www.tagesschau.de/wirtschaft/unternehmen/getir-verlaesst-deutschland-100.html", "thumbnailUrl": "https://images.tagesschau.de/image/c10f62c9-0745-4273-a19c-278a56c81853/AAABjyo4VgY/AAABjwnlKNc/16x9-512.jpg", "date": "2024-04-29T17:24:16.492+02:00", "lat": 53.551086, "lon": 9.993682, "intensity": 0.6, "source": "Tagesschau"}, {"title": "Pharmakonzern AbbVie: 150 Millionen Euro f\u00fcr Laborgeb\u00e4ude in Ludwigshafen", "url": "https://www.tagesschau.de/inland/regional/rheinlandpfalz/swr-pharmakonzern-abbvie-150-millionen-euro-fuer-laborgebaeude-in-ludwigshafen-100.html", "thumbnailUrl": "https://images.tagesschau.de/image/24aef73f-4cdf-43bc-ac5b-db8e3e5d0efa/AAABjypxDgw/AAABjwnlKNc/16x9-512.jpg", "date": "2024-04-29T17:19:00.000+02:00", "lat": 49.477778, "lon": 8.279114, "intensity": 0.8, "source": "Tagesschau"}, {"title": "Mit Essigessenz get\u00f6tet: Muss Angeklagte dauerhaft in Psychiatrie?", "url": "https://www.tagesschau.de/inland/regional/saarland/sr-mit-essigessenz-getoetet-muss-angeklagte-dauerhaft-in-psychiatrie-100.html", "thumbnailUrl": "https://images.tagesschau.de/image/e8074068-73a3-475e-865b-11c28d596b09/AAABjypy2XM/AAABjwnlKNc/16x9-512.jpg", "date": "2024-04-29T17:14:00.000+02:00", "lat": 49.366, "lon": 7.181, "intensity": 0.8, "source": "Tagesschau"}, {"title": "\u00dcbung gegen Tierseuchen: Ennepe-Ruhr-Kreis simuliert Ausbruch einer Vogelgrippe", "url": "https://www.tagesschau.de/inland/regional/nordrheinwestfalen/wdr-uebung-gegen-tierseuchen-ennepe-ruhr-kreis-simuliert-ausbruch-einer-vogelgrippe-100.html", "thumbnailUrl": "https://images.tagesschau.de/image/273d282f-f92c-443d-ba6f-2d11f221a887/AAABjyqQKrU/AAABjwnlKNc/16x9-512.jpg", "date": "2024-04-29T17:10:00.000+02:00", "lat": 51.3333, "lon": 7.3333, "intensity": 0.6, "source": "Tagesschau"}, {"title": "Schuften f\u00fcr einen Hungerlohn", "url": "https://www.tagesschau.de/ausland/afrika/kongo-goldminen-goldpreis-100.html", "thumbnailUrl": "https://images.tagesschau.de/image/c779d41d-0cfb-4852-9f68-a92378cd71db/AAABjypL-_Q/AAABjwnlKNc/16x9-512.jpg", "date": "2024-04-29T16:58:46.256+02:00", "lat": -5.7561, "lon": 25.9666, "intensity": 0.7, "source": "Tagesschau"}, {"title": "Auf Druck der Bankenaufsicht: Hessen erh\u00f6ht mit Milliarden-Schulden Anteil an Helaba", "url": "https://www.tagesschau.de/inland/regional/hessen/hr-auf-druck-der-bankenaufsicht-hessen-erhoeht-mit-milliarden-schulden-anteil-an-helaba-100.html", "thumbnailUrl": "https://images.tagesschau.de/image/05e55780-82d3-4d65-932c-f51398da4c6e/AAABjypbF8c/AAABjwnlKNc/16x9-512.jpg", "date": "2024-04-29T16:55:10.787+02:00", "lat": 50.5707, "lon": 9.6752, "intensity": 0.7, "source": "Tagesschau"}, {"title": "Padel-Tennis bald auch in St. Ingbert", "url": "https://www.tagesschau.de/inland/regional/saarland/sr-padel-tennis-bald-auch-in-st-ingbert-100.html", "thumbnailUrl": "https://images.tagesschau.de/image/f9c0fe79-821b-41fa-b28e-dc6e7aa90e22/AAABjysV0EM/AAABjwnlKNc/16x9-512.jpg", "date": "2024-04-29T16:50:00.000+02:00", "lat": 49.2736, "lon": 7.1135, "intensity": 0.6, "source": "Tagesschau"}, {"title": "Wahlwerbung aufgeh\u00e4ngt: Helfer in MV f\u00fchlten sich bedroht", "url": "https://www.tagesschau.de/inland/regional/mecklenburgvorpommern/ndr-wahlwerbung-in-mv-von-heute-an-erlaubt-100.html", "thumbnailUrl": "https://images.tagesschau.de/image/66c0a4a8-024a-4e97-b3ee-e3d400d07238/AAABjysxSNA/AAABjwnlKNc/16x9-512.jpg", "date": "2024-04-29T16:50:00.000+02:00", "lat": 53.6127, "lon": 13.1995, "intensity": 0.5, "source": "Tagesschau"}, {"title": "Auch nach Kohlestrom-Aus: J\u00e4nschwalde soll laut Landesregierung Kraftwerksstandort bleiben", "url": "https://www.tagesschau.de/inland/regional/brandenburg/rbb-auch-nach-kohlestrom-aus-jaenschwalde-soll-laut-landesregierung-kraftwerksstandort-bleiben-100.html", "thumbnailUrl": "https://images.tagesschau.de/image/ef7fc1c7-4aa7-4f72-8fe4-470fc2cd212c/AAABjypg1d0/AAABjwnlKNc/16x9-512.jpg", "date": "2024-04-29T16:48:00.000+02:00", "lat": 51.6881, "lon": 14.4055, "intensity": 0.7, "source": "Tagesschau"}, {"title": "T\u00fcrkisches Unternehmen: Lieferdienst Getir kapituliert und zieht sich auch aus Deutschland zur\u00fcck", "url": "https://www.tagesschau.de/inland/regional/berlin/rbb-tuerkisches-unternehmen-lieferdienst-getir-kapituliert-und-zieht-sich-auch-aus-deutschland-zurueck-100.html", "thumbnailUrl": "https://images.tagesschau.de/image/c10f62c9-0745-4273-a19c-278a56c81853/AAABjyo4VgY/AAABjwnlKNc/16x9-512.jpg", "date": "2024-04-29T16:46:24.000+02:00", "lat": 52.520008, "lon": 13.404954, "intensity": 0.8, "source": "Tagesschau"}, {"title": "Generalstaatsanwaltschaft ermittelt ", "url": "https://www.tagesschau.de/inland/generalstaatsanwaltschaft-ukrainer-murnau-100.html", "thumbnailUrl": "https://images.tagesschau.de/image/96fe6462-00ea-45e8-bb6d-ee87c36fdbf8/AAABjypBSjE/AAABjwnlKNc/16x9-512.jpg", "date": "2024-04-29T16:44:46.140+02:00", "lat": 47.6498, "lon": 11.2804, "intensity": 0.8, "source": "Tagesschau"}, {"title": "Angriff auf Wahlhelfer der Gr\u00fcnen - Polizei ermittelt Tatverd\u00e4chtigen", "url": "https://www.tagesschau.de/inland/regional/sachsen/mdr-mehrere-vertreter-der-gruenen-in-sachsen-angegriffen-100.html", "thumbnailUrl": "https://images.tagesschau.de/image/7f1f33c9-0b4b-46b9-8a32-553924691fa8/AAABjypQL6M/AAABjwnlKNc/16x9-512.jpg", "date": "2024-04-29T16:42:03.000+02:00", "lat": 52.1326, "lon": 13.4085, "intensity": 0.8, "source": "Tagesschau"}, {"title": "Regionalliga Nordost: SV Babelsberg und Trainer Markus Zschiesche trennen sich zum Saisonende", "url": "https://www.tagesschau.de/inland/regional/brandenburg/rbb-regionalliga-nordost-sv-babelsberg-und-trainer-markus-zschiesche-trennen-sich-zum-saisonende-102.html", "thumbnailUrl": "https://images.tagesschau.de/image/979469c9-1719-483c-9085-60e39d96534c/AAABjyphBSg/AAABjwnlKNc/16x9-512.jpg", "date": "2024-04-29T16:36:18.000+02:00", "lat": 52.3876, "lon": 13.101, "intensity": 0.5, "source": "Tagesschau"}, {"title": "Darmstadt 98: +++ Abstieg ist \"wie mit der 102-j\u00e4hrigen Oma\" +++ Lieberknecht lobt Lilien-Fans +++ Jobgarantie f\u00fcr Lieberknecht +++", "url": "https://www.tagesschau.de/inland/regional/hessen/hr--tietz-vermisst-fehlende-gier--lilien-fans-liefern-sich-raststaetten-pruegelei--die-niederlage-der-lilien-in-der-video-zusammenfassung-102.html", "thumbnailUrl": "https://images.tagesschau.de/image/01306138-8f89-4994-b751-0a311ea1f900/AAABjypI5vA/AAABjwnlKNc/16x9-512.jpg", "date": "2024-04-29T16:35:06.877+02:00", "lat": 49.8728, "lon": 8.6512, "intensity": 0.8, "source": "Tagesschau"}, {"title": "Lohnt sich die Nachr\u00fcstung alter Kamin\u00f6fen? ", "url": "https://www.tagesschau.de/wirtschaft/kaminoefen-holz-emissionen-umruestung-100.html", "thumbnailUrl": "https://images.tagesschau.de/image/55fe4896-c1fb-4ce1-9934-9ac21ed8dd12/AAABjfpOsXQ/AAABjwnlKNc/16x9-512.jpg", "date": "2024-04-29T16:33:29.466+02:00", "lat": 51.1657, "lon": 10.4515, "intensity": 0.8, "source": "Tagesschau"}, {"title": "1500 Telekom-Mitarbeiter bei Streikkundgebung ", "url": "https://www.tagesschau.de/inland/regional/saarland/sr-erneuter-warnstreik-bei-der-telekom-100.html", "thumbnailUrl": "https://images.tagesschau.de/image/dbdfc8b6-7628-4e13-a6ff-d5c213545518/AAABjypMY4U/AAABjwnlKNc/16x9-512.jpg", "date": "2024-04-29T16:28:00.000+02:00", "lat": 49.3964, "lon": 6.9466, "intensity": 0.8, "source": "Tagesschau"}, {"title": "Ausgebrochene Kuhherde besch\u00e4digt mindestens vier Autos", "url": "https://www.tagesschau.de/inland/regional/niedersachsen/ndr-ausgebrochene-kuhherde-beschaedigt-mindestens-vier-autos-100.html", "thumbnailUrl": "https://images.tagesschau.de/image/88b11d56-a2ab-40ea-9972-db7743026e2a/AAABjypDXV4/AAABjwnlKNc/16x9-512.jpg", "date": "2024-04-29T16:25:00.000+02:00", "lat": 52.6784, "lon": 7.58, "intensity": 0.7, "source": "Tagesschau"}, {"title": "Nach 25 Jahren: Bahnhof Potsdam-Pirschheide wiederer\u00f6ffnet", "url": "https://www.tagesschau.de/inland/regional/brandenburg/rbb-nach-25-jahren-bahnhof-potsdam-pirschheide-wiedereroeffnet-100.html", "thumbnailUrl": "https://images.tagesschau.de/image/9f26d8b8-90e5-4a3c-a737-a03053c8982e/AAABjypg85o/AAABjwnlKNc/16x9-512.jpg", "date": "2024-04-29T16:22:25.000+02:00", "lat": 52.3714, "lon": 13.0611, "intensity": 0.8, "source": "Tagesschau"}, {"title": "Darmstadt 98: Ein Abstieg, der in dieser H\u00e4rte unn\u00f6tig war", "url": "https://www.tagesschau.de/inland/regional/hessen/hr-darmstadt-98-ein-abstieg-der-in-dieser-haerte-unnoetig-war-102.html", "thumbnailUrl": "https://images.tagesschau.de/image/34aff2b6-a4b7-4ab8-8dd7-76bbee3d1bf4/AAABjyp0yPU/AAABjwnlKNc/16x9-512.jpg", "date": "2024-04-29T16:20:24.269+02:00", "lat": 49.8706, "lon": 8.65, "intensity": 0.8, "source": "Tagesschau"}, {"title": "Soldat der Bundeswehr aus Koblenz gesteht Spionage f\u00fcr Russland", "url": "https://www.tagesschau.de/inland/regional/rheinlandpfalz/swr-soldat-aus-koblenz-prozess-gegen-mutmasslichen-russischen-spion-100.html", "thumbnailUrl": "https://images.tagesschau.de/image/0a39163a-0dc0-40a3-bfd0-fc2a38747748/AAABjykC4fc/AAABjwnlKNc/16x9-512.jpg", "date": "2024-04-29T16:15:00.000+02:00", "lat": 50.35694, "lon": 7.58997, "intensity": 0.8, "source": "Tagesschau"}, {"title": "Neue Stadtbahnlinie 9 in Erfurt: Ihre Fragen beantwortet", "url": "https://www.tagesschau.de/inland/regional/thueringen/mdr-neue-stadtbahnlinie-9-in-erfurt-ihre-fragen-beantwortet-100.html", "thumbnailUrl": "https://images.tagesschau.de/image/a78a3f07-0451-4eaf-a1c2-423d918b7ab0/AAABjyv8yqM/AAABjwnlKNc/16x9-512.jpg", "date": "2024-04-29T16:12:14.000+02:00", "lat": 50.984, "lon": 11.031, "intensity": 0.6, "source": "Tagesschau"}, {"title": "Bundeswehr-Offizier gesteht Spionage f\u00fcr Russland", "url": "https://www.tagesschau.de/inland/gesellschaft/wdr-prozess-in-duesseldorf-bundeswehrsoldat-wollte-fuer-russland-spionieren-102.html", "thumbnailUrl": "https://images.tagesschau.de/image/348be17f-3029-4f75-a3ac-4bbbeacb0041/AAABjypn5tA/AAABjwnlKNc/16x9-512.jpg", "date": "2024-04-29T16:04:00.000+02:00", "lat": 51.1657, "lon": 10.4515, "intensity": 0.8, "source": "Tagesschau"}, {"title": "Thyssenkrupp: Landespolitik fordert langfristigen Erhalt von Arbeitspl\u00e4tzen", "url": "https://www.tagesschau.de/inland/regional/nordrheinwestfalen/wdr-thyssenkrupp-landespolitik-fordert-langfristigen-erhalt-von-arbeitsplaetzen-100.html", "thumbnailUrl": "https://images.tagesschau.de/image/a230f11e-c11c-4423-b6dc-a74a79d6259b/AAABjysHK-Q/AAABjwnlKNc/16x9-512.jpg", "date": "2024-04-29T15:57:00.000+02:00", "lat": 51.9607, "lon": 7.5955, "intensity": 0.7, "source": "Tagesschau"}, {"title": "Ringen um Geiseldeal - Warnung vor Rafah-Offensive", "url": "https://www.tagesschau.de/ausland/asien/nahost-geiseln-verhandlungen-100.html", "thumbnailUrl": "https://images.tagesschau.de/image/9a8b8a62-7b2f-44b6-b430-0d521ccefefe/AAABjyok83Q/AAABjwnlKNc/16x9-512.jpg", "date": "2024-04-29T15:56:56.065+02:00", "lat": 30.0227, "lon": 31.281, "intensity": 0.7, "source": "Tagesschau"}, {"title": "Wetterbilanz im L\u00e4ndervergleich: Berlin und Brandenburg waren im April am w\u00e4rmsten", "url": "https://www.tagesschau.de/inland/regional/berlin/rbb-wetterbilanz-im-laendervergleich-berlin-und-brandenburg-waren-im-april-am-waermsten-100.html", "thumbnailUrl": "https://images.tagesschau.de/image/65bd3d14-8bf1-49e1-b0c5-b7db7be5b668/AAABjyokNr8/AAABjwnlKNc/16x9-512.jpg", "date": "2024-04-29T15:50:51.000+02:00", "lat": 52.520007, "lon": 13.404954, "intensity": 0.6, "source": "Tagesschau"}, {"title": "Stockende Verkehrswende: Streckenausbau Berlin-R\u00fcgen verz\u00f6gert sich", "url": "https://www.tagesschau.de/inland/regional/mecklenburgvorpommern/ndr-stockende-verkehrswende-streckenausbau-berlin-ruegen-verzoegert-sich-100.html", "thumbnailUrl": "https://images.tagesschau.de/image/fb1bbf05-dca0-4c20-abeb-e52b08681803/AAABjys08pk/AAABjwnlKNc/16x9-512.jpg", "date": "2024-04-29T15:43:00.000+02:00", "lat": 52.52, "lon": 13.4251, "intensity": 0.7, "source": "Tagesschau"}, {"title": "Hamburg-Marathon: Kenianer Koech gewinnt - Steinruck im Pech", "url": "https://www.tagesschau.de/inland/regional/hamburg/ndr-kenianer-koech-gewinnt-hamburg-marathon-zum-zweiten-mal-in-folge-102.html", "thumbnailUrl": "https://images.tagesschau.de/image/333a6e2a-6b16-4f13-997a-9be8cb8e6523/AAABjyoXYUY/AAABjwnlKNc/16x9-512.jpg", "date": "2024-04-29T15:41:00.000+02:00", "lat": 53.5511, "lon": 9.9937, "intensity": 0.8, "source": "Tagesschau"}, {"title": "St. Pauli: Neuer Nachtbeauftragter will f\u00fcr Verst\u00e4ndnis werben", "url": "https://www.tagesschau.de/inland/regional/hamburg/ndr-st-pauli-neuer-nachtbeauftragter-will-fuer-verstaendnis-werben-100.html", "thumbnailUrl": "https://images.tagesschau.de/image/d014a83d-560d-4fb7-aa85-09add7d8e5b1/AAABjyoZP_c/AAABjwnlKNc/16x9-512.jpg", "date": "2024-04-29T15:40:00.000+02:00", "lat": 53.5511, "lon": 9.9633, "intensity": 0.6, "source": "Tagesschau"}, {"title": "Zwei 16-J\u00e4hrige sollen in gro\u00dfem Stil Schmerzmittel im Raum Ulm ergaunert haben", "url": "https://www.tagesschau.de/inland/regional/badenwuerttemberg/swr-zwei-16-jaehrige-sollen-in-grossem-stil-schmerzmittel-im-raum-ulm-ergaunert-haben-100.html", "thumbnailUrl": "https://images.tagesschau.de/image/48f282f0-f88c-44d3-973b-5c36f27dcc71/AAABjyoerHc/AAABjwnlKNc/16x9-512.jpg", "date": "2024-04-29T15:34:40.000+02:00", "lat": 48.4011, "lon": 9.9937, "intensity": 0.8, "source": "Tagesschau"}, {"title": "Unterrichtsausschluss nach Angriffen: Verhaltensauff\u00e4lliger Berliner Sch\u00fcler darf wieder zur Schule gehen", "url": "https://www.tagesschau.de/inland/regional/berlin/rbb-unterrichtsausschluss-nach-angriffen-verhaltensauffaelliger-berliner-schueler-darf-wieder-zur-schule-gehen-100.html", "thumbnailUrl": "https://images.tagesschau.de/image/b9b92faf-ed87-4c9f-88e2-b0c0138d148d/AAABjyoIujM/AAABjwnlKNc/16x9-512.jpg", "date": "2024-04-29T15:25:54.000+02:00", "lat": 52.520008, "lon": 13.404954, "intensity": 0.8, "source": "Tagesschau"}, {"title": "Kultur: +++ Fuldaer Museen befragen Besucher +++ Keine Aberkennung des Adorno-Preises f\u00fcr Judith Butler +++", "url": "https://www.tagesschau.de/inland/regional/hessen/hr--schauspiel-frankfurt-bringt-putin-und-macbeth-zusammen--die-filmfestival-saison-2023-startet--lichter-filmfest-zum-thema-liebe-startet-am-dienstag-100.html", "thumbnailUrl": "https://images.tagesschau.de/image/0de9aab0-14cc-4226-a27e-9bc1ce01bf7a/AAABjykQdDQ/AAABjwnlKNc/16x9-512.jpg", "date": "2024-04-29T15:12:39.061+02:00", "lat": 50.1109, "lon": 8.6821, "intensity": 0.6, "source": "Tagesschau"}, {"title": "Milit\u00e4rstruktur laut Anklage weit fortgeschritten ", "url": "https://www.tagesschau.de/inland/gesellschaft/prozess-reichsbuerger-102.html", "thumbnailUrl": "https://images.tagesschau.de/image/00d3381c-fc3a-4a19-95eb-27e3d3a426a0/AAABjymdCSY/AAABjwnlKNc/16x9-512.jpg", "date": "2024-04-29T15:05:42.043+02:00", "lat": 48.7758, "lon": 9.1829, "intensity": 0.7, "source": "Tagesschau"}, {"title": "So geht es f\u00fcr die Besch\u00e4ftigten von Galeria Kaufhof in Mainz weiter", "url": "https://www.tagesschau.de/inland/regional/rheinlandpfalz/swr-so-geht-es-fuer-die-beschaeftigten-von-galeria-kaufhof-in-mainz-weiter-100.html", "thumbnailUrl": "https://images.tagesschau.de/image/a2bf4446-dc5b-4673-97b5-911d7c9049d9/AAABjynQEKk/AAABjwnlKNc/16x9-512.jpg", "date": "2024-04-29T15:04:00.000+02:00", "lat": 49.992862, "lon": 8.247252, "intensity": 0.8, "source": "Tagesschau"}, {"title": "Sch\u00fcsse und zwei Verletzte in Jenfeld: Zeugen gesucht", "url": "https://www.tagesschau.de/inland/regional/hamburg/ndr-mindestens-zwei-verletzte-nach-schuessen-in-hamburg-jenfeld-100.html", "thumbnailUrl": "https://images.tagesschau.de/image/ab34aec7-1fd5-4ed8-8e63-e1c4fe801084/AAABjyn2fE4/AAABjwnlKNc/16x9-512.jpg", "date": "2024-04-29T15:03:00.000+02:00", "lat": 53.5706, "lon": 10.0678, "intensity": 0.8, "source": "Tagesschau"}, {"title": "Glienicke und Kremmen. Zwei Schwerverletzte und hoher Sachschaden durch Br\u00e4nde in Oberhavel", "url": "https://www.tagesschau.de/inland/regional/brandenburg/rbb-glienicke-und-kremmen-zwei-schwerverletzte-und-hoher-sachschaden-durch-braende-in-oberhavel-100.html", "thumbnailUrl": "https://images.tagesschau.de/image/6c351206-7988-43b8-906b-a36a25faa289/AAABjyj7swM/AAABjwnlKNc/16x9-512.jpg", "date": "2024-04-29T15:00:20.000+02:00", "lat": 52.6613, "lon": 13.1012, "intensity": 0.7, "source": "Tagesschau"}, {"title": "Inflationsrate verharrt bei 2,2 Prozent", "url": "https://www.tagesschau.de/wirtschaft/konjunktur/inflationsrate-teuerung-april-100.html", "thumbnailUrl": "https://images.tagesschau.de/image/c22b3fbe-2a8b-4905-a31d-44a395b3152a/AAABjyoansY/AAABjwnlKNc/16x9-512.jpg", "date": "2024-04-29T14:54:22.864+02:00", "lat": 51.1657, "lon": 10.4515, "intensity": 0.3, "source": "Tagesschau"}, {"title": "Operation wegen Gesichtsverletzungen: Hertha-Profi Aymen Barkok soll in Berliner Lokal t\u00e4tlich angegriffen worden sein", "url": "https://www.tagesschau.de/inland/regional/berlin/rbb-operation-wegen-gesichtsverletzungen-hertha-profi-aymen-barkok-soll-in-berliner-lokal-taetlich-angegriffen-worden-sein-102.html", "thumbnailUrl": "https://images.tagesschau.de/image/d7ad3a59-3738-4f86-a1c3-a6d2b5eb531c/AAABjynnxHk/AAABjwnlKNc/16x9-512.jpg", "date": "2024-04-29T14:45:43.000+02:00", "lat": 52.520008, "lon": 13.404954, "intensity": 0.8, "source": "Tagesschau"}, {"title": "Wenig Lust auf E-Autos: Von der Verkehrswende weit entfernt", "url": "https://www.tagesschau.de/inland/regional/nordrheinwestfalen/wdr-wenig-lust-auf-e-autos-von-der-verkehrswende-weit-entfernt-100.html", "thumbnailUrl": "https://images.tagesschau.de/image/79d0eafb-dc27-4b26-8eb4-17631e22ca11/AAABjyq97FI/AAABjwnlKNc/16x9-512.jpg", "date": "2024-04-29T14:45:00.000+02:00", "lat": 51.8133, "lon": 7.6261, "intensity": 0.7, "source": "Tagesschau"}, {"title": "Schie\u00dftrainer der Saar-Polizei bei \u00dcbung leicht verletzt", "url": "https://www.tagesschau.de/inland/regional/saarland/sr-schiesstrainer-der-saar-polizei-bei-uebung-leicht-verletzt-100.html", "thumbnailUrl": "https://images.tagesschau.de/image/cb929075-8f3d-4b54-be79-340d962667db/AAABjynrWpQ/AAABjwnlKNc/16x9-512.jpg", "date": "2024-04-29T14:45:00.000+02:00", "lat": 49.2471, "lon": 6.7104, "intensity": 0.6, "source": "Tagesschau"}, {"title": "Anteil der Kinder in Grundsicherung auf H\u00f6chststand", "url": "https://www.tagesschau.de/inland/gesellschaft/kinderhilfswerk-grundsicherung-100.html", "thumbnailUrl": "https://images.tagesschau.de/image/c6979e42-8762-462f-a2e8-55e0257e5738/AAABjyob1M8/AAABjwnlKNc/16x9-512.jpg", "date": "2024-04-29T14:39:08.022+02:00", "lat": 51.1657, "lon": 10.4515, "intensity": 0.7, "source": "Tagesschau"}, {"title": "Generalstaatsanwaltschaft \u00fcbernimmt Ermittlungen", "url": "https://www.br.de/nachrichten/bayern/getoetete-ukrainer-in-murnau-generalstaatsanwaltschaft-uebernimmt-ermittlungen,UBJsfLZ", "thumbnailUrl": "https://images.tagesschau.de/image/2f83bf75-6a3e-4627-a612-b8ce7e4e8e6d/AAABjynYL2g/AAABjwnlKNc/16x9-512.jpg", "date": "2024-04-29T14:33:05.162+02:00", "lat": 47.659, "lon": 11.287, "intensity": 0.8, "source": "Tagesschau"}, {"title": "Anwohner h\u00f6rten Sch\u00fcsse: Polizeieinsatz in L\u00fcbeck-St. Lorenz", "url": "https://www.tagesschau.de/inland/regional/schleswigholstein/ndr-anwohner-hoerten-schuesse-polizeieinsatz-in-luebeck-st-lorenz-100.html", "thumbnailUrl": "https://images.tagesschau.de/image/4f4a178e-c1ea-4699-9108-2d6842b5714b/AAABjyoG3bU/AAABjwnlKNc/16x9-512.jpg", "date": "2024-04-29T14:33:00.000+02:00", "lat": 53.857, "lon": 10.6873, "intensity": 0.8, "source": "Tagesschau"}, {"title": "Strom-Engpass in Oranienburg behoben - Netzbetreiber erh\u00f6ht Leistung", "url": "https://www.tagesschau.de/inland/regional/brandenburg/rbb-strom-engpass-in-oranienburg-behoben-netzbetreiber-erhoeht-leistung-100.html", "thumbnailUrl": "https://images.tagesschau.de/image/fa853fb4-7bcd-4485-9051-ae05d844a622/AAABjynZJbw/AAABjwnlKNc/16x9-512.jpg", "date": "2024-04-29T14:32:49.000+02:00", "lat": 52.7514, "lon": 13.2377, "intensity": 0.7, "source": "Tagesschau"}, {"title": "45-J\u00e4hriger nach Sch\u00fcssen in R\u00fcsselsheim gestorben - Mordkommission ermittelt", "url": "https://www.tagesschau.de/inland/regional/hessen/hr-45-jaehriger-nach-schuessen-in-ruesselsheim-gestorben-mordkommission-ermittelt-100.html", "thumbnailUrl": "https://images.tagesschau.de/image/d8702f17-43cc-4464-a682-056f0ad0efd1/AAABjypQJ7o/AAABjwnlKNc/16x9-512.jpg", "date": "2024-04-29T14:31:53.976+02:00", "lat": 49.9929, "lon": 8.4173, "intensity": 0.8, "source": "Tagesschau"}, {"title": "Lohngef\u00e4lle zwischen Gering- und Topverdienern sinkt", "url": "https://www.tagesschau.de/wirtschaft/arbeitsmarkt/lohngefaelle-arbeitsnachfrage-tarifvertraege-100.html", "thumbnailUrl": "https://images.tagesschau.de/image/e51197f9-2f31-4935-9dba-dd9c6464a558/AAABjyoc0fE/AAABjwnlKNc/16x9-512.jpg", "date": "2024-04-29T14:29:32.486+02:00", "lat": 51.3397, "lon": 9.9956, "intensity": 0.6, "source": "Tagesschau"}, {"title": "Westliche Banken zahlen Millionen an Russland", "url": "https://www.tagesschau.de/wirtschaft/weltwirtschaft/westliche-banken-russland-steuern-100.html", "thumbnailUrl": "https://images.tagesschau.de/image/753abe50-10a2-4f09-bc81-01fa446cc857/AAABjyqMT0o/AAABjwnlKNc/16x9-512.jpg", "date": "2024-04-29T14:29:08.570+02:00", "lat": 55.7558, "lon": 37.6176, "intensity": 0.7, "source": "Tagesschau"}, {"title": "Mit 97 Jahren: Langj\u00e4hriger BFV-Pr\u00e4sident Otto H\u00f6hne verstorben", "url": "https://www.tagesschau.de/inland/regional/berlin/rbb-mit-97-jahren-langjaehriger-bfv-praesident-otto-hoehne-verstorben-102.html", "thumbnailUrl": "https://images.tagesschau.de/image/4f9652ac-95ad-4f22-a8e2-218add4046cf/AAABjynXXiA/AAABjwnlKNc/16x9-512.jpg", "date": "2024-04-29T14:28:28.000+02:00", "lat": 52.520008, "lon": 13.404954, "intensity": 0.8, "source": "Tagesschau"}, {"title": "Schottischer Regierungschef Yousaf tritt zur\u00fcck", "url": "https://www.tagesschau.de/ausland/europa/schottland-ministerpraesident-yousaf-ruecktritt-100.html", "thumbnailUrl": "https://images.tagesschau.de/image/8a7544de-b3f8-49d9-85d8-8776878acfd4/AAABjymxoLs/AAABjwnlKNc/16x9-512.jpg", "date": "2024-04-29T14:21:59.104+02:00", "lat": 55.9533, "lon": -4.2026, "intensity": 0.8, "source": "Tagesschau"}, {"title": "2,8 Millionen Wahlbenachrichtungen: Versand der Unterlagen zur EU-Wahl beginnt in Berlin", "url": "https://www.tagesschau.de/inland/regional/berlin/rbb-28-millionen-wahlbenachrichtungen-versand-der-unterlagen-zur-eu-wahl-beginnt-in-berlin-100.html", "thumbnailUrl": "https://images.tagesschau.de/image/280b0813-1a8e-46fb-9a54-f58e0f874604/AAABjynQU5E/AAABjwnlKNc/16x9-512.jpg", "date": "2024-04-29T14:21:21.000+02:00", "lat": 52.520008, "lon": 13.404954, "intensity": 0.9, "source": "Tagesschau"}, {"title": "K\u00f6nigspython gestohlen: Polizei sucht Schlange und Zeugen", "url": "https://www.tagesschau.de/inland/regional/niedersachsen/ndr-koenigspython-gestohlen-polizei-sucht-schlange-und-zeugen-100.html", "thumbnailUrl": "https://images.tagesschau.de/image/613368a6-1f13-4bdb-9086-242b4a45b82b/AAABjynBS8E/AAABjwnlKNc/16x9-512.jpg", "date": "2024-04-29T14:04:00.000+02:00", "lat": 52.1558, "lon": 9.9326, "intensity": 0.7, "source": "Tagesschau"}, {"title": "Polizei warnt: Wegen Einbruchsserie in Bernburg keine Wertsachen im Auto liegenlassen", "url": "https://www.tagesschau.de/inland/regional/sachsenanhalt/mdr-polizei-warnt-vor-einbruchsserie-in-bernburg-100.html", "thumbnailUrl": "https://images.tagesschau.de/image/b32db4d6-94eb-4797-ae44-36ac1b4d7f68/AAABjymnuRM/AAABjwnlKNc/16x9-512.jpg", "date": "2024-04-29T14:00:09.000+02:00", "lat": 51.7979, "lon": 11.7321, "intensity": 0.8, "source": "Tagesschau"}, {"title": "European League: Flensburg fehlt nicht mehr viel zum Final Four", "url": "https://www.tagesschau.de/inland/regional/schleswigholstein/ndr-european-league-flensburg-fehlt-nicht-mehr-viel-zum-final-four-102.html", "thumbnailUrl": "https://images.tagesschau.de/image/af3c8f9c-0103-4828-9afc-920522ee23bf/AAABjynGyAQ/AAABjwnlKNc/16x9-512.jpg", "date": "2024-04-29T13:58:00.000+02:00", "lat": 54.7817, "lon": 9.4356, "intensity": 0.8, "source": "Tagesschau"}, {"title": "Anfangsverdacht auf Vorteilsnahme: Staatsanwaltschaft leitet Ermittlungen gegen Potsdams Oberb\u00fcrgermeister Schubert ein", "url": "https://www.tagesschau.de/inland/regional/brandenburg/rbb-ermittlungen-gegen-potsdams-oberbuergermeister-schubert-eingeleitet-100.html", "thumbnailUrl": "https://images.tagesschau.de/image/850e927f-fd86-4766-951d-f4e33349cc44/AAABjym6At0/AAABjwnlKNc/16x9-512.jpg", "date": "2024-04-29T13:56:48.000+02:00", "lat": 52.3906, "lon": 13.0645, "intensity": 0.7, "source": "Tagesschau"}, {"title": "Flensburger Lehrer gewinnt Deutschen Lehrkr\u00e4ftepreis", "url": "https://www.tagesschau.de/inland/regional/schleswigholstein/ndr-flensburger-lehrer-gewinnt-deutschen-lehrkraeftepreis-100.html", "thumbnailUrl": "https://images.tagesschau.de/image/4092a34d-b2f0-4471-8eda-78c46d111e9a/AAABjysqEcc/AAABjwnlKNc/16x9-512.jpg", "date": "2024-04-29T13:56:00.000+02:00", "lat": 54.7804, "lon": 9.4353, "intensity": 0.6, "source": "Tagesschau"}, {"title": "Mutma\u00dflicher Unfallverursacher auf A8 bei Zweibr\u00fccken will Unfallopfer anzeigen", "url": "https://www.tagesschau.de/inland/regional/rheinlandpfalz/swr-mann-verursacht-auf-a8-bei-zweibruecken-unfall-und-zeigt-frau-an-100.html", "thumbnailUrl": "https://images.tagesschau.de/image/ce89725f-707a-4fe8-996b-813787f020b8/AAABjym2YWA/AAABjwnlKNc/16x9-512.jpg", "date": "2024-04-29T13:44:51.000+02:00", "lat": 49.2412, "lon": 7.3653, "intensity": 0.8, "source": "Tagesschau"}, {"title": "Schwere Vorw\u00fcrfe gegen Vater: \"Der geht \u00fcber Leichen\"", "url": "https://www.tagesschau.de/inland/regional/rheinlandpfalz/swr-eltern-wegen-toter-tochter-in-landau-vor-gericht-100.html", "thumbnailUrl": "https://images.tagesschau.de/image/3a5a4737-63e5-43f6-b98b-d4bcdecdf513/AAABjymu9m0/AAABjwnlKNc/16x9-512.jpg", "date": "2024-04-29T13:43:00.000+02:00", "lat": 49.3195, "lon": 8.2711, "intensity": 0.8, "source": "Tagesschau"}, {"title": "Berlin-Friedrichshain: 30-J\u00e4hriger verletzt Polizisten bei Einsatz", "url": "https://www.tagesschau.de/inland/regional/berlin/rbb-berlin-friedrichshain-30-jaehriger-verletzt-polizisten-bei-einsatz-100.html", "thumbnailUrl": "https://images.tagesschau.de/image/808ee3e5-122a-456a-8005-4258e142c4fb/AAABjyk7wE0/AAABjwnlKNc/16x9-512.jpg", "date": "2024-04-29T13:36:30.000+02:00", "lat": 52.523, "lon": 13.448, "intensity": 0.6, "source": "Tagesschau"}, {"title": "Ein Todesopfer bei Unfall mit Sportboot auf dem Rhein bei Andernach", "url": "https://www.tagesschau.de/inland/regional/rheinlandpfalz/swr-toedlicher-unfall-mit-sportboot-auf-dem-rhein-100.html", "thumbnailUrl": "https://images.tagesschau.de/image/3680bbe4-d400-4fdd-9e1c-b32d9c40c294/AAABjymkCn8/AAABjwnlKNc/16x9-512.jpg", "date": "2024-04-29T13:35:10.000+02:00", "lat": 50.4411, "lon": 7.395, "intensity": 0.8, "source": "Tagesschau"}, {"title": "\"Reichsb\u00fcrger\": So gef\u00e4hrlich sind sie in NRW", "url": "https://www.tagesschau.de/inland/regional/nordrheinwestfalen/wdr-reichsbuerger-so-gefaehrlich-sind-sie-in-nrw-100.html", "thumbnailUrl": "https://images.tagesschau.de/image/d1825dd5-1d15-4b33-8ed3-e8cbc4e40032/AAABjynP5K4/AAABjwnlKNc/16x9-512.jpg", "date": "2024-04-29T13:26:00.000+02:00", "lat": 51.5413, "lon": 9.1829, "intensity": 0.8, "source": "Tagesschau"}, {"title": "Zug rammt Bagger auf Gleisen bei Oberzent", "url": "https://www.tagesschau.de/inland/regional/hessen/hr-zug-rammt-bagger-auf-gleisen-bei-oberzent-100.html", "thumbnailUrl": "https://images.tagesschau.de/image/5f7e6f5f-c98c-4cba-9893-9c96cc3c990e/AAABjymY-L0/AAABjwnlKNc/16x9-512.jpg", "date": "2024-04-29T13:23:45.361+02:00", "lat": 49.5752, "lon": 9.0767, "intensity": 0.7, "source": "Tagesschau"}, {"title": "S\u00e1nchez tritt nicht zur\u00fcck", "url": "https://www.tagesschau.de/ausland/europa/sanchez-spanien-112.html", "thumbnailUrl": "https://images.tagesschau.de/image/b774ceeb-6288-413a-bb30-84fe46503412/AAABjykp5Sw/AAABjwnlKNc/16x9-512.jpg", "date": "2024-04-29T13:23:33.913+02:00", "lat": 40.4637, "lon": -3.7038, "intensity": 0.8, "source": "Tagesschau"}, {"title": "Pilotprojekt: SH will Gefl\u00fcchtete in den Arbeitsmarkt bringen", "url": "https://www.tagesschau.de/inland/regional/schleswigholstein/ndr-pilotprojekt-sh-will-gefluechtete-in-den-arbeitsmarkt-bringen-100.html", "thumbnailUrl": "https://images.tagesschau.de/image/b8230607-0754-4390-8bf5-851e171981c2/AAABjyml5K4/AAABjwnlKNc/16x9-512.jpg", "date": "2024-04-29T13:17:00.000+02:00", "lat": 54.0124, "lon": 10.1, "intensity": 0.6, "source": "Tagesschau"}, {"title": "Elbkinder-Kitas: Warnstreik des K\u00fcchen- und Reinigungspersonals", "url": "https://www.tagesschau.de/inland/regional/hamburg/ndr-elbkinder-kitas-warnstreik-des-kuechen-und-reinigungspersonals-100.html", "thumbnailUrl": "https://images.tagesschau.de/image/b8ce6b83-ddd6-41dc-a7a8-dc77a980431f/AAABjyl2M6o/AAABjwnlKNc/16x9-512.jpg", "date": "2024-04-29T13:02:00.000+02:00", "lat": 53.55, "lon": 10.0, "intensity": 0.7, "source": "Tagesschau"}, {"title": "Saharastaub im Norden: Das erwartet uns in Niedersachsen", "url": "https://www.tagesschau.de/inland/regional/niedersachsen/ndr-saharastaub-im-norden-das-erwartet-uns-in-niedersachsen-100.html", "thumbnailUrl": "https://images.tagesschau.de/image/353a8e87-9d5a-4af4-a0d2-97221327f23c/AAABjymDDI8/AAABjwnlKNc/16x9-512.jpg", "date": "2024-04-29T12:55:00.000+02:00", "lat": 52.6367, "lon": 9.7347, "intensity": 0.6, "source": "Tagesschau"}, {"title": "Asylpolitik: Brandenburger Innenministerium will Kommunen bei Abschiebungen entlasten", "url": "https://www.tagesschau.de/inland/regional/brandenburg/rbb-asylpolitik-brandenburger-innenministerium-will-kommunen-bei-abschiebungen-entlasten-100.html", "thumbnailUrl": "https://images.tagesschau.de/image/9c4c5a53-7018-4d71-a178-7fec1edd7436/AAABjyl56Pc/AAABjwnlKNc/16x9-512.jpg", "date": "2024-04-29T12:42:46.000+02:00", "lat": 52.52, "lon": 13.228, "intensity": 0.6, "source": "Tagesschau"}, {"title": "\"Niedrige Einschreitschwelle\": Mehr als 5.000 Polizisten am 1. Mai in Berlin im Einsatz", "url": "https://www.tagesschau.de/inland/regional/berlin/rbb-niedrige-einschreitschwelle-mehr-als-5-000-polizisten-am-1-mai-in-berlin-im-einsatz-100.html", "thumbnailUrl": "https://images.tagesschau.de/image/245fa71a-c463-4c3f-9ef4-91a9b9aa11b2/AAABjylIbok/AAABjwnlKNc/16x9-512.jpg", "date": "2024-04-29T12:31:57.000+02:00", "lat": 52.520008, "lon": 13.404954, "intensity": 0.8, "source": "Tagesschau"}, {"title": "Europawahl 2024: Was Sie \u00fcber Umfragen, Briefwahl und Termine wissen m\u00fcssen", "url": "https://www.tagesschau.de/inland/regional/hessen/hr-europawahl-2024-was-sie-ueber-umfragen-briefwahl-und-termine-wissen-muessen-100.html", "thumbnailUrl": "https://images.tagesschau.de/image/25ee7dcf-c2a3-4405-bb58-3f8021edb977/AAABjyoFD_g/AAABjwnlKNc/16x9-512.jpg", "date": "2024-04-29T12:13:56.075+02:00", "lat": 50.8021, "lon": 9.6483, "intensity": 0.7, "source": "Tagesschau"}, {"title": "Immer mehr Gewalt in Notaufnahmen in NRW", "url": "https://www.tagesschau.de/inland/regional/nordrheinwestfalen/wdr-notaufnahmen-in-nrw-die-hemmschwelle-sich-zu-pruegeln-geht-runter-100.html", "thumbnailUrl": "https://images.tagesschau.de/image/ad129fae-1ffd-4ef5-859c-6c3a57ff4b2f/AAABjyoVeaU/AAABjwnlKNc/16x9-512.jpg", "date": "2024-04-29T12:13:00.000+02:00", "lat": 51.4353, "lon": 7.5986, "intensity": 0.8, "source": "Tagesschau"}, {"title": "Gegen Lehrermangel: Th\u00fcringen schafft neues duales Studium f\u00fcr Regelschule", "url": "https://www.tagesschau.de/inland/regional/thueringen/mdr-gegen-lehrermangel-thueringen-schafft-neues-duales-studium-fuer-regelschule-100.html", "thumbnailUrl": "https://images.tagesschau.de/image/a62f69a4-f925-4bc2-bbc2-ba4ebed90151/AAABjyv8jrA/AAABjwnlKNc/16x9-512.jpg", "date": "2024-04-29T12:11:00.000+02:00", "lat": 51.0109, "lon": 11.582, "intensity": 0.6, "source": "Tagesschau"}, {"title": "Hilfe f\u00fcr die Menschen in der Ukraine", "url": "https://www.tagesschau.de/spendenkonten/spendenkonten-133.html", "thumbnailUrl": "https://images.tagesschau.de/image/af005073-bb3d-428a-b6f8-a685c725811f/AAABh4VRChA/AAABjwnlKNc/16x9-512.jpg", "date": "2024-04-29T12:01:23.756+02:00", "lat": 50.4501, "lon": 30.5234, "intensity": 0.7, "source": "Tagesschau"}, {"title": "Warum Europa auf die Wahl in Togo schaut", "url": "https://www.tagesschau.de/ausland/afrika/togo-wahlen-100.html", "thumbnailUrl": "https://images.tagesschau.de/image/7c5272c6-f9f9-41e9-9849-01568af6e579/AAABjylQq-s/AAABjwnlKNc/16x9-512.jpg", "date": "2024-04-29T12:01:11.251+02:00", "lat": 8.6195, "lon": 0.8248, "intensity": 0.7, "source": "Tagesschau"}, {"title": "SV Wehen Wiesbaden nach Trainerrauswurf: Unerfahren im Abstiegskampf", "url": "https://www.tagesschau.de/inland/regional/hessen/hr-sv-wehen-wiesbaden-nach-trainerrauswurf-unerfahren-im-abstiegskampf-102.html", "thumbnailUrl": "https://images.tagesschau.de/image/291e8fdd-42a6-44c0-afd0-a136aec8485c/AAABjylN9io/AAABjwnlKNc/16x9-512.jpg", "date": "2024-04-29T11:54:55.201+02:00", "lat": 50.0834, "lon": 8.2464, "intensity": 0.7, "source": "Tagesschau"}, {"title": "VBB will jeden Monat Daten zu Versp\u00e4tungen von S-Bahnen ver\u00f6ffentlichen", "url": "https://www.tagesschau.de/inland/regional/brandenburg/rbb-vbb-will-jeden-monat-daten-zu-verspaetungen-von-s-bahnen-veroeffentlichen-100.html", "thumbnailUrl": "https://images.tagesschau.de/image/27581b79-86ed-46cc-afaa-34e8abacdb8f/AAABjylIeh0/AAABjwnlKNc/16x9-512.jpg", "date": "2024-04-29T11:51:33.000+02:00", "lat": 52.520008, "lon": 13.404954, "intensity": 0.6, "source": "Tagesschau"}, {"title": "Explosion in Backofen: Versuchte Brandstiftung in Asylbewerberheim", "url": "https://www.tagesschau.de/inland/regional/niedersachsen/ndr-lauter-knall-versuchte-brandstiftung-in-peiner-asylbewerberheim-100.html", "thumbnailUrl": "https://images.tagesschau.de/image/2ce8ad0c-a268-461c-a789-9d6026d70bc5/AAABjylI93k/AAABjwnlKNc/16x9-512.jpg", "date": "2024-04-29T11:49:00.000+02:00", "lat": 52.3151, "lon": 10.2329, "intensity": 0.7, "source": "Tagesschau"}, {"title": "M\u00e4nner wollen Auto mit Kran auf Lkw heben - und demolieren Zaun", "url": "https://www.tagesschau.de/inland/regional/niedersachsen/ndr-maenner-wollen-auto-mit-kran-auf-lkw-heben-und-demolieren-zaun-100.html", "thumbnailUrl": "https://images.tagesschau.de/image/4d263cb2-3476-4a61-a5c6-1dcb35cbfeb0/AAABjyk9fWs/AAABjwnlKNc/16x9-512.jpg", "date": "2024-04-29T11:39:00.000+02:00", "lat": 52.0036, "lon": 9.7401, "intensity": 0.6, "source": "Tagesschau"}, {"title": "Saarl\u00e4ndischer Tipper gewinnt \u00fcber eine halbe Million im Eurojackpot", "url": "https://www.tagesschau.de/inland/regional/saarland/sr-saarlaendischer-tipper-gewinnt-ueber-eine-halbe-million-im-eurojackpot-100.html", "thumbnailUrl": "https://images.tagesschau.de/image/6a64cde9-64b1-47bc-8446-800da6891a2f/AAABjylXCbo/AAABjwnlKNc/16x9-512.jpg", "date": "2024-04-29T11:37:00.000+02:00", "lat": 49.3964, "lon": 7.0, "intensity": 0.8, "source": "Tagesschau"}, {"title": "RE50 erg\u00e4nzt RE5: Neuer Regionalexpress erm\u00f6glicht st\u00fcndliche Verbindungen nach Rostock", "url": "https://www.tagesschau.de/inland/regional/brandenburg/rbb-re50-ergaenzt-re5-neuer-regionalexpress-ermoeglicht-stuendliche-verbindungen-nach-rostock-100.html", "thumbnailUrl": "https://images.tagesschau.de/image/bd6106e6-1df7-4994-b8a3-93b62c8fdc42/AAABjyk59Gk/AAABjwnlKNc/16x9-512.jpg", "date": "2024-04-29T11:36:59.000+02:00", "lat": 52.52, "lon": 13.3701, "intensity": 0.8, "source": "Tagesschau"}, {"title": "R\u00fcgen: Genehmigung f\u00fcr LNG-Terminal Mukran ver\u00f6ffentlicht", "url": "https://www.tagesschau.de/inland/regional/mecklenburgvorpommern/ndr-ruegen-genehmigung-fuer-lng-terminal-mukran-veroeffentlicht-100.html", "thumbnailUrl": "https://images.tagesschau.de/image/05d76be7-94ca-4a4c-b642-b26957a3e287/AAABjyk7m3g/AAABjwnlKNc/16x9-512.jpg", "date": "2024-04-29T11:32:00.000+02:00", "lat": 54.4486, "lon": 13.4451, "intensity": 0.6, "source": "Tagesschau"}, {"title": "46 Tote nach Dammbruch in Kenia", "url": "https://www.tagesschau.de/ausland/afrika/kenia-dammbruch-schulstart-verschoben-ueberschwemmungen-100.html", "thumbnailUrl": "https://images.tagesschau.de/image/b8cbadb6-300e-424f-8c1d-749faa8ac74a/AAABjykdHBY/AAABjwnlKNc/16x9-512.jpg", "date": "2024-04-29T11:31:17.625+02:00", "lat": 1.2921, "lon": 37.9056, "intensity": 0.9, "source": "Tagesschau"}, {"title": "Deutscher Lehrkr\u00e4ftepreis: Gro\u00dfe Ehre f\u00fcr Sonderp\u00e4dagogin aus Wittstock dank Wir-Gef\u00fchl und Theaterprojekt", "url": "https://www.tagesschau.de/inland/regional/brandenburg/rbb-deutscher-lehrkraeftepreis-grosse-ehre-fuer-sonderpaedagogin-aus-wittstock-dank-wir-gefuehl-und-theaterprojekt-100.html", "thumbnailUrl": "https://images.tagesschau.de/image/42a78052-e54b-45d0-9a97-ad54d1423676/AAABjyku7xU/AAABjwnlKNc/16x9-512.jpg", "date": "2024-04-29T11:25:13.000+02:00", "lat": 53.1588, "lon": 12.4864, "intensity": 0.7, "source": "Tagesschau"}, {"title": "19. rbb-Lauf in Potsdam: Heimsieg bei den Frauen, Berliner Triumph bei den Herren", "url": "https://www.tagesschau.de/inland/regional/brandenburg/rbb-19-rbb-lauf-in-potsdam-heimsieg-bei-den-frauen-berliner-triumph-bei-den-herren-102.html", "thumbnailUrl": "https://images.tagesschau.de/image/21b9e0d7-3bc0-4ffe-8e92-571d49589478/AAABjypg9z0/AAABjwnlKNc/16x9-512.jpg", "date": "2024-04-29T11:25:06.000+02:00", "lat": 52.3906, "lon": 13.0645, "intensity": 0.6, "source": "Tagesschau"}, {"title": "Inflationsrate im Saarland im April wieder angestiegen", "url": "https://www.tagesschau.de/inland/regional/saarland/sr-inflationsrate-im-saarland-im-april-wieder-angestiegen-100.html", "thumbnailUrl": "https://images.tagesschau.de/image/239b0470-0e47-4ef8-a430-7868a9b5ddb2/AAABjykwlY8/AAABjwnlKNc/16x9-512.jpg", "date": "2024-04-29T11:23:00.000+02:00", "lat": 49.3964, "lon": 6.9966, "intensity": 0.4, "source": "Tagesschau"}, {"title": "\"Kein Grund f\u00fcr Nervenflattern\": Kiel-Sportchef Wehlmann zum Aufstiegsrennen", "url": "https://www.tagesschau.de/inland/regional/schleswigholstein/ndr-kein-grund-fuer-nervenflattern-kiel-sportchef-wehlman-zum-aufstiegsrennen-102.html", "thumbnailUrl": "https://images.tagesschau.de/image/c6258ed8-1789-4764-b83f-5f1fae40985b/AAABjykvCFw/AAABjwnlKNc/16x9-512.jpg", "date": "2024-04-29T11:18:00.000+02:00", "lat": 54.3233, "lon": 10.1306, "intensity": 0.7, "source": "Tagesschau"}, {"title": "Nach Unfall in Ginsheim-Gustavsburg - jetzt auch Radfahrerin tot ", "url": "https://www.tagesschau.de/inland/regional/rheinlandpfalz/swr-rollerfahrer-stirbt-bei-zusammenprall-mit-polizeiwagen-in-bischofsheim-100.html", "thumbnailUrl": "https://images.tagesschau.de/image/0c4bfcc1-d105-4395-8716-d2c0a245825e/AAABjvFScMA/AAABjwnlKNc/16x9-512.jpg", "date": "2024-04-29T11:13:00.000+02:00", "lat": 49.9853, "lon": 8.3701, "intensity": 0.8, "source": "Tagesschau"}, {"title": "Molkerei B\u00fctzow an Investor aus den Niederlanden verkauft", "url": "https://www.tagesschau.de/inland/regional/mecklenburgvorpommern/ndr-molkerei-buetzow-verkauft-neuer-investor-kommt-aus-den-niederlanden-100.html", "thumbnailUrl": "https://images.tagesschau.de/image/2236818f-6ae5-418a-aa83-8e8bf5f178b1/AAABjykPoK8/AAABjwnlKNc/16x9-512.jpg", "date": "2024-04-29T11:10:00.000+02:00", "lat": 53.9133, "lon": 12.1833, "intensity": 0.6, "source": "Tagesschau"}, {"title": "Maler Oskar Manigk wird 90: \"Man h\u00e4tte ja auch aufh\u00f6ren k\u00f6nnen\"", "url": "https://www.tagesschau.de/inland/regional/mecklenburgvorpommern/ndr-maler-oskar-manigk-wird-90-man-haette-ja-auch-aufhoeren-koennen-100.html", "thumbnailUrl": "https://images.tagesschau.de/image/03b9f821-d017-4b06-8ccc-d99b867637f1/AAABjymP1IA/AAABjwnlKNc/16x9-512.jpg", "date": "2024-04-29T11:10:00.000+02:00", "lat": 54.0747, "lon": 13.9959, "intensity": 0.2, "source": "Tagesschau"}, {"title": "Neue Jugendapp: Wie die Stadt Kassel Jugendliche erreichen will", "url": "https://www.tagesschau.de/inland/regional/hessen/hr-freizeit-events-hilfe-wie-die-stadt-kassel-jugendliche-mit-einer-app-erreichen-will-100.html", "thumbnailUrl": "https://images.tagesschau.de/image/2ba47a44-321f-4a2e-9863-8db72fce77d3/AAABjykcmZk/AAABjwnlKNc/16x9-512.jpg", "date": "2024-04-29T11:08:07.671+02:00", "lat": 51.312, "lon": 9.491, "intensity": 0.4, "source": "Tagesschau"}, {"title": "Galeria Karstadt Kaufhof: Keine Schlie\u00dfungen in Wismar und Rostock", "url": "https://www.tagesschau.de/inland/regional/mecklenburgvorpommern/ndr-galeria-karstadt-kaufhof-entscheidung-ueber-filialen-in-mv-faellt-100.html", "thumbnailUrl": "https://images.tagesschau.de/image/97960a49-ba8a-4f7d-9ba8-8253988d1465/AAABjykj0uM/AAABjwnlKNc/16x9-512.jpg", "date": "2024-04-29T11:00:00.000+02:00", "lat": 54.089297, "lon": 12.088291, "intensity": 0.7, "source": "Tagesschau"}, {"title": "Justiz: Gro\u00dfteil der Berliner Corona-Verfahren ist abgeschlossen", "url": "https://www.tagesschau.de/inland/regional/berlin/rbb-justiz-grossteil-der-berliner-corona-verfahren-ist-abgeschlossen-100.html", "thumbnailUrl": "https://images.tagesschau.de/image/50482f3c-86b4-42f5-b58b-cfedc8990941/AAABjykN3wQ/AAABjwnlKNc/16x9-512.jpg", "date": "2024-04-29T10:48:18.000+02:00", "lat": 52.520008, "lon": 13.404954, "intensity": 0.5, "source": "Tagesschau"}, {"title": "Balkonkraftwerke boomen: Anzahl in Niedersachsen steigt rasant", "url": "https://www.tagesschau.de/inland/regional/niedersachsen/ndr-balkonkraftwerke-boomen-anzahl-in-niedersachsen-steigt-rasant-100.html", "thumbnailUrl": "https://images.tagesschau.de/image/3e7578e9-d5c5-485d-8a52-abcf48500ee2/AAABjykMDcY/AAABjwnlKNc/16x9-512.jpg", "date": "2024-04-29T10:47:00.000+02:00", "lat": 52.6367, "lon": 9.4447, "intensity": 0.7, "source": "Tagesschau"}, {"title": "Saharastaub tr\u00fcbt die Sonne - am 1. Mai bis zu 28 Grad", "url": "https://www.tagesschau.de/inland/regional/nordrheinwestfalen/wdr-wetter-in-nrw-am-wochenende-wird-es-deutlich-waermer-100.html", "thumbnailUrl": "https://images.tagesschau.de/image/315da9f0-9759-4472-bee6-282152764351/AAABjysgzVU/AAABjwnlKNc/16x9-512.jpg", "date": "2024-04-29T10:47:00.000+02:00", "lat": 51.1657, "lon": 7.6261, "intensity": 0.3, "source": "Tagesschau"}, {"title": "Sch\u00fcler-Podcast soll Jugendliche f\u00fcr Politik begeistern", "url": "https://www.tagesschau.de/inland/regional/saarland/sr-schueler-podcast-soll-jugendliche-fuer-politik-begeistern-100.html", "thumbnailUrl": "https://images.tagesschau.de/image/584a8fd4-2bed-4f5a-a677-2b630c8eaf07/AAABjykGeCA/AAABjwnlKNc/16x9-512.jpg", "date": "2024-04-29T10:41:00.000+02:00", "lat": 49.3964, "lon": 7.0232, "intensity": 0.6, "source": "Tagesschau"}, {"title": "Haft- und Bew\u00e4hrungsstrafen gegen Ex-Mitarbeiter des Neonazi-Verlags \"Schelm\"", "url": "https://www.tagesschau.de/inland/regional/sachsen/mdr-haft-und-bewaehrungsstrafen-gegen-ex-mitarbeiter-des-neonazi-verlags-schelm-100.html", "thumbnailUrl": "https://images.tagesschau.de/image/a811c574-944d-4fa5-b364-91c7f2ad88be/AAABjyv-kpE/AAABjwnlKNc/16x9-512.jpg", "date": "2024-04-29T10:40:05.000+02:00", "lat": 51.0493, "lon": 14.0144, "intensity": 0.8, "source": "Tagesschau"}, {"title": "Einsatz gegen Raupenplage in Jessen wird fortgesetzt", "url": "https://www.tagesschau.de/inland/regional/sachsenanhalt/mdr-einsatz-gegen-raupenplage-in-jessen-wird-fortgesetzt-100.html", "thumbnailUrl": "https://images.tagesschau.de/image/c1dfdc6f-a29c-4074-aad6-391858276372/AAABjygGKQQ/AAABjwnlKNc/16x9-512.jpg", "date": "2024-04-29T10:34:59.000+02:00", "lat": 51.8533, "lon": 12.9576, "intensity": 0.7, "source": "Tagesschau"}, {"title": "Hessen am Morgen: +++ Zwischen Waggons am Hanauer Hauptbahnhof festgefahren +++ Auto im Rhein entpuppt sich als Amphibienfahrzeug +++ Flugzeug nach Miami dreht wieder um +++", "url": "https://www.tagesschau.de/inland/regional/hessen/hr-hessen-am-morgen--auto-im-rhein-entpuppt-sich-als-amphibienfahrzeug-100.html", "thumbnailUrl": "https://images.tagesschau.de/image/c2a3eac7-cc9a-4e19-aea9-bfc7ebea3e18/AAABjykVJgg/AAABjwnlKNc/16x9-512.jpg", "date": "2024-04-29T10:28:37.790+02:00", "lat": 50.1317, "lon": 8.9175, "intensity": 0.7, "source": "Tagesschau"}, {"title": "Brandenburger Bio-Marktbericht : Hunger nach mehr Bio", "url": "https://www.tagesschau.de/inland/regional/brandenburg/rbb-brandenburger-bio-marktbericht--hunger-nach-mehr-bio-100.html", "thumbnailUrl": "https://images.tagesschau.de/image/901dada6-3b46-4380-8471-56b17f29764d/AAABjyj7kHs/AAABjwnlKNc/16x9-512.jpg", "date": "2024-04-29T10:28:06.000+02:00", "lat": 52.4226, "lon": 13.3356, "intensity": 0.7, "source": "Tagesschau"}, {"title": "Stundenlanger Einsatz: Strohballen und Anh\u00e4nger stehen in Flammen", "url": "https://www.tagesschau.de/inland/regional/thueringen/mdr-stundenlanger-einsatz-strohballen-und-anhaenger-stehen-in-flammen-100.html", "thumbnailUrl": "https://images.tagesschau.de/image/f5a7d19a-24e2-4359-9e7a-74569a69fe3a/AAABjyv85wE/AAABjwnlKNc/16x9-512.jpg", "date": "2024-04-29T10:22:39.000+02:00", "lat": 51.2, "lon": 11.15, "intensity": 0.8, "source": "Tagesschau"}, {"title": "Blitzurteil: E-Bike-Diebe in Osnabr\u00fcck zu Geldstrafen verurteilt", "url": "https://www.tagesschau.de/inland/regional/niedersachsen/ndr-blitzurteil-e-bike-diebe-in-osnabrueck-zu-geldstrafen-verurteilt-100.html", "thumbnailUrl": "https://images.tagesschau.de/image/d4edab11-9c6a-411b-ae96-45da4cbe8865/AAABjyj0UGw/AAABjwnlKNc/16x9-512.jpg", "date": "2024-04-29T10:22:00.000+02:00", "lat": 52.2799, "lon": 8.0476, "intensity": 0.7, "source": "Tagesschau"}, {"title": "Hundesteuer: S\u00e4umige Hundebesitzer m\u00fcssen 88.000 Euro nachzahlen", "url": "https://www.tagesschau.de/inland/regional/niedersachsen/ndr-hundesteuer-saeumige-hundebesitzer-zahlen-88-000-euro-nach-100.html", "thumbnailUrl": "https://images.tagesschau.de/image/3a3c90d3-3794-4307-b6a2-644d07fcbcca/AAABjyj0XTg/AAABjwnlKNc/16x9-512.jpg", "date": "2024-04-29T10:21:00.000+02:00", "lat": 52.2799, "lon": 8.0476, "intensity": 0.6, "source": "Tagesschau"}, {"title": "Unfall in Amt Neuhaus: Auto prallt gegen Baum - 34-J\u00e4hriger stirbt", "url": "https://www.tagesschau.de/inland/regional/niedersachsen/ndr-unfall-in-amt-neuhaus-auto-prallt-gegen-baum-34-jaehriger-stirbt-100.html", "thumbnailUrl": "https://images.tagesschau.de/image/5eca5de9-82e3-483a-8dc4-8274cad637a1/AAABjyjyfjE/AAABjwnlKNc/16x9-512.jpg", "date": "2024-04-29T10:20:00.000+02:00", "lat": 53.2395, "lon": 10.9407, "intensity": 0.8, "source": "Tagesschau"}, {"title": "Brand in Wilhelmshaven: Feuerwehr befreit neun Menschen", "url": "https://www.tagesschau.de/inland/regional/niedersachsen/ndr-brand-in-wilhelmshaven-feuerwehr-befreit-neun-menschen-100.html", "thumbnailUrl": "https://images.tagesschau.de/image/b3256ef1-46be-4997-85e3-ba89be6d0381/AAABjyjycYk/AAABjwnlKNc/16x9-512.jpg", "date": "2024-04-29T10:19:00.000+02:00", "lat": 53.5275, "lon": 8.1374, "intensity": 0.8, "source": "Tagesschau"}, {"title": "Diebe stehlen Sattelauflieger in Lehrte: 60.000 Euro Schaden", "url": "https://www.tagesschau.de/inland/regional/niedersachsen/ndr-diebe-stehlen-sattelauflieger-in-lehrte-60-000-euro-schaden-100.html", "thumbnailUrl": "https://images.tagesschau.de/image/4098000b-8d55-497d-9907-6bd68a6f41f9/AAABjyi9ajM/AAABjwnlKNc/16x9-512.jpg", "date": "2024-04-29T10:18:00.000+02:00", "lat": 52.3826, "lon": 9.9634, "intensity": 0.7, "source": "Tagesschau"}, {"title": "Nach Geburtstag: Mann f\u00e4hrt betrunken Hundekotbeutel-St\u00e4nder um", "url": "https://www.tagesschau.de/inland/regional/niedersachsen/ndr-nach-geburtstag-mann-faehrt-betrunken-hundekotbeutelstaender-um-100.html", "thumbnailUrl": "https://images.tagesschau.de/image/53a614c6-5d70-4e52-811d-6f91f10de0ee/AAABjyhf6J8/AAABjwnlKNc/16x9-512.jpg", "date": "2024-04-29T10:17:00.000+02:00", "lat": 51.9863, "lon": 9.8275, "intensity": 0.7, "source": "Tagesschau"}, {"title": "Auto \u00fcberschl\u00e4gt sich bei Unfall auf B4 - zwei Schwerverletzte", "url": "https://www.tagesschau.de/inland/regional/niedersachsen/ndr-auto-ueberschlaegt-sich-bei-unfall-auf-b4-zwei-schwerverletzte-100.html", "thumbnailUrl": "https://images.tagesschau.de/image/eb246ecf-9400-4a1f-bf2c-b744e569871b/AAABjyjwlEc/AAABjwnlKNc/16x9-512.jpg", "date": "2024-04-29T10:16:00.000+02:00", "lat": 51.726, "lon": 10.6177, "intensity": 0.8, "source": "Tagesschau"}, {"title": "Spielt das Wetter bei den Mai-Touren im Saarland mit?", "url": "https://www.tagesschau.de/inland/regional/saarland/sr-spielt-das-wetter-bei-den-mai-touren-im-saarland-mit-100.html", "thumbnailUrl": "https://images.tagesschau.de/image/74274c0a-ec10-4d57-a16d-ecbf98986186/AAABjykyai4/AAABjwnlKNc/16x9-512.jpg", "date": "2024-04-29T10:03:00.000+02:00", "lat": 49.3964, "lon": 6.9538, "intensity": 0.3, "source": "Tagesschau"}, {"title": "Schwerin: Polizei verhindert illegales Autorennen", "url": "https://www.tagesschau.de/inland/regional/mecklenburgvorpommern/ndr-schwerin-polizei-verhindert-illegales-autorennen-100.html", "thumbnailUrl": "https://images.tagesschau.de/image/1413ca67-7b33-415b-ba8c-0f8e168d8ba4/AAABjykcgbk/AAABjwnlKNc/16x9-512.jpg", "date": "2024-04-29T10:00:00.000+02:00", "lat": 53.635502, "lon": 11.409874, "intensity": 0.7, "source": "Tagesschau"}, {"title": "Illegales Autorennen auf der A61, Lehrerpreis geht nach LU, Freib\u00e4der starten,  ", "url": "https://www.tagesschau.de/inland/regional/rheinlandpfalz/swr-viele-biker-unfaelle-freibaeder-starten-in-die-saison-mainz-05-vergibt-sieg-100.html", "thumbnailUrl": "https://images.tagesschau.de/image/8cafe98c-8425-4f35-8fbb-9066042be12d/AAABjyiCsa0/AAABjwnlKNc/16x9-512.jpg", "date": "2024-04-29T09:59:00.000+02:00", "lat": 49.992862, "lon": 8.23976, "intensity": 0.6, "source": "Tagesschau"}, {"title": "Tierrettung mit Pferdedummy: Feuerwehren \u00fcben Ernstfall", "url": "https://www.tagesschau.de/inland/regional/niedersachsen/ndr-tierrettung-mit-pferdedummy-feuerwehren-ueben-ernstfall-100.html", "thumbnailUrl": "https://images.tagesschau.de/image/eee3de16-61c7-4ce9-9022-94f80f931e11/AAABjyjPpOI/AAABjwnlKNc/16x9-512.jpg", "date": "2024-04-29T09:39:00.000+02:00", "lat": 52.6367, "lon": 10.4515, "intensity": 0.5, "source": "Tagesschau"}, {"title": "Fristlos gek\u00fcndigte Lehrerin lehnt Vergleich ab", "url": "https://www.tagesschau.de/inland/regional/sachsenanhalt/mdr-fristlos-gekuendigte-lehrerin-lehnt-vergleich-ab-100.html", "thumbnailUrl": "https://images.tagesschau.de/image/6262b94d-a85e-4aad-9f87-9cb93803a0ad/AAABjyjGb1I/AAABjwnlKNc/16x9-512.jpg", "date": "2024-04-29T09:32:25.000+02:00", "lat": 52.61258, "lon": 11.84178, "intensity": 0.5, "source": "Tagesschau"}, {"title": "Hilfsorganisation kehrt zur\u00fcck in den Gazastreifen", "url": "https://www.tagesschau.de/ausland/asien/world-central-kitchen-gaza-100.html", "thumbnailUrl": "https://images.tagesschau.de/image/5d9e1bcd-9dd0-4cc0-804f-646ba252aafd/AAABjyimgkU/AAABjwnlKNc/16x9-512.jpg", "date": "2024-04-29T09:26:35.130+02:00", "lat": 31.501488, "lon": 34.34434, "intensity": 0.7, "source": "Tagesschau"}, {"title": "Was wird da gegen S\u00e1nchez gespielt?", "url": "https://www.tagesschau.de/ausland/europa/sanchez-spanien-ruecktritt-frau-demos-102.html", "thumbnailUrl": "https://images.tagesschau.de/image/fe3bb5f0-c075-4d72-a58f-c6187bc026b0/AAABjyktU6A/AAABjwnlKNc/16x9-512.jpg", "date": "2024-04-29T09:17:48.514+02:00", "lat": 40.4168, "lon": -3.7038, "intensity": 0.7, "source": "Tagesschau"}, {"title": "Berechnung zur 2. Bundesliga: So endet die Saison 2023/2024", "url": "https://www.tagesschau.de/inland/regional/schleswigholstein/ndr-berechnung-zur-2-bundesliga-106.html", "thumbnailUrl": "https://images.tagesschau.de/image/0ca45714-afbb-40b8-84d0-6898b7e4a097/AAABjykvElk/AAABjwnlKNc/16x9-512.jpg", "date": "2024-04-29T09:12:00.000+02:00", "lat": 53.5511, "lon": 9.9911, "intensity": 0.7, "source": "Tagesschau"}, {"title": "Wie viel Barrierefreiheit bietet das Stuttgarter Fr\u00fchlingsfest?", "url": "https://www.tagesschau.de/inland/regional/badenwuerttemberg/swr-wie-viel-barrierefreiheit-bietet-das-stuttgarter-fruehlingsfest-100.html", "thumbnailUrl": "https://images.tagesschau.de/image/7f45f449-5ad1-400a-b40f-94038a0c6c5f/AAABjyi0Gv8/AAABjwnlKNc/16x9-512.jpg", "date": "2024-04-29T09:05:00.000+02:00", "lat": 48.7758, "lon": 9.1773, "intensity": 0.4, "source": "Tagesschau"}, {"title": "Mammographie-Screening wird ausgeweitet ", "url": "https://www.tagesschau.de/inland/regional/saarland/sr-mammographie-screening-wird-ausgeweitet-100.html", "thumbnailUrl": "https://images.tagesschau.de/image/be57193a-024d-4a27-ac21-5a22ed5b5910/AAABjym2QTk/AAABjwnlKNc/16x9-512.jpg", "date": "2024-04-29T09:00:00.000+02:00", "lat": 49.3964, "lon": 6.9603, "intensity": 0.8, "source": "Tagesschau"}, {"title": "Erneut gehen in Georgien Tausende auf die Stra\u00dfe", "url": "https://www.tagesschau.de/ausland/europa/georgien-proteste-gesetz-einflussnahme-ausland-100.html", "thumbnailUrl": "https://images.tagesschau.de/image/7ebbb385-cac4-4474-b6c0-10e304767395/AAABjyi_avs/AAABjwnlKNc/16x9-512.jpg", "date": "2024-04-29T08:44:54.859+02:00", "lat": 41.717, "lon": 44.793, "intensity": 0.8, "source": "Tagesschau"}, {"title": "Angeh\u00f6rige berichtet von dramatischen Zust\u00e4nden in Berliner Pflegeheim", "url": "https://www.tagesschau.de/inland/regional/berlin/rbb-betreiber-domicil-in-der-kritik-angehoerige-berichtet-von-dramatischen-zustaenden-in-berliner-pflegeheim-100.html", "thumbnailUrl": "https://images.tagesschau.de/image/a5565b9c-66ef-448d-9a6c-bd66ee179195/AAABjys296w/AAABjwnlKNc/16x9-512.jpg", "date": "2024-04-29T08:38:37.000+02:00", "lat": 52.520008, "lon": 13.404954, "intensity": 0.8, "source": "Tagesschau"}, {"title": "Wachsende Kluft zwischen Lades\u00e4ulen und E-Autos", "url": "https://www.tagesschau.de/wirtschaft/technologie/ladesaulen-elektroautos-infrastruktur-100.html", "thumbnailUrl": "https://images.tagesschau.de/image/f5aa8f80-ee6c-4927-9e93-a68ad6f9261b/AAABjyhUWb8/AAABjwnlKNc/16x9-512.jpg", "date": "2024-04-29T08:36:33.971+02:00", "lat": 51.3195, "lon": 9.5018, "intensity": 0.8, "source": "Tagesschau"}, {"title": "Fr\u00fchlingskreuzkraut und Jakobskreuzkraut: Das Kreuz mit den Kreuzkr\u00e4utern", "url": "https://www.tagesschau.de/inland/regional/berlin/rbb-fruehlingskreuzkraut-und-jakobskreuzkraut-das-kreuz-mit-den-kreuzkraeutern-100.html", "thumbnailUrl": "https://images.tagesschau.de/image/95ff2ebd-476d-4298-8216-1e2c7dd940b7/AAABjyiNrFc/AAABjwnlKNc/16x9-512.jpg", "date": "2024-04-29T08:26:34.000+02:00", "lat": 52.520008, "lon": 13.404954, "intensity": 0.7, "source": "Tagesschau"}, {"title": "Das Leben nach dem Krieg f\u00fcr Kinder aus Gaza", "url": "https://www.tagesschau.de/ausland/asien/gaza-waisen-bethlehem-100.html", "thumbnailUrl": "https://images.tagesschau.de/image/20b295e2-4b20-43bb-9c20-9065fabe7397/AAABjykXch0/AAABjwnlKNc/16x9-512.jpg", "date": "2024-04-29T08:15:39.407+02:00", "lat": 31.5195, "lon": 35.2065, "intensity": 0.8, "source": "Tagesschau"}, {"title": "SV Darmstadt 98 steigt ab: Runter mit wehenden Fahnen und Schei\u00df-Gef\u00fchl", "url": "https://www.tagesschau.de/inland/regional/hessen/hr-sv-darmstadt-98-steigt-ab-runter-mit-wehenden-fahnen-und-scheiss-gefuehl-102.html", "thumbnailUrl": "https://images.tagesschau.de/image/a9049253-1adb-48bf-a224-778fa7cf040a/AAABjyhq3zk/AAABjwnlKNc/16x9-512.jpg", "date": "2024-04-29T07:31:26.011+02:00", "lat": 49.866, "lon": 8.6611, "intensity": 0.8, "source": "Tagesschau"}, {"title": "Bahn setzt dieses Jahr auf Erneuerung", "url": "https://www.tagesschau.de/wirtschaft/bahn-infrastruktur-programm-100.html", "thumbnailUrl": "https://images.tagesschau.de/image/1a29ca4c-ef89-4bac-b10b-8aaf14e5b7bd/AAABjyhE2ig/AAABjwnlKNc/16x9-512.jpg", "date": "2024-04-29T07:27:56.038+02:00", "lat": 51.3406, "lon": 9.9823, "intensity": 0.8, "source": "Tagesschau"}, {"title": "Saar-K\u00fcnstler kritisieren Kulturministerin in zweitem offenen Brief zur Breitz-Aff\u00e4re", "url": "https://www.tagesschau.de/inland/regional/saarland/sr-saar-kuenstler-kritisieren-kulturministerin-in-zweitem-offenen-brief-zur-breitz-affaere-100.html", "thumbnailUrl": "https://images.tagesschau.de/image/ef042ac0-3343-48a6-b712-0477b2e2b494/AAABjyhEg0Q/AAABjwnlKNc/16x9-512.jpg", "date": "2024-04-29T07:10:00.000+02:00", "lat": 49.3964, "lon": 7.0, "intensity": 0.8, "source": "Tagesschau"}, {"title": "Radrennen Eschborn-Frankfurt 2024: Sperrungen und Bahn-Ausf\u00e4lle im \u00dcberblick", "url": "https://www.tagesschau.de/inland/regional/hessen/hr-radrennen-eschborn-frankfurt-2024-sperrungen-und-bahn-ausfaelle-im-ueberblick-100.html", "thumbnailUrl": "https://images.tagesschau.de/image/91eb0182-714f-477e-96c5-1a70a5dfc921/AAABjyigILs/AAABjwnlKNc/16x9-512.jpg", "date": "2024-04-29T06:54:46.300+02:00", "lat": 50.1109, "lon": 8.5486, "intensity": 0.7, "source": "Tagesschau"}, {"title": "Einer der besten Lehrer Deutschlands unterrichtet in Ludwigshafen", "url": "https://www.tagesschau.de/inland/regional/rheinlandpfalz/swr-bester-deutscher-lehrer-unterrichtet-in-ludwigshafen-102.html", "thumbnailUrl": "https://images.tagesschau.de/image/d2126eaa-351d-4db3-81ed-5f583a3c798b/AAABjyn2Y88/AAABjwnlKNc/16x9-512.jpg", "date": "2024-04-29T06:49:18.000+02:00", "lat": 49.48455, "lon": 8.434889, "intensity": 0.8, "source": "Tagesschau"}, {"title": "Gefahr durch freilaufendes Damwild: Wildtiere in Mainhausen-Zellhausen ausgebrochen", "url": "https://www.tagesschau.de/inland/regional/hessen/hr-kreis-offenbach-meldet-gefahr-hirsche-in-mainhausen-zellhausen-ausgebrochen-100.html", "thumbnailUrl": "https://images.tagesschau.de/image/96bebd8d-6475-4c04-9182-b97f3977e253/AAABjygueMM/AAABjwnlKNc/16x9-512.jpg", "date": "2024-04-29T06:47:11.777+02:00", "lat": 50.0132, "lon": 8.9286, "intensity": 0.7, "source": "Tagesschau"}, {"title": "Ladendiebst\u00e4hle in Schleswig-Holstein auf Zehnjahreshoch", "url": "https://www.tagesschau.de/inland/regional/schleswigholstein/ndr-ladendiebstaehle-in-schleswig-holstein-auf-zehnjahreshoch-100.html", "thumbnailUrl": "https://images.tagesschau.de/image/2d65503a-ac7c-448e-be74-7bd3b1c94c36/AAABjyhnP_4/AAABjwnlKNc/16x9-512.jpg", "date": "2024-04-29T06:44:00.000+02:00", "lat": 54.4583, "lon": 9.6961, "intensity": 0.8, "source": "Tagesschau"}, {"title": "Zwei get\u00f6tete Ukrainer waren wohl Soldaten", "url": "https://www.br.de/nachrichten/bayern/haftbefehl-nach-doppelmord-in-murnau-57-jaehriger-in-u-haft,UBF1Rdy", "thumbnailUrl": "https://images.tagesschau.de/image/e83c421a-1322-4700-9f93-7458b693a831/AAABjygoYCE/AAABjwnlKNc/16x9-512.jpg", "date": "2024-04-29T06:41:26.100+02:00", "lat": 47.6417, "lon": 11.2905, "intensity": 0.8, "source": "Tagesschau"}, {"title": "MSC-Einstieg bei der HHLA: Konkurrent wendet sich an die EU", "url": "https://www.tagesschau.de/inland/regional/hamburg/ndr-msc-einstieg-bei-der-hhla-konkurrent-wendet-sich-an-die-eu-100.html", "thumbnailUrl": "https://images.tagesschau.de/image/62d338e3-ddc7-4d1b-88d4-1455dee0fa98/AAABjygeB1U/AAABjwnlKNc/16x9-512.jpg", "date": "2024-04-29T06:26:00.000+02:00", "lat": 53.5511, "lon": 9.9937, "intensity": 0.8, "source": "Tagesschau"}, {"title": "Wetter im Norden: Fr\u00fchsommer ist da", "url": "https://www.tagesschau.de/inland/regional/hamburg/ndr-wetter-im-norden-fruehsommer-im-anmarsch-100.html", "thumbnailUrl": "https://images.tagesschau.de/image/a3010f89-bc76-4cb6-91b9-6cc4e556e918/AAABjygYi7k/AAABjwnlKNc/16x9-512.jpg", "date": "2024-04-29T06:22:00.000+02:00", "lat": 53.5511, "lon": 9.9937, "intensity": 0.6, "source": "Tagesschau"}, {"title": "Busfahrermangel ab 2026 im Saarland?", "url": "https://www.tagesschau.de/inland/regional/saarland/sr-busfahrermangel-ab-2026-im-saarland-100.html", "thumbnailUrl": "https://images.tagesschau.de/image/35a065fa-8692-4519-820b-ba700b444205/AAABjygS8Ho/AAABjwnlKNc/16x9-512.jpg", "date": "2024-04-29T06:19:00.000+02:00", "lat": 49.3964, "lon": 6.9538, "intensity": 0.8, "source": "Tagesschau"}, {"title": "Tausende besuchen die Landesgartenschau in Wangen ", "url": "https://www.tagesschau.de/inland/regional/badenwuerttemberg/swr-tausende-besuchen-die-landesgartenschau-in-wangen-100.html", "thumbnailUrl": "https://images.tagesschau.de/image/c17569a6-eaf7-40df-b38f-01e373000d38/AAABjyjiFnM/AAABjwnlKNc/16x9-512.jpg", "date": "2024-04-29T06:09:05.000+02:00", "lat": 47.6926, "lon": 9.8252, "intensity": 0.6, "source": "Tagesschau"}, {"title": "\"Milit\u00e4rischer Arm\" vor Gericht", "url": "https://www.tagesschau.de/inland/gesellschaft/prozess-reichsbuerger-reuss-100.html", "thumbnailUrl": "https://images.tagesschau.de/image/fa5296c9-e843-4e66-936b-ce03cd6d2d6d/AAABjjdqXSA/AAABjwnlKNc/16x9-512.jpg", "date": "2024-04-29T05:00:29.220+02:00", "lat": 48.8207, "lon": 9.1684, "intensity": 0.6, "source": "Tagesschau"}, {"title": "Werkstatt-Besch\u00e4ftigte fordern mehr Geld und freie Berufswahl", "url": "https://www.tagesschau.de/inland/regional/schleswigholstein/ndr-werkstatt-beschaeftigte-fordern-mehr-geld-und-freie-berufswahl-100.html", "thumbnailUrl": "https://images.tagesschau.de/image/4155b0c7-d66c-439e-8288-f42464d25a10/AAABjyfNa1k/AAABjwnlKNc/16x9-512.jpg", "date": "2024-04-29T05:00:00.000+02:00", "lat": 54.093429, "lon": 9.991408, "intensity": 0.6, "source": "Tagesschau"}, {"title": "Kommt Bewegung in die Geiselverhandlungen?", "url": "https://www.tagesschau.de/ausland/asien/gespraeche-feuerpause-kairo-100.html", "thumbnailUrl": "https://images.tagesschau.de/image/bf2ae44a-0aeb-45f8-aa17-d7f069f7e2ff/AAABjyfGTFw/AAABjwnlKNc/16x9-512.jpg", "date": "2024-04-29T04:54:18.500+02:00", "lat": 30.0444, "lon": 31.2357, "intensity": 0.7, "source": "Tagesschau"}, {"title": "Briten liefern sich illegales Autorennen auf der A61", "url": "https://www.tagesschau.de/inland/regional/rheinlandpfalz/swr-briten-liefern-sich-illegales-autorennen-auf-der-a61-100.html", "thumbnailUrl": "https://images.tagesschau.de/image/92b9bd37-2840-4c25-8924-b44e655ebb4c/AAABjyq6SoQ/AAABjwnlKNc/16x9-512.jpg", "date": "2024-04-29T04:26:33.000+02:00", "lat": 50.5541, "lon": 7.0951, "intensity": 0.8, "source": "Tagesschau"}, {"title": "Motorradunf\u00e4lle in der Eifel - Mann aus NRW lebensgef\u00e4hrlich verletzt", "url": "https://www.tagesschau.de/inland/regional/rheinlandpfalz/swr-motorradunfaelle-in-der-eifel-mann-aus-nrw-lebensgefaehrlich-verletzt-100.html", "thumbnailUrl": "https://images.tagesschau.de/image/1784307d-57e2-41a9-9f1c-331d113eb8ce/AAABjyq2ms8/AAABjwnlKNc/16x9-512.jpg", "date": "2024-04-29T01:24:04.000+02:00", "lat": 50.3795, "lon": 6.9447, "intensity": 0.8, "source": "Tagesschau"}, {"title": "Niederlage gegen Heidenheim: SV Darmstadt 98 steigt aus der Bundesliga ab ", "url": "https://www.tagesschau.de/inland/regional/hessen/hr-niederlage-gegen-heidenheim-darmstadt-98-steigt-aus-der-bundesliga-ab-102.html", "thumbnailUrl": "https://images.tagesschau.de/image/d182a1a8-9962-481a-a47e-7319b9d610a9/AAABjyhaYmo/AAABjwnlKNc/16x9-512.jpg", "date": "2024-04-29T00:03:08.929+02:00", "lat": 49.8728, "lon": 8.6553, "intensity": 0.8, "source": "Tagesschau"}, {"title": "G7-Minister einigen sich grunds\u00e4tzlich auf Kohleausstieg bis 2035", "url": "https://www.br.de/nachrichten/meldungen/index.html#n1", "thumbnailUrl": null, "date": "2024-04-30T03:21:43+02:00", "lat": 30.0444, "lon": 31.2357, "intensity": 0.8, "source": "Bayrischer Rundfunk"}, {"title": "Herrmann fordert entschlossenes Vorgehen gegen Reichsb\u00fcrger", "url": "https://www.br.de/nachrichten/meldungen/index.html#n2", "thumbnailUrl": null, "date": "2024-04-30T03:21:43+02:00", "lat": 33.5138, "lon": 36.2021, "intensity": 0.8, "source": "Bayrischer Rundfunk"}, {"title": "Diakonie-Pr\u00e4sident k\u00fcndigt hartes Vorgehen gegen \u00fcberzeugte AfD-Anh\u00e4nger an", "url": "https://www.br.de/nachrichten/meldungen/index.html#n3", "thumbnailUrl": null, "date": "2024-04-30T03:21:43+02:00", "lat": 39.9334, "lon": 32.8597, "intensity": 0.8, "source": "Bayrischer Rundfunk"}, {"title": "USA werfen israelischen Truppen Menschenrechtsverst\u00f6\u00dfe im Westjordanland vor", "url": "https://www.br.de/nachrichten/meldungen/index.html#n4", "thumbnailUrl": null, "date": "2024-04-30T03:21:43+02:00", "lat": 52.520008, "lon": 13.404954, "intensity": 0.7, "source": "Bayrischer Rundfunk"}, {"title": "Huthi-Miliz greift erneut Handelsschiffe an", "url": "https://www.br.de/nachrichten/meldungen/index.html#n5", "thumbnailUrl": null, "date": "2024-04-30T03:21:43+02:00", "lat": 52.520008, "lon": 13.404954, "intensity": 0.6, "source": "Bayrischer Rundfunk"}, {"title": "Deutschland liefert weitere Sch\u00fctzenpanzer Marder an die Ukraine", "url": "https://www.br.de/nachrichten/meldungen/index.html#n6", "thumbnailUrl": null, "date": "2024-04-30T03:21:43+02:00", "lat": 48.135125, "lon": 11.581981, "intensity": 0.6, "source": "Bayrischer Rundfunk"}, {"title": "Politiker wollen um Karstadt-Filiale in Augsburg k\u00e4mpfen", "url": "https://www.br.de/nachrichten/meldungen/index.html#n7", "thumbnailUrl": null, "date": "2024-04-30T03:21:43+02:00", "lat": 50.110922, "lon": 8.682127, "intensity": 0.8, "source": "Bayrischer Rundfunk"}, {"title": "Konzerne bieten 23 Milliarden Euro Entsch\u00e4digung f\u00fcr Dammbruch", "url": "https://www.br.de/nachrichten/meldungen/index.html#n8", "thumbnailUrl": null, "date": "2024-04-30T03:21:43+02:00", "lat": 47.8684, "lon": 12.6394, "intensity": 0.8, "source": "Bayrischer Rundfunk"}, {"title": "Depardieu muss sich wegen sexueller Gewalt vor Gericht verantworten", "url": "https://www.br.de/nachrichten/meldungen/index.html#n9", "thumbnailUrl": null, "date": "2024-04-30T03:21:43+02:00", "lat": 48.5844, "lon": 13.6722, "intensity": 0.8, "source": "Bayrischer Rundfunk"}, {"title": "Das Wetter: In der Nacht meist klar, am Tag wieder sonnig", "url": "https://www.br.de/nachrichten/meldungen/index.html#n10", "thumbnailUrl": null, "date": "2024-04-30T03:21:43+02:00", "lat": 53.5396, "lon": 8.5761, "intensity": 0.4, "source": "Bayrischer Rundfunk"}, {"title": "Video | Traditionskaufhaus im Kiez: Was das Karstadt-Aus f\u00fcr Tempelhof bedeutet", "url": "https://www.rbb24.de/panorama/beitrag/av7/video-berlin-karstadt-filiale-schliessung-tempelhof-kiez-auswirkungen.html", "thumbnailUrl": null, "date": "Mon, 29 Apr 2024 21:24:10 +0200", "lat": 52.4831, "lon": 13.3859, "intensity": 0.7, "source": "RBB"}, {"title": "Pflegenotstand: Verdi fordert detaillierte Personalvorgaben", "url": "https://www.rbb24.de/panorama/beitrag/2024/04/pflege-verdi-fordert-bedarfsgerechte-personalregelungen.html", "thumbnailUrl": null, "date": "Mon, 29 Apr 2024 20:52:12 +0200", "lat": 53.5511, "lon": 9.9937, "intensity": 0.7, "source": "RBB"}, {"title": "US-Popstar Billie Eilish kommt f\u00fcr ein Konzert nach Berlin", "url": "https://www.rbb24.de/kultur/beitrag/2024/04/berlin-billie-eilish-konzerte-2025-deutschland-tournee.html", "thumbnailUrl": null, "date": "Mon, 29 Apr 2024 19:25:00 +0200", "lat": 52.520008, "lon": 13.404954, "intensity": 0.7, "source": "RBB"}, {"title": "Zahl der \"Reichsb\u00fcrger\" in Brandenburg auf H\u00f6chststand", "url": "https://www.rbb24.de/politik/beitrag/2024/04/brandenburg-politik-inneres-verfassungsschutzbericht-2023-reichsbuerger.html", "thumbnailUrl": null, "date": "Mon, 29 Apr 2024 19:19:00 +0200", "lat": 52.4125, "lon": 13.0583, "intensity": 0.8, "source": "RBB"}, {"title": "Volleys-Gesch\u00e4ftsf\u00fchrer Niroomand im Interview: \"Dieses Ziel hatten wir in den vergangenen Jahren als Traum vor Augen\"", "url": "https://www.rbb24.de/sport/beitrag/2024/04/interview-br-volleys-volleyball-kaweh-niroomand-deutscher-meister-rekordmeister.html", "thumbnailUrl": null, "date": "Mon, 29 Apr 2024 18:44:00 +0200", "lat": 52.52, "lon": 13.405, "intensity": 0.7, "source": "RBB"}, {"title": "Tr\u00fcber Himmel trotz Sonnenschein: Was steckt hinter dem Ph\u00e4nomen?", "url": "https://www.rbb24.de/panorama/beitrag/2024/04/berlin-brandenburg-saharastaub-blutregen-feinstaub-gesundheitlich-bedenklich-staub-wueste.html", "thumbnailUrl": null, "date": "Mon, 29 Apr 2024 17:56:51 +0200", "lat": 51.1657, "lon": 10.4515, "intensity": 0.4, "source": "RBB"}, {"title": "Angriff in Berliner S-Bahnhof: Zwei M\u00e4nner bei Streit \u00fcber laute Musik verletzt", "url": "https://www.rbb24.de/panorama/beitrag/2024/04/streit-um-laute-musik-zwei-maenner-verletzt-berlin-s-bahn.html", "thumbnailUrl": null, "date": "Mon, 29 Apr 2024 17:39:31 +0200", "lat": 52.52, "lon": 13.405, "intensity": 0.6, "source": "RBB"}, {"title": "Oder-Spree: 14-J\u00e4hriger attackiert mit Jugendlichen Linke-Kandidaten beim Plakatieren", "url": "https://www.rbb24.de/politik/wahl/kommunalwahlen/2024/oder-spree-schoeneiche-linke-wahlkampf-attacke.html", "thumbnailUrl": null, "date": "Mon, 29 Apr 2024 17:24:00 +0200", "lat": 52.373, "lon": 13.8841, "intensity": 0.7, "source": "RBB"}, {"title": "Kokainfunde in Superm\u00e4rkten: Wie kommt das Koks in die Bananenkiste?", "url": "https://www.rbb24.de/panorama/beitrag/2024/04/kokainfund-supermaerkte-berlin-brandenburg-bananenkisten.html", "thumbnailUrl": null, "date": "Mon, 29 Apr 2024 16:55:16 +0200", "lat": 52.52, "lon": 13.405, "intensity": 0.8, "source": "RBB"}, {"title": "T\u00fcrkisches Unternehmen: Lieferdienst Getir kapituliert und zieht sich auch aus Deutschland zur\u00fcck", "url": "https://www.rbb24.de/wirtschaft/beitrag/2024/04/berlin-lieferdienst-getir-gorillas-rueckzug-entlassungen.html", "thumbnailUrl": null, "date": "Mon, 29 Apr 2024 16:46:24 +0200", "lat": 53.5511, "lon": 9.9977, "intensity": 0.8, "source": "RBB"}, {"title": "Regionalliga Nordost: SV Babelsberg und Trainer Markus Zschiesche trennen sich zum Saisonende", "url": "https://www.rbb24.de/sport/beitrag/2024/04/fussball-regionalliga-nordost--sv-babelsberg-trainer-markus-zschiesche-trennung-saisonende.html", "thumbnailUrl": null, "date": "Mon, 29 Apr 2024 16:36:18 +0200", "lat": 52.3783, "lon": 13.0655, "intensity": 0.7, "source": "RBB"}, {"title": "Radverkehr: Berlin stellt 20 \u00f6ffentliche Reparaturs\u00e4ulen f\u00fcr Fahrr\u00e4der auf", "url": "https://www.rbb24.de/panorama/beitrag/2024/04/berlin-20-fahrrad-reparatursaeulen-erste-eingeweiht.html", "thumbnailUrl": null, "date": "Mon, 29 Apr 2024 16:28:00 +0200", "lat": 52.520008, "lon": 13.404954, "intensity": 0.4, "source": "RBB"}, {"title": "Nach 25 Jahren: Bahnhof Potsdam-Pirschheide wiederer\u00f6ffnet", "url": "https://www.rbb24.de/panorama/beitrag/2024/04/bahnhof-potsdam-pirschheide-wiedereroeffnet-rb22-ber.html", "thumbnailUrl": null, "date": "Mon, 29 Apr 2024 16:22:00 +0200", "lat": 52.3951, "lon": 13.0751, "intensity": 0.7, "source": "RBB"}, {"title": "Wetterbilanz im L\u00e4ndervergleich: Berlin und Brandenburg waren im April am w\u00e4rmsten", "url": "https://www.rbb24.de/panorama/beitrag/2024/04/wetter-april-berlin-brandenburg-am-waermsten-trockensten.html", "thumbnailUrl": null, "date": "Mon, 29 Apr 2024 15:50:51 +0200", "lat": 52.520008, "lon": 13.404954, "intensity": 0.3, "source": "RBB"}, {"title": "Unterrichtsausschluss nach Angriffen: Verhaltensauff\u00e4lliger Berliner Sch\u00fcler darf wieder zur Schule gehen", "url": "https://www.rbb24.de/panorama/beitrag/2024/04/berliner-verhaltensauffaelliger-schueler-darf-zurueck-zur-schule-gerichtsbeschluss.html", "thumbnailUrl": null, "date": "Mon, 29 Apr 2024 15:25:00 +0200", "lat": 52.520008, "lon": 13.404954, "intensity": 0.7, "source": "RBB"}, {"title": "Glienicke und Kremmen. Zwei Schwerverletzte und hoher Sachschaden durch Br\u00e4nde in Oberhavel", "url": "https://www.rbb24.de/panorama/beitrag/2024/04/brandenburg-oberhavel-braende-feuerwehr-kueche-schwerverletzte-sachschaden.html", "thumbnailUrl": null, "date": "Mon, 29 Apr 2024 15:00:00 +0200", "lat": 52.6481, "lon": 13.2263, "intensity": 0.7, "source": "RBB"}, {"title": "Operation wegen Gesichtsverletzungen: Hertha-Profi Aymen Barkok soll in Berliner Lokal t\u00e4tlich angegriffen worden sein", "url": "https://www.rbb24.de/sport/beitrag/2024/04/fussball-hertha-aymen-barkok-angegriffen-berlin-lokal-gesichtsverletzungen-operation.html", "thumbnailUrl": null, "date": "Mon, 29 Apr 2024 14:45:00 +0200", "lat": 52.520008, "lon": 13.404954, "intensity": 0.8, "source": "RBB"}, {"title": "Strom-Engpass in Oranienburg behoben - Netzbetreiber erh\u00f6ht Leistung", "url": "https://www.rbb24.de/wirtschaft/beitrag/2024/04/strom-engpass-in-oranienburg-behoben-neue-hausanschluesse-moeglich.html", "thumbnailUrl": null, "date": "Mon, 29 Apr 2024 14:32:00 +0200", "lat": 52.7532, "lon": 13.246, "intensity": 0.6, "source": "RBB"}, {"title": "Mit 97 Jahren: Langj\u00e4hriger BFV-Pr\u00e4sident Otto H\u00f6hne verstorben", "url": "https://www.rbb24.de/sport/beitrag/2024/04/fussball-bfv-berlin-praesident-otto-hoehne-verstorben.html", "thumbnailUrl": null, "date": "Mon, 29 Apr 2024 14:28:28 +0200", "lat": 48.135125, "lon": 11.587462, "intensity": 0.7, "source": "RBB"}, {"title": "Toter Mann im Scharm\u00fctzelsee in Oder-Spree gefunden", "url": "https://www.rbb24.de/panorama/beitrag/2024/04/mann-scharmuetzelsee-tot-gefunden-polizei.html", "thumbnailUrl": null, "date": "Mon, 29 Apr 2024 14:13:00 +0200", "lat": 52.3072, "lon": 14.0467, "intensity": 0.7, "source": "RBB"}, {"title": "Anfangsverdacht auf Vorteilsnahme: Staatsanwaltschaft leitet Ermittlungen gegen Potsdams Oberb\u00fcrgermeister Schubert ein", "url": "https://www.rbb24.de/politik/beitrag/2024/04/brandenburg-potsdam-oberbuergermeister-schubert-ermittlungen-staatsanwaltschaft-vorteilsnahme.html", "thumbnailUrl": null, "date": "Mon, 29 Apr 2024 13:56:48 +0200", "lat": 52.3906, "lon": 13.0645, "intensity": 0.8, "source": "RBB"}, {"title": "Berlin-Friedrichshain: 30-J\u00e4hriger verletzt Polizisten bei Einsatz", "url": "https://www.rbb24.de/panorama/beitrag/2024/04/berlin-friedrichshain-mann-verletzt-polizisten.html", "thumbnailUrl": null, "date": "Mon, 29 Apr 2024 13:36:30 +0200", "lat": 52.5125, "lon": 13.4529, "intensity": 0.6, "source": "RBB"}, {"title": "Video | Fu\u00dfball-Bundesliga: Union Berlin hat in Gladbach Aluminium-Pech", "url": "https://www.rbb24.de/sport/beitrag/av7/video-fussball-bundesliga-union-berlin-borussia-moenchengladbach.html", "thumbnailUrl": null, "date": "Mon, 29 Apr 2024 12:32:58 +0200", "lat": 51.166213, "lon": 6.436692, "intensity": 0.6, "source": "RBB"}, {"title": "\"Niedrige Einschreitschwelle\": Mehr als 5.000 Polizisten am 1. Mai in Berlin im Einsatz", "url": "https://www.rbb24.de/panorama/beitrag/2024/04/berlin-walpurgisnacht-polizei-einsatz-revolutionaere-1-mai-demo.html", "thumbnailUrl": null, "date": "Mon, 29 Apr 2024 12:31:00 +0200", "lat": 52.52, "lon": 13.4073, "intensity": 0.8, "source": "RBB"}, {"title": "VBB will jeden Monat Daten zu Versp\u00e4tungen von S-Bahnen ver\u00f6ffentlichen", "url": "https://www.rbb24.de/panorama/beitrag/2024/04/berlin-brandenburg-s-bahn-verspaetungen-monatsbericht.html", "thumbnailUrl": null, "date": "Mon, 29 Apr 2024 11:51:00 +0200", "lat": 52.5200066, "lon": 13.3888599, "intensity": 0.4, "source": "RBB"}, {"title": "RE50 erg\u00e4nzt RE5: Neuer Regionalexpress erm\u00f6glicht st\u00fcndliche Verbindungen nach Rostock", "url": "https://www.rbb24.de/panorama/beitrag/2024/04/regionalbahn-berlin-rostock-re5-re50-deutsche-bahn-dbregio.html", "thumbnailUrl": null, "date": "Mon, 29 Apr 2024 11:36:59 +0200", "lat": 54.0924, "lon": 12.1208, "intensity": 0.8, "source": "RBB"}, {"title": "Justiz: Gro\u00dfteil der Berliner Corona-Verfahren ist abgeschlossen", "url": "https://www.rbb24.de/panorama/beitrag/2024/04/berlin-corona-strafverfahren-bussgeldverfahren-abgeschlossen.html", "thumbnailUrl": null, "date": "Mon, 29 Apr 2024 10:48:18 +0200", "lat": 52.52, "lon": 13.405, "intensity": 0.3, "source": "RBB"},