[{"title": "Auto erfasst Frau mit Rollator - 95-J\u00e4hrige verstorben", "url": "https://www.tagesschau.de/inland/regional/niedersachsen/ndr-auto-erfasst-frau-mit-rollator-95-jaehrige-schwer-verletzt-100.html", "thumbnailUrl": "https://images.tagesschau.de/image/eeeb4e03-669b-4ee5-bdd3-9539dba6ddcc/AAABjqhPQ14/AAABjcWesUg/16x9-512.jpg", "date": "2024-04-04T10:47:00.000+02:00", "lat": 52.3759, "lon": 9.7332, "intensity": 0.8, "source": "Tagesschau"}, {"title": "Anklage gegen Berliner Rentner nach mutma\u00dflichem Mord an pflegebed\u00fcrftiger Ehefrau erhoben ", "url": "https://www.tagesschau.de/inland/regional/berlin/rbb-anklage-gegen-berliner-rentner-nach-mutmasslichem-mord-an-pflegebeduerftiger-ehefrau-erhoben-100.html", "thumbnailUrl": "https://images.tagesschau.de/image/9a5e4a14-dab8-4b37-8749-b6d02bd113bc/AAABjqhLlA8/AAABjcWesUg/16x9-512.jpg", "date": "2024-04-04T10:44:08.000+02:00", "lat": 52.520008, "lon": 13.404954, "intensity": 0.8, "source": "Tagesschau"}, {"title": "Schneidewind reicht Bewerbung f\u00fcr Homburger OB-Wahl ein", "url": "https://www.tagesschau.de/inland/regional/saarland/sr-schneidewind-reicht-bewerbung-fuer-homburger-ob-wahl-ein-100.html", "thumbnailUrl": "https://images.tagesschau.de/image/dfb96528-eeb5-414e-9688-9c1df3d210e6/AAABjqhShjs/AAABjcWesUg/16x9-512.jpg", "date": "2024-04-04T10:41:00.000+02:00", "lat": 49.3, "lon": 7.3356, "intensity": 0.8, "source": "Tagesschau"}, {"title": "\"Telemoritz\": Was wird aus Hannovers altem Fernsehturm?", "url": "https://www.tagesschau.de/inland/regional/niedersachsen/ndr-telemoritz-was-wird-aus-hannovers-altem-fernsehturm-100.html", "thumbnailUrl": "https://images.tagesschau.de/image/1c4d57b5-71db-459a-b7c0-10628a2b24e5/AAABjqhLqIE/AAABjcWesUg/16x9-512.jpg", "date": "2024-04-04T10:39:00.000+02:00", "lat": 52.3759, "lon": 9.7539, "intensity": 0.5, "source": "Tagesschau"}, {"title": "Musicals\u00e4nger Thomas Borchert: \"Es passiert eine Art Magie\"", "url": "https://www.tagesschau.de/inland/regional/hamburg/ndr-musicalsaenger-thomas-borchert-es-passiert-eine-art-magie-100.html", "thumbnailUrl": "https://images.tagesschau.de/image/01c27659-63bc-4a4b-b6e2-37fea0f35e73/AAABjqhLets/AAABjcWesUg/16x9-512.jpg", "date": "2024-04-04T10:37:00.000+02:00", "lat": 53.5511, "lon": 9.9937, "intensity": 0.7, "source": "Tagesschau"}, {"title": "Evakuierung vor Bombenentsch\u00e4rfung in Schmargendorf hat begonnen - Ring- und Stadtautobahn betroffen", "url": "https://www.tagesschau.de/inland/regional/berlin/rbb-tausende-in-charlottenburg-muessen-fuer-bombenentschaerfung-weichen-102.html", "thumbnailUrl": "https://images.tagesschau.de/image/88c44344-a9ec-4bd8-b5a0-aee0a6f99bba/AAABjqg7Enc/AAABjcWesUg/16x9-512.jpg", "date": "2024-04-04T10:34:59.000+02:00", "lat": 52.5046, "lon": 13.284, "intensity": 0.8, "source": "Tagesschau"}, {"title": "Oberspreewald-Lausitz: Post kommt im Spreewald ab sofort wieder per Kahn", "url": "https://www.tagesschau.de/inland/regional/brandenburg/rbb-oberspreewald-lausitz-post-kommt-im-spreewald-ab-sofort-wieder-per-kahn-100.html", "thumbnailUrl": "https://images.tagesschau.de/image/ec84f8ef-dae0-4c45-a454-ba092b907d7f/AAABjqhAjC0/AAABjcWesUg/16x9-512.jpg", "date": "2024-04-04T10:32:26.000+02:00", "lat": 51.6197, "lon": 13.9899, "intensity": 0.7, "source": "Tagesschau"}, {"title": "++ Tote nach Luftangriffen auf Charkiw ++", "url": "https://www.tagesschau.de/newsticker/liveblog-ukraine-donnerstag-328.html", "thumbnailUrl": "https://images.tagesschau.de/image/99077638-d9c9-4798-8c0c-545c9b4c2bc4/AAABjqf_6GE/AAABjcWesUg/16x9-512.jpg", "date": "2024-04-04T10:27:40.301+02:00", "lat": 49.9935, "lon": 36.231389, "intensity": 0.8, "source": "Tagesschau"}, {"title": "Forscherteam aus Trippstadt zeigt, was der Feldhase im Pf\u00e4lzerwald treibt", "url": "https://www.tagesschau.de/inland/regional/rheinlandpfalz/swr-forscherteam-aus-trippstadt-zeigt-was-der-feldhase-im-pfaelzerwald-treibt-100.html", "thumbnailUrl": "https://images.tagesschau.de/image/54c951d6-5c08-4833-b53c-dc543ea36d06/AAABjqOF60o/AAABjcWesUg/16x9-512.jpg", "date": "2024-04-04T10:27:00.000+02:00", "lat": 49.4312, "lon": 7.7992, "intensity": 0.4, "source": "Tagesschau"}, {"title": "THW Kiel trifft im Champions-League-Viertelfinale auf Montpellier HB", "url": "https://www.tagesschau.de/inland/regional/schleswigholstein/ndr-thw-kiel-trifft-im-champions-league-viertelfinale-auf-montpellier-hb-102.html", "thumbnailUrl": "https://images.tagesschau.de/image/4e0f3d84-8831-47d7-bdf3-3841fd74c135/AAABjqhRBJ4/AAABjcWesUg/16x9-512.jpg", "date": "2024-04-04T10:26:00.000+02:00", "lat": 54.3233, "lon": 10.1403, "intensity": 0.7, "source": "Tagesschau"}, {"title": "A1: Lkw mit Bierkisten kippt um - Autobahn bei Stuhr gesperrt", "url": "https://www.tagesschau.de/inland/regional/niedersachsen/ndr-a1-lkw-mit-bierkisten-kippt-um-autobahn-bei-stuhr-gesperrt-100.html", "thumbnailUrl": "https://images.tagesschau.de/image/90621c9d-6b66-49f5-9874-20d723a11d46/AAABjqhH5QI/AAABjcWesUg/16x9-512.jpg", "date": "2024-04-04T10:22:00.000+02:00", "lat": 53.0426, "lon": 8.7863, "intensity": 0.8, "source": "Tagesschau"}, {"title": "64 eingeschlossene Bergarbeiter gerettet", "url": "https://www.tagesschau.de/ausland/asien/vermisstensuche-taiwan-erdbeben-102.html", "thumbnailUrl": "https://images.tagesschau.de/image/b832218d-6eb2-4efd-8ae4-6bcec96b555a/AAABjqgxYhQ/AAABjcWesUg/16x9-512.jpg", "date": "2024-04-04T10:19:52.798+02:00", "lat": 24.697501, "lon": 120.960515, "intensity": 0.8, "source": "Tagesschau"}, {"title": "Nach Diesel-Unfall: B437 vor Wesertunnel heute gesperrt", "url": "https://www.tagesschau.de/inland/regional/niedersachsen/ndr-nach-diesel-unfall-b437-vor-wesertunnel-am-donnerstag-gesperrt-100.html", "thumbnailUrl": "https://images.tagesschau.de/image/fd90d294-e153-47e9-a9a4-06f2628bc8e3/AAABjqdWVso/AAABjcWesUg/16x9-512.jpg", "date": "2024-04-04T10:18:00.000+02:00", "lat": 53.5275, "lon": 8.6531, "intensity": 0.8, "source": "Tagesschau"}, {"title": "Polizei l\u00f6st Autoposer-Treffen mit 500 Fahrzeugen auf", "url": "https://www.tagesschau.de/inland/regional/bayern/br-polizei-loest-autoposer-treffen-mit-500-fahrzeugen-auf-104.html", "thumbnailUrl": "https://images.tagesschau.de/image/d594598e-aa7f-4516-9af4-c1ee458ea9b6/AAABjqgwBlQ/AAABjcWesUg/16x9-512.jpg", "date": "2024-04-04T10:16:26.941+02:00", "lat": 48.137, "lon": 11.572, "intensity": 0.8, "source": "Tagesschau"}, {"title": "Mit Eisenstange bewaffnet: Polizei erschie\u00dft Mann in Dortmund", "url": "https://www.tagesschau.de/inland/regional/nordrheinwestfalen/wdr-mann-in-dortmund-von-polizei-niedergeschossen-100.html", "thumbnailUrl": "https://images.tagesschau.de/image/29214cf5-f20e-4957-a929-cf230ac7e240/AAABjqgvsSE/AAABjcWesUg/16x9-512.jpg", "date": "2024-04-04T10:15:00.000+02:00", "lat": 51.5142, "lon": 7.4669, "intensity": 0.8, "source": "Tagesschau"}, {"title": "Wangen im Allg\u00e4u: Mann greift Kind in Supermarkt unvermittelt an", "url": "https://www.tagesschau.de/inland/regional/badenwuerttemberg/swr-wangen-im-allgaeu-mann-verletzt-kind-in-supermarkt-mit-messer-100.html", "thumbnailUrl": "https://images.tagesschau.de/image/e17fa86c-fdf3-421d-81cd-66c7443cf26e/AAABjqhStio/AAABjcWesUg/16x9-512.jpg", "date": "2024-04-04T10:11:00.000+02:00", "lat": 47.6866, "lon": 9.8373, "intensity": 0.8, "source": "Tagesschau"}, {"title": "Bilanz nach drei Monaten E-Rezept: Woran es noch hakt ", "url": "https://www.tagesschau.de/inland/regional/bayern/br-drei-monate-e-rezept-bilanz-durchwachsen-104.html", "thumbnailUrl": "https://images.tagesschau.de/image/ba85957e-b46d-445a-ab7c-35b2b19a73a1/AAABjqgop0c/AAABjcWesUg/16x9-512.jpg", "date": "2024-04-04T10:08:22.906+02:00", "lat": 51.1657, "lon": 10.4515, "intensity": 0.6, "source": "Tagesschau"}, {"title": "Sozialkaufhaus \"M\u00f6belkiste Hamburg\" \u00f6ffnet an neuem Standort", "url": "https://www.tagesschau.de/inland/regional/hamburg/ndr-sozialkaufhaus-moebelkiste-hamburg-wird-in-barmbek-eroeffnet-100.html", "thumbnailUrl": "https://images.tagesschau.de/image/2d770c0d-189b-4a1b-9789-9941943afb0e/AAABjqdfTUg/AAABjcWesUg/16x9-512.jpg", "date": "2024-04-04T10:04:00.000+02:00", "lat": 53.5921, "lon": 10.0357, "intensity": 0.6, "source": "Tagesschau"}, {"title": "Lufthansa, Opel, Deutsche Bank: Wie hessische Unternehmen ihre Besch\u00e4ftigten bei Laune halten", "url": "https://www.tagesschau.de/inland/regional/hessen/hr-lufthansa-opel-deutsche-bank-wie-hessische-unternehmen-ihre-beschaeftigten-bei-laune-halten-100.html", "thumbnailUrl": "https://images.tagesschau.de/image/d8a3f81c-3817-463d-96d6-4f2d7e5be9f1/AAABjqgjMPs/AAABjcWesUg/16x9-512.jpg", "date": "2024-04-04T10:02:20.493+02:00", "lat": 50.7753, "lon": 9.5065, "intensity": 0.4, "source": "Tagesschau"}, {"title": "BW-Newsticker am Morgen: Mann sticht in Supermarkt auf Vierj\u00e4hrige ein, Waldbesitzer einigt sich mit B\u00e4rlauch-T\u00e4tern", "url": "https://www.tagesschau.de/inland/regional/badenwuerttemberg/swr-bw-newsticker-am-morgen-mann-sticht-in-supermarkt-auf-vierjaehrige-ein-csu-politiker-reagieren-auf-schaeuble-memoiren-israelisches-auberginen-gericht-sorgt-in-freiburg-fuer-wirbel-100.html", "thumbnailUrl": "https://images.tagesschau.de/image/2e0b27c1-e373-4bb7-8f1d-ae1b21447a55/AAABjqdHOz4/AAABjcWesUg/16x9-512.jpg", "date": "2024-04-04T10:00:00.000+02:00", "lat": 47.996, "lon": 7.849, "intensity": 0.8, "source": "Tagesschau"}, {"title": "Biotop bei Hermeskeil zerst\u00f6rt: Das sagen die Verantwortlichen", "url": "https://www.tagesschau.de/inland/regional/rheinlandpfalz/swr-biotop-bei-hermeskeil-zerstoert-das-sagen-die-verantwortlichen-100.html", "thumbnailUrl": "https://images.tagesschau.de/image/1573608e-d993-4683-b7fd-c7bb9de45f51/AAABjqMb19k/AAABjcWesUg/16x9-512.jpg", "date": "2024-04-04T10:00:00.000+02:00", "lat": 49.645, "lon": 6.9417, "intensity": 0.7, "source": "Tagesschau"}, {"title": "Hessen am Morgen: +++ Mehr Pollen in Hessen unterwegs +++ Leiche am Lohrberg in Frankfurt gefunden +++ AfD-Mann droht Feuerwehr-Ausschluss +++", "url": "https://www.tagesschau.de/inland/regional/hessen/hr-hessen-am-morgen--leiche-am-lohrberg-in-frankfurt-gefunden--angeklagter-reichsbuerger-um-prinz-reuss-spricht-erstmals-100.html", "thumbnailUrl": "https://images.tagesschau.de/image/c3c4a246-d58d-4b82-a02a-2c0d17eab5f3/AAABjqfsNxI/AAABjcWesUg/16x9-512.jpg", "date": "2024-04-04T09:58:08.696+02:00", "lat": 50.1343, "lon": 8.7293, "intensity": 0.8, "source": "Tagesschau"}, {"title": "Im Saarland ist Tanken derzeit besonders g\u00fcnstig", "url": "https://www.tagesschau.de/inland/regional/saarland/sr-im-saarland-ist-tanken-derzeit-besonders-guenstig-100.html", "thumbnailUrl": "https://images.tagesschau.de/image/b98d5cdc-33f3-415a-97b1-0e1caa850a89/AAABjqgxheA/AAABjcWesUg/16x9-512.jpg", "date": "2024-04-04T09:53:00.000+02:00", "lat": 49.4, "lon": 7.0, "intensity": 0.3, "source": "Tagesschau"}, {"title": "Rattenproblem an G\u00fctersloher Kita", "url": "https://www.tagesschau.de/inland/regional/nordrheinwestfalen/wdr-rattenproblem-an-guetersloher-kita-100.html", "thumbnailUrl": "https://images.tagesschau.de/image/32c8a2b8-b27d-41fb-b212-70da8b4e7ec3/AAABjqhSdr8/AAABjcWesUg/16x9-512.jpg", "date": "2024-04-04T09:50:00.000+02:00", "lat": 51.9, "lon": 8.38333, "intensity": 0.7, "source": "Tagesschau"}, {"title": "Trend zu Urne und Friedwald: Hoher Leerstand auf Friedh\u00f6fen", "url": "https://www.tagesschau.de/inland/regional/bayern/br-trend-zu-urne-und-friedwald-hoher-leerstand-auf-friedhoefen-100.html", "thumbnailUrl": "https://images.tagesschau.de/image/ad433ab3-5a77-4914-95f3-a716e7b3cbb4/AAABjqgSrVk/AAABjcWesUg/16x9-512.jpg", "date": "2024-04-04T09:44:31.856+02:00", "lat": 49.4503, "lon": 11.077, "intensity": 0.7, "source": "Tagesschau"}, {"title": "Lettland k\u00f6nnte bei Digitalisierung Vorbild f\u00fcr Hamburg werden", "url": "https://www.tagesschau.de/inland/regional/hamburg/ndr-lettland-koennte-bei-digitalisierung-vorbild-fuer-hamburg-werden-100.html", "thumbnailUrl": "https://images.tagesschau.de/image/b70d4563-5be6-46b0-be38-a7dfc01a3eb7/AAABjqgSvog/AAABjcWesUg/16x9-512.jpg", "date": "2024-04-04T09:44:00.000+02:00", "lat": 56.9496, "lon": 24.6032, "intensity": 0.7, "source": "Tagesschau"}, {"title": "Agrarfahrzeugbauer Reisch: Die Insolvenz und ihre Folgen", "url": "https://www.tagesschau.de/inland/regional/bayern/br-agrarfahrzeugbauer-reisch-die-insolvenz-und-ihre-folgen-102.html", "thumbnailUrl": "https://images.tagesschau.de/image/cca72dab-c7c2-4d06-bb5b-5378af7f4d0c/AAABjqgNMXU/AAABjcWesUg/16x9-512.jpg", "date": "2024-04-04T09:39:10.426+02:00", "lat": 48.1319, "lon": 11.54, "intensity": 0.8, "source": "Tagesschau"}, {"title": "Wieder mehr Kinder gehen zur Kommunion im Saarland", "url": "https://www.tagesschau.de/inland/regional/saarland/sr-wieder-mehr-kinder-gehen-zur-kommunion-im-saarland-100.html", "thumbnailUrl": "https://images.tagesschau.de/image/88e20a09-a3c1-42c7-be71-c02dc9cf9262/AAABjqgdYMg/AAABjcWesUg/16x9-512.jpg", "date": "2024-04-04T09:33:00.000+02:00", "lat": 49.3964, "lon": 7.0232, "intensity": 0.6, "source": "Tagesschau"}, {"title": "Weiter Probleme mit Stellwerk in M\u00f6nchengladbach - Versp\u00e4tungen und Zugausf\u00e4lle", "url": "https://www.tagesschau.de/inland/regional/nordrheinwestfalen/wdr-weiter-probleme-mit-stellwerk-in-moenchengladbach-verspaetungen-und-zugausfaelle-100.html", "thumbnailUrl": "https://images.tagesschau.de/image/a5178bdf-ee5c-4a2b-9fdc-386b34467022/AAABjqhSnlE/AAABjcWesUg/16x9-512.jpg", "date": "2024-04-04T09:30:00.000+02:00", "lat": 51.1805, "lon": 6.4358, "intensity": 0.8, "source": "Tagesschau"}, {"title": "Anteil der \u00fcber 80-J\u00e4hrigen in Berlin und Brandenburg w\u00e4chst", "url": "https://www.tagesschau.de/inland/regional/berlin/rbb-anteil-der-ueber-80-jaehrigen-waechst-100.html", "thumbnailUrl": "https://images.tagesschau.de/image/b0c6744f-ffbb-414f-8832-bcff006ab93f/AAABjqf3HMA/AAABjcWesUg/16x9-512.jpg", "date": "2024-04-04T09:13:31.000+02:00", "lat": 52.520008, "lon": 13.404954, "intensity": 0.7, "source": "Tagesschau"}, {"title": "Eisb\u00e4ren, Volleys, Alba und SC Potsdam: So pr\u00e4sentieren sich die Top-Teams derzeit in den Playoffs", "url": "https://www.tagesschau.de/inland/regional/brandenburg/rbb-eisbaeren-volleys-alba-und-scp-so-praesentieren-sich-die-top-teams-derzeit-in-den-playoffs-102.html", "thumbnailUrl": "https://images.tagesschau.de/image/c222971e-a39e-4d70-aa75-ec043c4e22d1/AAABjqfuJWI/AAABjcWesUg/16x9-512.jpg", "date": "2024-04-04T09:01:36.000+02:00", "lat": 52.52, "lon": 13.405, "intensity": 0.5, "source": "Tagesschau"}, {"title": "Darmstadt 98: +++ Lilien droht Skarke-Ausfall +++ Vilhelmssons Quote macht Lilien Hoffnung +++ M\u00fcller nimmt Holtmann in Schutz +++", "url": "https://www.tagesschau.de/inland/regional/hessen/hr--tietz-vermisst-fehlende-gier--lilien-fans-liefern-sich-raststaetten-pruegelei--die-niederlage-der-lilien-in-der-video-zusammenfassung-102.html", "thumbnailUrl": "https://images.tagesschau.de/image/a4f7a676-0489-491c-97c7-5ed2d88f8e36/AAABjqfolB8/AAABjcWesUg/16x9-512.jpg", "date": "2024-04-04T08:59:25.083+02:00", "lat": 49.8717, "lon": 8.65, "intensity": 0.5, "source": "Tagesschau"}, {"title": "Israel beruft Reservisten zur Luftverteidigung ein", "url": "https://www.tagesschau.de/ausland/asien/israel-reservisten-mobilisierung-100.html", "thumbnailUrl": "https://images.tagesschau.de/image/880b76f6-a12c-4edc-b429-771587053fc4/AAABjqfj1kU/AAABjcWesUg/16x9-512.jpg", "date": "2024-04-04T08:55:10.725+02:00", "lat": 31.7683, "lon": 35.2137, "intensity": 0.8, "source": "Tagesschau"}, {"title": "\"L\u00fctti\": Neue Busse fahren auf Abruf im Landkreis Osnabr\u00fcck", "url": "https://www.tagesschau.de/inland/regional/niedersachsen/ndr-luetti-neue-busse-fahren-auf-abruf-im-landkreis-osnabrueck-100.html", "thumbnailUrl": "https://images.tagesschau.de/image/86b0b587-d80f-4d14-8633-9cfbab4eabd5/AAABjqfzsTg/AAABjcWesUg/16x9-512.jpg", "date": "2024-04-04T08:53:00.000+02:00", "lat": 52.2812, "lon": 8.0479, "intensity": 0.3, "source": "Tagesschau"}, {"title": "Region Essequibo soll bald zu Venezuela geh\u00f6ren", "url": "https://www.tagesschau.de/ausland/amerika/venzuela-essequibo-gesetz-guyana-100.html", "thumbnailUrl": "https://images.tagesschau.de/image/22f02bf0-651c-46c0-96fe-07dcdeb901dd/AAABjqfgKg4/AAABjcWesUg/16x9-512.jpg", "date": "2024-04-04T08:51:10.047+02:00", "lat": 4.860416, "lon": 61.083333, "intensity": 0.8, "source": "Tagesschau"}, {"title": "Stadthalle in Goslar: Denkmalsch\u00fctzer wettern gegen Neubau", "url": "https://www.tagesschau.de/inland/regional/niedersachsen/ndr-stadthalle-in-goslar-denkmalschuetzer-wettern-gegen-neubau-100.html", "thumbnailUrl": "https://images.tagesschau.de/image/b37c52a7-9cc7-4b3b-a7ae-103d2d68db93/AAABjqfhWkk/AAABjcWesUg/16x9-512.jpg", "date": "2024-04-04T08:49:00.000+02:00", "lat": 51.9142, "lon": 10.4261, "intensity": 0.8, "source": "Tagesschau"}, {"title": "Streik am Flughafen Frankfurt? Tarifgespr\u00e4che bei Lufthansa-Kabinenpersonal gehen weiter", "url": "https://www.tagesschau.de/inland/regional/hessen/hr-streik-am-flughafen-frankfurt-tarifgespraeche-bei-lufthansa-kabinenpersonal-gehen-weiter-100.html", "thumbnailUrl": "https://images.tagesschau.de/image/a3436c7f-9116-44a1-a1c4-1b0f0b4573e3/AAABjqfbopM/AAABjcWesUg/16x9-512.jpg", "date": "2024-04-04T08:45:59.538+02:00", "lat": 50.0335, "lon": 8.57, "intensity": 0.7, "source": "Tagesschau"}, {"title": "Millionenschaden nach Hubschrauber-Absturz - Baumf\u00e4llarbeiten sollen bald fortgesetzt werden", "url": "https://www.tagesschau.de/inland/regional/thueringen/mdr-hubschrauber-bei-holzernte-im-kreis-sonneberg-abgestuerzt-100.html", "thumbnailUrl": "https://images.tagesschau.de/image/288af287-be81-4b80-9a5e-ab25861db2a0/AAABjqgO7I4/AAABjcWesUg/16x9-512.jpg", "date": "2024-04-04T08:32:00.000+02:00", "lat": 50.3506, "lon": 11.1753, "intensity": 0.8, "source": "Tagesschau"}, {"title": "Heute vor 15 Jahren: Als Grafite vom VfL Wolfsburg den FC Bayern dem\u00fctigte", "url": "https://www.tagesschau.de/inland/regional/niedersachsen/ndr-heute-vor-15-jahren-als-grafite-vom-vfl-wolfsburg-den-fc-bayern-demuetigte-102.html", "thumbnailUrl": "https://images.tagesschau.de/image/7564c70b-b0df-4cc5-886f-40d31646b3cc/AAABjqfNTFY/AAABjcWesUg/16x9-512.jpg", "date": "2024-04-04T08:29:00.000+02:00", "lat": 51.5167, "lon": 10.75, "intensity": 0.7, "source": "Tagesschau"}, {"title": "Pokalfinale: Ex-FCK-Coach Dirk Schuster w\u00fcnscht Nachfolger Friedhelm Funkel den Triumph", "url": "https://www.tagesschau.de/inland/regional/rheinlandpfalz/swr-pokalfinale-ex-fck-coach-dirk-schuster-wuenscht-nachfolger-friedhelm-funkel-den-triumph-102.html", "thumbnailUrl": "https://images.tagesschau.de/image/91d0eaf2-e87d-41aa-b510-8e37705d7cf2/AAABjqfmnFE/AAABjcWesUg/16x9-512.jpg", "date": "2024-04-04T08:23:36.000+02:00", "lat": 49.4431, "lon": 7.7721, "intensity": 0.8, "source": "Tagesschau"}, {"title": "Mann stirbt nach Wohnungsbrand in Berlin-Hellersdorf", "url": "https://www.tagesschau.de/inland/regional/berlin/rbb-mann-stirbt-nach-wohnungsbrand-in-berlin-hellersdorf-100.html", "thumbnailUrl": "https://images.tagesschau.de/image/1c70f13d-e108-4b0a-9113-cecb4b60ade6/AAABjqfJe0k/AAABjcWesUg/16x9-512.jpg", "date": "2024-04-04T08:22:46.000+02:00", "lat": 52.5135, "lon": 13.6033, "intensity": 0.8, "source": "Tagesschau"}, {"title": "OLG Zweibr\u00fccken: Was wird aus den Sonntags\u00f6ffnungen im Outlet?", "url": "https://www.tagesschau.de/inland/regional/rheinlandpfalz/swr-olg-zweibruecken-was-wird-aus-den-sonntagsoeffnungen-im-outlet-100.html", "thumbnailUrl": "https://images.tagesschau.de/image/c610d61c-3d98-45f1-8d02-36a4463ee225/AAABjqeklb8/AAABjcWesUg/16x9-512.jpg", "date": "2024-04-04T08:18:00.000+02:00", "lat": 49.2448, "lon": 7.3676, "intensity": 0.5, "source": "Tagesschau"}, {"title": "Wolf in der Region Hannover: Land stoppt Abschuss vorerst", "url": "https://www.tagesschau.de/inland/regional/niedersachsen/ndr-niedersachsen-stoppt-wolfs-abschuss-in-region-hannover-100.html", "thumbnailUrl": "https://images.tagesschau.de/image/9d218fcc-e3de-406e-8cb1-8b46c3940e0a/AAABjqfEE6Q/AAABjcWesUg/16x9-512.jpg", "date": "2024-04-04T08:17:00.000+02:00", "lat": 52.3759, "lon": 9.7371, "intensity": 0.4, "source": "Tagesschau"}, {"title": "Nach Einbu\u00dfen im Vorjahr: Werder feiert Baumbl\u00fcte 2024 mit verk\u00fcrztem Stadtfest", "url": "https://www.tagesschau.de/inland/regional/brandenburg/rbb-nach-einbussen-im-vorjahr-werder-feiert-baumbluete-2024-mit-verkuerztem-stadtfest-100.html", "thumbnailUrl": "https://images.tagesschau.de/image/77fbdea2-3cd9-4af8-9fa0-f1b5fa08b7f1/AAABjqe6vgA/AAABjcWesUg/16x9-512.jpg", "date": "2024-04-04T08:08:14.000+02:00", "lat": 52.4507, "lon": 13.2175, "intensity": 0.6, "source": "Tagesschau"}, {"title": "Suche nach Vermissten in Taiwan geht weiter", "url": "https://www.tagesschau.de/ausland/asien/vermisstensuche-taiwan-erdbeben-100.html", "thumbnailUrl": "https://images.tagesschau.de/image/a509ae78-174d-42cc-a738-61022dbed9b0/AAABjqeU098/AAABjcWesUg/16x9-512.jpg", "date": "2024-04-04T08:06:07.381+02:00", "lat": 23.69781, "lon": 120.960515, "intensity": 0.7, "source": "Tagesschau"}, {"title": "Nach Tod bei Osterfeuer: Warnte Feuerwehr die Besucher vor Baum?", "url": "https://www.tagesschau.de/inland/regional/niedersachsen/ndr-toedliches-unglueck-bei-osterfeuer-22-jaehrige-von-baum-getroffen-100.html", "thumbnailUrl": "https://images.tagesschau.de/image/40c22a82-d804-4d8e-9a62-0eed1554dbf7/AAABjqfuSDs/AAABjcWesUg/16x9-512.jpg", "date": "2024-04-04T07:51:00.000+02:00", "lat": 52.3764, "lon": 9.2733, "intensity": 0.8, "source": "Tagesschau"}, {"title": "Hunderte Polizisten unter Extremismusverdacht", "url": "https://www.tagesschau.de/inland/gesellschaft/polizisten-extremismusverdacht-medienbericht-100.html", "thumbnailUrl": "https://images.tagesschau.de/image/fc0b5965-8078-45f4-8da5-7b71be2530fa/AAABjqelmv4/AAABjcWesUg/16x9-512.jpg", "date": "2024-04-04T07:47:12.351+02:00", "lat": 51.5451, "lon": 9.9937, "intensity": 0.8, "source": "Tagesschau"}, {"title": "Eintracht: +++ Bayer-Pokalsieg k\u00f6nnte Eintracht helfen +++ Ekitik\u00e9 mit Steigerungspotenzial +++ Kr\u00f6sche peilt Europapokal an +++", "url": "https://www.tagesschau.de/inland/regional/hessen/hr--eintracht-wohl-mit-chaibi-einig--glasner-fast-nur-kolo-muani-der-tore-erzielt--bericht-eintracht-sagt-aouar-ab-100.html", "thumbnailUrl": "https://images.tagesschau.de/image/f3037cf5-8870-4b00-90de-56a0349ff3f2/AAABjqefaE8/AAABjcWesUg/16x9-512.jpg", "date": "2024-04-04T07:38:12.561+02:00", "lat": 50.1109, "lon": 8.6821, "intensity": 0.7, "source": "Tagesschau"}, {"title": "Frau von L\u00e4rmschutzwand erschlagen: Anklage gegen drei Beschuldigte", "url": "https://www.tagesschau.de/inland/regional/nordrheinwestfalen/wdr-frau-von-laermschutzwand-erschlagen-anklage-gegen-drei-beschuldigte-100.html", "thumbnailUrl": "https://images.tagesschau.de/image/756036e3-b390-4055-88fc-4395f6f37ef5/AAABjqfHUao/AAABjcWesUg/16x9-512.jpg", "date": "2024-04-04T07:35:00.000+02:00", "lat": 50.937, "lon": 7.071, "intensity": 0.8, "source": "Tagesschau"}, {"title": "Ausbau von S\u00fcdschnellweg: B3 in Hannover heute Abend gesperrt", "url": "https://www.tagesschau.de/inland/regional/niedersachsen/ndr-ausbau-von-suedschnellweg-b3-in-hannover-heute-abend-gesperrt-100.html", "thumbnailUrl": "https://images.tagesschau.de/image/e5008b51-bcb4-430d-9aea-17af970de027/AAABjqedql4/AAABjcWesUg/16x9-512.jpg", "date": "2024-04-04T07:33:00.000+02:00", "lat": 52.3759, "lon": 9.7332, "intensity": 0.6, "source": "Tagesschau"}, {"title": "Landesgartenschau Bad Gandersheim: Gesellschaft insolvent", "url": "https://www.tagesschau.de/inland/regional/niedersachsen/ndr-landesgartenschau-bad-gandersheim-gesellschaft-insolvent-100.html", "thumbnailUrl": "https://images.tagesschau.de/image/1a555128-5291-43c5-aa39-7dc8f0db2fc5/AAABjqehRc4/AAABjcWesUg/16x9-512.jpg", "date": "2024-04-04T07:21:00.000+02:00", "lat": 51.8708, "lon": 10.03, "intensity": 0.6, "source": "Tagesschau"}, {"title": "Berliner Know-how f\u00fcr Kyjiw: K\u00fcnstliche Beine f\u00fcr ukrainische Kriegsverletzte", "url": "https://www.tagesschau.de/inland/regional/berlin/rbb-berliner-know-how-fuer-kyjiw-kuenstliche-beine-fuer-ukrainische-kriegsverletzte-100.html", "thumbnailUrl": "https://images.tagesschau.de/image/6d330425-9be0-4f05-9f0b-1c9e899c2db3/AAABjqeO4Bs/AAABjcWesUg/16x9-512.jpg", "date": "2024-04-04T07:18:21.000+02:00", "lat": 52.520008, "lon": 13.404954, "intensity": 0.8, "source": "Tagesschau"}, {"title": "Schlanker, schneller, \"kriegst\u00fcchtiger\"", "url": "https://www.tagesschau.de/inland/innenpolitik/reform-bundeswehr-100.html", "thumbnailUrl": "https://images.tagesschau.de/image/2d125fee-048c-4826-8e2f-7511b4776b76/AAABjqeInCQ/AAABjcWesUg/16x9-512.jpg", "date": "2024-04-04T07:15:32.068+02:00", "lat": 52.3789, "lon": 9.7361, "intensity": 0.7, "source": "Tagesschau"}, {"title": "Wohnungsbau: Hamburg will Bauordnung vereinfachen", "url": "https://www.tagesschau.de/inland/regional/hamburg/ndr-wohnungsbau-hamburg-will-bauordnung-vereinfachen-100.html", "thumbnailUrl": "https://images.tagesschau.de/image/843556bb-b878-4e09-b8e5-ceb7960f62a4/AAABjqeD8Ao/AAABjcWesUg/16x9-512.jpg", "date": "2024-04-04T07:09:00.000+02:00", "lat": 53.55, "lon": 10.0, "intensity": 0.7, "source": "Tagesschau"}, {"title": "Playoff-Halbfinale: Eisb\u00e4ren schlagen Straubing in drittl\u00e4ngstem Spiel der DEL-Geschichte", "url": "https://www.tagesschau.de/inland/regional/berlin/rbb-playoff-halbfinale-eisbaeren-schlagen-straubing-in-drittlaengstem-spiel-der-del-geschichte-102.html", "thumbnailUrl": "https://images.tagesschau.de/image/f6440a30-f96c-42da-9f99-36418d27ab63/AAABjqflH64/AAABjcWesUg/16x9-512.jpg", "date": "2024-04-04T07:08:00.000+02:00", "lat": 52.520008, "lon": 13.404954, "intensity": 0.8, "source": "Tagesschau"}, {"title": "Kultur : +++ Schlossgarten Fulda wieder er\u00f6ffnet +++ Geschwister Korn und Gerstenmann-Preis f\u00fcr Natan Sznaider +++", "url": "https://www.tagesschau.de/inland/regional/hessen/hr--schauspiel-frankfurt-bringt-putin-und-macbeth-zusammen--die-filmfestival-saison-2023-startet--lichter-filmfest-zum-thema-liebe-startet-am-dienstag-100.html", "thumbnailUrl": "https://images.tagesschau.de/image/bdda8d64-5919-4ac7-b8ef-4d40c49c3e88/AAABjqRA1II/AAABjcWesUg/16x9-512.jpg", "date": "2024-04-04T07:05:20.362+02:00", "lat": 50.3155, "lon": 9.6862, "intensity": 0.7, "source": "Tagesschau"}, {"title": "Fracht aus Russland - Staatsanwaltschaft ermittelt ", "url": "https://www.tagesschau.de/inland/regional/mecklenburgvorpommern/atlantic-navigator-rostock-100.html", "thumbnailUrl": "https://images.tagesschau.de/image/5bd5070a-ae6f-4e24-a04a-4ba4194b8ef3/AAABjqUCuN4/AAABjcWesUg/16x9-512.jpg", "date": "2024-04-04T06:59:00.000+02:00", "lat": 54.0887, "lon": 12.1403, "intensity": 0.7, "source": "Tagesschau"}, {"title": "Stadt Horn-Bad Meinberg: Mitarbeiter nach \u00f6ffentlichen Beleidigungen krank geschrieben", "url": "https://www.tagesschau.de/inland/regional/nordrheinwestfalen/wdr-stadt-horn-bad-meinberg-mitarbeiter-nach-oeffentlichen-beleidigungen-krank-geschrieben-100.html", "thumbnailUrl": "https://images.tagesschau.de/image/27a04562-bd61-41a7-a5f3-cb8876e84fe0/AAABjqer3Dw/AAABjcWesUg/16x9-512.jpg", "date": "2024-04-04T06:52:00.000+02:00", "lat": 51.8858, "lon": 8.8928, "intensity": 0.7, "source": "Tagesschau"}, {"title": "Kollision auf Abfahrt: Drei Verletzte bei Unfall im Landkreis Celle", "url": "https://www.tagesschau.de/inland/regional/niedersachsen/ndr-drei-verletzte-bei-unfall-im-landkreis-celle-100.html", "thumbnailUrl": "https://images.tagesschau.de/image/378f9449-bed7-4cb2-937a-75bdcb354b1a/AAABjqe8whc/AAABjcWesUg/16x9-512.jpg", "date": "2024-04-04T06:44:00.000+02:00", "lat": 52.5797, "lon": 10.1326, "intensity": 0.7, "source": "Tagesschau"}, {"title": "Auslegungsfrist endet: Erweiterungsplan des Tesla-Werks liegt noch am Donnerstag aus", "url": "https://www.tagesschau.de/inland/regional/brandenburg/rbb-auslegungsfrist-endet-erweiterungsplan-des-tesla-werks-liegt-noch-am-donnerstag-aus-100.html", "thumbnailUrl": "https://images.tagesschau.de/image/75be3881-c055-4a36-90a6-044f62102ffb/AAABjqeNCbE/AAABjcWesUg/16x9-512.jpg", "date": "2024-04-04T06:35:07.000+02:00", "lat": 52.3667, "lon": 13.9167, "intensity": 0.6, "source": "Tagesschau"}, {"title": "Stadt Goslar sucht Schlagl\u00f6cher mithilfe von KI", "url": "https://www.tagesschau.de/inland/regional/niedersachsen/ndr-stadt-goslar-sucht-schlagloecher-mithilfe-von-ki-100.html", "thumbnailUrl": "https://images.tagesschau.de/image/c989e666-5e44-4e96-8183-410160c65e1a/AAABjqdsNP0/AAABjcWesUg/16x9-512.jpg", "date": "2024-04-04T06:32:00.000+02:00", "lat": 51.9036, "lon": 10.4296, "intensity": 0.8, "source": "Tagesschau"}, {"title": "Seilbahn im Deutsch-Franz\u00f6sischen Garten geht sp\u00e4ter wieder in Betrieb", "url": "https://www.tagesschau.de/inland/regional/saarland/sr-seilbahn-im-deutsch-franzoesischen-garten-geht-spaeter-wieder-in-betrieb-100.html", "thumbnailUrl": "https://images.tagesschau.de/image/0b194406-24be-4e1a-98bd-c3502a67d2e8/AAABjqdinD4/AAABjcWesUg/16x9-512.jpg", "date": "2024-04-04T06:30:00.000+02:00", "lat": 49.2402, "lon": 6.9762, "intensity": 0.4, "source": "Tagesschau"}, {"title": "Urteil erwartet: Mann durch abgebrochenen Ast in Rastatt schwerverletzt", "url": "https://www.tagesschau.de/inland/regional/badenwuerttemberg/swr-urteil-erwartet-mann-durch-abgebrochenen-ast-in-rastatt-schwerverletzt-100.html", "thumbnailUrl": "https://images.tagesschau.de/image/c0c4f771-4b23-4115-b6ae-5f35037db139/AAABjqfLAo0/AAABjcWesUg/16x9-512.jpg", "date": "2024-04-04T06:25:48.000+02:00", "lat": 48.8566, "lon": 8.2023, "intensity": 0.7, "source": "Tagesschau"}, {"title": "Neuer Negativ-Rekord in Mecklenburg-Vorpommern bei Trickbetrug", "url": "https://www.tagesschau.de/inland/regional/mecklenburgvorpommern/ndr-neuer-negativ-rekord-in-mecklenburg-vorpommern-bei-trickbetrug-100.html", "thumbnailUrl": "https://images.tagesschau.de/image/ed711270-94ba-44c9-844f-3a4d4c3a1d31/AAABjqd_7lA/AAABjcWesUg/16x9-512.jpg", "date": "2024-04-04T06:19:00.000+02:00", "lat": 53.612, "lon": 13.169, "intensity": 0.8, "source": "Tagesschau"}, {"title": "Russlands Pl\u00e4ne f\u00fcr Libyen", "url": "https://www.tagesschau.de/investigativ/ndr-wdr/russland-libyen-marinebasis-100.html", "thumbnailUrl": "https://images.tagesschau.de/image/e2b211f8-12b8-4ea4-8fa8-8d4b11ba1105/AAABjqR1k_U/AAABjcWesUg/16x9-512.jpg", "date": "2024-04-04T06:00:05.708+02:00", "lat": 26.3351, "lon": 17.228331, "intensity": 0.8, "source": "Tagesschau"}, {"title": "Prozessauftakt in Duisburg: Kinderleiche im Rhein-Herne-Kanal versenkt", "url": "https://www.tagesschau.de/inland/regional/nordrheinwestfalen/wdr-prozessauftakt-in-duisburg-kinderleiche-im-rhein-herne-kanal-versenkt-100.html", "thumbnailUrl": "https://images.tagesschau.de/image/f264164f-b742-4953-b56f-00fae60b1136/AAABjqfkmus/AAABjcWesUg/16x9-512.jpg", "date": "2024-04-04T06:00:00.000+02:00", "lat": 51.4344, "lon": 6.7713, "intensity": 0.8, "source": "Tagesschau"}, {"title": "Freiburg: Wie ein israelisch zubereitetes Gericht in einem arabischen Restaurant die Gem\u00fcter erhitzt", "url": "https://www.tagesschau.de/inland/regional/badenwuerttemberg/swr-freiburg-wie-ein-israelisch-zubereitetes-gericht-in-einem-arabischen-restaurant-die-gemueter-erhitzt-100.html", "thumbnailUrl": "https://images.tagesschau.de/image/36648b97-f56c-4439-b6d8-e3204b0c61db/AAABjqcmNOY/AAABjcWesUg/16x9-512.jpg", "date": "2024-04-04T05:24:00.000+02:00", "lat": 47.9990077, "lon": 7.8490209, "intensity": 0.6, "source": "Tagesschau"}, {"title": "Strandkorb gebraucht kaufen: Wo das geht und was es kostet", "url": "https://www.tagesschau.de/inland/regional/schleswigholstein/ndr-strandkorb-gebraucht-kaufen-wo-das-geht-und-was-es-kostet-100.html", "thumbnailUrl": "https://images.tagesschau.de/image/a3010f89-bc76-4cb6-91b9-6cc4e556e918/AAABjqcM_60/AAABjcWesUg/16x9-512.jpg", "date": "2024-04-04T05:00:00.000+02:00", "lat": 54.0767, "lon": 9.9977, "intensity": 0.5, "source": "Tagesschau"}, {"title": "Wie viel bringt die Widerspruchsl\u00f6sung?", "url": "https://www.tagesschau.de/faktenfinder/kontext/organspende-widerspruchsloesung-100.html", "thumbnailUrl": "https://images.tagesschau.de/image/8fe1e202-3098-4201-a821-4d2b69f77bb5/AAABjqNHEX8/AAABjcWesUg/16x9-512.jpg", "date": "2024-04-04T04:44:48.363+02:00", "lat": 53.5511, "lon": 9.9937, "intensity": 0.8, "source": "Tagesschau"}, {"title": "Alles andere als \"hirntot\"", "url": "https://www.tagesschau.de/ausland/europa/nato-jubilaeum-100.html", "thumbnailUrl": "https://images.tagesschau.de/image/ac43e190-89b2-42a7-b596-58b17eec374e/AAABjqb8tWw/AAABjcWesUg/16x9-512.jpg", "date": "2024-04-04T04:42:43.470+02:00", "lat": 55.7558, "lon": 37.6176, "intensity": 0.8, "source": "Tagesschau"}, {"title": "Pro-europ\u00e4isch oder Putin-h\u00f6rig?", "url": "https://www.tagesschau.de/ausland/europa/georgien-russland-eu-102.html", "thumbnailUrl": "https://images.tagesschau.de/image/b9789a74-b377-4625-9d7a-7a4b342b32ab/AAABjp35G_I/AAABjcWesUg/16x9-512.jpg", "date": "2024-04-04T03:23:13.321+02:00", "lat": 41.717, "lon": 44.793, "intensity": 0.7, "source": "Tagesschau"}, {"title": "Minister Gantz will Neuwahl in Israel", "url": "https://www.tagesschau.de/ausland/asien/gantz-fordert-neuwahlen-israel-100.html", "thumbnailUrl": "https://images.tagesschau.de/image/a406a0b9-bf24-47dc-bc03-f593c0cb37ee/AAABjqagTwU/AAABjcWesUg/16x9-512.jpg", "date": "2024-04-04T03:08:56.248+02:00", "lat": 31.7683, "lon": 35.2137, "intensity": 0.8, "source": "Tagesschau"}, {"title": "853 Hinrichtungen im Iran im Jahr 2023", "url": "https://www.tagesschau.de/ausland/asien/amnesty-iran-hinrichtungen-100.html", "thumbnailUrl": "https://images.tagesschau.de/image/a675bf26-7b3f-4f8a-abd8-ecd8f32f8941/AAABjVTIU6k/AAABjcWesUg/16x9-512.jpg", "date": "2024-04-04T02:47:33.181+02:00", "lat": 35.689197, "lon": 51.388973, "intensity": 0.8, "source": "Tagesschau"}, {"title": "NATO-Generalsekret\u00e4r Stoltenberg setzt auf enge Zusammenarbeit von Europa und den USA", "url": "https://www.br.de/nachrichten/meldungen/index.html#n1", "thumbnailUrl": null, "date": "2024-04-04T10:51:09+02:00", "lat": 30.0444, "lon": 31.2357, "intensity": 0.8, "source": "Bayrischer Rundfunk"}, {"title": "Bundeswehr erh\u00e4lt neue Kommandostruktur", "url": "https://www.br.de/nachrichten/meldungen/index.html#n2", "thumbnailUrl": null, "date": "2024-04-04T10:51:09+02:00", "lat": 33.5138, "lon": 36.2021, "intensity": 0.8, "source": "Bayrischer Rundfunk"}, {"title": "Hunderte Polizisten stehen unter Extremismus-Verdacht", "url": "https://www.br.de/nachrichten/meldungen/index.html#n3", "thumbnailUrl": null, "date": "2024-04-04T10:51:09+02:00", "lat": 39.9334, "lon": 32.8597, "intensity": 0.8, "source": "Bayrischer Rundfunk"}, {"title": "Steuerzahlerbund kritisiert Kindergrundsicherung", "url": "https://www.br.de/nachrichten/meldungen/index.html#n4", "thumbnailUrl": null, "date": "2024-04-04T10:51:09+02:00", "lat": 52.520008, "lon": 13.404954, "intensity": 0.7, "source": "Bayrischer Rundfunk"}, {"title": "AfD-Spitzenkandidat legt Bystron Verzicht auf Wahlkampfauftritte nahe", "url": "https://www.br.de/nachrichten/meldungen/index.html#n5", "thumbnailUrl": null, "date": "2024-04-04T10:51:09+02:00", "lat": 52.520008, "lon": 13.404954, "intensity": 0.6, "source": "Bayrischer Rundfunk"}, {"title": "Bei Terroranschlag im Iran werden mindestens 20 Menschen get\u00f6tet", "url": "https://www.br.de/nachrichten/meldungen/index.html#n6", "thumbnailUrl": null, "date": "2024-04-04T10:51:09+02:00", "lat": 48.135125, "lon": 11.581981, "intensity": 0.6, "source": "Bayrischer Rundfunk"}, {"title": "Corona war 2021 die zweith\u00e4ufigste Todesursache", "url": "https://www.br.de/nachrichten/meldungen/index.html#n7", "thumbnailUrl": null, "date": "2024-04-04T10:51:09+02:00", "lat": 50.110922, "lon": 8.682127, "intensity": 0.8, "source": "Bayrischer Rundfunk"}, {"title": "Tarifverhandlungen f\u00fcrs Lufthansa-Kabinenpersonal gehen weiter", "url": "https://www.br.de/nachrichten/meldungen/index.html#n8", "thumbnailUrl": null, "date": "2024-04-04T10:51:09+02:00", "lat": 47.8684, "lon": 12.6394, "intensity": 0.8, "source": "Bayrischer Rundfunk"}, {"title": "In M\u00fcnchen sind wieder mehrere Baustellenfahrzeuge abgebrannt", "url": "https://www.br.de/nachrichten/meldungen/index.html#n9", "thumbnailUrl": null, "date": "2024-04-04T10:51:09+02:00", "lat": 48.5844, "lon": 13.6722, "intensity": 0.8, "source": "Bayrischer Rundfunk"}, {"title": "Das Wetter in Bayern: Teils freundlich, teils bew\u00f6lkt mit Regen", "url": "https://www.br.de/nachrichten/meldungen/index.html#n10", "thumbnailUrl": null, "date": "2024-04-04T10:51:09+02:00", "lat": 53.5396, "lon": 8.5761, "intensity": 0.4, "source": "Bayrischer Rundfunk"}, {"title": "Anklage gegen Berliner Rentner nach mutma\u00dflichem Mord an pflegebed\u00fcrftiger Ehefrau erhoben", "url": "https://www.rbb24.de/panorama/beitrag/2024/04/berlin-hellersdorf-mann-toetet-ehefrau-anklage-mord-pflege.html", "thumbnailUrl": null, "date": "Thu, 04 Apr 2024 10:44:08 +0200", "lat": 52.52, "lon": 13.4049, "intensity": 0.8, "source": "RBB"}, {"title": "Evakuierung vor Bombenentsch\u00e4rfung in Schmargendorf hat begonnen - Ring- und Stadtautobahn betroffen", "url": "https://www.rbb24.de/panorama/beitrag/2024/04/berlin-schmargendorf-wilmersdorf-weltkriegsbombe-entschaerfung-sperrkreis-evakuierung.html", "thumbnailUrl": null, "date": "Thu, 04 Apr 2024 10:34:59 +0200", "lat": 52.5166, "lon": 13.3024, "intensity": 0.8, "source": "RBB"}, {"title": "Oberspreewald-Lausitz: Post kommt im Spreewald ab sofort wieder per Kahn", "url": "https://www.rbb24.de/panorama/beitrag/2024/04/brandenburg-spreewald-lehde-post-kahn-wasser-weg.html", "thumbnailUrl": null, "date": "Thu, 04 Apr 2024 10:32:26 +0200", "lat": 51.5267, "lon": 13.9417, "intensity": 0.5, "source": "RBB"}, {"title": "Eisb\u00e4ren, Volleys, Alba und SC Potsdam: So pr\u00e4sentieren sich die Top-Teams derzeit in den Playoffs", "url": "https://www.rbb24.de/sport/beitrag/2024/04/playoffs-ueberblick-teams-alba-sc-potsdam-eisbaeren-volleys.html", "thumbnailUrl": null, "date": "Thu, 04 Apr 2024 09:01:36 +0200", "lat": 52.52, "lon": 13.405, "intensity": 0.5, "source": "RBB"}, {"title": "Mann stirbt nach Wohnungsbrand in Berlin-Hellersdorf", "url": "https://www.rbb24.de/panorama/beitrag/2024/04/berlin-hellersdorf-wohnung-brand-toter-mann.html", "thumbnailUrl": null, "date": "Thu, 04 Apr 2024 08:22:46 +0200", "lat": 52.5263, "lon": 13.5688, "intensity": 0.7, "source": "RBB"}, {"title": "Nach Einbu\u00dfen im Vorjahr: Werder feiert Baumbl\u00fcte 2024 mit verk\u00fcrztem Stadtfest", "url": "https://www.rbb24.de/panorama/beitrag/2024/04/brandenburg-werder-havel-baumbluetenfest-stadtfest-kuerzer.html", "thumbnailUrl": null, "date": "Thu, 04 Apr 2024 08:08:14 +0200", "lat": 53.074, "lon": 8.809, "intensity": 0.6, "source": "RBB"}, {"title": "Berliner Know-how f\u00fcr Kyjiw: K\u00fcnstliche Beine f\u00fcr ukrainische Kriegsverletzte", "url": "https://www.rbb24.de/panorama/beitrag/2024/04/berlin-prothesen-krieg-ukraine-soldaten.html", "thumbnailUrl": null, "date": "Thu, 04 Apr 2024 07:18:21 +0200", "lat": 50.4501, "lon": 30.5234, "intensity": 0.8, "source": "RBB"}, {"title": "Playoff-Halbfinale: Eisb\u00e4ren schlagen Straubing in drittl\u00e4ngstem Spiel der DEL-Geschichte", "url": "https://www.rbb24.de/sport/beitrag/2024/04/berlin-sport-eishockey-del-halbfinale-straubing-tigers-eisbaeren-spiel-zwei.html", "thumbnailUrl": null, "date": "Thu, 04 Apr 2024 07:08:00 +0200", "lat": 51.511213, "lon": 12.47794, "intensity": 0.7, "source": "RBB"}, {"title": "Auslegungsfrist endet: Erweiterungsplan des Tesla-Werks liegt noch am Donnerstag aus", "url": "https://www.rbb24.de/wirtschaft/beitrag/2024/04/brandenburg-gruenheide-tesla-auslegungsfrist-endet-gueterbahnhof.html", "thumbnailUrl": null, "date": "Thu, 04 Apr 2024 06:35:00 +0200", "lat": 52.517, "lon": 13.3996, "intensity": 0.7, "source": "RBB"}, {"title": "Sieg gegen L\u00fcneburg: BR Volleys stehen im Volleyball-Finale", "url": "https://www.rbb24.de/sport/beitrag/2024/04/berlin-sport-Volleyball-bundesliga-Halbfinale-BR-Volleys-Lueneburg-spiel-drei.html", "thumbnailUrl": null, "date": "Wed, 03 Apr 2024 22:05:00 +0200", "lat": 52.52, "lon": 13.4393, "intensity": 0.7, "source": "RBB"}, {"title": "Volleyball-Bundesliga: SC Potsdam verliert erstes Halbfinale gegen Schwerin", "url": "https://www.rbb24.de/sport/beitrag/2024/04/brandenburg-sport-Volleyball-Bundesliga-Halbfinale-Schwerin-SC-Potsdam.html", "thumbnailUrl": null, "date": "Wed, 03 Apr 2024 21:29:00 +0200", "lat": 52.3906, "lon": 12.7854, "intensity": 0.6, "source": "RBB"}, {"title": "Verdi: Tarifeinigung bei den Asklepios-Fachkliniken erzielt", "url": "https://www.rbb24.de/wirtschaft/beitrag/2024/04/verdi-tarif-asklepios-fachkliniken-tarifeinigung.html", "thumbnailUrl": null, "date": "Wed, 03 Apr 2024 21:21:00 +0200", "lat": 51.3247, "lon": 9.5226, "intensity": 0.6, "source": "RBB"}, {"title": "Video | Freier Eintritt: J\u00fcdisches Kulturschiff \"MS Goldberg\" ist auf Brandenburg-Tour", "url": "https://www.rbb24.de/kultur/beitrag/av7/video-brandenburg-ms-goldberg-juedisches-kulturschiff.html", "thumbnailUrl": null, "date": "Wed, 03 Apr 2024 21:13:34 +0200", "lat": 52.4125, "lon": 13.9536, "intensity": 0.7, "source": "RBB"}, {"title": "Hertha BSC zu Gast beim SC Paderborn: Das Duell der Konjunktiv-Klubs", "url": "https://www.rbb24.de/sport/beitrag/2024/04/berlin-sport-fussball-hertha-bsc-sc-paderborn-vorbericht.html", "thumbnailUrl": null, "date": "Wed, 03 Apr 2024 18:36:00 +0200", "lat": 51.7208, "lon": 8.7586, "intensity": 0.4, "source": "RBB"}, {"title": "Umweltsenatorin Schreiner: Mischwald-Programm in Berliner Forsten soll nicht fortgesetzt werden", "url": "https://www.rbb24.de/politik/beitrag/2024/04/umweltsenatorin-schreiner-waldumbau-pruefung-mischwald-programm.html", "thumbnailUrl": null, "date": "Wed, 03 Apr 2024 18:02:00 +0200", "lat": 52.52, "lon": 13.405, "intensity": 0.6, "source": "RBB"}, {"title": "Lkw-Fahrer bei Unfall auf dem s\u00fcdlichen Berliner Ring schwer verletzt", "url": "https://www.rbb24.de/panorama/beitrag/2024/04/brandenburg-a10-berliner-ring-schwerer-verkehrsunfall-niederlehme.html", "thumbnailUrl": null, "date": "Wed, 03 Apr 2024 17:07:00 +0200", "lat": 52.4392, "lon": 13.5566, "intensity": 0.8, "source": "RBB"}, {"title": "Wie kommerzielle Anbieter mit Terminen beim Berliner Einwanderungsamt handeln", "url": "https://www.rbb24.de/politik/beitrag/2024/04/berlin-terminhandel-landesamt-fuer-einwanderung-bots-termine.html", "thumbnailUrl": null, "date": "Wed, 03 Apr 2024 17:05:00 +0200", "lat": 52.5192, "lon": 13.4073, "intensity": 0.8, "source": "RBB"}, {"title": "Rettungskr\u00e4fte brechen Suche nach mutma\u00dflichen Vermissten am Badesee bei Cottbus ab", "url": "https://www.rbb24.de/panorama/beitrag/2024/04/brandenburg-cottbus-badesee-rettung-einsatz-vermisster-angler.html", "thumbnailUrl": null, "date": "Wed, 03 Apr 2024 16:28:57 +0200", "lat": 51.7562, "lon": 13.4085, "intensity": 0.8, "source": "RBB"}, {"title": "Berliner Immobilien-Managerin wegen Betruges verurteilt", "url": "https://www.rbb24.de/panorama/beitrag/2024/04/office-managerin-betrug-130000-urteil-landgericht.html", "thumbnailUrl": null, "date": "Wed, 03 Apr 2024 16:20:31 +0200", "lat": 52.520008, "lon": 13.404954, "intensity": 0.7, "source": "RBB"}, {"title": "Regionalliga Nordost: Wie Markus Zschiesche den SV Babelsberg formt \u2013 und es ab Sommer f\u00fcr ihn weitergeht", "url": "https://www.rbb24.de/sport/beitrag/2024/04/brandenburg-potsdam-sport-fussball-regionalliga-nordost-sv-babelsberg-tebe-berlin-markus-zschiesche.html", "thumbnailUrl": null, "date": "Wed, 03 Apr 2024 15:57:00 +0200", "lat": 52.3917, "lon": 13.0667, "intensity": 0.6, "source": "RBB"}, {"title": "Gr\u00fcnheide: Wasserverband bekr\u00e4ftigt Nein zu Tesla-Erweiterungspl\u00e4nen", "url": "https://www.rbb24.de/wirtschaft/beitrag/2024/04/brandenburg-tesla-erweiterung-wse-ablehnung.html", "thumbnailUrl": null, "date": "Wed, 03 Apr 2024 15:46:00 +0200", "lat": 52.4315, "lon": 13.7673, "intensity": 0.7, "source": "RBB"}, {"title": "Ermittlungen gegen Fahrer nach t\u00f6dlichem Motorradunfall auf Berliner Stadtautobahn", "url": "https://www.rbb24.de/panorama/beitrag/2024/04/toedlicher-motorradunfall-a100-berlin-stadtautobahn-ermittlungen-gegen-fahrer.html", "thumbnailUrl": null, "date": "Wed, 03 Apr 2024 15:21:07 +0200", "lat": 52.52, "lon": 13.4069, "intensity": 0.8, "source": "RBB"}, {"title": "Drei Jahre nach Mord an Kosmetikerin in Berlin: Tatverd\u00e4chtiger festgenommen", "url": "https://www.rbb24.de/panorama/beitrag/2024/04/mord-kosmetikerin-festnahme-tatverdaechtiger-charlottenburg.html", "thumbnailUrl": null, "date": "Wed, 03 Apr 2024 14:48:00 +0200", "lat": 52.52, "lon": 13.405, "intensity": 0.7, "source": "RBB"}, {"title": "Kulturst\u00e4tte YAAM kann f\u00fcr mehrere Jahrzehnte an der Schillingbr\u00fccke in Berlin-Friedrichshain bleiben - Mietvertrag unterzeichnet", "url": "https://www.rbb24.de/kultur/beitrag/2024/04/yaam-standort-gesichert-berlin-friedrichshain-subkultur-freizeitstaette.html", "thumbnailUrl": null, "date": "Wed, 03 Apr 2024 14:01:00 +0200", "lat": 52.5145, "lon": 13.4408, "intensity": 0.7, "source": "RBB"}, {"title": "MS Goldberg: J\u00fcdisches Kulturschiff startet in Eisenh\u00fcttenstadt in neue Spielzeit", "url": "https://www.rbb24.de/kultur/beitrag/2024/04/brandenburg-saisonauftakt-juedisches-kulturschiff-eisenhuettenstadt.html", "thumbnailUrl": null, "date": "Wed, 03 Apr 2024 12:31:26 +0200", "lat": 52.1462, "lon": 14.6392, "intensity": 0.7, "source": "RBB"}, {"title": "Mutma\u00dfliche \u00dcbergriffe durch Lehrer stuft Innenministerium als ausl\u00e4nderfeindlich ein", "url": "https://www.rbb24.de/politik/beitrag/2024/04/brandenburg-cottbus-innenministerium-einstufung-uebergriffe-lehrer-auslaenderfeindlich.html", "thumbnailUrl": null, "date": "Wed, 03 Apr 2024 12:29:00 +0200", "lat": 51.7562, "lon": 14.3356, "intensity": 0.8, "source": "RBB"}, {"title": "Hemmschwelle sinkt: Ostdeutsche Sch\u00fclerr\u00e4te warnen vor Rechtsextremismus an Schulen", "url": "https://www.rbb24.de/panorama/beitrag/2024/04/ostdeutschland-brandenburg-schule-schuelerraete-warnung-rechtsextremismus.html", "thumbnailUrl": null, "date": "Wed, 03 Apr 2024 11:47:00 +0200", "lat": 51.337908, "lon": 12.496365, "intensity": 0.7, "source": "RBB"}, {"title": "Agrarpolitik in Brandenburg: Ostdeutsche Landwirte fordern Verkauf von bundeseigenen Agrarfl\u00e4chen", "url": "https://www.rbb24.de/wirtschaft/beitrag/2024/04/ostdeutsche-bauern-fordern-von-bund-weiteren-verkauf-flaechen.html", "thumbnailUrl": null, "date": "Wed, 03 Apr 2024 10:11:41 +0200", "lat": 52.4125, "lon": 13.6416, "intensity": 0.7, "source": "RBB"}, {"title": "W\u00f6lfe: Brandenburger J\u00e4ger dr\u00e4ngen auf baldige Einf\u00fchrung von Schnellabsch\u00fcssen", "url": "https://www.rbb24.de/panorama/beitrag/2024/04/jaeger-fordern-zuegige-regelung-fuer-schnellabschuesse-von-woelf.html", "thumbnailUrl": null, "date": "Wed, 03 Apr 2024 08:44:58 +0200", "lat": 52.5131, "lon": 13.4803, "intensity": 0.7, "source": "RBB"}, {"title": "Corona-Sp\u00e4tfolgen: Berliner Clubs k\u00e4mpfen mit finanziellen Schwierigkeiten", "url": "https://www.rbb24.de/wirtschaft/beitrag/2024/04/berlin-club-sommer-betreiber-finanzen-probleme-clubcommission.html", "thumbnailUrl": null, "date": "Wed, 03 Apr 2024 07:43:49 +0200", "lat": 52.52, "lon": 13.4066, "intensity": 0.8, "source": "RBB"}, {"title": "Sanierung: DB-Reisezentrum im Berliner Hauptbahnhof zieht vor\u00fcbergehend um", "url": "https://www.rbb24.de/wirtschaft/beitrag/2024/04/berlin-hauptbahnhof-db-reisezentrum-zieht-um.html", "thumbnailUrl": null, "date": "Wed, 03 Apr 2024 06:34:00 +0200", "lat": 52.525, "lon": 13.369, "intensity": 0.5, "source": "RBB"}, {"title": "Sieg gegen Schaffhausen: F\u00fcchse ziehen souver\u00e4n ins Viertelfinale der European League ein", "url": "https://www.rbb24.de/sport/beitrag/2024/04/berlin-sport-handball-european-league-playoff-rueckspiel-fuechse-schaffhausen-spielbericht.html", "thumbnailUrl": null, "date": "Tue, 02 Apr 2024 22:22:00 +0200", "lat": 47.706, "lon": 8.571, "intensity": 0.6, "source": "RBB"}, {"title": "Video | Neues Format: Aus rbbKultur wird radio3", "url": "https://www.rbb24.de/panorama/beitrag/av7/video-berlin-brandenburg-rbbkultur-wird-zu-radio3-umbenennung-programmaenderung-rbb.html", "thumbnailUrl": null, "date": "Tue, 02 Apr 2024 21:33:14 +0200", "lat": 52.520008, "lon": 13.404954, "intensity": 0.5, "source": "RBB"}, {"title": "Osterfeiertage: Fast 10.000 Besucher beim Anbaden im Strandbad Wannsee", "url": "https://www.rbb24.de/panorama/beitrag/2024/04/anbaden-strandbad-berlin-wannsee-10000-besucher-ostern.html", "thumbnailUrl": null, "date": "Tue, 02 Apr 2024 21:01:00 +0200", "lat": 52.4372, "lon": 13.1848, "intensity": 0.7, "source": "RBB"}, {"title": "Tesla macht Brandanschlag in Gr\u00fcnheide f\u00fcr Absatzr\u00fcckgang mitverantwortlich", "url": "https://www.rbb24.de/wirtschaft/beitrag/2024/04/tesla-absatz-sinkt-acht-prozent-musk-gruenheide-brandanschlag.html", "thumbnailUrl": null, "date": "Tue, 02 Apr 2024 19:21:00 +0200", "lat": 52.3791, "lon": 13.7534, "intensity": 0.8, "source": "RBB"}, {"title": "Video: Union Berlin entf\u00fchrt einen Punkt aus Frankfurt", "url": "https://www.rbb24.de/sport/beitrag/av7/video-fussball-berlin-1-fc-union-bundesliga-eintracht-frankfurt.html", "thumbnailUrl": null, "date": "Mon, 01 Apr 2024 00:00:00 +0200", "lat": 52.457778, "lon": 13.494167, "intensity": 0.7, "source": "RBB"}, {"title": "Video: Hertha und N\u00fcrnberg trennen sich nach furiosem Spiel mit 3:3", "url": "https://www.rbb24.de/sport/beitrag/av7/video-fussball-berlin-hertha-bsc-zweite-bundesliga-1-fc-nuernberg.html", "thumbnailUrl": null, "date": "Mon, 01 Apr 2024 00:00:00 +0200", "lat": 52.52, "lon": 13.5007, "intensity": 0.8, "source": "RBB"}, {"title": "Video | Spreewald: Sorbische Ostern", "url": "https://www.rbb24.de/panorama/beitrag/av7/video-sorbisch-ostern-ostersingen-tradition.html", "thumbnailUrl": null, "date": "Sun, 31 Mar 2024 21:40:56 +0200", "lat": 51.8667, "lon": 14.0833, "intensity": 0.2, "source": "RBB"}, {"title": "Video | Baustopp: Wie es um das Bauprojekt \"Upside Berlin\" steht", "url": "https://www.rbb24.de/panorama/beitrag/av7/video-baustopp-hochhaeuser-friedrichshain-berlin.html", "thumbnailUrl": null, "date": "Fri, 29 Mar 2024 21:13:11 +0100", "lat": 52.466, "lon": 13.739, "intensity": 0.8, "source": "RBB"}, {"title": "Video | Lost Place Fotografie: Auf den Spuren der Tuberkuloseklinik Kolkwitz", "url": "https://www.rbb24.de/panorama/beitrag/av7/video-lost-place-fotografie-kunst-verborgen.html", "thumbnailUrl": null, "date": "Fri, 29 Mar 2024 20:57:05 +0100", "lat": 51.751525, "lon": 14.323335, "intensity": 0.7, "source": "RBB"}, {"title": "Video | Frankfurt-Oder: Experimentelles Ballett im Kleist Forum", "url": "https://www.rbb24.de/kultur/beitrag/av7/video-kleist-ballett-tanz-kultur-kunst.html", "thumbnailUrl": null, "date": "Fri, 29 Mar 2024 20:50:15 +0100", "lat": 52.3412, "lon": 14.5471, "intensity": 0.4, "source": "RBB"}, {"title": "Wohnungsbau: Hamburg will Bauordnung vereinfachen", "url": "https://www.ndr.de/nachrichten/hamburg/Wohnungsbau-Hamburg-will-Bauordnung-vereinfachen,bau220.html", "thumbnailUrl": "https://www.ndr.de/nachrichten/hamburg/baustelle936_v-contentwidescreen.jpg", "date": "2024-04-04T11:00:42.744+02:00", "lat": 53.5511, "lon": 9.9937, "intensity": 0.6, "source": "NDR"}, {"title": "Neuer Negativ-Rekord in Mecklenburg-Vorpommern bei Trickbetrug", "url": "https://www.ndr.de/nachrichten/mecklenburg-vorpommern/Neuer-Negativ-Rekord-in-Mecklenburg-Vorpommern-bei-Trickbetrug,trickbetrug252.html", "thumbnailUrl": "https://www.ndr.de/nachrichten/hamburg/telefon294_v-contentwidescreen.jpg", "date": "2024-04-04T07:03:18.352+02:00", "lat": 53.61265, "lon": 12.526206, "intensity": 0.8, "source": "NDR"}, {"title": "Strandkorb gebraucht kaufen: Wo das geht und was es kostet", "url": "https://www.ndr.de/nachrichten/schleswig-holstein/Strandkorb-gebraucht-kaufen-Wo-das-geht-und-was-es-kostet,strandkorb756.html", "thumbnailUrl": "https://www.ndr.de/nachrichten/schleswig-holstein/strandkorb758_v-contentwidescreen.jpg", "date": "2024-04-04T07:31:51.569+02:00", "lat": 53.5511, "lon": 10.4234, "intensity": 0.6, "source": "NDR"}, {"title": "A7 in Hamburg: Vollsperrung des Elbtunnels am Wochenende", "url": "https://www.ndr.de/nachrichten/hamburg/A7-in-Hamburg-Vollsperrung-des-Elbtunnels-am-Wochenende,asieben594.html", "thumbnailUrl": "https://www.ndr.de/nachrichten/hamburg/autobahnsieben166_v-contentwidescreen.jpg", "date": "2024-04-03T15:10:00.767+02:00", "lat": 53.5446, "lon": 9.90202, "intensity": 0.7, "source": "NDR"}, {"title": "Heute vor 15 Jahren: Als Wolfsburgs Grafite die Bayern dem\u00fctigte", "url": "https://www.ndr.de/sport/fussball/Heute-vor-15-Jahren-Als-Grafite-vom-VfL-Wolfsburg-FC-Bayern-demuetigte,wolfsburg19616.html", "thumbnailUrl": "https://www.ndr.de/sport/fussball/wolfsburg19624_v-contentwidescreen.jpg", "date": "2024-04-04T08:29:57.770+02:00", "lat": 52.4226, "lon": 10.7895, "intensity": 0.8, "source": "NDR"}, {"title": "NDR Info live: Wie sicher sind Busreisen?", "url": "https://www.ndr.de/nachrichten/info/NDR-Info-live-Wie-sicher-sind-Busreisen,ndrinfolive160.html", "thumbnailUrl": "https://www.ndr.de/nachrichten/info/unfall18536_v-contentwidescreen.jpg", "date": "2024-04-04T00:00:00.804+02:00", "lat": 53.5511, "lon": 9.9937, "intensity": 0.7, "source": "NDR"}, {"title": "Ein Jahr nach Ende der Pandemie: Was hat Corona mit uns gemacht?", "url": "https://www.ndr.de/nachrichten/info/Ein-Jahr-nach-Ende-der-Pandemie-Was-hat-Corona-mit-uns-gemacht,ndrinforedezeit450.html", "thumbnailUrl": "https://www.ndr.de/nachrichten/info/corona11564_v-contentwidescreen.jpg", "date": "2024-04-03T22:05:42.351+02:00", "lat": 53.5511, "lon": 10.0012, "intensity": 0.5, "source": "NDR"}, {"title": "A1: Lkw mit Bierkisten kippt um - Autobahn bei Stuhr gesperrt", "url": "https://www.ndr.de/nachrichten/niedersachsen/oldenburg_ostfriesland/A1-Lkw-mit-Bierkisten-kippt-um-Autobahn-bei-Stuhr-gesperrt,aktuelloldenburg15300.html", "thumbnailUrl": "https://www.ndr.de/nachrichten/niedersachsen/oldenburg_ostfriesland/stuhr394_v-contentwidescreen.jpg", "date": "2024-04-04T10:42:39.722+02:00", "lat": 53.0241, "lon": 8.7646, "intensity": 0.7, "source": "NDR"}, {"title": "Lettland k\u00f6nnte bei Digitalisierung Vorbild f\u00fcr Hamburg werden", "url": "https://www.ndr.de/nachrichten/hamburg/Lettland-koennte-bei-Digitalisierung-Vorbild-fuer-Hamburg-werden,leonhard406.html", "thumbnailUrl": "https://www.ndr.de/nachrichten/hamburg/leonhard408_v-contentwidescreen.jpg", "date": "2024-04-04T09:44:23.354+02:00", "lat": 56.9496, "lon": 24.6032, "intensity": 0.8, "source": "NDR"}, {"title": "Ausbau von S\u00fcdschnellweg: B3 in Hannover heute Abend gesperrt", "url": "https://www.ndr.de/nachrichten/niedersachsen/hannover_weser-leinegebiet/Ausbau-von-Suedschnellweg-B3-in-Hannover-heute-Abend-gesperrt,suedschnellweg220.html", "thumbnailUrl": "https://www.ndr.de/nachrichten/niedersachsen/hannover_weser-leinegebiet/suedschnellweg218_v-contentwidescreen.jpg", "date": "2024-04-04T07:48:05.254+02:00", "lat": 52.375892, "lon": 9.73201, "intensity": 0.7, "source": "NDR"}, {"title": "Nach Tod bei Osterfeuer: Warnte Feuerwehr die Besucher vor Baum?", "url": "https://www.ndr.de/nachrichten/niedersachsen/hannover_weser-leinegebiet/Nach-Tod-bei-Osterfeuer-Warnte-Feuerwehr-die-Besucher-vor-Baum,beckedorf118.html", "thumbnailUrl": "https://www.ndr.de/nachrichten/niedersachsen/hannover_weser-leinegebiet/beckedorf122_v-contentwidescreen.jpg", "date": "2024-04-04T09:04:51.970+02:00", "lat": 52.5789, "lon": 9.4127, "intensity": 0.8, "source": "NDR"}, {"title": "\u00d6kolandbau in Deutschland: SH rangiert auf hinteren Pl\u00e4tzen", "url": "https://www.ndr.de/nachrichten/schleswig-holstein/Oekolandbau-in-Deutschland-SH-rangiert-auf-hinteren-Plaetzen,oekolandbau162.html", "thumbnailUrl": "https://www.ndr.de/nachrichten/schleswig-holstein/kuh722_v-contentwidescreen.jpg", "date": "2024-04-03T19:29:01.177+02:00", "lat": 54.3233, "lon": 10.4515, "intensity": 0.6, "source": "NDR"}, {"title": "Nach t\u00f6dlichen Sch\u00fcssen in Nienburg: Polizei sichtet Videoaufnahmen", "url": "https://www.ndr.de/nachrichten/niedersachsen/hannover_weser-leinegebiet/Nach-toedlichen-Schuessen-in-Nienburg-Polizei-sichtet-Videoaufnahmen,nienburg404.html", "thumbnailUrl": "https://www.ndr.de/nachrichten/niedersachsen/nienburg390_v-contentwidescreen.jpg", "date": "2024-04-03T21:12:51.656+02:00", "lat": 52.6363, "lon": 9.1554, "intensity": 0.8, "source": "NDR"}, {"title": "Neue Rettungswache Schwansen verk\u00fcrzt Einsatzfahrten deutlich", "url": "https://www.ndr.de/nachrichten/schleswig-holstein/Neue-Rettungswache-Schwansen-fuer-bessere-Notfallversorgung,rwdamp100.html", "thumbnailUrl": "https://www.ndr.de/nachrichten/schleswig-holstein/rwdamp118_v-contentwidescreen.jpg", "date": "2024-04-03T20:13:14.285+02:00", "lat": 54.4369, "lon": 10.0191, "intensity": 0.8, "source": "NDR"}, {"title": "Prozess gegen \"Maddie\"-Verd\u00e4chtigen: Zeuge belastet Angeklagten B.", "url": "https://www.ndr.de/nachrichten/niedersachsen/braunschweig_harz_goettingen/Prozess-gegen-Maddie-Verdaechtigen-Zeuge-belastet-Angeklagten-B,aktuellbraunschweig12602.html", "thumbnailUrl": "https://www.ndr.de/nachrichten/niedersachsen/braunschweig_harz_goettingen/prozess8936_v-contentwidescreen.jpg", "date": "2024-04-04T10:21:29.109+02:00", "lat": 52.2689, "lon": 10.5269, "intensity": 0.8, "source": "NDR"}, {"title": "Philipp Amthor soll CDU-Generalsekret\u00e4r in MV werden", "url": "https://www.ndr.de/nachrichten/mecklenburg-vorpommern/Philipp-Amthor-soll-CDU-Generalsekretaer-in-MV-werden,amthorcdu100.html", "thumbnailUrl": "https://www.ndr.de/nachrichten/mecklenburg-vorpommern/amthor188_v-contentwidescreen.jpg", "date": "2024-04-03T20:31:39.446+02:00", "lat": 53.6127, "lon": 12.6199, "intensity": 0.5, "source": "NDR"}, {"title": "Landesgartenschau Bad Gandersheim: Gesellschaft insolvent", "url": "https://www.ndr.de/nachrichten/niedersachsen/braunschweig_harz_goettingen/Landesgartenschau-Bad-Gandersheim-Gesellschaft-insolvent,laga184.html", "thumbnailUrl": "https://www.ndr.de/nachrichten/niedersachsen/braunschweig_harz_goettingen/landesgartenschau1298_v-contentwidescreen.jpg", "date": "2024-04-04T10:42:54.286+02:00", "lat": 51.8719, "lon": 10.0346, "intensity": 0.8, "source": "NDR"}, {"title": "Wann kommt die neue Br\u00fccke \u00fcber die Hunte? Wirtschaft macht Druck", "url": "https://www.ndr.de/nachrichten/niedersachsen/oldenburg_ostfriesland/Wann-kommt-die-neue-Bruecke-ueber-die-Hunte-Wirtschaft-macht-Druck,huntebruecke198.html", "thumbnailUrl": "https://www.ndr.de/nachrichten/niedersachsen/oldenburg_ostfriesland/huntebruecke186_v-contentwidescreen.jpg", "date": "2024-04-03T18:15:29.135+02:00", "lat": 53.2361, "lon": 8.4209, "intensity": 0.7, "source": "NDR"}, {"title": "Hass im Netz auf Politiker: \"Das muss man transparent machen\"", "url": "https://www.ndr.de/nachrichten/info/Hass-im-Netz-auf-Politiker-Das-muss-man-transparent-machen,audio1607084.html", "thumbnailUrl": "https://www.ndr.de/nachrichten/info/berghegger104_v-contentwidescreen.jpg", "date": "2024-04-04T09:02:56.514+02:00", "lat": 48.135125, "lon": 11.58198, "intensity": 0.7, "source": "NDR"}, {"title": "Einbruchserie: Tatverd\u00e4chtiger ist der Polizei bekannt", "url": "https://www.ndr.de/fernsehen/sendungen/schleswig-holstein_magazin/Einbruchserie-Tatverdaechtiger-ist-der-Polizei-bekannt-,shmag115124.html", "thumbnailUrl": "https://www.ndr.de/fernsehen/screenshot1726342_v-contentwidescreen.jpg", "date": "2024-04-03T21:00:05.690+02:00", "lat": 54.7937, "lon": 10.4262, "intensity": 0.8, "source": "NDR"}, {"title": "G\u00f6ttingen: Viele Pflege-Azubis kommen aus dem Ausland", "url": "https://www.ndr.de/fernsehen/sendungen/hallo_niedersachsen/Goettingen-Viele-Pflege-Azubis-kommen-aus-dem-Ausland,hallonds86700.html", "thumbnailUrl": "https://www.ndr.de/fernsehen/screenshot1726502_v-contentwidescreen.jpg", "date": "2024-04-03T20:22:18.216+02:00", "lat": 51.5416, "lon": 9.9357, "intensity": 0.4, "source": "NDR"}, {"title": "Kirschbl\u00fctenfest: Feuerwerk \u00fcber der Alster f\u00e4llt aus", "url": "https://www.ndr.de/fernsehen/sendungen/hamburg_journal_1800/Kirschbluetenfest-Feuerwerk-ueber-der-Alster-faellt-aus,hamj145716.html", "thumbnailUrl": "https://www.ndr.de/fernsehen/screenshot1726258_v-contentwidescreen.jpg", "date": "2024-04-03T18:29:48.845+02:00", "lat": 53.5503, "lon": 10.0089, "intensity": 0.6, "source": "NDR"}, {"title": "Prozessbeginn: T\u00f6dliche Sch\u00fcsse vor Shisha-Bar in Hamburg-Sasel", "url": "https://www.ndr.de/nachrichten/info/Prozessbeginn-Toedliche-Schuesse-vor-Shishabar-in-Hamburg-Sasel,ndrinfo58114.html", "thumbnailUrl": "https://www.ndr.de/fernsehen/screenshot1726188_v-contentwidescreen.jpg", "date": "2024-04-03T17:48:05.689+02:00", "lat": 53.6469, "lon": 10.1144, "intensity": 0.8, "source": "NDR"}, {"title": "Goslar r\u00fcckt Schlagl\u00f6chern mit KI zu Leibe", "url": "https://www.ndr.de/nachrichten/info/Goslar-rueckt-Schlagloechern-mit-KI-zu-Leibe,ndrinfo58098.html", "thumbnailUrl": "https://www.ndr.de/fernsehen/screenshot1726114_v-contentwidescreen.jpg", "date": "2024-04-03T14:18:52.807+02:00", "lat": 51.90357, "lon": 10.42906, "intensity": 0.7, "source": "NDR"}, {"title": "\"W\u00fcnsch Dir Deinen NDR\" - Jetzt f\u00fcr die Publikumsaktion bewerben!", "url": "https://www.ndr.de/wuensch_dir_deinen_ndr/index.html", "thumbnailUrl": "https://www.ndr.de/der_ndr/wunschprogramm131_v-contentwidescreen.jpg", "date": "2024-03-26T07:59:24.876+01:00", "lat": 53.551086, "lon": 9.993682, "intensity": 0.2, "source": "NDR"}, {"title": "Relaunch der vier NDR L\u00e4nder-Apps: Nachrichten aus Ihrer Region!", "url": "https://www.ndr.de/Relaunch-der-vier-NDR-Laender-Apps-Nachrichten-aus-Ihrer-Region,laenderapprelaunch100.html", "thumbnailUrl": "https://www.ndr.de/laenderapprelaunch102_v-contentwidescreen.jpg", "date": "2024-03-19T09:22:34.719+01:00", "lat": 53.8659, "lon": 9.8606, "intensity": 0.4, "source": "NDR"}, {"title": "Gaspreis Dashboard", "url": "https://www.ndr.de/home/gaspreis176.html", "thumbnailUrl": null, "date": "2023-04-06T14:49:06.409+02:00", "lat": 51.3426, "lon": 9.9976, "intensity": 0.7, "source": "NDR"}, {"title": "NDR Radioprogramme", "url": "https://www.ndr.de/radio/radiologobox100.html", "thumbnailUrl": null, "date": "2020-12-01T14:04:26.700+01:00", "lat": 53.5511, "lon": 9.9937, "intensity": 0.3, "source": "NDR"}, {"title": "Krieg und Terror - Die Lage im Nahen Osten und in der Ukraine", "url": "https://www.ndr.de/nachrichten/info/podcast5342.html", "thumbnailUrl": "https://www.ndr.de/nachrichten/info/podcastbild412_v-contentwidescreen.jpg", "date": "2024-04-04T08:00:44.446+02:00", "lat": 46.79651, "lon": 30.739834, "intensity": 0.8, "source": "NDR"}, {"title": "Die Ern\u00e4hrungs-Docs - Essen als Medizin", "url": "https://www.ndr.de/fernsehen/sendungen/die-ernaehrungsdocs/audio-podcast/index.html", "thumbnailUrl": "https://www.ndr.de/fernsehen/sendungen/die-ernaehrungsdocs/podcastbild338_v-contentwidescreen.jpg", "date": "2024-03-27T08:00:08.131+01:00", "lat": 53.5511, "lon": 9.9876, "intensity": 0.3, "source": "NDR"}, {"title": "Unsere Comedy \"Die Kur-Oase\"!", "url": "https://www.ndr.de/ndr2/podcasts/podcast5816.html", "thumbnailUrl": "https://www.ndr.de/ndr2/podcasts/podcast5812_v-contentwidescreen.jpg", "date": "2024-04-04T07:15:06.194+02:00", "lat": 54.9069, "lon": 8.7386, "intensity": 0.2, "source": "NDR"}, {"title": "Organisiertes Verbrechen - Recherchen im Verborgenen", "url": "https://www.ndr.de/nachrichten/info/podcast4992.html", "thumbnailUrl": "https://www.ndr.de/nachrichten/info/podcastbildov100_v-contentwidescreen.jpg", "date": "2024-03-01T06:00:27.490+01:00", "lat": 45.9432, "lon": 24.9668, "intensity": 0.8, "source": "NDR"}, {"title": "eat.READ.sleep. B\u00fccher f\u00fcr dich", "url": "https://www.ndr.de/kultur/sendungen/eat_read_sleep/index.html", "thumbnailUrl": "https://www.ndr.de/mediathek/podcastbild434_v-contentwidescreen.jpg", "date": "2024-03-29T06:00:20.892+01:00", "lat": 53.5511, "lon": 9.9937, "intensity": 0.2, "source": "NDR"}, {"title": "Killed in Action: Afghanistan - Mission ohne Ziel", "url": "https://www.ndr.de/nachrichten/info/sendungen/podcast4574.html", "thumbnailUrl": "https://www.ndr.de/nachrichten/info/podcasts/podcastbild478_v-contentwidescreen.jpg", "date": "2024-02-16T17:44:01.214+01:00", "lat": 33.9391, "lon": 66.2385, "intensity": 0.8, "source": "NDR"}, {"title": "Streitkr\u00e4fte und Strategien", "url": "https://www.ndr.de/nachrichten/info/podcast2998.html", "thumbnailUrl": "https://www.ndr.de/mediathek/mediathekbild566_v-contentwidescreen.jpg", "date": "2024-04-02T16:00:06.249+02:00", "lat": 53.5511, "lon": 9.9937, "intensity": 0.8, "source": "NDR"}, {"title": "Standpunkte", "url": "https://www.ndr.de/nachrichten/info/podcast4700.html", "thumbnailUrl": "https://www.ndr.de/mediathek/podcast5332_v-contentwidescreen.jpg", "date": "2024-04-04T00:01:07.808+02:00", "lat": 53.5511, "lon": 9.9937, "intensity": 0.5, "source": "NDR"}, {"title": "Mein Einsatz - der Feuerwehr-Podcast von NDR Niedersachsen", "url": "https://www.ndr.de/ndr1niedersachsen/podcast5774.html", "thumbnailUrl": "https://www.ndr.de/ndr1niedersachsen/podcasts/podcastbild364_v-contentwidescreen.jpg", "date": "2024-03-28T04:00:07.923+01:00", "lat": 52.3759, "lon": 9.7345, "intensity": 0.7, "source": "NDR"}, {"title": "\"Feel Hamburg\" - alle Folgen", "url": "https://www.ndr.de/903/podcasts/podcast5108.html", "thumbnailUrl": "https://www.ndr.de/mediathek/mediathekbild514_v-contentwidescreen.jpg", "date": "2024-04-03T05:00:09.975+02:00", "lat": 53.55, "lon": 10.0, "intensity": 0.4, "source": "NDR"}, {"title": "Intensiv-Station - Satire von NDR Info", "url": "https://www.ndr.de/nachrichten/info/podcast4274.html", "thumbnailUrl": "https://www.ndr.de/nachrichten/info/programm/intensivstation3272_v-contentwidescreen.jpg", "date": "2024-03-25T22:56:23.803+01:00", "lat": 54.3706, "lon": 10.5038, "intensity": 0.8, "source": "NDR"}, {"title": "Amerika, wir m\u00fcssen reden!", "url": "https://www.ndr.de/nachrichten/info/podcast4932.html", "thumbnailUrl": "https://www.ndr.de/nachrichten/info/podcastbild488_v-contentwidescreen.jpg", "date": "2024-04-03T18:15:10.308+02:00", "lat": 39.78373, "lon": -100.445882, "intensity": 0.7, "source": "NDR"}, {"title": "Mit Eisenstange bewaffnet: Polizei erschie\u00dft Mann in Dortmund", "url": "https://www1.wdr.de/nachrichten/mann-dortmund-randalierer-reinoldikirche-niedergeschossen-100.html", "thumbnailUrl": null, "date": "2024-04-04T08:55:04Z", "lat": 51.5142, "lon": 7.4674, "intensity": 0.8, "source": "WDR"}, {"title": "Nach jahrelanger sexualisierter Gewalt  - Neustart f\u00fcr Campingplatz in L\u00fcgde", "url": "https://www1.wdr.de/nachrichten/westfalen-lippe/campingplatz-luegde-neustart-100.html", "thumbnailUrl": null, "date": "2024-04-04T05:37:20Z", "lat": 51.9871, "lon": 9.2586, "intensity": 0.8, "source": "WDR"}, {"title": "Pistorius' Bundeswehr-Reformpl\u00e4ne: Pistorius stellt Bundeswehr-Pl\u00e4ne vor: Schlanker, schneller, \"kriegst\u00fcchtiger\"", "url": "https://www.tagesschau.de/inland/innenpolitik/reform-bundeswehr-100.html", "thumbnailUrl": null, "date": "2024-04-04T05:27:01Z", "lat": 52.3738, "lon": 9.6819, "intensity": 0.7, "source": "WDR"}, {"title": "20.000 Elefanten f\u00fcr Deutschland: Was hinter dem Angebot aus Botswana steckt", "url": "https://www1.wdr.de/nachrichten/elefanten-botswana-102.html", "thumbnailUrl": null, "date": "2024-04-04T07:12:55Z", "lat": -22.3285, "lon": 24.6849, "intensity": 0.8, "source": "WDR"}, {"title": "Inflation verliert an Tempo: Werden Lebensmittel jetzt dauerhaft billiger?", "url": "https://www1.wdr.de/nachrichten/inflation-preise-lebensmittel-billiger-100.html", "thumbnailUrl": null, "date": "2024-04-03T13:46:21Z", "lat": 53.551086, "lon": 9.993682, "intensity": 0.5, "source": "WDR"}, {"title": "Rattenproblem an G\u00fctersloher Kita", "url": "https://www1.wdr.de/nachrichten/westfalen-lippe/rattenproblem-kita-guetersloh-100.html", "thumbnailUrl": null, "date": "2024-04-04T08:58:25Z", "lat": 51.9645, "lon": 8.5423, "intensity": 0.7, "source": "WDR"}, {"title": "Weiter Probleme mit Stellwerk in M\u00f6nchengladbach - Versp\u00e4tungen und Zugausf\u00e4lle", "url": "https://www1.wdr.de/nachrichten/rheinland/stellwerk-probleme-moenchenglabdach-100.html", "thumbnailUrl": null, "date": "2024-04-04T08:53:01Z", "lat": 51.1805, "lon": 6.4328, "intensity": 0.8, "source": "WDR"}, {"title": "Prozessauftakt in Duisburg: Kinderleiche im Rhein-Herne-Kanal versenkt", "url": "https://www1.wdr.de/nachrichten/rheinland/mordanklage-kind-rhein-herne-kanal-verhandlung-100.html", "thumbnailUrl": null, "date": "2024-04-04T06:52:04Z", "lat": 51.4344, "lon": 6.7744, "intensity": 0.8, "source": "WDR"}, {"title": "Frau von L\u00e4rmschutzwand erschlagen: Anklage gegen drei Beschuldigte", "url": "https://www1.wdr.de/nachrichten/rheinland/frau-laermschutzwand-erschlagen-koeln-prozess-100.html", "thumbnailUrl": null, "date": "2024-04-04T06:53:41Z", "lat": 50.9375, "lon": 6.957, "intensity": 0.7, "source": "WDR"}, {"title": "Nahost-Krieg: Nahost-Liveblog: ++ UN verurteilen Angriff auf Botschaft nicht ++", "url": "https://www.tagesschau.de/newsticker/liveblog-nahost-donnerstag-122.html", "thumbnailUrl": null, "date": "2024-04-04T02:48:02Z", "lat": 31.7997, "lon": 35.0044, "intensity": 0.8, "source": "WDR"}, {"title": "Get\u00f6tete Helfer im Gazastreifen: Get\u00f6tete Helfer: Israelische Armee spricht von \"schwerem Fehler\"", "url": "https://www.tagesschau.de/ausland/asien/netanyahu-wck-angriff-102.html", "thumbnailUrl": null, "date": "2024-04-03T05:15:02Z", "lat": 31.5226, "lon": 34.4357, "intensity": 1, "source": "WDR"}, {"title": "Angriff auf Botschaft in Syrien: Iran droht Israel nach Angriff auf Botschaft mit Vergeltung", "url": "https://www.tagesschau.de/ausland/asien/iran-vergeltung-100.html", "thumbnailUrl": null, "date": "2024-04-02T16:33:03Z", "lat": 33.5138, "lon": 36.3, "intensity": 0.8, "source": "WDR"}, {"title": "Die wichtigsten Fakten \u00fcber den Gazastreifen", "url": "https://www1.wdr.de/nachrichten/gaza-gazastreifen-israel-hintergrund-100.html", "thumbnailUrl": null, "date": "2023-10-11T15:33:25Z", "lat": 31.5107, "lon": 34.3445, "intensity": 0.8, "source": "WDR"}, {"title": "WDR aktuell Whatsapp-Kanal abonnieren - so geht's", "url": "https://www1.wdr.de/nachrichten/wdr-aktuell-whatsapp-kanal-100.html", "thumbnailUrl": null, "date": "2023-12-22T20:22:52Z", "lat": 51.4818, "lon": 7.6261, "intensity": 0.1, "source": "WDR"}, {"title": "Krieg gegen die Ukraine: Ukraine-Liveblog: ++ Tote nach Luftangriffen auf Charkiw ++", "url": "https://www.tagesschau.de/newsticker/liveblog-ukraine-donnerstag-328.html", "thumbnailUrl": null, "date": "2024-04-04T07:27:02Z", "lat": 49.9935, "lon": 36.230383, "intensity": 0.8, "source": "WDR"}, {"title": "Deutsche Firmen in Mariupol: Deutsche Firmen am russischen Wiederaufbau von Mariupol beteiligt", "url": "https://www.tagesschau.de/investigativ/monitor/ukraine-mariupol-wiederaufbau-russland-100.html", "thumbnailUrl": null, "date": "2024-04-03T16:54:02Z", "lat": 47.0971, "lon": 37.5553, "intensity": 0.8, "source": "WDR"}, {"title": "NATO-Au\u00dfenminister zu Ukraine: Ukraine: NATO will Waffenlieferungen offenbar zentral koordinieren", "url": "https://www.tagesschau.de/ausland/nato-aussenminister-ukraine-fonds-100.html", "thumbnailUrl": null, "date": "2024-04-03T09:03:03Z", "lat": 50.4501, "lon": 30.5234, "intensity": 0.8, "source": "WDR"}, {"title": "Kommt Russland wegen Kriegsverbrechen vor den Internationalen Strafgerichtshof?", "url": "https://www1.wdr.de/nachrichten/kriegsverbrechen-fragen-antworten-100.html", "thumbnailUrl": null, "date": "2024-04-02T16:04:42Z", "lat": 52.0705, "lon": 4.3007, "intensity": 0.8, "source": "WDR"}, {"title": "Rekrutierung in der Ukraine: Rekrutierung in der Ukraine: \"Ich habe ja keine Wahl\"", "url": "https://www.tagesschau.de/ausland/europa/ukraine-rekrutierung-soldaten-100.html", "thumbnailUrl": null, "date": "2024-04-01T02:00:08Z", "lat": 50.4501, "lon": 30.5234, "intensity": 0.7, "source": "WDR"}, {"title": "Ukraine gedenkt der Irpin-Opfer: Suche nach Erinnerungskultur zum Jahrestag der Irpin-Befreiung", "url": "https://www.tagesschau.de/ausland/europa/irpin-bruecke-ukraine-100.html", "thumbnailUrl": null, "date": "2024-03-29T21:36:02Z", "lat": 50.531783, "lon": 30.22409, "intensity": 0.8, "source": "WDR"}, {"title": "Ukraine: Zwischen Krieg und Normalit\u00e4t", "url": "https://www1.wdr.de/mediathek/audio/wdr5/wdr5-mittagsecho/audio-ukraine-zwischen-krieg-und-normalitaet-100.html", "thumbnailUrl": null, "date": "2024-03-27T13:17:56Z", "lat": 50.4501, "lon": 30.5234, "intensity": 0.7, "source": "WDR"}, {"title": "Blutspende unter Hunden: Wenn Haustiere sich gegenseitig helfen", "url": "https://www1.wdr.de/nachrichten/rheinland/hueckeswagen-blutspende-hunde-108.html", "thumbnailUrl": null, "date": "2024-04-04T08:52:05Z", "lat": 51.1595, "lon": 7.3324, "intensity": 0.7, "source": "WDR"}, {"title": "Nach Verhandlung mit Amazon: Stadt-Mitarbeiter in Horn-Bad Meinberg nach \u00f6ffentlichen Beleidigungen krank geschrieben", "url": "https://www1.wdr.de/nachrichten/westfalen-lippe/horn-bad-meinberg-streit-amazon-wirtschaftsfoerderer-100.html", "thumbnailUrl": null, "date": "2024-04-04T07:48:04Z", "lat": 51.8774, "lon": 8.8547, "intensity": 0.6, "source": "WDR"}, {"title": "NRW-Kriminalstatistik 2023: Mehr Straftaten und mehr junge Tatverd\u00e4chtige", "url": "https://www1.wdr.de/nachrichten/landespolitik/kriminalitaetsstatistik-nrw-reul-100.html", "thumbnailUrl": null, "date": "2024-04-04T07:13:34Z", "lat": 51.8133, "lon": 7.6261, "intensity": 0.8, "source": "WDR"}, {"title": "Betrug bei Studenten in Dortmund: Kein WG-Zimmer trotz Mietvertrag und Zahlung", "url": "https://www1.wdr.de/nachrichten/ruhrgebiet/dortmund-polizei-warnt-vor-betrugsmasche-studenten-100.html", "thumbnailUrl": null, "date": "2024-04-03T19:07:28Z", "lat": 51.5136, "lon": 7.4686, "intensity": 0.7, "source": "WDR"}, {"title": "Kohlenmonoxid-Austritt in Horn-Bad Meinberg: 18 Menschen verletzt", "url": "https://www1.wdr.de/nachrichten/westfalen-lippe/kohlenmonoxid-horn-bad-meinberg-100.html", "thumbnailUrl": null, "date": "2024-04-03T19:52:57Z", "lat": 51.8844, "lon": 8.9167, "intensity": 0.8, "source": "WDR"}, {"title": "Kommentar: Herbert Reul - der Sheriff ist gescheitert", "url": "https://www1.wdr.de/nachrichten/landespolitik/kriminalitaet-nrw-reul-kommentar-100.html", "thumbnailUrl": null, "date": "2024-04-03T15:56:13Z", "lat": 51.9607, "lon": 7.6261, "intensity": 0.8, "source": "WDR"}, {"title": "Ministerinnen-Paar: Gr\u00fcne Ministerin Paul will Justizministerin aus Sachsen heiraten", "url": "https://www1.wdr.de/nachrichten/landespolitik/gruene-ministerin-paul-will-amtskollegin-heiraten-100.html", "thumbnailUrl": null, "date": "2024-04-03T15:40:36Z", "lat": 51.1657, "lon": 9.9286, "intensity": 0.4, "source": "WDR"}, {"title": "Antisemitische Vorf\u00e4lle in NRW nehmen zu", "url": "https://www1.wdr.de/nachrichten/landespolitik/antisemitische-vorfaelle-nrw-100.html", "thumbnailUrl": null, "date": "2024-04-03T13:51:36Z", "lat": 51.4818, "lon": 7.6261, "intensity": 0.8, "source": "WDR"}, {"title": "Cannabis legal - wer soll das alles kontrollieren?", "url": "https://www1.wdr.de/nachrichten/landespolitik/cannabis-gesetz-start-100.html", "thumbnailUrl": null, "date": "2024-04-03T07:13:17Z", "lat": 51.4521, "lon": 7.6261, "intensity": 0.6, "source": "WDR"}, {"title": "\"Ich musste mir einen Plan schmieden, aus der AfD rauszukommen\"", "url": "https://1.ard.de/afd-aussteiger-schild", "thumbnailUrl": null, "date": "2024-04-02T08:27:16Z", "lat": 51.959, "lon": 7.6261, "intensity": 0.3, "source": "WDR"}, {"title": "B\u00fcrgerbusse k\u00e4mpfen um Fahrg\u00e4ste: Ein Blick ins Oberbergische Land", "url": "https://www1.wdr.de/nachrichten/rheinland/erkarth-hueckeswagen-buergerbus-zukunft-100.html", "thumbnailUrl": null, "date": "2024-04-04T08:35:11Z", "lat": 51.2224, "lon": 7.1452, "intensity": 0.7, "source": "WDR"}, {"title": "\u00c4rger um Ablehnung schwarzer Priester in Remscheid", "url": "https://www1.wdr.de/nachrichten/rheinland/remscheid-rassismusvorwurf-katholische-kirche-100.html", "thumbnailUrl": null, "date": "2024-04-04T07:05:30Z", "lat": 51.1796, "lon": 7.1922, "intensity": 0.8, "source": "WDR"}, {"title": "\"In der Schule war mir oft langweilig\": Treffen der Hochbegabten in Duisburg", "url": "https://www1.wdr.de/nachrichten/ruhrgebiet/duisburg-mensa-jahrestreffen-hochbegabte-100.html", "thumbnailUrl": null, "date": "2024-04-03T18:35:39Z", "lat": 51.43441, "lon": 6.76139, "intensity": 0.7, "source": "WDR"}, {"title": "Ein Tag, zweifacher Erfolg: Bochumer Polizei gelingt Erfolg gegen Drogenkriminelle", "url": "https://www1.wdr.de/nachrichten/ruhrgebiet/polizei-bochum-cannabisplantage-drogendealer-100.html", "thumbnailUrl": null, "date": "2024-04-03T17:58:41Z", "lat": 51.4812, "lon": 7.2186, "intensity": 0.8, "source": "WDR"}, {"title": "Zwei Verletzte bei Kleinflugzeug-Unfall am Dortmunder Flughafen", "url": "https://www1.wdr.de/nachrichten/ruhrgebiet/dortmund-flughafen-kleinflugzeug-unfall-100.html", "thumbnailUrl": null, "date": "2024-04-03T18:44:12Z", "lat": 51.5185, "lon": 7.6092, "intensity": 0.8, "source": "WDR"}, {"title": "Rettungssanit\u00e4ter sagen im Fall Mouhamed Dram\u00e9 aus", "url": "https://www1.wdr.de/nachrichten/ruhrgebiet/drame-prozess-rettungssanitaeter-sagen-aus-100.html", "thumbnailUrl": null, "date": "2024-04-03T16:23:21Z", "lat": 51.5136, "lon": 7.4685, "intensity": 0.8, "source": "WDR"}, {"title": "Kreis Siegen-Wittgenstein steigt bei \"Siegtal pur\" aus", "url": "https://www1.wdr.de/nachrichten/westfalen-lippe/kreis-siegtal-pur-ausstieg-100.html", "thumbnailUrl": null, "date": "2024-04-03T19:50:08Z", "lat": 50.9018, "lon": 8.0253, "intensity": 0.4, "source": "WDR"}, {"title": "Deutlich mehr \u00dcbergriffe auf st\u00e4dtische Mitarbeiter in M\u00fcnster", "url": "https://www1.wdr.de/nachrichten/westfalen-lippe/angriffe-stadtmitarbeiter-muenster-100.html", "thumbnailUrl": null, "date": "2024-04-03T16:19:54Z", "lat": 51.9607, "lon": 7.6261, "intensity": 0.8, "source": "WDR"}, {"title": "\"Padderborn\" Schreibfehler sorgt f\u00fcr Schmunzler", "url": "https://www1.wdr.de/nachrichten/westfalen-lippe/paderborn-padderborn-schild-autobahn-100.html", "thumbnailUrl": null, "date": "2024-04-03T11:38:01Z", "lat": 51.7189, "lon": 8.7565, "intensity": 0.3, "source": "WDR"}, {"title": "Die App WDR aktuell begleitet Sie durch den Tag", "url": "https://www1.wdr.de/nachrichten/wdr-aktuell-app-stores-100.html", "thumbnailUrl": null, "date": "2023-10-30T11:49:53Z", "lat": 51.4508, "lon": 7.6261, "intensity": 0.3, "source": "WDR"}, {"title": "WDR Newsroom: Informationen f\u00fcr den Westen rund um die Uhr auf allen Kan\u00e4len", "url": "https://www1.wdr.de/nachrichten/newsroom-information-nrw-westen-100.html", "thumbnailUrl": null, "date": "2021-04-14T22:00:15Z", "lat": 51.4556, "lon": 7.0116, "intensity": 0.1, "source": "WDR"}, {"title": "Das Leitungsteam des Newsrooms im WDR (Programmbereich Aktuelles)", "url": "https://www1.wdr.de/nachrichten/newsroom-leitung-team-programmbereich-aktuelles-100.html", "thumbnailUrl": null, "date": "2024-03-08T15:34:21Z", "lat": 51.460021, "lon": 7.014026, "intensity": 0.3, "source": "WDR"}, {"title": "IHK rechtfertigt Ausbilder-Lizenz von Neonazi Tommy Frenck", "url": "https://www.mdr.de/nachrichten/thueringen/sued-thueringen/hildburghausen/tommy-frenck-nazi-kloster-vessra-ihk-ausbildung-gastronomie-100.html", "thumbnailUrl": null, "date": "Wed, 03 Apr 2024 22:10:00 +0200", "lat": 53.5511, "lon": 9.9937, "intensity": 0.8, "source": "MDR"}, {"title": "Trotz Niederlage: Niners Chemnitz stehen im Finale des Europe Cup", "url": "https://www.mdr.de/sport/basketball/niners-chemnitz-bilbao-basket-fiba-europe-cup-rueckspiel-100.html", "thumbnailUrl": null, "date": "Wed, 03 Apr 2024 21:18:20 +0200", "lat": 50.8323, "lon": 12.9151, "intensity": 0.8, "source": "MDR"}, {"title": "Autobahn GmbH verlangt von Kommunen horrende Preise f\u00fcr Tourismusschilder", "url": "https://www.mdr.de/nachrichten/deutschland/panorama/autobahn-schilder-sehenswuerdigkeiten-preise-explodieren-100.html", "thumbnailUrl": null, "date": "Thu, 04 Apr 2024 09:29:17 +0200", "lat": 53.5511, "lon": 9.9937, "intensity": 0.7, "source": "MDR"}, {"title": "Gestohlener Bartaffe zur\u00fcck im Zoo Leipzig", "url": "https://www.mdr.de/nachrichten/sachsen/leipzig/leipzig-leipzig-land/zoo-diebstahl-einbruch-bartaffe-polizei-100.html", "thumbnailUrl": null, "date": "Thu, 04 Apr 2024 10:33:38 +0200", "lat": 51.340632, "lon": 12.401835, "intensity": 0.7, "source": "MDR"}, {"title": "Ukraine-News: Mehrere Tote nach russischer Drohnenattacke auf Charkiw", "url": "https://www.mdr.de/nachrichten/welt/osteuropa/politik/ukraine-drohnenangriff-shahed-charkiw-tote100.html", "thumbnailUrl": null, "date": "Thu, 04 Apr 2024 10:57:54 +0200", "lat": 50.004444, "lon": 36.230383, "intensity": 1, "source": "MDR"}, {"title": "Ex-Au\u00dfenminister Gabriel: Nato hat Kriege verhindert", "url": "https://www.mdr.de/nachrichten/deutschland/politik/gabriel-spd-russland-ukraine-krieg-bedeutung-nato-100.html", "thumbnailUrl": null, "date": "Thu, 04 Apr 2024 10:52:46 +0200", "lat": 51.5413, "lon": 9.9876, "intensity": 0.6, "source": "MDR"}, {"title": "Millionenschaden nach Hubschrauber-Absturz - Arbeiten sollen bald fortgesetzt werden", "url": "https://www.mdr.de/nachrichten/thueringen/sued-thueringen/sonneberg/hubschauber-unfall-judenbach-helikopter-absturz-100.html", "thumbnailUrl": null, "date": "Thu, 04 Apr 2024 08:32:00 +0200", "lat": 50.3594, "lon": 10.9614, "intensity": 0.6, "source": "MDR"}, {"title": "F\u00fcr gr\u00fcnen Strom: Klimaaktivisten blockieren Stra\u00dfe in Dresden", "url": "https://www.mdr.de/nachrichten/sachsen/dresden/dresden-radebeul/klima-protest-strasse-blockade-strom-100.html", "thumbnailUrl": null, "date": "Thu, 04 Apr 2024 10:52:51 +0200", "lat": 51.0504, "lon": 13.7381, "intensity": 0.7, "source": "MDR"}, {"title": "Insolvenzverfahren: Wie es mit den Galeria-Karstadt-Kaufhof-Filialen jetzt weitergeht", "url": "https://www.mdr.de/nachrichten/deutschland/wirtschaft/galeria-karstadt-insolvenz-verfahren-zukunft-filialen-100.html", "thumbnailUrl": null, "date": "Thu, 04 Apr 2024 07:22:22 +0200", "lat": 51.059771, "lon": 11.649693, "intensity": 0.7, "source": "MDR"}, {"title": "Energie\u00f6konomin Kemfert: Gasnetz richtig stilllegen, sonst wird es teuer", "url": "https://www.mdr.de/nachrichten/deutschland/wirtschaft/kemfert-gasheizung-gasnetz-stilllegung-kosten-100.html", "thumbnailUrl": null, "date": "Wed, 03 Apr 2024 20:21:12 +0200", "lat": 48.13513, "lon": 11.58198, "intensity": 0.6, "source": "MDR"}, {"title": "Corona in Sachsen-Anhalt: Kommission soll Pandemie aufarbeiten", "url": "https://www.mdr.de/nachrichten/sachsen-anhalt/corona-pandemie-massnahmen-komission-aufarbeitung-100.html", "thumbnailUrl": null, "date": "Thu, 04 Apr 2024 05:01:35 +0200", "lat": 52.1205, "lon": 11.6276, "intensity": 0.5, "source": "MDR"}, {"title": "Osteuropa", "url": "https://www.mdr.de/nachrichten/welt/osteuropa/index.html", "thumbnailUrl": null, "date": "Tue, 25 Apr 2023 13:02:57 +0200", "lat": 45.9432, "lon": 23.8859, "intensity": 0.5, "source": "MDR"}, {"title": "Verkehr", "url": "https://www.mdrjump.de/verkehr/index.html", "thumbnailUrl": null, "date": "Thu, 09 Jun 2022 11:05:09 +0200", "lat": 51.1657, "lon": 11.6229, "intensity": 0.2, "source": "MDR"}, {"title": "So ver\u00e4ndert sich das Klima in Sachsen, Sachsen-Anhalt und Th\u00fcringen", "url": "https://www.mdr.de/nachrichten/deutschland/panorama/wetter-klima-wandel-daten-archiv-region-100.html", "thumbnailUrl": null, "date": "Mon, 04 Mar 2024 10:27:56 +0100", "lat": 51.339695, "lon": 12.496365, "intensity": 0.6, "source": "MDR"}, {"title": "40 Milliarden f\u00fcr den Ausstieg aus der Braunkohle", "url": "https://www.mdr.de/nachrichten/deutschland/wirtschaft/kohlemilliarden/kohle-ausstieg-foerderung-steuergeld-100.html", "thumbnailUrl": null, "date": "Thu, 07 Dec 2023 14:06:43 +0100", "lat": 52.52, "lon": 13.405, "intensity": 0.7, "source": "MDR"}, {"title": "Schaffen wir die Energiewende? Live-Daten zum Ausbau der Windkraft in Deutschland", "url": "https://www.mdr.de/wissen/windkraft-windenergie-ausbau-deutschland-live-daten-aktuell-100.html", "thumbnailUrl": null, "date": "Thu, 16 Mar 2023 10:28:43 +0100", "lat": 51.1657, "lon": 10.4515, "intensity": 0.8, "source": "MDR"}, {"title": "Was tun, Herr General? - Der Podcast zum Ukraine-Krieg", "url": "https://www.mdr.de/nachrichten/podcast/general/russland-angriff-krieg-ukraine100.html", "thumbnailUrl": null, "date": "Wed, 29 Nov 2023 12:04:11 +0100", "lat": 50.4501, "lon": 30.5234, "intensity": 0.8, "source": "MDR"}, {"title": "SC Magdeburg trifft im Viertelfinale auf Kielce", "url": "https://www.mdr.de/sport/handball/champions-league-sc-magdeburg-neuauflage-finale-kielce-100.html", "thumbnailUrl": null, "date": "Wed, 03 Apr 2024 22:37:17 +0200", "lat": 52.1205, "lon": 11.6362, "intensity": 0.4, "source": "MDR"}, {"title": "Eispiraten Crimmitschau stehen nach Niederlage gegen Eisb\u00e4ren Regensburg kurz vor dem Aus", "url": "https://www.mdr.de/sport/eishockey/del-zwei-playoffs-crimmitschau-regensburg-spiel-vier-100.html", "thumbnailUrl": null, "date": "Wed, 03 Apr 2024 22:22:37 +0200", "lat": 50.8305, "lon": 12.38379, "intensity": 0.8, "source": "MDR"}, {"title": "Volleyball Playoffs: Dresdner SC misslingt Halbfinal-Auftakt bei MTV Stuttgart", "url": "https://www.mdr.de/sport/volleyball/bericht-volleyball-bundesliga-playoffs-dresdner-sc-vc-wiesbaden-zweites-spiel-106.html", "thumbnailUrl": null, "date": "Wed, 03 Apr 2024 21:10:20 +0200", "lat": 48.7758, "lon": 9.1773, "intensity": 0.8, "source": "MDR"}, {"title": "Hallescher FC: Reisinger geht Mission Klassenerhalt voller \"Adrenalin\" an", "url": "https://www.mdr.de/sport/fussball_3l/hallescher-fc-vorstellung-stefan-reisinger-100.html", "thumbnailUrl": null, "date": "Wed, 03 Apr 2024 14:58:24 +0200", "lat": 51.4888, "lon": 11.9794, "intensity": 0.7, "source": "MDR"}, {"title": "Th\u00fcringer Gastronomen entdecken No-Show-Stornogeb\u00fchr", "url": "https://www.mdr.de/nachrichten/thueringen/restaurant-gastronomie-kosten-gebuehr-gaeste-reservierung-100.html", "thumbnailUrl": null, "date": "Wed, 03 Apr 2024 18:57:56 +0200", "lat": 50.9795, "lon": 10.4524, "intensity": 0.6, "source": "MDR"}, {"title": "Das plant der neue Chefdirigent Gatti mit der Staatskapelle Dresden", "url": "https://www.mdr.de/nachrichten/sachsen/dresden/staatskapelle-neue-spielzeit-gatti-kultur-news-100.html", "thumbnailUrl": null, "date": "Wed, 03 Apr 2024 19:45:46 +0200", "lat": 51.050409, "lon": 13.736717, "intensity": 0.3, "source": "MDR"}, {"title": "Weimar: Internationales Jugendchorfestival startet mit G\u00e4sten aus Serbien, Lettland und Bayern", "url": "https://www.mdr.de/nachrichten/thueringen/mitte-thueringen/weimar/chor-festival-jugend-musik-kultur-news-100.html", "thumbnailUrl": null, "date": "Thu, 04 Apr 2024 07:32:02 +0200", "lat": 50.9795, "lon": 11.3295, "intensity": 0.3, "source": "MDR"}, {"title": "H\u00e4ndel-Haus Halle ersteigert historische Abschrift der \"Coronation Anthems\"", "url": "https://www.mdr.de/nachrichten/sachsen-anhalt/halle/halle/haendel-museum-coronation-anthems-neuerwerb-kultur-news-100.html", "thumbnailUrl": null, "date": "Wed, 03 Apr 2024 14:57:42 +0200", "lat": 51.482504, "lon": 11.968664, "intensity": 0.7, "source": "MDR"}, {"title": "Magdeburg: Hyparschale \u00f6ffnet mit Kunstausstellung", "url": "https://www.mdr.de/nachrichten/sachsen-anhalt/magdeburg/magdeburg/eroeffnung-hyparschale-kunstausstellung-100.html", "thumbnailUrl": null, "date": "Wed, 03 Apr 2024 16:58:44 +0200", "lat": 52.1205, "lon": 11.6276, "intensity": 0.6, "source": "MDR"}, {"title": "Test: ChatGPT insgesamt besser als \u00c4rzte bei medizinischen Schlussfolgerungen", "url": "https://www.mdr.de/wissen/medizin-gesundheit/news-chatgpt-besser-als-aerzte-bei-klinischen-schlussfolgerungen-100.html", "thumbnailUrl": null, "date": "Wed, 03 Apr 2024 17:26:25 +0200", "lat": 37.0902, "lon": -95.7129, "intensity": 0.8, "source": "MDR"}, {"title": "Neue Zeckenarten in Deutschland auf dem Vormarsch", "url": "https://www.mdr.de/nachrichten/deutschland/gesellschaft/zecken-biss-fruehling-verbreitung-gebiete-100.html", "thumbnailUrl": null, "date": "Wed, 03 Apr 2024 15:19:21 +0200", "lat": 51.339695, "lon": 12.373075, "intensity": 0.5, "source": "MDR"}, {"title": "Comedian Luke Mockridge nach Vergewaltigungs Vorw\u00fcrfen im Stern Interview", "url": "https://www.brisant.de/stars/crime/luke-mockridge-interview-100.html", "thumbnailUrl": null, "date": "Wed, 03 Apr 2024 17:07:03 +0200", "lat": 51.1657, "lon": 10.4515, "intensity": 0.7, "source": "MDR"}, {"title": "Heino: Erster Hochzeitstag ohne seine geliebte Hannelore", "url": "https://www.mdr.de/meine-schlagerwelt/heino-erster-hochzeitstag-ohne-hannelore-kramm-100.html", "thumbnailUrl": null, "date": "Wed, 03 Apr 2024 16:22:30 +0200", "lat": 51.4818, "lon": 7.0926, "intensity": 0.3, "source": "MDR"}, {"title": "Vicky Leandros muss wegen Erkrankung Konzerte verschieben", "url": "https://www.mdr.de/meine-schlagerwelt/vicky-leandros-muss-wegen-krankheit-konzerte-ihrer-tournee-verschieben-100.html", "thumbnailUrl": null, "date": "Wed, 03 Apr 2024 13:46:43 +0200", "lat": 48.135125, "lon": 11.581981, "intensity": 0.6, "source": "MDR"}, {"title": "Folgen des Kohleausstiegs \u00fcbertrieben? Lausitz findet kaum Fachkr\u00e4fte", "url": "https://www.mdr.de/nachrichten/sachsen/bautzen/kohleausstieg-arbeit-fachkraeftemangel-lausitz-jobangebote-102.html", "thumbnailUrl": null, "date": "Wed, 03 Apr 2024 05:15:00 +0200", "lat": 51.3563, "lon": 14.1336, "intensity": 0.6, "source": "MDR"}, {"title": "Das sind die Regeln f\u00fcr Cannabis-Konsum nach der Teil-Legalisierung", "url": "https://www.mdr.de/nachrichten/deutschland/politik/cannabis-legal-kiffen-regeln-gesetz-100.html", "thumbnailUrl": null, "date": "Wed, 03 Apr 2024 10:54:07 +0200", "lat": 51.5426, "lon": 9.9937, "intensity": 0.6, "source": "MDR"}, {"title": "Studie: Jugendliche haben keine Lust mehr auf Komasaufen", "url": "https://www.mdr.de/nachrichten/deutschland/gesellschaft/komasaufen-jugendliche-100.html", "thumbnailUrl": null, "date": "Tue, 02 Apr 2024 11:08:22 +0200", "lat": 53.5511, "lon": 9.9937, "intensity": 0.7, "source": "MDR"}, {"title": "MDR TH\u00dcRINGEN: Neue Direktorin tritt Amt im Landesfunkhaus an", "url": "https://www.mdr.de/nachrichten/thueringen/mitte-thueringen/erfurt/direktorin-landesfunkhaus-astrid-plenk-kika-ard-zdf-100.html", "thumbnailUrl": null, "date": "Tue, 02 Apr 2024 15:03:07 +0200", "lat": 50.9848, "lon": 11.0299, "intensity": 0.4, "source": "MDR"}, {"title": "Preview der Dokumentation \"Hirschhausen \u2013 Medizin von morgen\" in Magdeburg", "url": "https://www.mdr.de/nachrichten/mitmachen/medizin-von-morgen-mit-eckart-von-hirschhausen-100.html", "thumbnailUrl": null, "date": "Wed, 03 Apr 2024 13:00:29 +0200", "lat": 52.1205, "lon": 11.6276, "intensity": 0.3, "source": "MDR"}, {"title": "MDR-Fr\u00fchlingserwachen: Alle Termine zu allen Orten", "url": "https://www.mdr.de/nachrichten/mitmachen/fruehlingserwachen/alles-zum-mdr-fruehlingswachen--100.html", "thumbnailUrl": null, "date": "Mon, 25 Mar 2024 15:59:43 +0100", "lat": 50.5821, "lon": 12.6261, "intensity": 0.5, "source": "MDR"}, {"title": "Stadt Calw schl\u00e4gt Alarm - Wilder M\u00fcll im Stadtgebiet nimmt zu", "url": "https://www.swr.de/swraktuell/baden-wuerttemberg/karlsruhe/immer-mehr-wilder-muell-in-calw-104.html", "thumbnailUrl": "https://www.swr.de/swraktuell/baden-wuerttemberg/karlsruhe/1712141710889%2Cimmer-mehr-wilder-muell-in-calw-102~_v-16x9@2dXL_-77ed5d09bafd4e3cf6a5a0264e5e16ea35f14925.jpg", "date": "Wed, 3 Apr 2024 16:51:35 +0200", "lat": 48.708, "lon": 8.7321, "intensity": 0.7, "source": "SWR"}, {"title": "Wangen im Allg\u00e4u: Mann greift Kind in Supermarkt unvermittelt an", "url": "https://www.swr.de/swraktuell/baden-wuerttemberg/friedrichshafen/mann-sticht-in-supermarkt-auf-vierjaehrige-ein-100.html", "thumbnailUrl": "https://www.swr.de/swraktuell/baden-wuerttemberg/friedrichshafen/1712221133614%2Cwangen-supermarkt-102~_v-16x9@2dXL_-77ed5d09bafd4e3cf6a5a0264e5e16ea35f14925.jpg", "date": "Thu, 4 Apr 2024 10:52:43 +0200", "lat": 47.6878, "lon": 9.8333, "intensity": 0.8, "source": "SWR"}, {"title": "Ermittlungen nach Tod von Dreij\u00e4hriger in Mainz eingestellt", "url": "https://www.swr.de/swraktuell/rheinland-pfalz/mainz/ermittlungen-nach-toedlichem-verkehrsunfall-eines-kindes-in-mainz-eingestellt-100.html", "thumbnailUrl": "https://www.swr.de/swraktuell/rheinland-pfalz/mainz/1712162016286%2Cverfahren-nach-unfalltod-einer-dreijaehrigen-in-mainz-wurde-eingestellt-100~_v-16x9@2dXL_-77ed5d09bafd4e3cf6a5a0264e5e16ea35f14925.jpg", "date": "Thu, 4 Apr 2024 07:16:20 +0200", "lat": 49.9929, "lon": 8.2436, "intensity": 0.8, "source": "SWR"}, {"title": "B\u00e4rlauch in Kupferzell unerlaubt geerntet: \u00dcberraschende Wendung", "url": "https://www.swr.de/swraktuell/baden-wuerttemberg/heilbronn/kuriose-wendung-baerlauch-diebstahl-kupferzell-100.html", "thumbnailUrl": "https://www.swr.de/swraktuell/baden-wuerttemberg/heilbronn/1712146155954%2Cbaerlauch-kupferzell-100~_v-16x9@2dXL_-77ed5d09bafd4e3cf6a5a0264e5e16ea35f14925.jpg", "date": "Thu, 4 Apr 2024 05:40:11 +0200", "lat": 49.2183, "lon": 9.5356, "intensity": 0.6, "source": "SWR"}, {"title": "Brigitte denkt noch nicht an Rente und arbeitet mit 93 immer noch als Buchh\u00e4ndlerin", "url": "https://www.swr.de/heimat/bodensee/keine-rente-brigitte-arbeitet-mit-93-als-buchhaendlerin-100.html", "thumbnailUrl": "https://www.swr.de/heimat/bodensee/1712152655320%2Cbuchhandeloma-100~_v-16x9@2dXL_-77ed5d09bafd4e3cf6a5a0264e5e16ea35f14925.jpg", "date": "Wed, 3 Apr 2024 15:57:35 +0200", "lat": 47.6609, "lon": 9.177, "intensity": 0.6, "source": "SWR"}, {"title": "\u201eZum Kotzen sch\u00f6n\u201c \u2013 So l\u00e4sterten ber\u00fchmte Reisende \u00fcber den S\u00fcdwesten", "url": "https://www.swr.de/swr2/leben-und-gesellschaft/boese-reiseberichte-wie-beruehmte-kuenstler-den-suedwesten-mit-spott-und-kritik-kommentierten-100.html", "thumbnailUrl": "https://www.swr.de/swr2/literatur/1712152115182%2Cboese-reiseberichte-116~_v-16x9@2dXL_-77ed5d09bafd4e3cf6a5a0264e5e16ea35f14925.jpg", "date": "Wed, 3 Apr 2024 16:59:45 +0200", "lat": 49.9935, "lon": 8.2318, "intensity": 0.5, "source": "SWR"}, {"title": "Altenpflegerin Fabienne Fleig aus Weilersbach hat durch eine Abnehm-Show neuen Lebensmut gewonnen", "url": "https://www.swrfernsehen.de/landesschau-bw/studiogaeste/altenpflegerin-fabienne-fleig-aus-weilersbach-hat-durch-eine-abnehm-show-neuen-lebensmut-gewonnen-100.html", "thumbnailUrl": "https://www.swrfernsehen.de/landesschau-bw/1711565232025%2Caltenpflegerin-fabienne-fleig-aus-weilersbach-hat-durch-eine-abnehm-show-neuen-lebensmut-gewonnen-102~_v-16x9@2dXL_-77ed5d09bafd4e3cf6a5a0264e5e16ea35f14925.jpg", "date": "Thu, 28 Mar 2024 15:44:10 +0100", "lat": 49.4425, "lon": 8.3586, "intensity": 0.6, "source": "SWR"}, {"title": "Sch\u00e4uble in Memoiren: Ich sollte Merkel st\u00fcrzen", "url": "https://www.swr.de/swraktuell/baden-wuerttemberg/schaeuble-memoiren-stoiber-putsch-merkel-100.html", "thumbnailUrl": "https://www.swr.de/swraktuell/baden-wuerttemberg/1712156642648%2Cschaeuble-memoiren-putsch-merkel-100~_v-16x9@2dXL_-77ed5d09bafd4e3cf6a5a0264e5e16ea35f14925.jpg", "date": "Wed, 3 Apr 2024 17:41:53 +0200", "lat": 51.5426, "lon": 9.9937, "intensity": 0.7, "source": "SWR"}, {"title": "Auto ger\u00e4t bei Weitersburg unter Auflieger von Sattelzug", "url": "https://www.swr.de/swraktuell/rheinland-pfalz/koblenz/auto-kommt-unter-sattelzug-auflieger-a48-weitersburg-100.html", "thumbnailUrl": "https://www.swr.de/swraktuell/rheinland-pfalz/koblenz/1712188823297%2Cweitersburg-unfall-auto-unter-sattelzug-auflieger-100~_v-16x9@2dXL_-77ed5d09bafd4e3cf6a5a0264e5e16ea35f14925.png", "date": "Thu, 4 Apr 2024 10:33:09 +0200", "lat": 50.3833, "lon": 7.6333, "intensity": 0.8, "source": "SWR"}, {"title": "\u00dcberf\u00fchrt: Rentner aus Aach erkennt Telefonbetr\u00fcger", "url": "https://www.swr.de/swraktuell/rheinland-pfalz/trier/rentner-ueberfuehrt-telefonbetrueger-bei-schockanruf-geldabholerin-in-aach-festgenommen-100.html", "thumbnailUrl": "https://www.swr.de/swraktuell/rheinland-pfalz/trier/1712142682403%2Ctelefonbetrueger-ertappt-abholerin-bei-aach-festgenommen-100~_v-16x9@2dXL_-77ed5d09bafd4e3cf6a5a0264e5e16ea35f14925.jpg", "date": "Thu, 4 Apr 2024 07:50:54 +0200", "lat": 49.0069, "lon": 8.4881, "intensity": 0.7, "source": "SWR"}, {"title": "Nebel gegen gesprengte Geldautomaten: Sparkasse Heidelberg stellt neue Ma\u00dfnahme vor", "url": "https://www.swr.de/swraktuell/baden-wuerttemberg/mannheim/heidelberg-geldautomaten-vernebelungssystem-gegen-sprengungen-100.html", "thumbnailUrl": "https://www.swr.de/swraktuell/baden-wuerttemberg/mannheim/1712150543311%2Cgeldautomat-sparkasse-vernebelt-100~_v-16x9@2dXL_-77ed5d09bafd4e3cf6a5a0264e5e16ea35f14925.jpg", "date": "Thu, 4 Apr 2024 09:59:27 +0200", "lat": 49.398752, "lon": 8.694716, "intensity": 0.7, "source": "SWR"}, {"title": "Autobrand bei Birkenfeld: Hund auf B41 \u00fcberfahren", "url": "https://www.swr.de/swraktuell/rheinland-pfalz/trier/hund-bei-autobrand-in-birkenfeld-ueberfahren-100.html", "thumbnailUrl": "https://www.swr.de/swraktuell/rheinland-pfalz/trier/1712160503626%2Chund-nach-autobrand-auf-b41-ueberfahren-100~_v-16x9@2dXL_-77ed5d09bafd4e3cf6a5a0264e5e16ea35f14925.jpg", "date": "Wed, 3 Apr 2024 18:08:24 +0200", "lat": 49.6631, "lon": 7.3158, "intensity": 0.6, "source": "SWR"}, {"title": "Tiersch\u00fctzer in Reutlingen emp\u00f6rt \u00fcber Tauben-Umsiedlung", "url": "https://www.swr.de/swraktuell/baden-wuerttemberg/tuebingen/tierschuetzer-in-reutlingen-gegen-taubenumsiedlung-der-stadt-100.html", "thumbnailUrl": "https://www.swr.de/swraktuell/baden-wuerttemberg/tuebingen/1712134665001%2Cumsiedlung-von-tauben-in-reutlingen-in-der-kritik-100~_v-16x9@2dXL_-77ed5d09bafd4e3cf6a5a0264e5e16ea35f14925.jpg", "date": "Thu, 4 Apr 2024 05:26:42 +0200", "lat": 48.4914, "lon": 9.2076, "intensity": 0.6, "source": "SWR"}, {"title": "Freiburg: Aufregung um israelische Speise in arabischem Restaurant", "url": "https://www.swr.de/swraktuell/baden-wuerttemberg/suedbaden/israelisches-gericht-in-arabischem-restaurant-100.html", "thumbnailUrl": "https://www.swr.de/swraktuell/baden-wuerttemberg/1712139672402%2Cumstrittene-auberginen-creme-102~_v-16x9@2dXL_-77ed5d09bafd4e3cf6a5a0264e5e16ea35f14925.jpg", "date": "Thu, 4 Apr 2024 09:07:10 +0200", "lat": 47.9961, "lon": 7.8416, "intensity": 0.6, "source": "SWR"}, {"title": "Extreml\u00e4ufer Simon Fischer - in 31 Marathons vom Bodensee nach Berlin", "url": "https://www.swr.de/sport/mehr-sport/simon-fischer-blue-run-100.html", "thumbnailUrl": "https://www.swr.de/swraktuell/rheinland-pfalz/koblenz/1710496549205%2C31-marathons-an-31-tagen-warnung-weltweite-wasserknappheit-simon-fischer-100~_v-16x9@2dXL_-77ed5d09bafd4e3cf6a5a0264e5e16ea35f14925.jpg", "date": "Thu, 4 Apr 2024 07:48:35 +0200", "lat": 53.5753, "lon": 10.1282, "intensity": 0.5, "source": "SWR"},