[{"title": "Saison er\u00f6ffnet: Berliner Brunnen sprudeln wieder", "url": "https://www.tagesschau.de/inland/regional/berlin/rbb-saison-eroeffnet-berliner-brunnen-sprudeln-wieder-100.html", "thumbnailUrl": "https://images.tagesschau.de/image/cd3ff811-8cbd-41e3-baf1-d2847264bbd8/AAABjq4d9yU/AAABjcWesUg/16x9-512.jpg", "date": "2024-04-05T13:52:53.000+02:00", "lat": 52.520008, "lon": 13.404954, "intensity": 0.6, "source": "Tagesschau"}, {"title": "Justiz muss deutlich mehr Cannabis-Verfahren \u00fcberpr\u00fcfen als zun\u00e4chst erwartet", "url": "https://www.tagesschau.de/inland/regional/brandenburg/rbb-justiz-muss-deutlich-mehr-cannabis-verfahren-ueberpruefen-als-zunaechst-erwartet-102.html", "thumbnailUrl": "https://images.tagesschau.de/image/a07bc43c-4da7-4f57-9f6e-711548afeac4/AAABjq4cErg/AAABjcWesUg/16x9-512.jpg", "date": "2024-04-04T18:43:10.000+02:00", "lat": 52.520008, "lon": 13.404954, "intensity": 0.8, "source": "Tagesschau"}, {"title": "Dabel stimmt gegen Fl\u00fcchtlingsunterkunft: Kreis wartet auf Begr\u00fcndung", "url": "https://www.tagesschau.de/inland/regional/mecklenburgvorpommern/ndr-dabel-gemeindevertreter-lehnen-geplante-fluechtlingsunterkunft-ab-100.html", "thumbnailUrl": "https://images.tagesschau.de/image/60f0cfd5-070a-470a-9c6c-3eda23d51ed9/AAABjq4b4Gc/AAABjcWesUg/16x9-512.jpg", "date": "2024-04-05T13:46:00.000+02:00", "lat": 53.4955, "lon": 13.4262, "intensity": 0.7, "source": "Tagesschau"}, {"title": "+ Israel entl\u00e4sst Offiziere wegen Angriffs auf Helfer +", "url": "https://www.tagesschau.de/newsticker/liveblog-nahost-freitag-124.html", "thumbnailUrl": "https://images.tagesschau.de/image/4e79fc18-8c80-4bfa-b440-5410a4f6ced5/AAABjq3kR6s/AAABjcWesUg/16x9-512.jpg", "date": "2024-04-05T13:45:31.800+02:00", "lat": 30.0444, "lon": 31.2357, "intensity": 0.8, "source": "Tagesschau"}, {"title": "Wetter am Wochenende: Temperatursprung auf bis zu 25 Grad im Norden", "url": "https://www.tagesschau.de/inland/regional/hamburg/ndr-wetter-am-wochenende-temperatursprung-auf-ueber-20-grad-im-norden-100.html", "thumbnailUrl": "https://images.tagesschau.de/image/c3aeb071-02bd-494f-bba3-7c4a1a7239dc/AAABjq4hpog/AAABjcWesUg/16x9-512.jpg", "date": "2024-04-05T13:44:00.000+02:00", "lat": 53.5511, "lon": 9.9937, "intensity": 0.8, "source": "Tagesschau"}, {"title": "Wut bei Feuerwehr Burg Stargard: Einsatzfahrzeug zerst\u00f6rt, Kasse geklaut", "url": "https://www.tagesschau.de/inland/regional/mecklenburgvorpommern/ndr-wut-bei-der-feuerwehr-kasse-geklaut-einsatzfahrzeug-demoliert-100.html", "thumbnailUrl": "https://images.tagesschau.de/image/3407d453-8d81-469b-a2f1-362a3e638c9f/AAABjq4Ssbw/AAABjcWesUg/16x9-512.jpg", "date": "2024-04-05T13:43:00.000+02:00", "lat": 53.4885, "lon": 13.3213, "intensity": 0.8, "source": "Tagesschau"}, {"title": "++ Kiew meldet Zerst\u00f6rung von russischen Flugzeugen ++", "url": "https://www.tagesschau.de/newsticker/liveblog-ukraine-freitag-374.html", "thumbnailUrl": "https://images.tagesschau.de/image/5b073b67-29bf-4703-b6b1-71469e4c25bb/AAABizMn-kk/AAABjcWesUg/16x9-512.jpg", "date": "2024-04-05T13:42:40.194+02:00", "lat": 47.235713, "lon": 39.701505, "intensity": 0.8, "source": "Tagesschau"}, {"title": "Wetter in Hessen: Erst Sonnenbrand, dann W\u00fcstensand", "url": "https://www.tagesschau.de/inland/regional/hessen/hr-wetter-in-hessen-erst-sonnenbrand-dann-wuestensand-100.html", "thumbnailUrl": "https://images.tagesschau.de/image/cdc09279-cb71-4316-a597-590df1db2991/AAABjq4PMiU/AAABjcWesUg/16x9-512.jpg", "date": "2024-04-05T13:38:47.518+02:00", "lat": 50.6521, "lon": 8.56, "intensity": 0.7, "source": "Tagesschau"}, {"title": "D\u00e4nemark gibt Entwarnung", "url": "https://www.tagesschau.de/ausland/europa/raketenwerfer-militaerschiff-daenemark-100.html", "thumbnailUrl": "https://images.tagesschau.de/image/944e630d-e2eb-4be9-afc2-b30413e70059/AAABjq3qn5U/AAABjcWesUg/16x9-512.jpg", "date": "2024-04-05T13:37:42.656+02:00", "lat": 56.2639, "lon": 9.5018, "intensity": 0.3, "source": "Tagesschau"}, {"title": "Amnestieregelung: H\u00e4ftling in Berlin wegen Teillegalisierung von Cannabis entlassen ", "url": "https://www.tagesschau.de/inland/regional/berlin/rbb-amnestieregelung-haeftling-in-berlin-wegen-teillegalisierung-von-cannabis-entlassen-100.html", "thumbnailUrl": "https://images.tagesschau.de/image/127133e5-63d1-42f2-9287-5d3f59fa2f07/AAABjq4RKTo/AAABjcWesUg/16x9-512.jpg", "date": "2024-04-05T13:36:30.000+02:00", "lat": 52.520008, "lon": 13.404954, "intensity": 0.8, "source": "Tagesschau"}, {"title": "47 hessische Polizisten derzeit unter Rechtsextremismus-Verdacht ", "url": "https://www.tagesschau.de/inland/regional/hessen/hr-47-disziplinarverfahren-in-hessischer-polizei-wegen-rechter-verdachtsfaelle-100.html", "thumbnailUrl": "https://images.tagesschau.de/image/c79fef36-7598-462c-b615-02c85f6fed55/AAABjq4Jpiw/AAABjcWesUg/16x9-512.jpg", "date": "2024-04-05T13:33:38.002+02:00", "lat": 50.5831, "lon": 9.1625, "intensity": 0.8, "source": "Tagesschau"}, {"title": "\u00dcber 300.000 Menschen in Baden-W\u00fcrttemberg waren noch nie online", "url": "https://www.tagesschau.de/inland/regional/badenwuerttemberg/swr-ueber-300-000-menschen-in-baden-wuerttemberg-waren-noch-nie-online-100.html", "thumbnailUrl": "https://images.tagesschau.de/image/b0d04b70-1699-4b45-849e-ba0d6edc5665/AAABjq4PD9s/AAABjcWesUg/16x9-512.jpg", "date": "2024-04-05T13:31:00.000+02:00", "lat": 48.6616, "lon": 9.4936, "intensity": 0.7, "source": "Tagesschau"}, {"title": "Russischer Gouverneur bei Messerattacke verletzt", "url": "https://www.tagesschau.de/ausland/europa/russischer-gouverneur-messerattacke-102.html", "thumbnailUrl": "https://images.tagesschau.de/image/d4d8bc1a-633c-4934-9fa9-efc27009dd6b/AAABjqyU5IE/AAABjcWesUg/16x9-512.jpg", "date": "2024-04-05T13:29:27.057+02:00", "lat": 55.7512, "lon": 38.0364, "intensity": 0.8, "source": "Tagesschau"}, {"title": "Streit am \"Drob Inn\" in Hamburg: Polizist gibt Warnschuss ab", "url": "https://www.tagesschau.de/inland/regional/hamburg/ndr-streit-am-drob-inn-in-hamburg-polizist-gibt-warnschuss-ab-100.html", "thumbnailUrl": "https://images.tagesschau.de/image/0221e102-0ea6-4893-9687-03144d7693cf/AAABjq4Ce3I/AAABjcWesUg/16x9-512.jpg", "date": "2024-04-05T13:24:00.000+02:00", "lat": 53.5511, "lon": 9.9937, "intensity": 0.7, "source": "Tagesschau"}, {"title": "Dritter Angriff auf Herde: 19 Schafe in Redderstorf gerissen", "url": "https://www.tagesschau.de/inland/regional/mecklenburgvorpommern/ndr-redderstorf-vermutlich-19-schafe-von-wolf-gerissen-100.html", "thumbnailUrl": "https://images.tagesschau.de/image/1365b2f8-85e8-4d88-85a3-5b6ff2954408/AAABjq38vSA/AAABjcWesUg/16x9-512.jpg", "date": "2024-04-05T13:18:00.000+02:00", "lat": 53.8385, "lon": 11.1769, "intensity": 0.8, "source": "Tagesschau"}, {"title": "Mehr als 100 Millionen Dollar Falschgeld in SH beschlagnahmt", "url": "https://www.tagesschau.de/inland/regional/schleswigholstein/ndr-mehr-als-100-millionen-dollar-falschgeld-in-sh-beschlagnahmt-100.html", "thumbnailUrl": "https://images.tagesschau.de/image/3e5ab506-c070-4da9-a11a-c2f8b83a7789/AAABjq4hzbw/AAABjcWesUg/16x9-512.jpg", "date": "2024-04-05T13:16:00.000+02:00", "lat": 53.8652, "lon": 10.6873, "intensity": 0.8, "source": "Tagesschau"}, {"title": "Nienburg: Widerspr\u00fcchliche Angaben nach t\u00f6dlichen Sch\u00fcssen", "url": "https://www.tagesschau.de/inland/regional/niedersachsen/ndr-toedliche-polizeischuesse-in-nienburg-staatsanwaltschaft-aeussert-sich-100.html", "thumbnailUrl": "https://images.tagesschau.de/image/fe871530-9d7b-4384-a451-80d7445cc255/AAABjq35fA4/AAABjcWesUg/16x9-512.jpg", "date": "2024-04-05T13:13:00.000+02:00", "lat": 52.633, "lon": 9.157, "intensity": 0.7, "source": "Tagesschau"}, {"title": "Polizei nimmt vier Minderj\u00e4hrige fest", "url": "https://www.tagesschau.de/inland/regional/nordrheinwestfalen/dortmund-toetung-obdachloser-100.html", "thumbnailUrl": "https://images.tagesschau.de/image/2e979a1e-d4ba-4eda-a46d-2169c7e6d911/AAABjq4CJ9I/AAABjcWesUg/16x9-512.jpg", "date": "2024-04-05T13:08:00.000+02:00", "lat": 51.5136, "lon": 7.4686, "intensity": 0.8, "source": "Tagesschau"}, {"title": "Kaufhaus Galeries Lafayette in der Friedrichstra\u00dfe schlie\u00dft bereits Ende Juli", "url": "https://www.tagesschau.de/inland/regional/berlin/rbb-kaufhaus-galeries-lafayette-schliesst-bereits-ende-juli-filiale-in-der-berliner-friedrichstrasse-100.html", "thumbnailUrl": "https://images.tagesschau.de/image/c29f79ca-5aba-4d87-803c-815c8312e182/AAABjq3wKo4/AAABjcWesUg/16x9-512.jpg", "date": "2024-04-05T13:01:41.000+02:00", "lat": 52.51627, "lon": 13.38722, "intensity": 0.8, "source": "Tagesschau"}, {"title": "Fu\u00dfball-Bundesliga: Union Berlin muss gegen Tabellenf\u00fchrer Leverkusen \"Au\u00dferirdisches\" leisten", "url": "https://www.tagesschau.de/inland/regional/berlin/rbb-fussball-bundesliga-union-berlin-muss-gegen-tabellenfuehrer-leverkusen-ausserirdisches-leisten-102.html", "thumbnailUrl": "https://images.tagesschau.de/image/1cd665ff-daff-4944-a516-0d5ec6a22a8d/AAABjq3nCuU/AAABjcWesUg/16x9-512.jpg", "date": "2024-04-05T12:54:46.000+02:00", "lat": 52.4724, "lon": 13.4894, "intensity": 0.8, "source": "Tagesschau"}, {"title": "Wie tief der DAX jetzt fallen kann", "url": "https://www.tagesschau.de/wirtschaft/finanzen/marktberichte/marktbericht-dax-kursrutsch-gold-oel-aktien-dow-kurssturz-boerse-100.html", "thumbnailUrl": "https://images.tagesschau.de/image/69439f9c-7113-45ff-a123-57eabcc17a9a/AAABhnQWSY8/AAABjcWesUg/16x9-512.jpg", "date": "2024-04-05T12:49:36.173+02:00", "lat": 51.9607, "lon": 7.5986, "intensity": 0.8, "source": "Tagesschau"}, {"title": "Geplante Nord-S\u00fcd-Verbindung: Berliner S21 geht erst Ende 2024 in Betrieb", "url": "https://www.tagesschau.de/inland/regional/berlin/rbb-geplante-nord-sued-verbindung-berliner-s21-geht-erst-ende-2024-in-betrieb-100.html", "thumbnailUrl": "https://images.tagesschau.de/image/82c350b7-5e62-49f1-992c-2ff0bc5d3ada/AAABjq3lLeg/AAABjcWesUg/16x9-512.jpg", "date": "2024-04-05T12:49:00.000+02:00", "lat": 52.523405, "lon": 13.38886, "intensity": 0.8, "source": "Tagesschau"}, {"title": "Schwertransport im Emsland: Bahnhof muss gesperrt werden", "url": "https://www.tagesschau.de/inland/regional/niedersachsen/ndr-schwertransport-im-emsland-bahnhof-leschede-gesperrt-100.html", "thumbnailUrl": "https://images.tagesschau.de/image/53600d54-d610-444e-b338-ab5cf1975524/AAABjq3hpYI/AAABjcWesUg/16x9-512.jpg", "date": "2024-04-05T12:48:00.000+02:00", "lat": 52.2811, "lon": 7.3296, "intensity": 0.7, "source": "Tagesschau"}, {"title": "Wilhelmshaven: Versorger \"Bonn\" aus NATO-Einsatz zur\u00fcckgekehrt", "url": "https://www.tagesschau.de/inland/regional/niedersachsen/ndr-wilhelmshaven-versorger-bonn-kehrt-aus-nordatlantik-zurueck-100.html", "thumbnailUrl": "https://images.tagesschau.de/image/988fc80f-7732-4744-9271-805e13b502ca/AAABjq3aVGM/AAABjcWesUg/16x9-512.jpg", "date": "2024-04-05T12:40:00.000+02:00", "lat": 53.5185, "lon": 8.1486, "intensity": 0.8, "source": "Tagesschau"}, {"title": "Krankenhaus in Bitburg wird wegen Bombe am Sonntag evakuiert", "url": "https://www.tagesschau.de/inland/regional/rheinlandpfalz/swr-bombe-bei-bauarbeiten-an-grundschule-in-bitburg-gefunden-100.html", "thumbnailUrl": "https://images.tagesschau.de/image/fcbaf7aa-470f-4150-9b51-e3a401ed0102/AAABjqoIIdI/AAABjcWesUg/16x9-512.jpg", "date": "2024-04-05T12:33:00.000+02:00", "lat": 49.9714, "lon": 6.5319, "intensity": 0.8, "source": "Tagesschau"}, {"title": "BW-Regierung einig \u00fcber zentrale Ausl\u00e4nderbeh\u00f6rde f\u00fcr Fachkr\u00e4fte", "url": "https://www.tagesschau.de/inland/regional/badenwuerttemberg/swr-bw-landesregierung-plant-zentrale-auslaenderbehoerde-fuer-fachkraefte-100.html", "thumbnailUrl": "https://images.tagesschau.de/image/a4c4af42-cc96-4b03-a006-d7047a42f38e/AAABjq3YIIc/AAABjcWesUg/16x9-512.jpg", "date": "2024-04-05T12:32:05.000+02:00", "lat": 48.6616, "lon": 9.9937, "intensity": 0.8, "source": "Tagesschau"}, {"title": "BSR-Gebrauchtwarenkaufhaus \"NochMall\" verzeichnet mehr Nachfrage", "url": "https://www.tagesschau.de/inland/regional/berlin/rbb-bsr-gebrauchtwarenkaufhaus-nochmall-verzeichnet-mehr-nachfrage-100.html", "thumbnailUrl": "https://images.tagesschau.de/image/1195cfc8-2825-438c-bdac-1f3ae0fa2b19/AAABjq3UykQ/AAABjcWesUg/16x9-512.jpg", "date": "2024-04-05T12:31:15.000+02:00", "lat": 52.520008, "lon": 13.404954, "intensity": 0.7, "source": "Tagesschau"}, {"title": "74-J\u00e4hriger stirbt nach schwerem Unfall mit E-Bike in Speyer", "url": "https://www.tagesschau.de/inland/regional/rheinlandpfalz/swr-74-jaehriger-stirbt-nach-schwerem-unfall-mit-e-bike-in-speyer-100.html", "thumbnailUrl": "https://images.tagesschau.de/image/0cdcc3f9-d3a8-411a-8947-3cbc1486acea/AAABjq4NNJE/AAABjcWesUg/16x9-512.jpg", "date": "2024-04-05T12:26:55.000+02:00", "lat": 49.322, "lon": 8.4273, "intensity": 0.7, "source": "Tagesschau"}, {"title": "AKN: Einschr\u00e4nkungen zwischen Norderstedt und Neum\u00fcnster", "url": "https://www.tagesschau.de/inland/regional/schleswigholstein/ndr-akn-einschraenkungen-zwischen-norderstedt-und-neumuenster-100.html", "thumbnailUrl": "https://images.tagesschau.de/image/8f0385b9-84a2-4dc1-b30f-a51868c395e1/AAABjp-IfwM/AAABjcWesUg/16x9-512.jpg", "date": "2024-04-05T12:25:00.000+02:00", "lat": 54.0774, "lon": 9.9798, "intensity": 0.6, "source": "Tagesschau"}, {"title": "Schneidewind reicht Bewerbung f\u00fcr Homburger OB-Wahl ein", "url": "https://www.tagesschau.de/inland/regional/saarland/sr-schneidewind-reicht-bewerbung-fuer-homburger-ob-wahl-ein-100.html", "thumbnailUrl": "https://images.tagesschau.de/image/63f45853-d21f-4167-a6c9-dff5318410a8/AAABjqhSiDc/AAABjcWesUg/16x9-512.jpg", "date": "2024-04-05T12:19:00.000+02:00", "lat": 49.2378, "lon": 7.3365, "intensity": 0.8, "source": "Tagesschau"}, {"title": "Mann aus Barsinghausen soll Kriegswaffen an Mafia verkauft haben", "url": "https://www.tagesschau.de/inland/regional/niedersachsen/ndr-mann-aus-barsinghausen-soll-maschinengewehre-an-mafia-verkauft-haben-100.html", "thumbnailUrl": "https://images.tagesschau.de/image/90924687-d8f0-483a-8a06-cdc1fc1cdd9b/AAABjq2yARI/AAABjcWesUg/16x9-512.jpg", "date": "2024-04-05T12:14:00.000+02:00", "lat": 52.3072, "lon": 9.4475, "intensity": 0.8, "source": "Tagesschau"}, {"title": "Diebe erbeuten Millionen aus Geldspeicher", "url": "https://www.tagesschau.de/ausland/amerika/los-angeles-raub-100.html", "thumbnailUrl": "https://images.tagesschau.de/image/53edc2dd-2332-45da-902a-1f78a2c754f1/AAABjq2Xc2U/AAABjcWesUg/16x9-512.jpg", "date": "2024-04-05T12:13:32.408+02:00", "lat": 34.0522, "lon": -118.2437, "intensity": 0.9, "source": "Tagesschau"}, {"title": "A7-Sperrungen in Hamburg am Wochenende: Elbtunnel betroffen", "url": "https://www.tagesschau.de/inland/regional/hamburg/ndr-a7-in-hamburg-vollsperrung-des-elbtunnels-am-wochenende-100.html", "thumbnailUrl": "https://images.tagesschau.de/image/da172dbc-31d7-48ae-b1dd-aa2899a7f638/AAABjq2fpHs/AAABjcWesUg/16x9-512.jpg", "date": "2024-04-05T12:09:00.000+02:00", "lat": 53.5511, "lon": 9.9526, "intensity": 0.7, "source": "Tagesschau"}, {"title": "Ex-Unioner Robert Andrich im Interview: \"Union Berlin geh\u00f6rt in die Bundesliga\"", "url": "https://www.tagesschau.de/inland/regional/brandenburg/rbb-ex-unioner-robert-andrich-im-interview-union-berlin-gehoert-in-die-bundesliga-102.html", "thumbnailUrl": "https://images.tagesschau.de/image/5fc72e08-4af8-4f83-ab6c-b7597b7f61b0/AAABjq23dLE/AAABjcWesUg/16x9-512.jpg", "date": "2024-04-05T12:01:01.000+02:00", "lat": 52.520008, "lon": 13.413215, "intensity": 0.6, "source": "Tagesschau"}, {"title": "Israel k\u00fcndigt \"sofortige\" Aufstockung von Hilfen an", "url": "https://www.tagesschau.de/ausland/asien/biden-netanyahu-zivilisten-104.html", "thumbnailUrl": "https://images.tagesschau.de/image/96f169b0-65d8-4a54-97d4-deff6a47116c/AAABjq2PZNw/AAABjcWesUg/16x9-512.jpg", "date": "2024-04-05T11:57:00.924+02:00", "lat": 31.9522, "lon": 34.9513, "intensity": 0.7, "source": "Tagesschau"}, {"title": "Unfall auf B207: Flucht vor Polizeikontrolle endet im Graben", "url": "https://www.tagesschau.de/inland/regional/schleswigholstein/ndr-unfall-auf-b207-flucht-vor-polizeikontrolle-endet-im-graben-100.html", "thumbnailUrl": "https://images.tagesschau.de/image/49b303b7-8162-4454-a198-1b7e5a3d7602/AAABjq25TnM/AAABjcWesUg/16x9-512.jpg", "date": "2024-04-05T11:54:00.000+02:00", "lat": 53.6789, "lon": 10.5295, "intensity": 0.7, "source": "Tagesschau"}, {"title": "Wo die Arbeitslosigkeit am st\u00e4rksten steigt ", "url": "https://www.tagesschau.de/wirtschaft/arbeitsmarkt/arbeitslosigkeit-110.html", "thumbnailUrl": "https://images.tagesschau.de/image/fe07b647-8fbf-48f3-b1d5-d52ecf842f0f/AAABjq14G2M/AAABjcWesUg/16x9-512.jpg", "date": "2024-04-05T11:49:51.857+02:00", "lat": 51.2093, "lon": 9.9937, "intensity": 0.7, "source": "Tagesschau"}, {"title": "Hessen stellt bei Verkehrz\u00e4hlung auf K\u00fcnstliche Intelligenz um", "url": "https://www.tagesschau.de/inland/regional/hessen/hr-hessen-stellt-bei-verkehrzaehlung-auf-kuenstliche-intelligenz-um-100.html", "thumbnailUrl": "https://images.tagesschau.de/image/83f36f9f-5ca9-4839-b8a8-435934af85e1/AAABjq2otW4/AAABjcWesUg/16x9-512.jpg", "date": "2024-04-05T11:47:43.483+02:00", "lat": 50.585, "lon": 9.692, "intensity": 0.6, "source": "Tagesschau"}, {"title": "Zu fr\u00fch plakatiert: Erfurter OB Bausewein verst\u00f6\u00dft gegen Wahlkampf-Regeln", "url": "https://www.tagesschau.de/inland/regional/thueringen/mdr-zu-frueh-plakatiert-erfurter-ob-bausewein-verstoesst-gegen-wahlkampf-regeln-100.html", "thumbnailUrl": "https://images.tagesschau.de/image/107ea0e7-4222-45f6-94c7-2997cafe1546/AAABjqvBhRs/AAABjcWesUg/16x9-512.jpg", "date": "2024-04-05T11:47:25.000+02:00", "lat": 50.9787, "lon": 11.0328, "intensity": 0.6, "source": "Tagesschau"}, {"title": "Plant die AfD ein Schulungszentrum bei F\u00fcrth? Gegner alarmiert", "url": "https://www.tagesschau.de/inland/regional/bayern/br-plant-die-afd-ein-schulungszentrum-bei-fuerth-gegner-alarmiert-102.html", "thumbnailUrl": "https://images.tagesschau.de/image/f5a5753c-cb0a-401e-872f-e729092d1849/AAABjq2fk9Y/AAABjcWesUg/16x9-512.jpg", "date": "2024-04-05T11:37:29.155+02:00", "lat": 49.4774, "lon": 10.9935, "intensity": 0.6, "source": "Tagesschau"}, {"title": "Wie eine Seniorenresidenz gegen Lebensmittelverschwendung k\u00e4mpft", "url": "https://www.tagesschau.de/inland/regional/bayern/br-wie-eine-seniorenresidenz-gegen-lebensmittelverschwendung-kaempft-100.html", "thumbnailUrl": "https://images.tagesschau.de/image/d339b931-9b7b-43a3-8a12-8a3516bd1b8d/AAABjq2dzY8/AAABjcWesUg/16x9-512.jpg", "date": "2024-04-05T11:35:47.515+02:00", "lat": 51.1657, "lon": 10.4515, "intensity": 0.6, "source": "Tagesschau"}, {"title": "Feuer in Asylbewerberunterkunft in Forchtenberg gel\u00f6scht", "url": "https://www.tagesschau.de/inland/regional/badenwuerttemberg/swr-feuer-in-asylbewerberunterkunft-in-forchtenberg-ausgebrochen-102.html", "thumbnailUrl": "https://images.tagesschau.de/image/44bf779d-e1ba-49c0-9a97-e62928f54139/AAABjq2dfv8/AAABjcWesUg/16x9-512.jpg", "date": "2024-04-05T11:31:00.000+02:00", "lat": 49.2925, "lon": 9.5188, "intensity": 0.8, "source": "Tagesschau"}, {"title": "Berlin-Tiergarten: Stra\u00dfensperrungen durch Berliner Halbmarathon", "url": "https://www.tagesschau.de/inland/regional/berlin/rbb-berlin-tiergarten-alle-strassensperrungen-durch-berliner-halbmarathon-100.html", "thumbnailUrl": "https://images.tagesschau.de/image/01571134-07b8-4cd1-bd93-8048faa04385/AAABjqzSnPQ/AAABjcWesUg/16x9-512.jpg", "date": "2024-04-05T11:28:46.000+02:00", "lat": 52.5145, "lon": 13.3655, "intensity": 0.7, "source": "Tagesschau"}, {"title": "\"Weniger, daf\u00fcr bewusster\"", "url": "https://www.tagesschau.de/inland/gesellschaft/sinkender-fleischkonsum-deutschland-100.html", "thumbnailUrl": "https://images.tagesschau.de/image/7a414591-816c-4eb2-8c03-f31bb099804a/AAABjqj6byY/AAABjcWesUg/16x9-512.jpg", "date": "2024-04-05T11:18:24.365+02:00", "lat": 51.1657, "lon": 10.4515, "intensity": 0.7, "source": "Tagesschau"}, {"title": "Tornado-Verdacht in Korschenbroich - 20 H\u00e4user besch\u00e4digt", "url": "https://www.tagesschau.de/inland/regional/nordrheinwestfalen/wdr-tornado-verdacht-in-korschenbroich-20-haeuser-beschaedigt-100.html", "thumbnailUrl": "https://images.tagesschau.de/image/c1646936-f82d-4f46-afcf-93197a66bf5f/AAABjq3fXyw/AAABjcWesUg/16x9-512.jpg", "date": "2024-04-05T11:16:00.000+02:00", "lat": 51.1996, "lon": 6.5264, "intensity": 0.8, "source": "Tagesschau"}, {"title": "Berlin-K\u00f6penick: Polizei stellt Chemikalien in Bohnsdorf sicher", "url": "https://www.tagesschau.de/inland/regional/berlin/rbb-berlin-koepenick-polizei-stellt-chemikalien-in-bohnsdorf-sicher-100.html", "thumbnailUrl": "https://images.tagesschau.de/image/390e07ad-ceed-49eb-9f70-f1a49acd9f08/AAABjq2JsNs/AAABjcWesUg/16x9-512.jpg", "date": "2024-04-05T11:11:27.000+02:00", "lat": 52.409, "lon": 13.606, "intensity": 0.6, "source": "Tagesschau"}, {"title": "\"Schwammdach\" aus Oberfranken st\u00f6\u00dft weltweit auf Interesse", "url": "https://www.tagesschau.de/inland/regional/bayern/br-schwammdach-aus-oberfranken-stoesst-weltweit-auf-interesse-102.html", "thumbnailUrl": "https://images.tagesschau.de/image/81c2bfe4-9bc9-4e8e-9eb8-4c5f8f1eb695/AAABjq2F-0U/AAABjcWesUg/16x9-512.jpg", "date": "2024-04-05T11:09:06.581+02:00", "lat": 50.2179, "lon": 11.7627, "intensity": 0.7, "source": "Tagesschau"}, {"title": "Sommerwetter am Wochenende: Bis zu 30 Grad in BW m\u00f6glich", "url": "https://www.tagesschau.de/inland/regional/badenwuerttemberg/swr-sommerwetter-am-wochenende-bis-zu-30-grad-in-bw-moeglich-100.html", "thumbnailUrl": "https://images.tagesschau.de/image/b1916522-2aa3-4025-b901-5abc89659a35/AAABjq2LR0E/AAABjcWesUg/16x9-512.jpg", "date": "2024-04-05T11:06:00.000+02:00", "lat": 48.771508, "lon": 9.005963, "intensity": 0.8, "source": "Tagesschau"}, {"title": "Junge Menschen aus Ruanda machen Ausbildung in rheinhessischen Hotels", "url": "https://www.tagesschau.de/inland/regional/rheinlandpfalz/swr-junge-menschen-aus-ruanda-machen-ausbildung-in-rheinhessischen-hotels-100.html", "thumbnailUrl": "https://images.tagesschau.de/image/70566a64-43ab-4682-9769-21c3f527c59d/AAABjq3hPmE/AAABjcWesUg/16x9-512.jpg", "date": "2024-04-05T11:05:46.000+02:00", "lat": 49.992, "lon": 8.271, "intensity": 0.6, "source": "Tagesschau"}, {"title": "Streik am Flughafen Frankfurt? Entscheidende Gespr\u00e4che bei Lufthansa und Sicherheitspersonal", "url": "https://www.tagesschau.de/inland/regional/hessen/hr-streik-am-flughafen-frankfurt-tarifgespraeche-bei-lufthansa-kabinenpersonal-gehen-weiter-100.html", "thumbnailUrl": "https://images.tagesschau.de/image/3285bada-d10a-4c42-8495-bc4c9b0da26e/AAABjq2CL-c/AAABjcWesUg/16x9-512.jpg", "date": "2024-04-05T11:05:06.276+02:00", "lat": 50.033056, "lon": 8.570833, "intensity": 0.7, "source": "Tagesschau"}, {"title": "Nach Gro\u00dfeinsatz der Polizei in Greiz: Sechs Lkw-Ladungen voller Beweismittel", "url": "https://www.tagesschau.de/inland/regional/thueringen/mdr-stundenlanger-polizeieinsatz-in-greiz-sieben-personen-festgenommen-100.html", "thumbnailUrl": "https://images.tagesschau.de/image/de020323-ae4a-4cf5-8635-d46f62e4860d/AAABjq21frQ/AAABjcWesUg/16x9-512.jpg", "date": "2024-04-05T11:05:00.000+02:00", "lat": 50.6553, "lon": 12.2036, "intensity": 0.8, "source": "Tagesschau"}, {"title": "Weniger Stimmung? Toppm\u00f6ller appelliert an Fans von Eintracht Frankfurt", "url": "https://www.tagesschau.de/inland/regional/hessen/hr-weniger-stimmung-toppmoeller-appelliert-an-fans-von-eintracht-frankfurt-102.html", "thumbnailUrl": "https://images.tagesschau.de/image/7f8897a9-df3a-4e5c-8fd1-fb84786d5190/AAABjq2Ud5s/AAABjcWesUg/16x9-512.jpg", "date": "2024-04-05T11:01:09.697+02:00", "lat": 50.1109, "lon": 8.6626, "intensity": 0.6, "source": "Tagesschau"}, {"title": "Ulm: Zwei Schwerverletzte nach Unfall mit Stra\u00dfenbahn in B\u00f6fingen", "url": "https://www.tagesschau.de/inland/regional/badenwuerttemberg/swr-ulm-zwei-schwerverletzte-nach-unfall-mit-strassenbahn-in-boefingen-100.html", "thumbnailUrl": "https://images.tagesschau.de/image/6dcac3d2-c8ad-4021-b537-3af55dbb784a/AAABjq2dkYs/AAABjcWesUg/16x9-512.jpg", "date": "2024-04-05T11:01:00.000+02:00", "lat": 48.3984, "lon": 9.9707, "intensity": 0.8, "source": "Tagesschau"}, {"title": "Erste personelle Konsequenzen nach Korruptionsvorw\u00fcrfen in Namborn? ", "url": "https://www.tagesschau.de/inland/regional/saarland/sr-erste-personelle-konsequenzen-nach-korruptionsvorwuerfen-in-namborn-100.html", "thumbnailUrl": "https://images.tagesschau.de/image/b6f06b13-85fc-47a4-80f2-80b580929819/AAABjq2D1MQ/AAABjcWesUg/16x9-512.jpg", "date": "2024-04-05T11:00:00.000+02:00", "lat": 49.5139, "lon": 7.0394, "intensity": 0.8, "source": "Tagesschau"}, {"title": "Babboe-Lastenr\u00e4der: Zwei weitere Modelle von R\u00fcckruf betroffen", "url": "https://www.tagesschau.de/inland/regional/nordrheinwestfalen/wdr-babboe-lastenraeder-zwei-weitere-modelle-von-rueckruf-betroffen-100.html", "thumbnailUrl": "https://images.tagesschau.de/image/def987ca-e338-43b3-b7bd-6fd76fba0061/AAABjq3YDLg/AAABjcWesUg/16x9-512.jpg", "date": "2024-04-05T11:00:00.000+02:00", "lat": 51.1657, "lon": 7.6261, "intensity": 0.8, "source": "Tagesschau"}, {"title": "Stromtransport: Ultranet-Ausbau zwischen Mannheim und Philippsburg", "url": "https://www.tagesschau.de/inland/regional/badenwuerttemberg/swr-stromtransport-ultranet-ausbau-zwischen-mannheim-und-philippsburg-100.html", "thumbnailUrl": "https://images.tagesschau.de/image/f4a74f0a-ad44-4dcb-afcb-2e71ce0522b3/AAABjq2zgY4/AAABjcWesUg/16x9-512.jpg", "date": "2024-04-05T10:57:00.000+02:00", "lat": 49.48746, "lon": 8.45906, "intensity": 0.7, "source": "Tagesschau"}, {"title": "B\u00fcrgerinitiative k\u00e4mpft f\u00fcr mehr \u00c4rzte im Adenauer Land", "url": "https://www.tagesschau.de/inland/regional/rheinlandpfalz/swr-buergerinitiative-kaempft-fuer-mehr-aerzte-im-adenauer-land-100.html", "thumbnailUrl": "https://images.tagesschau.de/image/004271b7-8523-4019-a6c7-21308f7cbdaf/AAABjq2D9vo/AAABjcWesUg/16x9-512.jpg", "date": "2024-04-05T10:47:50.000+02:00", "lat": 50.5445, "lon": 7.1532, "intensity": 0.8, "source": "Tagesschau"}, {"title": "Klimaschutz und Weidehaltung vereinbaren: Ein Versuch", "url": "https://www.tagesschau.de/inland/regional/niedersachsen/ndr-klimaschutz-und-weidehaltung-vereinbaren-ein-versuch-100.html", "thumbnailUrl": "https://images.tagesschau.de/image/027d53df-bf6b-4c4b-bb62-24ea7cbcac62/AAABjqyLRKU/AAABjcWesUg/16x9-512.jpg", "date": "2024-04-05T10:38:00.000+02:00", "lat": 53.3007, "lon": 8.4596, "intensity": 0.7, "source": "Tagesschau"}, {"title": "Rekordverd\u00e4chtig: Fr\u00fche Obstbaum-Bl\u00fcte im Alten Land", "url": "https://www.tagesschau.de/inland/regional/niedersachsen/ndr-rekordverdaechtig-fruehe-obstbaum-bluete-im-alten-land-100.html", "thumbnailUrl": "https://images.tagesschau.de/image/b3a8aea3-0724-4660-a2b0-2dbc7db9bfbc/AAABjqzZ9Ek/AAABjcWesUg/16x9-512.jpg", "date": "2024-04-05T10:35:00.000+02:00", "lat": 53.529, "lon": 9.643, "intensity": 0.7, "source": "Tagesschau"}, {"title": "Hamburger Verfassungsschutz warnt vor Propaganda von Islamisten", "url": "https://www.tagesschau.de/inland/regional/hamburg/ndr-hamburger-verfassungsschutz-warnt-vor-propaganda-von-islamisten-100.html", "thumbnailUrl": "https://images.tagesschau.de/image/0c02729d-020f-41a9-80a5-30aaeda9769c/AAABjqzFuVk/AAABjcWesUg/16x9-512.jpg", "date": "2024-04-05T10:33:00.000+02:00", "lat": 53.5511, "lon": 9.9937, "intensity": 0.8, "source": "Tagesschau"}, {"title": "Verkehrschaos durch Extremregen in Sydney", "url": "https://www.tagesschau.de/ausland/ozeanien/sydney-regen-102.html", "thumbnailUrl": "https://images.tagesschau.de/image/7302ecaa-e859-4868-a757-f79330d05492/AAABjq1Dk7I/AAABjcWesUg/16x9-512.jpg", "date": "2024-04-05T10:32:51.460+02:00", "lat": -33.8688, "lon": 151.2093, "intensity": 0.8, "source": "Tagesschau"}, {"title": "Fliegerhorst: Korruption in Oldenburger Stadtverwaltung?", "url": "https://www.tagesschau.de/inland/regional/niedersachsen/ndr-fliegerhorst-korruption-in-oldenburger-stadtverwaltung-100.html", "thumbnailUrl": "https://images.tagesschau.de/image/de41e6be-1775-4cc0-9cc7-0b376377eb10/AAABjq1b_Ac/AAABjcWesUg/16x9-512.jpg", "date": "2024-04-05T10:21:00.000+02:00", "lat": 53.1435, "lon": 8.2107, "intensity": 0.8, "source": "Tagesschau"}, {"title": "Liam Gallagher und John Squire in der Columbiahalle: Eine Stunde professionelle Nostalgie ", "url": "https://www.tagesschau.de/inland/regional/berlin/rbb-liam-gallagher-und-john-squire-in-der-columbiahalle-eine-stunde-professionelle-nostalgie-100.html", "thumbnailUrl": "https://images.tagesschau.de/image/db01fcfc-bc68-4a82-89cf-8725d33e4770/AAABjq1b578/AAABjcWesUg/16x9-512.jpg", "date": "2024-04-05T10:20:51.000+02:00", "lat": 52.4966, "lon": 13.3913, "intensity": 0.6, "source": "Tagesschau"}, {"title": "30 Jahre Haft f\u00fcr Terror-Helfer vom Stra\u00dfburger Weihnachtsmarkt", "url": "https://www.tagesschau.de/inland/regional/saarland/sr-30-jahre-haft-fuer-terror-helfer-vom-strassburger-weihnachtsmarkt-100.html", "thumbnailUrl": "https://images.tagesschau.de/image/caa5e62c-9294-45c0-bb68-9ddc1209bdd2/AAABjq1ktLo/AAABjcWesUg/16x9-512.jpg", "date": "2024-04-05T10:20:00.000+02:00", "lat": 49.0259, "lon": 7.401, "intensity": 0.8, "source": "Tagesschau"}, {"title": "Neue Rader Hochbr\u00fccke: Auf der Gro\u00dfbaustelle geht es voran", "url": "https://www.tagesschau.de/inland/regional/schleswigholstein/ndr-neue-rader-hochbruecke-auf-der-grossbaustelle-geht-es-voran-100.html", "thumbnailUrl": "https://images.tagesschau.de/image/97a758cd-32f1-4940-880d-d853708dbb20/AAABjq2nCWQ/AAABjcWesUg/16x9-512.jpg", "date": "2024-04-05T10:10:00.000+02:00", "lat": 54.322, "lon": 9.836, "intensity": 0.5, "source": "Tagesschau"}, {"title": "Frankfurt hat so viele Einwohner wie noch nie", "url": "https://www.tagesschau.de/inland/regional/hessen/hr-frankfurt-hat-so-viele-einwohner-wie-noch-nie-100.html", "thumbnailUrl": "https://images.tagesschau.de/image/b2887721-81e3-4132-a07a-41108539fea4/AAABjq1Jgz8/AAABjcWesUg/16x9-512.jpg", "date": "2024-04-05T10:03:51.621+02:00", "lat": 50.1109, "lon": 8.6821, "intensity": 0.8, "source": "Tagesschau"}, {"title": "Sommerliche Temperaturen von bis zu 27 Grad am Wochenende vorhergesagt", "url": "https://www.tagesschau.de/inland/regional/brandenburg/rbb-sommerliche-temperaturen-von-bis-zu-27-grad-am-wochenende-vorhergesagt-100.html", "thumbnailUrl": "https://images.tagesschau.de/image/3a952e6d-a75e-4aed-821f-60ed8ec936ec/AAABjq1LPLQ/AAABjcWesUg/16x9-512.jpg", "date": "2024-04-05T10:03:12.000+02:00", "lat": 52.520008, "lon": 13.404954, "intensity": 0.6, "source": "Tagesschau"}, {"title": "Mutma\u00dflicher Messer-Angreifer von Wangen in U-Haft, Neue Regeln f\u00fcr Motorradfahrer im Schwarzwald", "url": "https://www.tagesschau.de/inland/regional/badenwuerttemberg/swr-bw-newsticker-am-morgen-ermittlungen-nach-messerangriff-auf-vierjaehrige-bw-landwirtschaftsminister-will-problemwoelfe-schneller-abschiessen-lassen-100.html", "thumbnailUrl": "https://images.tagesschau.de/image/ab29b9d5-dce4-4dab-b01f-7787eef79575/AAABjq0oS0U/AAABjcWesUg/16x9-512.jpg", "date": "2024-04-05T10:03:00.000+02:00", "lat": 49.2976, "lon": 9.4948, "intensity": 0.8, "source": "Tagesschau"}, {"title": "Hessen am Morgen: +++ Vater schl\u00e4gt Kind beim Fu\u00dfballspielen +++ Frankfurt: So viele Einwohner wie noch nie +++ Meterhohe Nirvana-Skulptur auf Kreisel in Hanau +++", "url": "https://www.tagesschau.de/inland/regional/hessen/hr-hessen-am-morgen--vater-schlaegt-kind-beim-fussballspielen--polizei-warnt-motorradfahrer-zum-saisonstart-100.html", "thumbnailUrl": "https://images.tagesschau.de/image/b16b3028-681c-4e78-9585-1e544b98194b/AAABjq1jGqE/AAABjcWesUg/16x9-512.jpg", "date": "2024-04-05T10:02:01.887+02:00", "lat": 50.110922, "lon": 8.682127, "intensity": 0.7, "source": "Tagesschau"}, {"title": "Problem mit Bremsen bei Boeing-Maschine", "url": "https://www.tagesschau.de/wirtschaft/unternehmen/boeing-panne-kosten-spirit-100.html", "thumbnailUrl": "https://images.tagesschau.de/image/d650f0d2-1f8b-4c76-a489-700fe0f7bd0d/AAABjq2cUYo/AAABjcWesUg/16x9-512.jpg", "date": "2024-04-05T10:01:55.197+02:00", "lat": 47.6417, "lon": -122.3095, "intensity": 0.8, "source": "Tagesschau"}, {"title": "Bodycams f\u00fcr Zugbegleiter: S-Bahn Hannover testet Einsatz", "url": "https://www.tagesschau.de/inland/regional/niedersachsen/ndr-bodycams-fuer-zugbegleiter-s-bahn-hannover-testet-einsatz-100.html", "thumbnailUrl": "https://images.tagesschau.de/image/a9417adb-015a-4997-bcd6-331c66b25fc6/AAABjq1CVEk/AAABjcWesUg/16x9-512.jpg", "date": "2024-04-05T09:51:00.000+02:00", "lat": 52.3759, "lon": 9.7332, "intensity": 0.7, "source": "Tagesschau"}, {"title": "Einsatz in Berliner Rhinstra\u00dfe: M\u00e4nner werfen in Lichtenberg Fahrrad und Fernseher aus achtem Stock", "url": "https://www.tagesschau.de/inland/regional/berlin/rbb-einsatz-in-berliner-rhinstrasse-maenner-werfen-in-lichtenberg-fahrrad-und-fernseher-aus-achtem-stock-100.html", "thumbnailUrl": "https://images.tagesschau.de/image/f768b076-8766-4053-bb69-46e26052020c/AAABjq0-jvk/AAABjcWesUg/16x9-512.jpg", "date": "2024-04-05T09:50:56.000+02:00", "lat": 52.4957, "lon": 13.5004, "intensity": 0.8, "source": "Tagesschau"}, {"title": "Handball-Bundesliga: F\u00fcchse Berlin nach Sieg in G\u00f6ppingen weiter Tabellenf\u00fchrer", "url": "https://www.tagesschau.de/inland/regional/berlin/rbb-handball-bundesliga-fuechse-berlin-nach-sieg-in-goeppingen-weiter-tabellenfuehrer-102.html", "thumbnailUrl": "https://images.tagesschau.de/image/c6478a91-f519-4009-a7b9-dd711ad3e2ac/AAABjqp5_O4/AAABjcWesUg/16x9-512.jpg", "date": "2024-04-05T09:38:02.000+02:00", "lat": 48.702, "lon": 9.6576, "intensity": 0.7, "source": "Tagesschau"}, {"title": "Mehrere Gro\u00dfprojekte: Was die Hamburger Hochbahn plant", "url": "https://www.tagesschau.de/inland/regional/hamburg/ndr-mehrere-grossprojekte-was-die-hamburger-hochbahn-plant-100.html", "thumbnailUrl": "https://images.tagesschau.de/image/4c9f56d9-3091-449c-8c73-bdd298a9f44f/AAABjq0v8jA/AAABjcWesUg/16x9-512.jpg", "date": "2024-04-05T09:29:00.000+02:00", "lat": 53.551086, "lon": 9.993682, "intensity": 0.8, "source": "Tagesschau"}, {"title": "Landesgartenschau Bad Gandersheim: Gesellschaft ist insolvent", "url": "https://www.tagesschau.de/inland/regional/niedersachsen/ndr-landesgartenschau-bad-gandersheim-gesellschaft-insolvent-100.html", "thumbnailUrl": "https://images.tagesschau.de/image/1a555128-5291-43c5-aa39-7dc8f0db2fc5/AAABjq0oyRY/AAABjcWesUg/16x9-512.jpg", "date": "2024-04-05T09:27:00.000+02:00", "lat": 51.8667, "lon": 10.0333, "intensity": 0.7, "source": "Tagesschau"}, {"title": "Geliebt, gew\u00e4hlt, gescholten - Altkanzler Gerhard Schr\u00f6der wird 80", "url": "https://www.tagesschau.de/inland/regional/niedersachsen/ndr-geliebt-100.html", "thumbnailUrl": "https://images.tagesschau.de/image/2d7b47bd-d2e4-4845-9820-be6836057270/AAABjq07Crc/AAABjcWesUg/16x9-512.jpg", "date": "2024-04-05T09:24:00.000+02:00", "lat": 52.3759, "lon": 9.7416, "intensity": 0.7, "source": "Tagesschau"}, {"title": "Meppen: Seniorin liegt wochenlang tot in ihrer Wohnung", "url": "https://www.tagesschau.de/inland/regional/niedersachsen/ndr-meppen-seniorin-liegt-wochenlang-tot-in-ihrer-wohnung-100.html", "thumbnailUrl": "https://images.tagesschau.de/image/97c72692-65b2-4228-816e-b2f9d56a4a57/AAABjq0m6RQ/AAABjcWesUg/16x9-512.jpg", "date": "2024-04-05T09:24:00.000+02:00", "lat": 52.6932, "lon": 7.2894, "intensity": 0.8, "source": "Tagesschau"}, {"title": "Vorfreude in Heidenheim: Wenn der gro\u00dfe FC Bayern auf die Ostalb reist", "url": "https://www.tagesschau.de/inland/regional/badenwuerttemberg/swr-vorfreude-in-heidenheim-wenn-der-grosse-fc-bayern-auf-die-ostalb-reist-100.html", "thumbnailUrl": "https://images.tagesschau.de/image/d2c78376-d771-4424-b1db-79f0c487dc76/AAABjqxtzCk/AAABjcWesUg/16x9-512.jpg", "date": "2024-04-04T17:03:12.000+02:00", "lat": 48.6766, "lon": 10.1521, "intensity": 0.8, "source": "Tagesschau"}, {"title": "Biden versch\u00e4rft Ton gegen\u00fcber Israel", "url": "https://www.tagesschau.de/ausland/amerika/biden-unter-druck-100.html", "thumbnailUrl": "https://images.tagesschau.de/image/e409908f-9e00-43fc-9c8c-d0ceb245cba8/AAABjq1qx6E/AAABjcWesUg/16x9-512.jpg", "date": "2024-04-05T09:15:23.590+02:00", "lat": 31.7683, "lon": 35.2137, "intensity": 0.7, "source": "Tagesschau"}, {"title": "B\u00fcrgerinitiative erwartet Verkehrschaos in Saarlouis-Fraulautern", "url": "https://www.tagesschau.de/inland/regional/saarland/sr-buergerinitiative-erwartet-verkehrschaos-in-saarlouis-fraulautern-100.html", "thumbnailUrl": "https://images.tagesschau.de/image/77f4cd99-bef0-4d0d-88f1-f81171f32dd7/AAABjq0Zohc/AAABjcWesUg/16x9-512.jpg", "date": "2024-04-05T09:09:00.000+02:00", "lat": 49.316, "lon": 6.801, "intensity": 0.8, "source": "Tagesschau"}, {"title": "52-J\u00e4hrige in Irish Pub mit Messer lebensgef\u00e4hrlich verletzt", "url": "https://www.tagesschau.de/inland/regional/niedersachsen/ndr-53-jaehrige-mit-messer-lebensgefaehrlich-verletzt-100.html", "thumbnailUrl": "https://images.tagesschau.de/image/092a9ed7-a606-4d26-9c37-ff72b02086ae/AAABjq0YRA4/AAABjcWesUg/16x9-512.jpg", "date": "2024-04-05T09:07:00.000+02:00", "lat": 52.9548, "lon": 9.4113, "intensity": 0.8, "source": "Tagesschau"}, {"title": "\"Lebenswelten Wesermarsch\" zeigt Geschichten von Zugewanderten", "url": "https://www.tagesschau.de/inland/regional/niedersachsen/ndr-lebenswelten-wesermarsch-zeigt-geschichten-von-zugewanderten-100.html", "thumbnailUrl": "https://images.tagesschau.de/image/ee8a1ada-3e36-4134-8401-28a98b2b10b1/AAABjq0Q6-k/AAABjcWesUg/16x9-512.jpg", "date": "2024-04-05T08:56:00.000+02:00", "lat": 53.2023, "lon": 8.3913, "intensity": 0.5, "source": "Tagesschau"}, {"title": "Nach Schlie\u00dfung von Notfallpraxen: Mehr Patienten wegen Bagatellen in der Notaufnahme", "url": "https://www.tagesschau.de/inland/regional/badenwuerttemberg/swr-nach-schliessung-von-notfallpraxen-mehr-patienten-wegen-bagatellen-in-der-notaufnahme-100.html", "thumbnailUrl": "https://images.tagesschau.de/image/d2a1b224-a2ba-4b96-acc2-e59375506068/AAABjq0HbnA/AAABjcWesUg/16x9-512.jpg", "date": "2024-04-05T08:38:00.000+02:00", "lat": 48.6616, "lon": 9.7356, "intensity": 0.7, "source": "Tagesschau"}, {"title": "Hansa Rostock gegen Wehen Wiesbaden: Wer entfacht den Sturm?", "url": "https://www.tagesschau.de/inland/regional/mecklenburgvorpommern/ndr-hansa-rostock-gegen-wehen-wiesbaden-wer-entfacht-den-sturm-102.html", "thumbnailUrl": "https://images.tagesschau.de/image/9cbcfcce-324c-4039-b4bc-a8c0e5fc271d/AAABjqlsn7g/AAABjcWesUg/16x9-512.jpg", "date": "2024-04-05T08:34:00.000+02:00", "lat": 54.0834, "lon": 12.1141, "intensity": 0.7, "source": "Tagesschau"}, {"title": "Weniger Motorradl\u00e4rm im Schwarzwald? Zwei Gemeinden setzen auf neue Regeln", "url": "https://www.tagesschau.de/inland/regional/badenwuerttemberg/swr-weniger-motorradlaerm-im-schwarzwald-zwei-gemeinden-setzen-auf-neue-regeln-100.html", "thumbnailUrl": "https://images.tagesschau.de/image/affad5a3-8343-4fee-9400-4d88fcc910c1/AAABjqz4yGI/AAABjcWesUg/16x9-512.jpg", "date": "2024-04-05T08:30:00.000+02:00", "lat": 48.3953, "lon": 8.2319, "intensity": 0.6, "source": "Tagesschau"}, {"title": "Luxemburg-Pendler m\u00fcssen \u00dcberstunden nun doch in Deutschland versteuern", "url": "https://www.tagesschau.de/inland/regional/saarland/sr-luxemburg-pendler-muessen-ueberstunden-nun-doch-doppelt-versteuern-100.html", "thumbnailUrl": "https://images.tagesschau.de/image/681b7f70-511d-4338-80c0-ab3d6c8c8a06/AAABjqzxWIY/AAABjcWesUg/16x9-512.jpg", "date": "2024-04-05T08:25:00.000+02:00", "lat": 49.2323, "lon": 6.9969, "intensity": 0.7, "source": "Tagesschau"}, {"title": "\"Reichsb\u00fcrger\" besa\u00dfen illegale Waffen", "url": "https://www.tagesschau.de/inland/reichsbuerger-razzia-illegale-schusswaffen-101.html", "thumbnailUrl": "https://images.tagesschau.de/image/b6fcfbea-0a87-4dc9-933d-495af4962409/AAABhnSJB10/AAABjcWesUg/16x9-512.jpg", "date": "2024-04-05T08:17:52.520+02:00", "lat": 51.4, "lon": 9.9937, "intensity": 0.8, "source": "Tagesschau"}, {"title": "Nach Messerangriff in Wangen im Allg\u00e4u: 34-J\u00e4hriger wegen versuchten Mordes in U-Haft", "url": "https://www.tagesschau.de/inland/regional/badenwuerttemberg/swr-wangen-im-allgaeu-mann-verletzt-kind-in-supermarkt-mit-messer-100.html", "thumbnailUrl": "https://images.tagesschau.de/image/865b49dc-7e9a-4093-bcc0-9b538df4791e/AAABjqzmgMs/AAABjcWesUg/16x9-512.jpg", "date": "2024-04-05T08:03:00.000+02:00", "lat": 47.6866, "lon": 9.8373, "intensity": 0.8, "source": "Tagesschau"}, {"title": "Feuer in Klein Bennebek: Ein Toter und drei Verletzte", "url": "https://www.tagesschau.de/inland/regional/schleswigholstein/ndr-feuer-in-klein-bennebek-ein-toter-und-drei-verletzte-100.html", "thumbnailUrl": "https://images.tagesschau.de/image/91e2b79b-48aa-4163-9ce6-fd7d4b65eaf9/AAABjq11nmc/AAABjcWesUg/16x9-512.jpg", "date": "2024-04-05T07:53:00.000+02:00", "lat": 54.6586, "lon": 9.4644, "intensity": 0.8, "source": "Tagesschau"}, {"title": "BW-St\u00e4dtetag: Ohne Ticket fahren sollte Straftatbestand bleiben", "url": "https://www.tagesschau.de/inland/regional/badenwuerttemberg/swr-ohne-ticket-bus-und-bahn-fahren-sollte-straftat-bleiben-100.html", "thumbnailUrl": "https://images.tagesschau.de/image/84ac892c-8419-4141-8792-2b9e848b4370/AAABjq0kqaQ/AAABjcWesUg/16x9-512.jpg", "date": "2024-04-05T07:37:58.000+02:00", "lat": 48.6616, "lon": 9.6605, "intensity": 0.5, "source": "Tagesschau"}, {"title": "Darmstadt 98: +++ Mainz-Trainer sieht \"ein Finale\" gegen Lilien +++ Lilien haben nichts mehr zu verlieren +++ Skarke \"will unbedingt spielen\" +++", "url": "https://www.tagesschau.de/inland/regional/hessen/hr--tietz-vermisst-fehlende-gier--lilien-fans-liefern-sich-raststaetten-pruegelei--die-niederlage-der-lilien-in-der-video-zusammenfassung-102.html", "thumbnailUrl": "https://images.tagesschau.de/image/712abeb3-31bb-4ac0-b7bd-1b475ff2760c/AAABjqk-5Qg/AAABjcWesUg/16x9-512.jpg", "date": "2024-04-04T15:03:09.464+02:00", "lat": 49.8717, "lon": 8.65, "intensity": 0.5, "source": "Tagesschau"}, {"title": "Neues Buch: Was Nirvana-S\u00e4nger Kurt Cobain unsterblich macht ", "url": "https://www.tagesschau.de/inland/regional/hessen/hr-neues-buch-was-nirvana-saenger-kurt-cobain-unsterblich-macht-100.html", "thumbnailUrl": "https://images.tagesschau.de/image/6add6aae-32e4-4205-86c8-b0e8824a1fa6/AAABjq2Hv5c/AAABjcWesUg/16x9-512.jpg", "date": "2024-04-05T07:34:22.757+02:00", "lat": 50.1167, "lon": 8.6833, "intensity": 0.6, "source": "Tagesschau"}, {"title": "Eintracht: +++ Erschreckende Standard-Statistik +++ Bremen Lieblingsgegner von G\u00f6tze +++ Eintracht-Schutzdeckel gegen K.o.-Tropfen +++ ", "url": "https://www.tagesschau.de/inland/regional/hessen/hr--eintracht-wohl-mit-chaibi-einig--glasner-fast-nur-kolo-muani-der-tore-erzielt--bericht-eintracht-sagt-aouar-ab-100.html", "thumbnailUrl": "https://images.tagesschau.de/image/7131e813-89d5-4b7f-ba2a-5d27fd19094c/AAABjq18p48/AAABjcWesUg/16x9-512.jpg", "date": "2024-04-05T07:30:27.663+02:00", "lat": 50.1109, "lon": 8.6821, "intensity": 0.7, "source": "Tagesschau"}, {"title": "Dem Pf\u00e4lzerwald geht es so gut wie lange nicht", "url": "https://www.tagesschau.de/inland/regional/rheinlandpfalz/swr-dem-pfaelzerwald-geht-es-so-gut-wie-lange-nicht-100.html", "thumbnailUrl": "https://images.tagesschau.de/image/e4994e5c-2b28-46f1-88dc-6fc9a196c1ea/AAABjqy4nds/AAABjcWesUg/16x9-512.jpg", "date": "2024-04-05T07:20:24.000+02:00", "lat": 49.2621, "lon": 7.9838, "intensity": 0.5, "source": "Tagesschau"}, {"title": "Das Wichtigste zu Eintracht Frankfurt gegen Werder Bremen", "url": "https://www.tagesschau.de/inland/regional/hessen/hr-das-wichtigste-zu-eintracht-frankfurt-gegen-werder-bremen-102.html", "thumbnailUrl": "https://images.tagesschau.de/image/22d0c061-5ca0-4fa1-9a85-42215f8df2a5/AAABjq0ogQY/AAABjcWesUg/16x9-512.jpg", "date": "2024-04-05T07:06:01.204+02:00", "lat": 50.1109, "lon": 8.7036, "intensity": 0.7, "source": "Tagesschau"}, {"title": "Immer mehr Menschen im Westen der Pfalz haben einen kleinen Waffenschein", "url": "https://www.tagesschau.de/inland/regional/rheinlandpfalz/swr-immer-mehr-menschen-im-westen-der-pfalz-haben-einen-kleinen-waffenschein-100.html", "thumbnailUrl": "https://images.tagesschau.de/image/c48b7e66-e224-4989-89de-1fd60dddc4f4/AAABjq3HnYg/AAABjcWesUg/16x9-512.jpg", "date": "2024-04-05T06:48:32.000+02:00", "lat": 49.4466, "lon": 7.9959, "intensity": 0.6, "source": "Tagesschau"}, {"title": "A1: Lkw mit Bierkisten kippt um - Autobahn bei Stuhr wieder frei", "url": "https://www.tagesschau.de/inland/regional/niedersachsen/ndr-a1-lkw-mit-bierkisten-kippt-um-autobahn-bei-stuhr-gesperrt-100.html", "thumbnailUrl": "https://images.tagesschau.de/image/bbd36dfe-1ac8-46c8-897c-b12498bdf800/AAABjqyWLaA/AAABjcWesUg/16x9-512.jpg", "date": "2024-04-05T06:47:00.000+02:00", "lat": 53.0426, "lon": 8.7863, "intensity": 0.8, "source": "Tagesschau"}, {"title": "Auf der Saarbr\u00fccker Metzer Stra\u00dfe drohen ab heute Staus", "url": "https://www.tagesschau.de/inland/regional/saarland/sr-auf-der-saarbruecker-metzer-strasse-drohen-am-wochenende-staus-100.html", "thumbnailUrl": "https://images.tagesschau.de/image/99abfc86-af9a-4c6f-af24-4cada2d3debe/AAABjq1sBWU/AAABjcWesUg/16x9-512.jpg", "date": "2024-04-05T06:43:00.000+02:00", "lat": 49.2401, "lon": 6.9911, "intensity": 0.6, "source": "Tagesschau"}, {"title": "Ausbau von S\u00fcdschnellweg: B3 ab heute Abend l\u00e4nger dicht", "url": "https://www.tagesschau.de/inland/regional/niedersachsen/ndr-ausbau-von-suedschnellweg-b3-in-hannover-heute-abend-gesperrt-100.html", "thumbnailUrl": "https://images.tagesschau.de/image/e5008b51-bcb4-430d-9aea-17af970de027/AAABjqySjmw/AAABjcWesUg/16x9-512.jpg", "date": "2024-04-05T06:34:00.000+02:00", "lat": 52.3759, "lon": 9.7332, "intensity": 0.6, "source": "Tagesschau"}, {"title": "Deutlich mehr E-Lades\u00e4ulen im Saarland als vor einem Jahr", "url": "https://www.tagesschau.de/inland/regional/saarland/sr-deutlich-mehr-e-ladesaeulen-im-saarland-als-vor-einem-jahr-100.html", "thumbnailUrl": "https://images.tagesschau.de/image/8af08229-7ba7-4ce9-b6c4-7a46d085d6c9/AAABjq0Zpmk/AAABjcWesUg/16x9-512.jpg", "date": "2024-04-05T06:32:00.000+02:00", "lat": 49.3964, "lon": 6.9102, "intensity": 0.7, "source": "Tagesschau"}, {"title": "A8 bei Neunkirchen Richtung Pirmasens bis Montag voll gesperrt", "url": "https://www.tagesschau.de/inland/regional/saarland/sr-a8-bei-neunkirchen-richtung-pirmasens-bis-montag-voll-gesperrt-100.html", "thumbnailUrl": "https://images.tagesschau.de/image/0ccda861-3c7e-43e7-ba5f-61559e6a4a16/AAABjq1sEWQ/AAABjcWesUg/16x9-512.jpg", "date": "2024-04-05T06:31:00.000+02:00", "lat": 49.3436, "lon": 7.1814, "intensity": 0.8, "source": "Tagesschau"}, {"title": "Karlsberg-Mitarbeitende heute zum Streik aufgerufen", "url": "https://www.tagesschau.de/inland/regional/saarland/sr-karlsberg-mitarbeitende-zum-streik-aufgerufen-100.html", "thumbnailUrl": "https://images.tagesschau.de/image/f71ff4fb-6ad6-48c2-b11e-ff8f23ae2970/AAABjqjsSpo/AAABjcWesUg/16x9-512.jpg", "date": "2024-04-05T06:28:00.000+02:00", "lat": 49.3123, "lon": 7.3403, "intensity": 0.8, "source": "Tagesschau"}, {"title": "Poppenb\u00fcttel: Starker Rauch nach Brand in Tiefgarage", "url": "https://www.tagesschau.de/inland/regional/hamburg/ndr-poppenbuettel-starker-rauch-nach-brand-in-tiefgarage-100.html", "thumbnailUrl": "https://images.tagesschau.de/image/e228c4fd-a911-4c0b-bc5a-6d8013af4bf9/AAABjqmh5Cs/AAABjcWesUg/16x9-512.jpg", "date": "2024-04-05T06:23:00.000+02:00", "lat": 53.6467, "lon": 10.0903, "intensity": 0.8, "source": "Tagesschau"}, {"title": "Ph\u00e4nomen der Feenkreise in Namibia entschl\u00fcsselt?", "url": "https://www.tagesschau.de/wissen/forschung/feenkreise-namibia-100.html", "thumbnailUrl": "https://images.tagesschau.de/image/55de1e36-10b6-4d83-865d-38c91f8c4e0f/AAABjqPIZjc/AAABjcWesUg/16x9-512.jpg", "date": "2024-04-05T06:13:25.533+02:00", "lat": -23.4213564, "lon": 15.9783487, "intensity": 0.8, "source": "Tagesschau"}, {"title": "Traditionssport Kegelbillard fehlt der Nachwuchs", "url": "https://www.tagesschau.de/inland/regional/brandenburg/rbb-traditionssport-kegelbillard-fehlt-der-nachwuchs-100.html", "thumbnailUrl": "https://images.tagesschau.de/image/095524f3-50e0-484a-80e5-01e6048bb041/AAABjqx4sdg/AAABjcWesUg/16x9-512.jpg", "date": "2024-04-05T06:09:22.000+02:00", "lat": 52.3007, "lon": 13.1619, "intensity": 0.6, "source": "Tagesschau"}, {"title": "A42: Vollsperrung bei Herne wegen Br\u00fcckenbauarbeiten", "url": "https://www.tagesschau.de/inland/regional/nordrheinwestfalen/wdr-a42-vollsperrung-bei-herne-wegen-brueckenbauarbeiten-102.html", "thumbnailUrl": "https://images.tagesschau.de/image/34e99850-d2ef-4ea0-aac5-3633a79dd91e/AAABjqzdL8I/AAABjcWesUg/16x9-512.jpg", "date": "2024-04-05T06:00:00.000+02:00", "lat": 51.5366, "lon": 7.2286, "intensity": 0.5, "source": "Tagesschau"}, {"title": "GEW verurteilt Schwesigs Schoko-Werbeaktion an Schweriner Kitas", "url": "https://www.tagesschau.de/inland/regional/mecklenburgvorpommern/ndr-gew-verurteilt-schwesigs-schoko-werbeaktion-an-schweriner-kitas-100.html", "thumbnailUrl": "https://images.tagesschau.de/image/ccb31d2d-8404-4e91-a40d-e8ca3339e8af/AAABjqxtvA8/AAABjcWesUg/16x9-512.jpg", "date": "2024-04-05T05:25:00.000+02:00", "lat": 53.6297, "lon": 11.4036, "intensity": 0.7, "source": "Tagesschau"}, {"title": "Auftrag Naturschutz: Ranger an Schleswig-Holsteins Ostseek\u00fcste", "url": "https://www.tagesschau.de/inland/regional/schleswigholstein/ndr-auftrag-naturschutz-ranger-an-schleswig-holsteins-ostseekueste-100.html", "thumbnailUrl": "https://images.tagesschau.de/image/85c083e5-b511-45cc-b37c-4a2a63fa351e/AAABjqw1GgM/AAABjcWesUg/16x9-512.jpg", "date": "2024-04-05T05:00:00.000+02:00", "lat": 54.4701, "lon": 9.5491, "intensity": 0.5, "source": "Tagesschau"}, {"title": "Ein Zauberwort im Kampf gegen die Inflation", "url": "https://www.tagesschau.de/ausland/europa/inflation-tuerkei-urlaubssaison-100.html", "thumbnailUrl": "https://images.tagesschau.de/image/e6d31ce9-4441-4eb5-8389-b5957820b10d/AAABjquQ59U/AAABjcWesUg/16x9-512.jpg", "date": "2024-04-05T02:08:04.240+02:00", "lat": 38.9637, "lon": 35.2433, "intensity": 0.8, "source": "Tagesschau"}, {"title": "Israelische Armee entl\u00e4sst nach Angriff auf Helfer Offiziere", "url": "https://www.br.de/nachrichten/meldungen/index.html#n1", "thumbnailUrl": null, "date": "2024-04-05T13:35:35+02:00", "lat": 30.0444, "lon": 31.2357, "intensity": 0.8, "source": "Bayrischer Rundfunk"}, {"title": "UN-Menschenrechtsrat fordert Ende von Waffenlieferungen an Israel", "url": "https://www.br.de/nachrichten/meldungen/index.html#n2", "thumbnailUrl": null, "date": "2024-04-05T13:35:35+02:00", "lat": 33.5138, "lon": 36.2021, "intensity": 0.8, "source": "Bayrischer Rundfunk"}, {"title": "Ukraine meldet Zerst\u00f6rung von sechs russischen Flugzeugen", "url": "https://www.br.de/nachrichten/meldungen/index.html#n3", "thumbnailUrl": null, "date": "2024-04-05T13:35:35+02:00", "lat": 39.9334, "lon": 32.8597, "intensity": 0.8, "source": "Bayrischer Rundfunk"}, {"title": "Europol geht derzeit gegen mehr als 800 Banden in der EU vor", "url": "https://www.br.de/nachrichten/meldungen/index.html#n4", "thumbnailUrl": null, "date": "2024-04-05T13:35:35+02:00", "lat": 52.520008, "lon": 13.404954, "intensity": 0.7, "source": "Bayrischer Rundfunk"}, {"title": "Ermittler finden Falschgeld im Wert von 103 Millionen Dollar", "url": "https://www.br.de/nachrichten/meldungen/index.html#n5", "thumbnailUrl": null, "date": "2024-04-05T13:35:35+02:00", "lat": 52.520008, "lon": 13.404954, "intensity": 0.6, "source": "Bayrischer Rundfunk"}, {"title": "Rettungskr\u00e4fte entdecken weitere Tote nach Erdbeben in Taiwan", "url": "https://www.br.de/nachrichten/meldungen/index.html#n6", "thumbnailUrl": null, "date": "2024-04-05T13:35:35+02:00", "lat": 48.135125, "lon": 11.581981, "intensity": 0.6, "source": "Bayrischer Rundfunk"}, {"title": "Studie: Bis zu elf Millionen Tonnen Plastikm\u00fcll auf dem Meeresgrund", "url": "https://www.br.de/nachrichten/meldungen/index.html#n7", "thumbnailUrl": null, "date": "2024-04-05T13:35:35+02:00", "lat": 50.110922, "lon": 8.682127, "intensity": 0.8, "source": "Bayrischer Rundfunk"}, {"title": "Polizei geht von T\u00f6tungsdelikt in Neumarkt aus", "url": "https://www.br.de/nachrichten/meldungen/index.html#n8", "thumbnailUrl": null, "date": "2024-04-05T13:35:35+02:00", "lat": 47.8684, "lon": 12.6394, "intensity": 0.8, "source": "Bayrischer Rundfunk"}, {"title": "Fu\u00dfballerinnen starten in die Quali f\u00fcr die EM 2025", "url": "https://www.br.de/nachrichten/meldungen/index.html#n9", "thumbnailUrl": null, "date": "2024-04-05T13:35:35+02:00", "lat": 48.5844, "lon": 13.6722, "intensity": 0.8, "source": "Bayrischer Rundfunk"}, {"title": "Das Wetter: Viel Sonne, bis 24 Grad", "url": "https://www.br.de/nachrichten/meldungen/index.html#n10", "thumbnailUrl": null, "date": "2024-04-05T13:35:35+02:00", "lat": 53.5396, "lon": 8.5761, "intensity": 0.4, "source": "Bayrischer Rundfunk"}, {"title": "Saison er\u00f6ffnet: Berliner Brunnen sprudeln wieder", "url": "https://www.rbb24.de/panorama/beitrag/2024/04/berlin-wasserbetriebe-brunnensaison-eroeffnet.html", "thumbnailUrl": null, "date": "Fri, 05 Apr 2024 13:52:53 +0200", "lat": 52.520008, "lon": 13.404954, "intensity": 0.5, "source": "RBB"}, {"title": "Justiz muss deutlich mehr Cannabis-Verfahren \u00fcberpr\u00fcfen als zun\u00e4chst erwartet", "url": "https://www.rbb24.de/politik/beitrag/2024/04/berlin-brandenburg-justiz-deutlich-mehr-cannabis-verfahren-aufgerollt-amnestie-legalisierung.html", "thumbnailUrl": null, "date": "Fri, 05 Apr 2024 13:51:49 +0200", "lat": 53.5511, "lon": 9.9937, "intensity": 0.7, "source": "RBB"}, {"title": "Amnestieregelung: H\u00e4ftling in Berlin wegen Teillegalisierung von Cannabis entlassen", "url": "https://www.rbb24.de/politik/beitrag/2024/04/berlin-teillegalisierung-cannabis-haeftling-entlassen.html", "thumbnailUrl": null, "date": "Fri, 05 Apr 2024 13:36:30 +0200", "lat": 52.520008, "lon": 13.404954, "intensity": 0.7, "source": "RBB"}, {"title": "Kaufhaus Galeries Lafayette in der Friedrichstra\u00dfe schlie\u00dft bereits Ende Juli", "url": "https://www.rbb24.de/wirtschaft/beitrag/2024/04/berlin-kaufhaus-galeries-lafayette-schliesst-bereits-ende-juli.html", "thumbnailUrl": null, "date": "Fri, 05 Apr 2024 13:01:41 +0200", "lat": 52.51454, "lon": 13.38856, "intensity": 0.8, "source": "RBB"}, {"title": "Wetter in Berlin und Brandenburg: Bis zu 27 Grad am Wochenende erwartet - vorher Sturm und Hagel m\u00f6glich", "url": "https://www.rbb24.de/panorama/beitrag/2024/04/wetter-aussichten-wochenende-berlin-brandenburg.html", "thumbnailUrl": null, "date": "Fri, 05 Apr 2024 12:56:28 +0200", "lat": 52.52, "lon": 13.405, "intensity": 0.7, "source": "RBB"}, {"title": "Fu\u00dfball-Bundesliga: Union Berlin muss gegen Tabellenf\u00fchrer Leverkusen \"Au\u00dferirdisches\" leisten", "url": "https://www.rbb24.de/sport/beitrag/2024/04/berlin-sport-fussball-bundesliga-union-bayer-leverkusen-vorbericht.html", "thumbnailUrl": null, "date": "Fri, 05 Apr 2024 12:54:46 +0200", "lat": 52.472567, "lon": 13.494044, "intensity": 0.6, "source": "RBB"}, {"title": "Geplante Nord-S\u00fcd-Verbindung: Berliner S21 geht erst Ende 2024 in Betrieb", "url": "https://www.rbb24.de/panorama/beitrag/2024/04/berlin-s-bahn-s21-s15-hauptbahnhof-gesundbrunnen-ende-2024.html", "thumbnailUrl": null, "date": "Fri, 05 Apr 2024 12:49:00 +0200", "lat": 52.5256, "lon": 13.3692, "intensity": 0.8, "source": "RBB"}, {"title": "BSR-Gebrauchtwarenkaufhaus \"NochMall\" verzeichnet mehr Nachfrage", "url": "https://www.rbb24.de/wirtschaft/beitrag/2024/04/berliner-stadtreinigung-bsr-gebrauchtwarenkaufhaus-nochmall-mehr-umsatz-mehr-kunden.html", "thumbnailUrl": null, "date": "Fri, 05 Apr 2024 12:31:15 +0200", "lat": 53.0736, "lon": 8.8076, "intensity": 0.6, "source": "RBB"}, {"title": "U19-Juniorenetappenfahrt: Internationaler Radsport-Nachwuchs tritt in Cottbus im Stra\u00dfenrennsport an", "url": "https://www.rbb24.de/sport/beitrag/2024/04/brandenburg-cottbus-juniorenetappenfahrt-strassenrennsport-rsc-wettkampf.html", "thumbnailUrl": null, "date": "Fri, 05 Apr 2024 12:13:04 +0200", "lat": 51.7562, "lon": 14.3356, "intensity": 0.4, "source": "RBB"}, {"title": "Ex-Unioner Robert Andrich im Interview: \"Union Berlin geh\u00f6rt in die Bundesliga\"", "url": "https://www.rbb24.de/sport/beitrag/2024/04/berlin-sport-fussball-interview-union-berlin-robert-andrich-leverkusen-xabi-alonso-toni-kroos.html", "thumbnailUrl": null, "date": "Fri, 05 Apr 2024 12:01:01 +0200", "lat": 52.5277, "lon": 13.6148, "intensity": 0.6, "source": "RBB"}, {"title": "Berlin-Tiergarten: Stra\u00dfensperrungen durch Berliner Halbmarathon", "url": "https://www.rbb24.de/panorama/beitrag/2024/04/berlin-halbmarathon-strassensperrung-tiergarten-grosser-stern.html", "thumbnailUrl": null, "date": "Fri, 05 Apr 2024 11:28:46 +0200", "lat": 52.5166, "lon": 13.3789, "intensity": 0.6, "source": "RBB"}, {"title": "Wiener Modell: Berliner Mieterverein sieht kommunalen Wohnbau in Wien als Vorbild", "url": "https://www.rbb24.de/panorama/beitrag/2024/04/berlin-mieterverein-sieht-kommunalen-wohnbau-in-wien-als-vorbild.html", "thumbnailUrl": null, "date": "Fri, 05 Apr 2024 11:15:00 +0200", "lat": 48.208354, "lon": 16.373064, "intensity": 0.7, "source": "RBB"}, {"title": "Berlin-K\u00f6penick: Polizei stellt Chemikalien in Bohnsdorf sicher", "url": "https://www.rbb24.de/panorama/beitrag/2024/04/berlin-koepenick-bohnsdorf-polizei-chemikalien-ammoniak.html", "thumbnailUrl": null, "date": "Fri, 05 Apr 2024 11:11:00 +0200", "lat": 52.4044, "lon": 13.6131, "intensity": 0.7, "source": "RBB"}, {"title": "Liam Gallagher und John Squire in der Columbiahalle: Eine Stunde professionelle Nostalgie", "url": "https://www.rbb24.de/kultur/beitrag/2024/04/liam-gallagher-john-squire-konzert-berlin-columbiahalle-professionelle-nostalgie.html", "thumbnailUrl": null, "date": "Fri, 05 Apr 2024 10:20:51 +0200", "lat": 52.497852, "lon": 13.396236, "intensity": 0.7, "source": "RBB"}, {"title": "Einsatz in Berliner Rhinstra\u00dfe: M\u00e4nner werfen in Lichtenberg Fahrrad und Fernseher aus achtem Stock", "url": "https://www.rbb24.de/panorama/beitrag/2024/04/berlin-lichtenberg-rhinstrasse-fernseher-fahrrad-aus-achtem-stock-geworfen.html", "thumbnailUrl": null, "date": "Fri, 05 Apr 2024 09:50:00 +0200", "lat": 52.5256, "lon": 13.5034, "intensity": 0.7, "source": "RBB"}, {"title": "Handball-Bundesliga: F\u00fcchse Berlin nach Sieg in G\u00f6ppingen weiter Tabellenf\u00fchrer", "url": "https://www.rbb24.de/sport/beitrag/2024/04/berlin-sport-handball-bundesliga-goeppingen-fuechse-spielbericht.html", "thumbnailUrl": null, "date": "Fri, 05 Apr 2024 09:38:02 +0200", "lat": 48.7031, "lon": 9.6592, "intensity": 0.6, "source": "RBB"}, {"title": "Traditionssport Kegelbillard fehlt der Nachwuchs", "url": "https://www.rbb24.de/panorama/beitrag/2024/04/brandenburg-kegelbillard-zukunft.html", "thumbnailUrl": null, "date": "Fri, 05 Apr 2024 06:09:22 +0200", "lat": 52.421607, "lon": 13.737262, "intensity": 0.5, "source": "RBB"}, {"title": "Basketball-EuroLeague: Alba verliert letztes internationales Heimspiel gegen Partizan Belgrad", "url": "https://www.rbb24.de/sport/beitrag/2024/04/berlin-sport-basketball-euroleague-alba-partizan-belgrad-spielbericht.html", "thumbnailUrl": null, "date": "Thu, 04 Apr 2024 22:36:40 +0200", "lat": 52.52, "lon": 13.3833, "intensity": 0.7, "source": "RBB"}, {"title": "Video | Inka Gossmann-Reetz: Ein Jahr Polizeibeauftragte in Brandenburg", "url": "https://www.rbb24.de/panorama/beitrag/av7/video-brandenburg-ein-jahr-polizeibeauftragte-inka-gossmann-reetz.html", "thumbnailUrl": null, "date": "Thu, 04 Apr 2024 21:36:29 +0200", "lat": 52.5186, "lon": 13.3294, "intensity": 0.5, "source": "RBB"}, {"title": "Video | Alte Schule Karlshorst: Wohnen im Mehrgenerationenhaus", "url": "https://www.rbb24.de/panorama/beitrag/av7/video-berlin-besonderes-wohnen-alte-schule-karlshorst-mehrgenerationenhaus.html", "thumbnailUrl": null, "date": "Thu, 04 Apr 2024 21:19:14 +0200", "lat": 52.487586, "lon": 13.517769, "intensity": 0.5, "source": "RBB"}, {"title": "Was Sie schon immer \u00fcber Spargel wissen wollten", "url": "https://www.rbb24.de/panorama/beitrag/2024/04/spargel-saison-fragen-antworten-beelitz.html", "thumbnailUrl": null, "date": "Thu, 04 Apr 2024 20:38:00 +0200", "lat": 52.337249, "lon": 13.01217, "intensity": 0.2, "source": "RBB"}, {"title": "Politisch motivierte Dienstvergehen: Bei Berliner Polizei laufen 96 Disziplinarverfahren gegen Beamte", "url": "https://www.rbb24.de/panorama/beitrag/2024/04/disziplinarverfahren-berlin-polizei-beamte-dienstvergehen.html", "thumbnailUrl": null, "date": "Thu, 04 Apr 2024 19:32:59 +0200", "lat": 52.520008, "lon": 13.404954, "intensity": 0.8, "source": "RBB"}, {"title": "Berliner Polizei durchsucht in Gropiusstadt Wohnungen von mutma\u00dflichen Silvester-Randalierern", "url": "https://www.rbb24.de/panorama/beitrag/2024/04/berlin-gropiusstadt-durchsuchungen-ausschreitungen-silvesternach.html", "thumbnailUrl": null, "date": "Thu, 04 Apr 2024 19:27:25 +0200", "lat": 52.4363, "lon": 13.4764, "intensity": 0.7, "source": "RBB"}, {"title": "Auslosung Berliner Landespokal: Makkabi im Pokal-Halbfinale gegen Sparta Lichtenberg, Viktoria gegen Lichtenberg 47", "url": "https://www.rbb24.de/sport/beitrag/2024/04/sport-fussball-landespokal-berlin-viktoria-lichtenberg-makkabi-halbfinale-auslosung.html", "thumbnailUrl": null, "date": "Thu, 04 Apr 2024 19:02:00 +0200", "lat": 52.52, "lon": 13.4359, "intensity": 0.4, "source": "RBB"}, {"title": "Berliner Wasserbetriebe erneuern bis 2029 Rohre in Landsberger Allee", "url": "https://www.rbb24.de/panorama/beitrag/2024/04/berlin-landsberger-allee-bauarbeiten-wasserrohre-wasserbetriebe.html", "thumbnailUrl": null, "date": "Thu, 04 Apr 2024 17:47:00 +0200", "lat": 52.52, "lon": 13.4689, "intensity": 0.6, "source": "RBB"}, {"title": "R\u00e4tselhafte Holzkonstruktion aus dem 13. Jahrhundert in Prenzlau gefunden", "url": "https://www.rbb24.de/panorama/beitrag/2024/04/holz-balken-prenzlau-700-jahre-archaeologie.html", "thumbnailUrl": null, "date": "Thu, 04 Apr 2024 16:48:10 +0200", "lat": 53.3247, "lon": 13.8657, "intensity": 0.6, "source": "RBB"}, {"title": "Brandenburg: Spargelsaison ist offiziell er\u00f6ffnet", "url": "https://www.rbb24.de/wirtschaft/beitrag/2024/04/spargel-beelitz-hollondaise-brandenburg-saisonarbeiter-landwirtschaft-essen.html", "thumbnailUrl": null, "date": "Thu, 04 Apr 2024 16:47:00 +0200", "lat": 52.4125, "lon": 13.8005, "intensity": 0.3, "source": "RBB"}, {"title": "Legalisierung von Cannabis: Kiffen bleibt in Berliner Freib\u00e4dern verboten", "url": "https://www.rbb24.de/panorama/beitrag/2024/04/kein-cannabis-konsum-berliner-freibaeder-kiffen.html", "thumbnailUrl": null, "date": "Thu, 04 Apr 2024 15:45:59 +0200", "lat": 52.52, "lon": 13.403, "intensity": 0.4, "source": "RBB"}, {"title": "Bundeswehr strukturiert an Standorten in Berlin und Brandenburg um - ein operatives F\u00fchrungskommando statt zwei", "url": "https://www.rbb24.de/politik/beitrag/2024/04/berlin-brandenburg-geltow-bundeswehr-einheitliches-fuehrung-kommando.html", "thumbnailUrl": null, "date": "Thu, 04 Apr 2024 15:24:00 +0200", "lat": 52.3759, "lon": 9.7031, "intensity": 0.5, "source": "RBB"}, {"title": "Berlin: Bundeskartellamt erlaubt Senat Kauf von Vattenfall-Fernw\u00e4rmenetz", "url": "https://www.rbb24.de/wirtschaft/beitrag/2024/04/berlin-fernwaerme-vattenfall-bundeskartellamt-.html", "thumbnailUrl": null, "date": "Thu, 04 Apr 2024 15:20:53 +0200", "lat": 52.520008, "lon": 13.404954, "intensity": 0.6, "source": "RBB"}, {"title": "Neugew\u00e4hlter Tesla-Betriebsrat in Gr\u00fcnheide best\u00e4tigt Michaela Schmitz als Vorsitzende", "url": "https://www.rbb24.de/wirtschaft/beitrag/2024/04/brandenburg-gruenheide-tesla-betriebsrat-konstituierende-sitzung-schmitz-vorsitzende.html", "thumbnailUrl": null, "date": "Thu, 04 Apr 2024 14:50:00 +0200", "lat": 52.4711, "lon": 13.8863, "intensity": 0.5, "source": "RBB"}, {"title": "Lkw-Fahrer nach Unfall auf dem s\u00fcdlichen Berliner Ring gestorben", "url": "https://www.rbb24.de/panorama/beitrag/2024/04/brandenburg-a10-berliner-ring-schwerer-verkehrsunfall-niederlehme.html", "thumbnailUrl": null, "date": "Thu, 04 Apr 2024 14:19:51 +0200", "lat": 52.4392, "lon": 13.5566, "intensity": 0.8, "source": "RBB"}, {"title": "Taxis halten wieder am Europaplatz vor Berliner Hauptbahnhof", "url": "https://www.rbb24.de/politik/beitrag/2024/04/taxi-streit-beendet-europaplatz-hauptbahnhof-berlin.html", "thumbnailUrl": null, "date": "Thu, 04 Apr 2024 13:43:00 +0200", "lat": 52.5251, "lon": 13.3694, "intensity": 0.4, "source": "RBB"}, {"title": "Berliner Hedwigs-Kathedrale wird im November er\u00f6ffnet - nach sechs Jahren Umbauarbeiten", "url": "https://www.rbb24.de/panorama/beitrag/2024/04/berlin-hedwigs-kathedrale-wird-im-november-eroeffnet.html", "thumbnailUrl": null, "date": "Thu, 04 Apr 2024 12:42:00 +0200", "lat": 52.517257, "lon": 13.388794, "intensity": 0.7, "source": "RBB"}, {"title": "Berlin-Reinickendorf: 31 Katzen aus Wohnung im M\u00e4rkischen Viertel gerettet", "url": "https://www.rbb24.de/panorama/beitrag/2024/04/berlin-maerkisches-viertel-31-katzen-wohnung-gerettet.html", "thumbnailUrl": null, "date": "Thu, 04 Apr 2024 12:18:10 +0200", "lat": 52.5933, "lon": 13.3304, "intensity": 0.8, "source": "RBB"}, {"title": "Anklage gegen Berliner Rentner nach mutma\u00dflichem Mord an pflegebed\u00fcrftiger Ehefrau erhoben", "url": "https://www.rbb24.de/panorama/beitrag/2024/04/berlin-hellersdorf-mann-toetet-ehefrau-anklage-mord-pflege.html", "thumbnailUrl": null, "date": "Thu, 04 Apr 2024 10:44:08 +0200", "lat": 52.52, "lon": 13.4049, "intensity": 0.8, "source": "RBB"}, {"title": "Oberspreewald-Lausitz: Post kommt im Spreewald ab sofort wieder per Kahn", "url": "https://www.rbb24.de/panorama/beitrag/2024/04/brandenburg-spreewald-lehde-post-kahn-wasser-weg.html", "thumbnailUrl": null, "date": "Thu, 04 Apr 2024 10:32:00 +0200", "lat": 51.5267, "lon": 13.9417, "intensity": 0.5, "source": "RBB"}, {"title": "Video | Freier Eintritt: J\u00fcdisches Kulturschiff \"MS Goldberg\" ist auf Brandenburg-Tour", "url": "https://www.rbb24.de/kultur/beitrag/av7/video-brandenburg-ms-goldberg-juedisches-kulturschiff.html", "thumbnailUrl": null, "date": "Wed, 03 Apr 2024 21:13:34 +0200", "lat": 52.4125, "lon": 13.9536, "intensity": 0.7, "source": "RBB"}, {"title": "Video | Neues Format: Aus rbbKultur wird radio3", "url": "https://www.rbb24.de/panorama/beitrag/av7/video-berlin-brandenburg-rbbkultur-wird-zu-radio3-umbenennung-programmaenderung-rbb.html", "thumbnailUrl": null, "date": "Tue, 02 Apr 2024 21:33:14 +0200", "lat": 52.520008, "lon": 13.404954, "intensity": 0.5, "source": "RBB"}, {"title": "Video: Union Berlin entf\u00fchrt einen Punkt aus Frankfurt", "url": "https://www.rbb24.de/sport/beitrag/av7/video-fussball-berlin-1-fc-union-bundesliga-eintracht-frankfurt.html", "thumbnailUrl": null, "date": "Mon, 01 Apr 2024 00:00:00 +0200", "lat": 52.457778, "lon": 13.494167, "intensity": 0.7, "source": "RBB"}, {"title": "Video: Hertha und N\u00fcrnberg trennen sich nach furiosem Spiel mit 3:3", "url": "https://www.rbb24.de/sport/beitrag/av7/video-fussball-berlin-hertha-bsc-zweite-bundesliga-1-fc-nuernberg.html", "thumbnailUrl": null, "date": "Mon, 01 Apr 2024 00:00:00 +0200", "lat": 52.52, "lon": 13.5007, "intensity": 0.8, "source": "RBB"}, {"title": "Video | Spreewald: Sorbische Ostern", "url": "https://www.rbb24.de/panorama/beitrag/av7/video-sorbisch-ostern-ostersingen-tradition.html", "thumbnailUrl": null, "date": "Sun, 31 Mar 2024 21:40:56 +0200", "lat": 51.8667, "lon": 14.0833, "intensity": 0.2, "source": "RBB"}, {"title": "Video | Baustopp: Wie es um das Bauprojekt \"Upside Berlin\" steht", "url": "https://www.rbb24.de/panorama/beitrag/av7/video-baustopp-hochhaeuser-friedrichshain-berlin.html", "thumbnailUrl": null, "date": "Fri, 29 Mar 2024 21:13:11 +0100", "lat": 52.466, "lon": 13.739, "intensity": 0.8, "source": "RBB"}, {"title": "Nienburg: Widerspr\u00fcchliche Angaben nach t\u00f6dlichen Sch\u00fcssen", "url": "https://www.ndr.de/nachrichten/niedersachsen/hannover_weser-leinegebiet/Nienburg-Widerspruechliche-Angaben-nach-toedlichen-Schuessen,nienburg404.html", "thumbnailUrl": "https://www.ndr.de/nachrichten/niedersachsen/nienburg396_v-contentwidescreen.jpg", "date": "2024-04-05T13:14:11.302+02:00", "lat": 52.6403, "lon": 9.2094, "intensity": 0.8, "source": "NDR"}, {"title": "A7-Sperrungen in Hamburg am Wochenende: Elbtunnel betroffen", "url": "https://www.ndr.de/nachrichten/hamburg/A7-Sperrungen-in-Hamburg-am-Wochenende-Elbtunnel-betroffen,asieben594.html", "thumbnailUrl": "https://www.ndr.de/nachrichten/hamburg/asieben596_v-contentwidescreen.jpg", "date": "2024-04-05T13:59:21.551+02:00", "lat": 53.5511, "lon": 9.9946, "intensity": 0.6, "source": "NDR"}, {"title": "Wetter am Wochenende: Temperatursprung auf bis zu 25 Grad im Norden", "url": "https://www.ndr.de/nachrichten/info/Wetter-am-Wochenende-Temperatursprung-auf-bis-zu-25-Grad-im-Norden,wetter8754.html", "thumbnailUrl": "https://www.ndr.de/ratgeber/reise/inseln/amrum342_v-contentwidescreen.jpg", "date": "2024-04-05T13:58:19.389+02:00", "lat": 53.55, "lon": 10.0, "intensity": 0.7, "source": "NDR"}, {"title": "Neue Rader Hochbr\u00fccke: Auf der Gro\u00dfbaustelle geht es voran", "url": "https://www.ndr.de/nachrichten/schleswig-holstein/Neue-Rader-Hochbruecke-Auf-der-Grossbaustelle-geht-es-voran,raderhochbruecke366.html", "thumbnailUrl": "https://www.ndr.de/nachrichten/schleswig-holstein/raderhochbruecke368_v-contentwidescreen.jpg", "date": "2024-04-05T13:27:26.103+02:00", "lat": 54.3052, "lon": 9.6671, "intensity": 0.6, "source": "NDR"}, {"title": "Sicherheit auf Busreisen: \"Am stressigsten sind die Baustellen\"", "url": "https://www.ndr.de/nachrichten/info/Sicherheit-auf-Busreisen-Am-stressigsten-sind-die-Baustellen,ndrinfolive160.html", "thumbnailUrl": "https://www.ndr.de/nachrichten/hamburg/busreise102_v-contentwidescreen.jpg", "date": "2024-04-04T21:59:41.226+02:00", "lat": 51.1657, "lon": 10.4235, "intensity": 0.6, "source": "NDR"}, {"title": "Klimaschutz und Weidehaltung vereinbaren: Ein Versuch", "url": "https://www.ndr.de/nachrichten/niedersachsen/oldenburg_ostfriesland/Klimaschutz-und-Weidehaltung-vereinbaren-Ein-Versuch,moor608.html", "thumbnailUrl": "https://www.ndr.de/nachrichten/niedersachsen/moor612_v-contentwidescreen.jpg", "date": "2024-04-05T10:38:19.988+02:00", "lat": 53.2303, "lon": 8.4594, "intensity": 0.6, "source": "NDR"}, {"title": "Dabel stimmt gegen Fl\u00fcchtlingsunterkunft: Kreis wartet auf Begr\u00fcndung", "url": "https://www.ndr.de/nachrichten/mecklenburg-vorpommern/Dabel-stimmt-gegen-Fluechtlingsunterkunft-Kreis-wartet-auf-Begruendung,dabel120.html", "thumbnailUrl": "https://www.ndr.de/fernsehen/screenshot1716504_v-contentwidescreen.jpg", "date": "2024-04-05T13:54:18.377+02:00", "lat": 53.7309, "lon": 11.9167, "intensity": 0.6, "source": "NDR"}, {"title": "Bodycams f\u00fcr Zugbegleiter: S-Bahn Hannover testet Einsatz", "url": "https://www.ndr.de/nachrichten/niedersachsen/hannover_weser-leinegebiet/Bodycams-fuer-Zugbegleiter-S-Bahn-Hannover-testet-Einsatz,bodycam204.html", "thumbnailUrl": "https://www.ndr.de/nachrichten/niedersachsen/hannover_weser-leinegebiet/bodycam202_v-contentwidescreen.jpg", "date": "2024-04-05T09:55:38.954+02:00", "lat": 52.3759, "lon": 9.7332, "intensity": 0.7, "source": "NDR"}, {"title": "Dritter Angriff auf Herde: 19 Schafe in Redderstorf gerissen", "url": "https://www.ndr.de/nachrichten/mecklenburg-vorpommern/Dritter-Angriff-auf-Herde-19-Schafe-in-Redderstorf-gerissen,kurzmeldungmv14832.html", "thumbnailUrl": "https://www.ndr.de/nachrichten/mecklenburg-vorpommern/schafwolf102_v-contentwidescreen.jpg", "date": "2024-04-05T13:47:29.471+02:00", "lat": 54.1136, "lon": 12.5519, "intensity": 0.7, "source": "NDR"}, {"title": "52-J\u00e4hrige in Irish Pub mit Messer lebensgef\u00e4hrlich verletzt", "url": "https://www.ndr.de/nachrichten/niedersachsen/hannover_weser-leinegebiet/52-Jaehrige-in-Irish-Pub-mit-Messer-lebensgefaehrlich-verletzt,neustadt452.html", "thumbnailUrl": "https://www.ndr.de/nachrichten/niedersachsen/hannover_weser-leinegebiet/neustadt450_v-contentwidescreen.jpg", "date": "2024-04-05T09:08:18.746+02:00", "lat": 52.6122, "lon": 9.4213, "intensity": 0.8, "source": "NDR"}, {"title": "Feuer in Klein Bennebek: Ein Toter und drei Verletzte", "url": "https://www.ndr.de/nachrichten/schleswig-holstein/Feuer-in-Klein-Bennebek-Ein-Toter-und-drei-Verletzte,feuer5936.html", "thumbnailUrl": "https://www.ndr.de/nachrichten/schleswig-holstein/feuer5938_v-contentwidescreen.jpg", "date": "2024-04-05T11:08:25.703+02:00", "lat": 54.2845, "lon": 9.4696, "intensity": 0.8, "source": "NDR"}, {"title": "Israelis und J\u00fcdinnen w\u00fcnschen sich mehr Solidarit\u00e4t", "url": "https://www.ndr.de/nachrichten/info/Israelis-und-Juedinnen-wuenschen-sich-mehr-Solidaritaet,audio1607894.html", "thumbnailUrl": "https://www.ndr.de/nachrichten/info/hirsch390_v-contentwidescreen.jpg", "date": "2024-04-05T09:38:09.435+02:00", "lat": 53.5511, "lon": 9.9977, "intensity": 0.6, "source": "NDR"}, {"title": "Neues Bundeswehr-Ausbildungszentrum in Jagel/Kropp", "url": "https://www.ndr.de/nachrichten/info/Neues-Bundewehrausbildungszentrum-in-Jagel-Kropp,ndrinfo58192.html", "thumbnailUrl": "https://www.ndr.de/fernsehen/screenshot1727066_v-contentwidescreen.jpg", "date": "2024-04-04T22:43:29.094+02:00", "lat": 54.4314, "lon": 9.5307, "intensity": 0.7, "source": "NDR"}, {"title": "Nutzen Extremisten Ramadan f\u00fcr ihre Ideologien?", "url": "https://www.ndr.de/fernsehen/sendungen/hamburg_journal/Nutzen-Extremisten-Ramadan-fuer-ihre-Ideologien,hamj145758.html", "thumbnailUrl": "https://www.ndr.de/fernsehen/screenshot1726848_v-contentwidescreen.jpg", "date": "2024-04-04T20:20:35.181+02:00", "lat": 53.4884, "lon": 10.2055, "intensity": 0.7, "source": "NDR"}, {"title": "Studie aus Niedersachsen zum Fischsterben ver\u00f6ffentlicht", "url": "https://www.ndr.de/nachrichten/info/Studie-aus-Niedersachsen-zum-Fischsterben-veroeffentlicht,audio1607866.html", "thumbnailUrl": "https://www.ndr.de/nachrichten/niedersachsen/lueneburg_heide_unterelbe/fischsterben500_v-contentwidescreen.jpg", "date": "2024-04-05T06:58:21.662+02:00", "lat": 52.3847, "lon": 10.4234, "intensity": 0.8, "source": "NDR"}, {"title": "Lubmin: Natursch\u00fctzer gegen geplante Wasserstofffabrik", "url": "https://www.ndr.de/nachrichten/info/Lubmin-Naturschuetzer-gegen-geplante-Wasserstofffabrik,ndrinfo58198.html", "thumbnailUrl": "https://www.ndr.de/fernsehen/screenshot1727092_v-contentwidescreen.jpg", "date": "2024-04-04T22:25:07.195+02:00", "lat": 54.1014, "lon": 13.9691, "intensity": 0.8, "source": "NDR"}, {"title": "Bremerin arbeitet an m\u00f6glicher Mars-Mission mit", "url": "https://www.ndr.de/nachrichten/info/Bremerin-arbeitet-an-moeglicher-Mars-Mission-mit,ndrinfo58202.html", "thumbnailUrl": "https://www.ndr.de/fernsehen/screenshot1727110_v-contentwidescreen.jpg", "date": "2024-04-04T22:37:53.671+02:00", "lat": 45.0382, "lon": 40.0691, "intensity": 0.8, "source": "NDR"}, {"title": "NDR Info Redezeit: Was bringen die \u00c4nderungen beim Elterngeld?", "url": "https://www.ndr.de/nachrichten/info/NDR-Info-Redezeit-Was-bringen-die-Aenderungen-beim-Elterngeld,ndrinforedezeit452.html", "thumbnailUrl": "https://www.ndr.de/kultur/radiokunst/alleinerziehend120_v-contentwidescreen.jpg", "date": "2024-04-04T22:07:18.679+02:00", "lat": 53.5511, "lon": 9.9937, "intensity": 0.2, "source": "NDR"}, {"title": "\"W\u00fcnsch Dir Deinen NDR\" - Jetzt f\u00fcr die Publikumsaktion bewerben!", "url": "https://www.ndr.de/wuensch_dir_deinen_ndr/index.html", "thumbnailUrl": "https://www.ndr.de/der_ndr/wunschprogramm131_v-contentwidescreen.jpg", "date": "2024-03-26T07:59:24.876+01:00", "lat": 53.551086, "lon": 9.993682, "intensity": 0.2, "source": "NDR"}, {"title": "Relaunch der vier NDR L\u00e4nder-Apps: Nachrichten aus Ihrer Region!", "url": "https://www.ndr.de/Relaunch-der-vier-NDR-Laender-Apps-Nachrichten-aus-Ihrer-Region,laenderapprelaunch100.html", "thumbnailUrl": "https://www.ndr.de/laenderapprelaunch102_v-contentwidescreen.jpg", "date": "2024-03-19T09:22:34.719+01:00", "lat": 53.8659, "lon": 9.8606, "intensity": 0.4, "source": "NDR"}, {"title": "Gaspreis Dashboard", "url": "https://www.ndr.de/home/gaspreis176.html", "thumbnailUrl": null, "date": "2023-04-06T14:49:06.409+02:00", "lat": 51.3426, "lon": 9.9976, "intensity": 0.7, "source": "NDR"}, {"title": "NDR Radioprogramme", "url": "https://www.ndr.de/radio/radiologobox100.html", "thumbnailUrl": null, "date": "2020-12-01T14:04:26.700+01:00", "lat": 53.5511, "lon": 9.9937, "intensity": 0.3, "source": "NDR"}, {"title": "Krieg und Terror - Die Lage im Nahen Osten und in der Ukraine", "url": "https://www.ndr.de/nachrichten/info/podcast5342.html", "thumbnailUrl": "https://www.ndr.de/nachrichten/info/podcastbild412_v-contentwidescreen.jpg", "date": "2024-04-05T07:54:17.426+02:00", "lat": 46.79651, "lon": 30.739834, "intensity": 0.8, "source": "NDR"}, {"title": "Die Ern\u00e4hrungs-Docs - Essen als Medizin", "url": "https://www.ndr.de/fernsehen/sendungen/die-ernaehrungsdocs/audio-podcast/index.html", "thumbnailUrl": "https://www.ndr.de/fernsehen/sendungen/die-ernaehrungsdocs/podcastbild338_v-contentwidescreen.jpg", "date": "2024-04-04T13:51:10.657+02:00", "lat": 53.5511, "lon": 9.9876, "intensity": 0.3, "source": "NDR"}, {"title": "Unsere Comedy \"Die Kur-Oase\"!", "url": "https://www.ndr.de/ndr2/podcasts/podcast5816.html", "thumbnailUrl": "https://www.ndr.de/ndr2/podcasts/podcast5812_v-contentwidescreen.jpg", "date": "2024-04-05T07:15:05.477+02:00", "lat": 54.9069, "lon": 8.7386, "intensity": 0.2, "source": "NDR"}, {"title": "Organisiertes Verbrechen - Recherchen im Verborgenen", "url": "https://www.ndr.de/nachrichten/info/podcast4992.html", "thumbnailUrl": "https://www.ndr.de/nachrichten/info/podcastbildov100_v-contentwidescreen.jpg", "date": "2024-03-01T06:00:27.490+01:00", "lat": 45.9432, "lon": 24.9668, "intensity": 0.8, "source": "NDR"}, {"title": "eat.READ.sleep. B\u00fccher f\u00fcr dich", "url": "https://www.ndr.de/kultur/sendungen/eat_read_sleep/index.html", "thumbnailUrl": "https://www.ndr.de/mediathek/podcastbild434_v-contentwidescreen.jpg", "date": "2024-03-29T06:00:20.892+01:00", "lat": 53.5511, "lon": 9.9937, "intensity": 0.2, "source": "NDR"}, {"title": "Killed in Action: Afghanistan - Mission ohne Ziel", "url": "https://www.ndr.de/nachrichten/info/sendungen/podcast4574.html", "thumbnailUrl": "https://www.ndr.de/nachrichten/info/podcasts/podcastbild478_v-contentwidescreen.jpg", "date": "2024-02-16T17:44:01.214+01:00", "lat": 33.9391, "lon": 66.2385, "intensity": 0.8, "source": "NDR"}, {"title": "Streitkr\u00e4fte und Strategien", "url": "https://www.ndr.de/nachrichten/info/podcast2998.html", "thumbnailUrl": "https://www.ndr.de/mediathek/mediathekbild566_v-contentwidescreen.jpg", "date": "2024-04-02T16:00:06.249+02:00", "lat": 53.5511, "lon": 9.9937, "intensity": 0.8, "source": "NDR"}, {"title": "Standpunkte", "url": "https://www.ndr.de/nachrichten/info/podcast4700.html", "thumbnailUrl": "https://www.ndr.de/mediathek/podcast5332_v-contentwidescreen.jpg", "date": "2024-04-05T12:47:10.320+02:00", "lat": 53.5511, "lon": 9.9937, "intensity": 0.5, "source": "NDR"}, {"title": "Mein Einsatz - der Feuerwehr-Podcast von NDR Niedersachsen", "url": "https://www.ndr.de/ndr1niedersachsen/podcast5774.html", "thumbnailUrl": "https://www.ndr.de/ndr1niedersachsen/podcasts/podcastbild364_v-contentwidescreen.jpg", "date": "2024-03-28T04:00:07.923+01:00", "lat": 52.3759, "lon": 9.7345, "intensity": 0.7, "source": "NDR"}, {"title": "\"Feel Hamburg\" - alle Folgen", "url": "https://www.ndr.de/903/podcasts/podcast5108.html", "thumbnailUrl": "https://www.ndr.de/mediathek/mediathekbild514_v-contentwidescreen.jpg", "date": "2024-04-03T05:00:09.975+02:00", "lat": 53.55, "lon": 10.0, "intensity": 0.4, "source": "NDR"}, {"title": "Intensiv-Station - Satire von NDR Info", "url": "https://www.ndr.de/nachrichten/info/podcast4274.html", "thumbnailUrl": "https://www.ndr.de/nachrichten/info/programm/intensivstation3272_v-contentwidescreen.jpg", "date": "2024-03-25T22:56:23.803+01:00", "lat": 54.3706, "lon": 10.5038, "intensity": 0.8, "source": "NDR"}, {"title": "Amerika, wir m\u00fcssen reden!", "url": "https://www.ndr.de/nachrichten/info/podcast4932.html", "thumbnailUrl": "https://www.ndr.de/nachrichten/info/podcastbild488_v-contentwidescreen.jpg", "date": "2024-04-03T18:15:10.308+02:00", "lat": 39.78373, "lon": -100.445882, "intensity": 0.7, "source": "NDR"}, {"title": "Tornado-Verdacht in Korschenbroich - 20 H\u00e4user besch\u00e4digt", "url": "https://www1.wdr.de/nachrichten/korschenbroich-moenchengladbach-verdacht-tornado-100.html", "thumbnailUrl": null, "date": "2024-04-05T10:47:48Z", "lat": 51.1947, "lon": 6.5188, "intensity": 0.8, "source": "WDR"}, {"title": "NRW-Karte zu Wohnungseinbr\u00fcchen: Wo wird viel, wo wenig eingebrochen?", "url": "https://www1.wdr.de/nachrichten/wohnungseinbruch-nrw-kriminalstatistik-102.html", "thumbnailUrl": null, "date": "2024-04-05T04:39:54Z", "lat": 51.9607, "lon": 7.6246, "intensity": 0.8, "source": "WDR"}, {"title": "Mann im Dortmunder Hafen erstochen: Zwei Jugendliche und zwei Kinder festgenommen", "url": "https://www1.wdr.de/nachrichten/dortmund-toetungsdelikt-hafen-100.html", "thumbnailUrl": null, "date": "2024-04-05T11:21:39Z", "lat": 51.5136, "lon": 7.459, "intensity": 0.8, "source": "WDR"}, {"title": "Kreis Heinsberg warnt vor Kriebelm\u00fccke", "url": "https://www1.wdr.de/nachrichten/rheinland/kreis-heinsberg-warnt-vor-kriebelmuecke-100.html", "thumbnailUrl": null, "date": "2024-04-05T09:59:49Z", "lat": 51.0632, "lon": 6.1016, "intensity": 0.3, "source": "WDR"}, {"title": "Rekord-W\u00e4rme am Wochenende m\u00f6glich - Saharastaub erwartet", "url": "https://www1.wdr.de/nachrichten/wetter-nrw-gewitter-sonne-waerme-saharastaub-100.html", "thumbnailUrl": null, "date": "2024-04-05T06:42:17Z", "lat": 51.8133, "lon": 7.6261, "intensity": 0.8, "source": "WDR"}, {"title": "Campingplatz in L\u00fcgde: Neustart nach jahrelanger sexualisierter Gewalt", "url": "https://www1.wdr.de/nachrichten/westfalen-lippe/campingplatz-luegde-neustart-100.html", "thumbnailUrl": null, "date": "2024-04-05T10:41:59Z", "lat": 51.9871, "lon": 9.2586, "intensity": 0.8, "source": "WDR"}, {"title": "A42: Vollsperrung bei Herne wegen Br\u00fcckenbauarbeiten", "url": "https://www1.wdr.de/nachrichten/ruhrgebiet/autobahn-zweiundvierzig-voll-gesperrt-bei-herne-100.html", "thumbnailUrl": null, "date": "2024-04-05T10:44:31Z", "lat": 51.5272, "lon": 7.2146, "intensity": 0.8, "source": "WDR"}, {"title": "Kanaldeckel f\u00fcr 380 Euro: Ungew\u00f6hnlicher Verkaufsschlager in Wipperf\u00fcrth", "url": "https://www1.wdr.de/nachrichten/rheinland/kanaldeckel-verkauf-wipperfuerth-100.html", "thumbnailUrl": null, "date": "2024-04-05T09:03:56Z", "lat": 51.1072, "lon": 7.3891, "intensity": 0.6, "source": "WDR"}, {"title": "Nahost-Krieg: Nahost-Liveblog: + Israel entl\u00e4sst Offiziere wegen Angriffs auf Helfer +", "url": "https://www.tagesschau.de/newsticker/liveblog-nahost-freitag-124.html", "thumbnailUrl": null, "date": "2024-04-05T11:03:01Z", "lat": 31.7683, "lon": 35.214, "intensity": 0.8, "source": "WDR"}, {"title": "Nach Angriff auf Hilfsorganisation: Israel k\u00fcndigt \"sofortige\" Aufstockung von Gaza-Hilfen an", "url": "https://www.tagesschau.de/ausland/asien/biden-netanyahu-zivilisten-104.html", "thumbnailUrl": null, "date": "2024-04-05T09:21:02Z", "lat": 31.9466, "lon": 34.4538, "intensity": 0.8, "source": "WDR"}, {"title": "Nach Angriff auf Hilfsorganisation: Biden bekr\u00e4ftigt Israel-Kritik nach Angriff auf Hilfsorganisation", "url": "https://www.tagesschau.de/ausland/amerika/biden-unter-druck-100.html", "thumbnailUrl": null, "date": "2024-04-05T08:42:01Z", "lat": 31.7683, "lon": 35.2134, "intensity": 0.8, "source": "WDR"}, {"title": "Get\u00f6tete Helfer im Gazastreifen: Hilfsorganisationen \u00fcben massive Kritik an Israels Kriegsf\u00fchrung", "url": "https://www.tagesschau.de/ausland/israel-angriffe-hilfsorganisationen-100.html", "thumbnailUrl": null, "date": "2024-04-04T19:18:02Z", "lat": 31.522833, "lon": 35.303017, "intensity": 0.7, "source": "WDR"}, {"title": "Die wichtigsten Fakten \u00fcber den Gazastreifen", "url": "https://www1.wdr.de/nachrichten/gaza-gazastreifen-israel-hintergrund-100.html", "thumbnailUrl": null, "date": "2023-10-11T15:33:25Z", "lat": 31.5107, "lon": 34.3445, "intensity": 0.8, "source": "WDR"}, {"title": "WDR aktuell Whatsapp-Kanal abonnieren - so geht's", "url": "https://www1.wdr.de/nachrichten/wdr-aktuell-whatsapp-kanal-100.html", "thumbnailUrl": null, "date": "2023-12-22T20:22:52Z", "lat": 51.4818, "lon": 7.6261, "intensity": 0.1, "source": "WDR"}, {"title": "Krieg gegen die Ukraine: Ukraine-Liveblog: ++ Kiew meldet Zerst\u00f6rung von russischen Flugzeugen ++", "url": "https://www.tagesschau.de/newsticker/liveblog-ukraine-freitag-374.html", "thumbnailUrl": null, "date": "2024-04-05T09:06:01Z", "lat": 47.2333, "lon": 39.7126, "intensity": 0.8, "source": "WDR"}, {"title": "Deutsche Firmen in Mariupol: Deutsche Firmen am russischen Wiederaufbau von Mariupol beteiligt", "url": "https://www.tagesschau.de/investigativ/monitor/ukraine-mariupol-wiederaufbau-russland-100.html", "thumbnailUrl": null, "date": "2024-04-03T16:54:02Z", "lat": 47.0971, "lon": 37.5553, "intensity": 0.8, "source": "WDR"}, {"title": "Kommt Russland wegen Kriegsverbrechen vor den Internationalen Strafgerichtshof?", "url": "https://www1.wdr.de/nachrichten/kriegsverbrechen-fragen-antworten-100.html", "thumbnailUrl": null, "date": "2024-04-02T16:04:42Z", "lat": 52.0705, "lon": 4.3007, "intensity": 0.8, "source": "WDR"}, {"title": "Ukraine: Zwischen Krieg und Normalit\u00e4t", "url": "https://www1.wdr.de/mediathek/audio/wdr5/wdr5-mittagsecho/audio-ukraine-zwischen-krieg-und-normalitaet-100.html", "thumbnailUrl": null, "date": "2024-03-27T13:17:56Z", "lat": 50.4501, "lon": 30.5234, "intensity": 0.7, "source": "WDR"}, {"title": "Kein Investor gefunden - Krankenhaus in Ratingen steht vor dem Aus", "url": "https://www1.wdr.de/nachrichten/rheinland/krankenhaus-ratingen-insolvenz-100.html", "thumbnailUrl": null, "date": "2024-04-05T10:25:58Z", "lat": 51.296944, "lon": 6.851389, "intensity": 0.8, "source": "WDR"}, {"title": "Pokal der Fu\u00dfball-EM 2024 mit Lahm in K\u00f6ln", "url": "https://www1.wdr.de/nachrichten/rheinland/trophy-tour-in-koeln-em-pokal-praesentiert-von-philipp-lahm-am-bahnhof-102.html", "thumbnailUrl": null, "date": "2024-04-05T11:26:20Z", "lat": 50.9413, "lon": 7.0069, "intensity": 0.7, "source": "WDR"}, {"title": "Zwei W\u00f6lfe in zwei Monaten bei Verkehrsunf\u00e4llen get\u00f6tet", "url": "https://www1.wdr.de/nachrichten/westfalen-lippe/wolf-verkehrsunfall-tot-ostwestfalen-100.html", "thumbnailUrl": null, "date": "2024-04-05T09:05:57Z", "lat": 51.8756, "lon": 8.5216, "intensity": 0.8, "source": "WDR"}, {"title": "Toter Seeadler: Todesursache wahrscheinlich anderer Gro\u00dfvogel", "url": "https://www1.wdr.de/nachrichten/rheinland/toter-seeadler-xanten-100.html", "thumbnailUrl": null, "date": "2024-04-05T09:13:28Z", "lat": 51.6613, "lon": 6.4542, "intensity": 0.6, "source": "WDR"}, {"title": "Tote Fichten fahren Seilbahn", "url": "https://www1.wdr.de/nachrichten/rheinland/fichten-schweben-in-solingen-um-schaeden-im-wald-zu-vermeiden-100.html", "thumbnailUrl": null, "date": "2024-04-05T06:04:48Z", "lat": 51.1734, "lon": 7.082, "intensity": 0.7, "source": "WDR"}, {"title": "Kein Geld f\u00fcr Sport und Kultur?", "url": "https://1.ard.de/sport-kultur-podcast-rheinblick", "thumbnailUrl": null, "date": "2024-04-05T11:50:01Z", "lat": 50.35708, "lon": 7.59064, "intensity": 0.4, "source": "WDR"}, {"title": "Wo NRW noch Handlungsspielraum im Haushalt hat", "url": "https://www1.wdr.de/nachrichten/landespolitik/landeshaushalt-spielraeume-finanzen-100.html", "thumbnailUrl": null, "date": "2024-04-05T11:43:32Z", "lat": 51.9607, "lon": 7.6261, "intensity": 0.7, "source": "WDR"}, {"title": "Solarausbau: Mehrere NRW-St\u00e4dte schneiden gut ab", "url": "https://www1.wdr.de/nachrichten/kommunen-solarausbau-100.html", "thumbnailUrl": null, "date": "2024-04-05T10:43:24Z", "lat": 51.9607, "lon": 7.6261, "intensity": 0.6, "source": "WDR"}, {"title": "NRW-Polizei identifiziert rund 80 Rechtsextreme in eigenen Reihen", "url": "https://www1.wdr.de/nachrichten/landespolitik/rechtsextreme-nrw-polizei-100.html", "thumbnailUrl": null, "date": "2024-04-05T10:25:42Z", "lat": 51.9607, "lon": 7.6261, "intensity": 0.7, "source": "WDR"}, {"title": "NRW-Landtag jetzt auf WhatsApp und YouTube Shorts", "url": "https://www1.wdr.de/nachrichten/landespolitik/landtag-whatsapp-youtube-100.html", "thumbnailUrl": null, "date": "2024-04-04T15:31:48Z", "lat": 51.5136, "lon": 7.4854, "intensity": 0.6, "source": "WDR"}, {"title": "Kirschbl\u00fcte in Bonn: Stra\u00dfen am Wochenende gesperrt", "url": "https://www1.wdr.de/nachrichten/rheinland/kirschbluete-bonn-sperrungen-100.html", "thumbnailUrl": null, "date": "2024-04-05T11:17:05Z", "lat": 50.7374, "lon": 7.0982, "intensity": 0.6, "source": "WDR"}, {"title": "Caritas-Beratung bei Altersarmut: Mit 72 Jahren wieder arbeiten gehen", "url": "https://www1.wdr.de/nachrichten/rheinland/altersarmut-senioren-paar-mechernich-caritas-schulden-100.html", "thumbnailUrl": null, "date": "2024-04-05T11:13:49Z", "lat": 50.5486, "lon": 6.6517, "intensity": 0.6, "source": "WDR"}, {"title": "So soll das Ruhrgebiet die gr\u00fcnste Industrieregion der Welt werden", "url": "https://www1.wdr.de/nachrichten/ruhrgebiet/ruhrgebiet-gruenste-industrieregion-strategie-100.html", "thumbnailUrl": null, "date": "2024-04-05T10:43:54Z", "lat": 51.4556, "lon": 7.0106, "intensity": 0.7, "source": "WDR"}, {"title": "300 Menschen erinnern in Dortmund mit Schweigemarsch an Mehmet Kuba\u015f\u0131k", "url": "https://www1.wdr.de/nachrichten/ruhrgebiet/tag-der-solidaritaet-mehmet-kubasik-100.html", "thumbnailUrl": null, "date": "2024-04-04T18:33:17Z", "lat": 51.513, "lon": 7.468, "intensity": 0.8, "source": "WDR"}, {"title": "Wuppertaler Zoo half beim Umzug des Johannes-Rau-Gymnasiums", "url": "https://www1.wdr.de/nachrichten/rheinland/wuppertal-gymnasium-zieht-in-osterferien-um-100.html", "thumbnailUrl": null, "date": "2024-04-05T05:28:35Z", "lat": 51.2647, "lon": 7.1797, "intensity": 0.6, "source": "WDR"}, {"title": "Taubenraub in Gelsenkirchen", "url": "https://www1.wdr.de/nachrichten/ruhrgebiet/taubenraub-gelsenkirchen-100.html", "thumbnailUrl": null, "date": "2024-04-04T18:24:37Z", "lat": 51.5177, "lon": 7.084, "intensity": 0.6, "source": "WDR"}, {"title": "Nordex: Fehlerhafte Windr\u00e4der sind ersetzt", "url": "https://www1.wdr.de/nachrichten/westfalen-lippe/nordex-windraeder-austausch-einsturz-100.html", "thumbnailUrl": null, "date": "2024-04-05T10:49:29Z", "lat": 51.9607, "lon": 7.6213, "intensity": 0.4, "source": "WDR"}, {"title": "Nach Verhandlung mit Amazon: Stadt-Mitarbeiter nach \u00f6ffentlichen Beleidigungen krank geschrieben", "url": "https://www1.wdr.de/nachrichten/westfalen-lippe/horn-bad-meinberg-streit-amazon-wirtschaftsfoerderer-100.html", "thumbnailUrl": null, "date": "2024-04-05T07:55:17Z", "lat": 51.8774, "lon": 8.8547, "intensity": 0.6, "source": "WDR"}, {"title": "Colani-Ei in L\u00fcnen - Wahrzeichen \u00f6ffnet f\u00fcr Besucher", "url": "https://www1.wdr.de/nachrichten/ruhrgebiet/colani-ei-luenen-102.html", "thumbnailUrl": null, "date": "2024-04-04T18:51:21Z", "lat": 51.6171, "lon": 7.4836, "intensity": 0.3, "source": "WDR"}, {"title": "Die App WDR aktuell begleitet Sie durch den Tag", "url": "https://www1.wdr.de/nachrichten/wdr-aktuell-app-stores-100.html", "thumbnailUrl": null, "date": "2023-10-30T11:49:53Z", "lat": 51.4508, "lon": 7.6261, "intensity": 0.3, "source": "WDR"}, {"title": "WDR Newsroom: Informationen f\u00fcr den Westen rund um die Uhr auf allen Kan\u00e4len", "url": "https://www1.wdr.de/nachrichten/newsroom-information-nrw-westen-100.html", "thumbnailUrl": null, "date": "2021-04-14T22:00:15Z", "lat": 51.4556, "lon": 7.0116, "intensity": 0.1, "source": "WDR"}, {"title": "Das Leitungsteam des Newsrooms im WDR (Programmbereich Aktuelles)", "url": "https://www1.wdr.de/nachrichten/newsroom-leitung-team-programmbereich-aktuelles-100.html", "thumbnailUrl": null, "date": "2024-03-08T15:34:21Z", "lat": 51.460021, "lon": 7.014026, "intensity": 0.3, "source": "WDR"}, {"title": "Pkw eingekesselt und Scheibe eingeschlagen: \"Heldenhafte Rettungsaktion\" in Th\u00fcringen", "url": "https://www.mdr.de/nachrichten/thueringen/mitte-thueringen/weimar/unfall-autobahn-helfer-104.html", "thumbnailUrl": null, "date": "Fri, 05 Apr 2024 12:43:00 +0200", "lat": 50.9778, "lon": 10.8453, "intensity": 0.8, "source": "MDR"}, {"title": "Hohe Temperaturen am Wochenende in Mitteldeutschland", "url": "https://www.mdr.de/nachrichten/deutschland/panorama/temperaturen-warm-sonne-fruehling-saharastaub-100.html", "thumbnailUrl": null, "date": "Fri, 05 Apr 2024 13:51:37 +0200", "lat": 51.124, "lon": 11.625, "intensity": 0.5, "source": "MDR"}, {"title": "Genthin: Stadtrat stimmt f\u00fcr Abwahlantrag gegen B\u00fcrgermeister", "url": "https://www.mdr.de/nachrichten/sachsen-anhalt/magdeburg/jerichow/genthin-abwahlantrag-buergermeister-guenther-100.html", "thumbnailUrl": null, "date": "Fri, 05 Apr 2024 06:47:57 +0200", "lat": 52.3989, "lon": 11.7368, "intensity": 0.8, "source": "MDR"}, {"title": "Nach gro\u00dfer Polizei-Razzia in Th\u00fcringen: 6 Lkw-Ladungen voller Beweismittel und 7 Festnahmen", "url": "https://www.mdr.de/nachrichten/thueringen/ost-thueringen/greiz/alte-papierfabrik-durchsuchung-polizei-100.html", "thumbnailUrl": null, "date": "Fri, 05 Apr 2024 11:05:00 +0200", "lat": 50.6503, "lon": 12.2034, "intensity": 0.8, "source": "MDR"}, {"title": "Spargelernte in Th\u00fcringen beginnt 2024 fr\u00fcher als \u00fcblich - Preise bleiben stabil", "url": "https://www.mdr.de/nachrichten/thueringen/spargel-ernte-saison-verkauf-start-100.html", "thumbnailUrl": null, "date": "Fri, 05 Apr 2024 13:54:00 +0200", "lat": 51.0109, "lon": 10.8453, "intensity": 0.3, "source": "MDR"}, {"title": "Mann sticht in Magdeburg auf Fu\u00dfg\u00e4nger ein und verletzt ihn lebensbedrohlich", "url": "https://www.mdr.de/nachrichten/sachsen-anhalt/magdeburg/magdeburg/versuchte-toetung-104.html", "thumbnailUrl": null, "date": "Fri, 05 Apr 2024 11:59:19 +0200", "lat": 52.1205, "lon": 11.6276, "intensity": 0.8, "source": "MDR"}, {"title": "Neue Kritik an Bildungsministerin Feu\u00dfner: \"Das ist unfassbar\"", "url": "https://www.mdr.de/nachrichten/sachsen-anhalt/landesschulamt-protestbrief-bildungsministerium-arbeitsbelastung-100.html", "thumbnailUrl": null, "date": "Fri, 05 Apr 2024 13:40:19 +0200", "lat": 51.1657, "lon": 10.4234, "intensity": 0.7, "source": "MDR"}, {"title": "S\u00fcdzucker in Zeitz: Millionen-Investition f\u00fcr 50 neue Arbeitspl\u00e4tze", "url": "https://www.mdr.de/nachrichten/sachsen-anhalt/halle/burgenland/zeitz-suedzucker-crop-energies-spatenstich-100.html", "thumbnailUrl": null, "date": "Fri, 05 Apr 2024 11:49:12 +0200", "lat": 51.0447, "lon": 12.1477, "intensity": 0.7, "source": "MDR"}, {"title": "Ukraine-News: Ukraine meldet Zerst\u00f6rung russischer Kampfflugzeuge", "url": "https://www.mdr.de/nachrichten/welt/osteuropa/politik/ukraine-russland-krieg-drohnenangriff-abwehr-rostow-100.html", "thumbnailUrl": null, "date": "Fri, 05 Apr 2024 13:42:04 +0200", "lat": 48.3794, "lon": 33.749, "intensity": 0.8, "source": "MDR"}, {"title": "\u00d6PNV in Sachsen-Anhalt: L\u00e4ngere Streiks bei Bussen und Stra\u00dfenbahnen drohen", "url": "https://www.mdr.de/nachrichten/sachsen-anhalt/streik-nahverkehr-oepnv-abstimmung-100.html", "thumbnailUrl": null, "date": "Fri, 05 Apr 2024 10:15:35 +0200", "lat": 52.1667, "lon": 11.6015, "intensity": 0.8, "source": "MDR"}, {"title": "Unfall auf A4: Oma und drei Enkelkinder \u00fcberschlagen sich", "url": "https://www.mdr.de/nachrichten/sachsen/dresden/meissen/unfall-oma-enkelkinder-schwerverletzt-autobahn-100.html", "thumbnailUrl": null, "date": "Fri, 05 Apr 2024 08:20:51 +0200", "lat": 51.082, "lon": 13.587, "intensity": 0.8, "source": "MDR"}, {"title": "Osteuropa", "url": "https://www.mdr.de/nachrichten/welt/osteuropa/index.html", "thumbnailUrl": null, "date": "Tue, 25 Apr 2023 13:02:57 +0200", "lat": 45.9432, "lon": 23.8859, "intensity": 0.5, "source": "MDR"}, {"title": "Verkehr", "url": "https://www.mdrjump.de/verkehr/index.html", "thumbnailUrl": null, "date": "Thu, 09 Jun 2022 11:05:09 +0200", "lat": 51.1657, "lon": 11.6229, "intensity": 0.2, "source": "MDR"}, {"title": "So ver\u00e4ndert sich das Klima in Sachsen, Sachsen-Anhalt und Th\u00fcringen", "url": "https://www.mdr.de/nachrichten/deutschland/panorama/wetter-klima-wandel-daten-archiv-region-100.html", "thumbnailUrl": null, "date": "Mon, 04 Mar 2024 10:27:56 +0100", "lat": 51.339695, "lon": 12.496365, "intensity": 0.6, "source": "MDR"}, {"title": "40 Milliarden f\u00fcr den Ausstieg aus der Braunkohle", "url": "https://www.mdr.de/nachrichten/deutschland/wirtschaft/kohlemilliarden/kohle-ausstieg-foerderung-steuergeld-100.html", "thumbnailUrl": null, "date": "Thu, 07 Dec 2023 14:06:43 +0100", "lat": 52.52, "lon": 13.405, "intensity": 0.7, "source": "MDR"}, {"title": "Schaffen wir die Energiewende? Live-Daten zum Ausbau der Windkraft in Deutschland", "url": "https://www.mdr.de/wissen/windkraft-windenergie-ausbau-deutschland-live-daten-aktuell-100.html", "thumbnailUrl": null, "date": "Thu, 16 Mar 2023 10:28:43 +0100", "lat": 51.1657, "lon": 10.4515, "intensity": 0.8, "source": "MDR"}, {"title": "Was tun, Herr General? - Der Podcast zum Ukraine-Krieg", "url": "https://www.mdr.de/nachrichten/podcast/general/russland-angriff-krieg-ukraine100.html", "thumbnailUrl": null, "date": "Wed, 29 Nov 2023 12:04:11 +0100", "lat": 50.4501, "lon": 30.5234, "intensity": 0.8, "source": "MDR"}, {"title": "RB Leipzig: Mehr als eine Flasche Wein will Marco Rose in Freiburg nicht verschenken", "url": "https://www.mdr.de/sport/fussball_1bl/vorschau-sc-freiburg-rb-leipzig-116.html", "thumbnailUrl": null, "date": "Fri, 05 Apr 2024 12:39:30 +0200", "lat": 47.998, "lon": 7.849, "intensity": 0.7, "source": "MDR"}, {"title": "ThSV Eisenach: Attenhofer soll die Weyhrauch-L\u00fccke schlie\u00dfen", "url": "https://www.mdr.de/sport/handball/thsv-eisenach-gian-attenhofer-neuzugang-100.html", "thumbnailUrl": null, "date": "Fri, 05 Apr 2024 09:00:27 +0200", "lat": 50.9787, "lon": 10.3222, "intensity": 0.6, "source": "MDR"}, {"title": "\"Volltreffer der Woche\": Atilgan gewinnt Kopf-an-Kopf-Rennen gegen Bozic", "url": "https://www.mdr.de/sport/sport-im-osten/volltreffer-der-woche-auswahl-lok-leipzig-atilgan-100.html", "thumbnailUrl": null, "date": "Fri, 05 Apr 2024 11:50:00 +0200", "lat": 51.3333, "lon": 12.4167, "intensity": 0.7, "source": "MDR"}, {"title": "Dynamo Dresden: Gegen Saarbr\u00fccken \"kann es nur besser werden\"", "url": "https://www.mdr.de/sport/fussball_3l/vorschau-dynamo-dresden-fc-saarbruecken-100.html", "thumbnailUrl": null, "date": "Fri, 05 Apr 2024 08:15:27 +0200", "lat": 51.0504, "lon": 13.751, "intensity": 0.8, "source": "MDR"}, {"title": "Heilpflanze mit langer Tradition: Gundermann", "url": "https://www.mdr.de/sachsenradio/audio-kraeuterserie-gundermann-100.html", "thumbnailUrl": null, "date": "Fri, 05 Apr 2024 12:20:00 +0200", "lat": 51.1794, "lon": 9.732, "intensity": 0.2, "source": "MDR"},