[{"title": "++ Klein: Waffenembargo w\u00e4re \"falscher Weg\" ++", "url": "https://www.tagesschau.de/newsticker/liveblog-nahost-samstag-122.html", "thumbnailUrl": "https://images.tagesschau.de/image/3a2a69d1-f8d1-4683-a303-76a1bd456b93/AAABjYK84Mg/AAABjcWesUg/16x9-512.jpg", "date": "2024-04-06T09:58:13.481+02:00", "lat": 37.09024, "lon": -95.712891, "intensity": 0.8, "source": "Tagesschau"}, {"title": "USA und Israel wegen Iran in Alarmbereitschaft", "url": "https://www.tagesschau.de/ausland/iran-israel-usa-100.html", "thumbnailUrl": "https://images.tagesschau.de/image/3ace7a8a-ae12-42b3-b54d-a46b12e5e638/AAABjrJpl9s/AAABjcWesUg/16x9-512.jpg", "date": "2024-04-06T09:57:28.660+02:00", "lat": 51.3963, "lon": 35.6895, "intensity": 0.8, "source": "Tagesschau"}, {"title": "Wetter am Wochenende: Saharastaub und bis zu 30 Grad in BW ", "url": "https://www.tagesschau.de/inland/regional/badenwuerttemberg/swr-sommerwetter-am-wochenende-bis-zu-30-grad-in-bw-moeglich-100.html", "thumbnailUrl": "https://images.tagesschau.de/image/56a9fec1-328e-4a2e-b0b5-d1f400ab1c9a/AAABjq7UyvA/AAABjcWesUg/16x9-512.jpg", "date": "2024-04-06T09:56:00.000+02:00", "lat": 48.771508, "lon": 9.005963, "intensity": 0.8, "source": "Tagesschau"}, {"title": "Eintracht: +++ Toppm\u00f6ller entt\u00e4uscht und frustriert +++ Trapp warnt vor \"brutalem Restprogramm\" +++ Eintracht holt nur Remis gegen Bremen +++", "url": "https://www.tagesschau.de/inland/regional/hessen/hr--eintracht-wohl-mit-chaibi-einig--glasner-fast-nur-kolo-muani-der-tore-erzielt--bericht-eintracht-sagt-aouar-ab-100.html", "thumbnailUrl": "https://images.tagesschau.de/image/e72d4619-83f0-4091-88f3-ce276b8ace0c/AAABjrJky0E/AAABjcWesUg/16x9-512.jpg", "date": "2024-04-06T09:51:37.376+02:00", "lat": 50.1109, "lon": 8.6821, "intensity": 0.7, "source": "Tagesschau"}, {"title": "Darmstadt 98: +++ Mainz will gegen Lilien angreifen +++ DFB-Sportgericht weist Lilien-Einspruch ab +++ Medien: Darmstadt an Heggem dran +++", "url": "https://www.tagesschau.de/inland/regional/hessen/hr--tietz-vermisst-fehlende-gier--lilien-fans-liefern-sich-raststaetten-pruegelei--die-niederlage-der-lilien-in-der-video-zusammenfassung-102.html", "thumbnailUrl": "https://images.tagesschau.de/image/852f9249-5bb1-4072-98da-5aafe8a04836/AAABjrJhHzo/AAABjcWesUg/16x9-512.jpg", "date": "2024-04-06T09:46:59.122+02:00", "lat": 49.8717, "lon": 8.65, "intensity": 0.5, "source": "Tagesschau"}, {"title": "Tauziehen um ecuadorianischen Ex-Vizepr\u00e4sidenten", "url": "https://www.tagesschau.de/ausland/amerika/ecuador-mexiko-ex-vizepraesident-100.html", "thumbnailUrl": "https://images.tagesschau.de/image/7ee34280-c624-41d6-a38b-10a74dfcfeed/AAABjrJFzvU/AAABjcWesUg/16x9-512.jpg", "date": "2024-04-06T09:45:41.203+02:00", "lat": -0.180653, "lon": -78.467834, "intensity": 0.8, "source": "Tagesschau"}, {"title": "Ein Schwerverletzter bei Schl\u00e4gerei in Sulzbach", "url": "https://www.tagesschau.de/inland/regional/saarland/sr-ein-schwerverletzter-bei-schlaegerei-in-sulzbach-100.html", "thumbnailUrl": "https://images.tagesschau.de/image/a6e498e6-1f72-403e-8c3a-c80ca38ebcbe/AAABjrJfHQg/AAABjcWesUg/16x9-512.jpg", "date": "2024-04-06T09:44:00.000+02:00", "lat": 49.3186, "lon": 7.0577, "intensity": 0.9, "source": "Tagesschau"}, {"title": "Klimaaktivisten blockieren Steinkohlekraftwerk in Gelsenkirchen", "url": "https://www.tagesschau.de/inland/regional/nordrheinwestfalen/wdr-klimaaktivisten-blockieren-steinkohlekraftwerk-in-gelsenkirchen-100.html", "thumbnailUrl": "https://images.tagesschau.de/image/5fd1ecc1-a3f1-4072-a828-8e45af1d2190/AAABjrJixxo/AAABjcWesUg/16x9-512.jpg", "date": "2024-04-06T09:43:00.000+02:00", "lat": 51.5177, "lon": 7.1046, "intensity": 0.8, "source": "Tagesschau"}, {"title": "Verein findet bei Putzete in N\u00fcrtingen zwei Pistolen", "url": "https://www.tagesschau.de/inland/regional/badenwuerttemberg/swr-verein-findet-bei-putzete-in-nuertingen-zwei-pistolen-100.html", "thumbnailUrl": "https://images.tagesschau.de/image/d3f13a1f-387e-4f27-9d31-b810ad4ba805/AAABjrJofPY/AAABjcWesUg/16x9-512.jpg", "date": "2024-04-06T09:39:41.000+02:00", "lat": 48.6376, "lon": 9.3479, "intensity": 0.8, "source": "Tagesschau"}, {"title": "Zu hohe Kosten: \"Tagesspiegel\" und \"Berliner Morgenpost\" erscheinen sonntags nicht mehr gedruckt", "url": "https://www.tagesschau.de/inland/regional/berlin/rbb-zu-hohe-kosten-tagesspiegel-und-berliner-morgenpost-erscheinen-sonntags-nicht-mehr-gedruckt-100.html", "thumbnailUrl": "https://images.tagesschau.de/image/8f4153bd-6010-4d12-9034-981b64b0b00b/AAABjrJYIKQ/AAABjcWesUg/16x9-512.jpg", "date": "2024-04-06T09:35:55.000+02:00", "lat": 52.520008, "lon": 13.404954, "intensity": 0.7, "source": "Tagesschau"}, {"title": "Brandsatz auf Synagoge in Oldenburg geworfen", "url": "https://www.tagesschau.de/inland/regional/niedersachsen/brandsatz-synagoge-oldenburg-100.html", "thumbnailUrl": "https://images.tagesschau.de/image/8bccb72a-c351-40fd-b6be-3755d0109e80/AAABjrJSuVE/AAABjcWesUg/16x9-512.jpg", "date": "2024-04-06T09:30:00.000+02:00", "lat": 53.1434, "lon": 8.2154, "intensity": 0.6, "source": "Tagesschau"}, {"title": "FC St. Pauli: Mit Kart-Philosophie beim Karlsruher SC bestehen", "url": "https://www.tagesschau.de/inland/regional/hamburg/ndr-fc-st-pauli-mit-kart-philosophie-beim-karlsruher-sc-bestehen-102.html", "thumbnailUrl": "https://images.tagesschau.de/image/83dbb76c-c8e0-4fbe-9028-5004ab5b4619/AAABjqms6PM/AAABjcWesUg/16x9-512.jpg", "date": "2024-04-06T09:28:00.000+02:00", "lat": 53.551086, "lon": 9.98902, "intensity": 0.5, "source": "Tagesschau"}, {"title": "HSV auch gegen Kaiserslautern ohne Torj\u00e4ger Robert Glatzel ", "url": "https://www.tagesschau.de/inland/regional/hamburg/ndr-hsv-auch-gegen-kaiserslautern-ohne-torjaeger-robert-glatzel-106.html", "thumbnailUrl": "https://images.tagesschau.de/image/84913972-c63c-45fc-bc1d-5cb9dc9284ef/AAABjqlpL1E/AAABjcWesUg/16x9-512.jpg", "date": "2024-04-06T09:26:00.000+02:00", "lat": 53.551086, "lon": 9.993682, "intensity": 0.7, "source": "Tagesschau"}, {"title": "Berlin-Marzahn: Feuerwehr l\u00f6scht Br\u00e4nde in f\u00fcnf Kellerverschl\u00e4gen", "url": "https://www.tagesschau.de/inland/regional/berlin/rbb-berlin-marzahn-feuerwehr-loescht-braende-in-fuenf-kellerverschlaegen-100.html", "thumbnailUrl": "https://images.tagesschau.de/image/f3aeb910-a3b1-46b9-9e86-df5bfe61f273/AAABjrJJd-s/AAABjcWesUg/16x9-512.jpg", "date": "2024-04-06T09:19:34.000+02:00", "lat": 52.5498, "lon": 13.5627, "intensity": 0.7, "source": "Tagesschau"}, {"title": "Rekord-W\u00e4rme und Saharastaub erwartet", "url": "https://www.tagesschau.de/inland/regional/nordrheinwestfalen/wdr-aprilwetter-am-wochenende-gewitter-rekordverdaechtige-waerme-und-saharastaub-moeglich-100.html", "thumbnailUrl": "https://images.tagesschau.de/image/2f563cc9-84c6-4cdb-9716-6b42d329be0e/AAABjrJOoUg/AAABjcWesUg/16x9-512.jpg", "date": "2024-04-06T09:14:00.000+02:00", "lat": 51.8133, "lon": 7.6261, "intensity": 0.8, "source": "Tagesschau"}, {"title": "Hamburger Linke will sich bei Parteitag neu aufstellen", "url": "https://www.tagesschau.de/inland/regional/hamburg/ndr-hamburger-linke-will-sich-bei-parteitag-neu-aufstellen-100.html", "thumbnailUrl": "https://images.tagesschau.de/image/f9ce9a48-e82f-4d89-8564-a3470927b3e7/AAABjrJD-E8/AAABjcWesUg/16x9-512.jpg", "date": "2024-04-06T09:13:00.000+02:00", "lat": 53.55, "lon": 10.0, "intensity": 0.8, "source": "Tagesschau"}, {"title": "A8 bei Neunkirchen Richtung Pirmasens bis Montag voll gesperrt", "url": "https://www.tagesschau.de/inland/regional/saarland/sr-a8-bei-neunkirchen-richtung-pirmasens-bis-montag-voll-gesperrt-100.html", "thumbnailUrl": "https://images.tagesschau.de/image/0ccda861-3c7e-43e7-ba5f-61559e6a4a16/AAABjq1sEWQ/AAABjcWesUg/16x9-512.jpg", "date": "2024-04-06T09:05:00.000+02:00", "lat": 49.3436, "lon": 7.1814, "intensity": 0.8, "source": "Tagesschau"}, {"title": "Bus auf Abruf - Flitsaar startet in St. Wendel", "url": "https://www.tagesschau.de/inland/regional/saarland/sr-bus-auf-abruf-flitsaar-startet-in-st-wendel-102.html", "thumbnailUrl": "https://images.tagesschau.de/image/5de5cd64-79fe-4bd0-a9ac-26c27ef8bbf6/AAABjp81uu8/AAABjcWesUg/16x9-512.jpg", "date": "2024-04-06T09:02:00.000+02:00", "lat": 49.4614, "lon": 7.1763, "intensity": 0.7, "source": "Tagesschau"}, {"title": "SV Elversberg will Wiedergutmachung gegen Magdeburg", "url": "https://www.tagesschau.de/inland/regional/saarland/sr-sv-elversberg-will-wiedergutmachung-gegen-magdeburg-100.html", "thumbnailUrl": "https://images.tagesschau.de/image/9b1e2e89-1433-4eb0-a541-dbbab2d4993d/AAABjq8hpqM/AAABjcWesUg/16x9-512.jpg", "date": "2024-04-06T08:53:00.000+02:00", "lat": 49.3252, "lon": 7.0974, "intensity": 0.7, "source": "Tagesschau"}, {"title": "SAP streicht in Deutschland Tausende Jobs", "url": "https://www.tagesschau.de/wirtschaft/unternehmen/sap-stellenabbau-deutschland-100.html", "thumbnailUrl": "https://images.tagesschau.de/image/592693e1-0732-4723-a392-93793a1ede7b/AAABipMvlbE/AAABjcWesUg/16x9-512.jpg", "date": "2024-04-06T08:45:31.139+02:00", "lat": 51.224556, "lon": 10.762622, "intensity": 0.8, "source": "Tagesschau"}, {"title": "Gro\u00dfbrand in der Billstra\u00dfe: Ermittlungen eingestellt", "url": "https://www.tagesschau.de/inland/regional/hamburg/ndr-grossbrand-in-der-billstrasse-ermittlungen-eingestellt-100.html", "thumbnailUrl": "https://images.tagesschau.de/image/96cc9517-095c-40a4-b435-7d87117dac56/AAABjrIzhEQ/AAABjcWesUg/16x9-512.jpg", "date": "2024-04-06T08:45:00.000+02:00", "lat": 53.548, "lon": 10.0314, "intensity": 0.8, "source": "Tagesschau"}, {"title": "Anti-rechts-Protest: B\u00fcndnis aus Ostfriesland schl\u00e4gt neuen Weg ein", "url": "https://www.tagesschau.de/inland/regional/niedersachsen/ndr-anti-rechts-protest-buendnis-aus-ostfriesland-schlaegt-neuen-weg-ein-100.html", "thumbnailUrl": "https://images.tagesschau.de/image/3cab5b9e-2cbf-4233-b68e-0f2403b33b51/AAABjrIomX4/AAABjcWesUg/16x9-512.jpg", "date": "2024-04-06T08:41:00.000+02:00", "lat": 53.3643, "lon": 7.2061, "intensity": 0.5, "source": "Tagesschau"}, {"title": "Schwertransport im Emsland: Bahnhof muss gesperrt werden", "url": "https://www.tagesschau.de/inland/regional/niedersachsen/ndr-schwertransport-im-emsland-bahnhof-leschede-gesperrt-100.html", "thumbnailUrl": "https://images.tagesschau.de/image/53600d54-d610-444e-b338-ab5cf1975524/AAABjq3hpYI/AAABjcWesUg/16x9-512.jpg", "date": "2024-04-06T08:33:00.000+02:00", "lat": 52.2811, "lon": 7.3296, "intensity": 0.7, "source": "Tagesschau"}, {"title": "T\u00f6dliches Schweigen?", "url": "https://www.tagesschau.de/inland/innenpolitik/voelkermord-ruanda-100.html", "thumbnailUrl": "https://images.tagesschau.de/image/32713471-b46d-4908-8187-19189b82e391/AAABhoCkGWM/AAABjcWesUg/16x9-512.jpg", "date": "2024-04-06T08:26:22.185+02:00", "lat": -1.940278, "lon": 30.059558, "intensity": 0.8, "source": "Tagesschau"}, {"title": "209 Namen bekannt: Berliner Staatsanwaltschaft bearbeitet rund 680 Verfahren zum Nahost-Konflikt", "url": "https://www.tagesschau.de/inland/regional/berlin/rbb-209-namen-bekannt-berliner-staatsanwaltschaft-bearbeitet-rund-680-verfahren-zum-nahost-konflikt-100.html", "thumbnailUrl": "https://images.tagesschau.de/image/c745b61e-635f-45ff-b056-2e6aa4f02f8b/AAABjrIWMpU/AAABjcWesUg/16x9-512.jpg", "date": "2024-04-06T08:22:09.000+02:00", "lat": 52.520008, "lon": 13.404953, "intensity": 0.8, "source": "Tagesschau"}, {"title": "Pragsdorf-Prozess: Angeklagter nennt angeblichen Mitt\u00e4ter", "url": "https://www.tagesschau.de/inland/regional/mecklenburgvorpommern/ndr-pragsdorf-prozess-angeklagter-nennt-angeblichen-mittaeter-100.html", "thumbnailUrl": "https://images.tagesschau.de/image/1a53ea90-82dc-4363-8ce5-ed5259a489d4/AAABjq8--Ig/AAABjcWesUg/16x9-512.jpg", "date": "2024-04-06T08:20:00.000+02:00", "lat": 53.6127, "lon": 13.4411, "intensity": 0.8, "source": "Tagesschau"}, {"title": "Betzdorf: Gesuchte \"Reichsb\u00fcrgerin\" verliert Geldb\u00f6rse und wird geschnappt", "url": "https://www.tagesschau.de/inland/regional/rheinlandpfalz/swr-betzdorf-gesuchte-reichsbuergerin-verliert-geldboerse-und-wird-geschnappt-100.html", "thumbnailUrl": "https://images.tagesschau.de/image/9f3c259e-2cb9-4b72-afb6-b01cb0850ca0/AAABjrISRyY/AAABjcWesUg/16x9-512.jpg", "date": "2024-04-06T08:19:49.000+02:00", "lat": 50.8086, "lon": 7.8559, "intensity": 0.6, "source": "Tagesschau"}, {"title": "Berliner Wohnungsbaugesellschaften unter Druck", "url": "https://www.tagesschau.de/inland/regional/berlin/rbb-berliner-wohnungsbaugesellschaften-unter-druck-hohe-schulden-hohe-ziele-100.html", "thumbnailUrl": "https://images.tagesschau.de/image/3a22a36f-c2da-4ff3-bd21-e5becb96cc35/AAABjrIO21M/AAABjcWesUg/16x9-512.jpg", "date": "2024-04-06T08:16:22.000+02:00", "lat": 52.520008, "lon": 13.404954, "intensity": 0.8, "source": "Tagesschau"}, {"title": "Jugendgruppe in Rostock schl\u00e4gt 17-J\u00e4hrigen nieder", "url": "https://www.tagesschau.de/inland/regional/mecklenburgvorpommern/ndr-jugendgruppe-in-rostock-schlaegt-17-jaehrigen-nieder-100.html", "thumbnailUrl": "https://images.tagesschau.de/image/e2df7ab9-608d-4300-b596-98e1a0bdd6b5/AAABjrI6ioQ/AAABjcWesUg/16x9-512.jpg", "date": "2024-04-06T08:00:00.000+02:00", "lat": 54.092441, "lon": 12.099147, "intensity": 0.8, "source": "Tagesschau"}, {"title": "Hamburger Tafel startet Sammelaktion in Einkaufszentren", "url": "https://www.tagesschau.de/inland/regional/hamburg/ndr-hamburger-tafel-startet-sammelaktion-in-einkaufszentren-100.html", "thumbnailUrl": "https://images.tagesschau.de/image/460b40f3-a1bb-443f-98c5-ba976b8ef610/AAABjrH6vGg/AAABjcWesUg/16x9-512.jpg", "date": "2024-04-06T07:50:00.000+02:00", "lat": 53.5511, "lon": 9.9937, "intensity": 0.7, "source": "Tagesschau"}, {"title": "Geb\u00fchren-\u00c4rger in Oberursel: Wann Anwohner f\u00fcr Feuerwehr-Eins\u00e4tze nach Hochwasser zahlen m\u00fcssen", "url": "https://www.tagesschau.de/inland/regional/hessen/hr-gebuehren-aerger-in-oberursel-wann-anwohner-fuer-feuerwehr-einsaetze-nach-hochwasser-zahlen-muessen-100.html", "thumbnailUrl": "https://images.tagesschau.de/image/12bf7ed3-b85a-414b-a8f5-08d6c6e8b787/AAABjrHg7bk/AAABjcWesUg/16x9-512.jpg", "date": "2024-04-06T07:26:46.648+02:00", "lat": 50.205226, "lon": 8.564073, "intensity": 0.7, "source": "Tagesschau"}, {"title": "Das Wetter im Norden: Heute sommerlich, morgen warmer Regen", "url": "https://www.tagesschau.de/inland/regional/hamburg/ndr-wetter-am-wochenende-temperatursprung-auf-ueber-20-grad-im-norden-100.html", "thumbnailUrl": "https://images.tagesschau.de/image/c3aeb071-02bd-494f-bba3-7c4a1a7239dc/AAABjrIK7ps/AAABjcWesUg/16x9-512.jpg", "date": "2024-04-06T07:22:00.000+02:00", "lat": 53.5511, "lon": 9.9937, "intensity": 0.8, "source": "Tagesschau"}, {"title": "\u00c4rzteausbildung in Brandenburg: Viele Medizin-Unis braucht das Land", "url": "https://www.tagesschau.de/inland/regional/brandenburg/rbb-aerzteausbildung-in-brandenburg-viele-medizin-unis-braucht-das-land-100.html", "thumbnailUrl": "https://images.tagesschau.de/image/f3408caa-8d71-4178-8b79-f1ab487aa001/AAABjrHXx-U/AAABjcWesUg/16x9-512.jpg", "date": "2024-04-06T07:13:56.000+02:00", "lat": 52.4226, "lon": 12.5597, "intensity": 0.8, "source": "Tagesschau"}, {"title": "++ Vier Tote bei Doppelangriff auf Saporischschja ++", "url": "https://www.tagesschau.de/newsticker/liveblog-ukraine-samstag-376.html", "thumbnailUrl": "https://images.tagesschau.de/image/5b073b67-29bf-4703-b6b1-71469e4c25bb/AAABizMn-kk/AAABjcWesUg/16x9-512.jpg", "date": "2024-04-06T07:13:34.450+02:00", "lat": 47.8388, "lon": 35.1396, "intensity": 0.8, "source": "Tagesschau"}, {"title": "Tod, Hunger, Hoffnungslosigkeit", "url": "https://www.tagesschau.de/ausland/asien/humanitaere-lage-norden-gaza-100.html", "thumbnailUrl": "https://images.tagesschau.de/image/99d2e78e-49ab-4117-a420-8f0b68418055/AAABjrHN6SM/AAABjcWesUg/16x9-512.jpg", "date": "2024-04-06T07:07:25.864+02:00", "lat": 31.534, "lon": 34.3547, "intensity": 0.8, "source": "Tagesschau"}, {"title": "Zwei Schwerverletzte bei Unfall zwischen Tamm und Asperg", "url": "https://www.tagesschau.de/inland/regional/badenwuerttemberg/swr-zwei-schwerverletzte-bei-unfall-zwischen-tamm-und-asperg-100.html", "thumbnailUrl": "https://images.tagesschau.de/image/fa22e83e-a324-4cb6-8cc2-ba9f10e668d1/AAABjrHOfDE/AAABjcWesUg/16x9-512.jpg", "date": "2024-04-06T07:04:34.000+02:00", "lat": 48.9314, "lon": 9.1584, "intensity": 0.8, "source": "Tagesschau"}, {"title": "\"Reichsb\u00fcrger\" nerven Stadtverwaltung in Landau mit Post", "url": "https://www.tagesschau.de/inland/regional/rheinlandpfalz/swr-reichsbuerger-nerven-stadtverwaltung-in-landau-mit-post-100.html", "thumbnailUrl": "https://images.tagesschau.de/image/df1e4dc1-c051-4f79-92b1-7d4e006aed8f/AAABjrISSYw/AAABjcWesUg/16x9-512.jpg", "date": "2024-04-06T06:36:27.000+02:00", "lat": 49.1951, "lon": 8.1219, "intensity": 0.5, "source": "Tagesschau"}, {"title": "Wie Ben und Henry ihren Alltag mit Autismus meistern", "url": "https://www.tagesschau.de/inland/regional/bremen/rb-wie-ben-und-henry-ihren-alltag-mit-autismus-meistern-100.html", "thumbnailUrl": "https://images.tagesschau.de/image/dfa82900-be09-4c71-9ce1-0fdf73158798/AAABjrGzCUU/AAABjcWesUg/16x9-512.jpg", "date": "2024-04-06T06:36:00.000+02:00", "lat": 53.079296, "lon": 8.801694, "intensity": 0.7, "source": "Tagesschau"}, {"title": "A7-Sperrungen in Hamburg am Wochenende: Elbtunnel betroffen", "url": "https://www.tagesschau.de/inland/regional/hamburg/ndr-a7-in-hamburg-vollsperrung-des-elbtunnels-am-wochenende-100.html", "thumbnailUrl": "https://images.tagesschau.de/image/22c53553-1e52-4d31-88f4-23b04d67d78e/AAABjrINCZQ/AAABjcWesUg/16x9-512.jpg", "date": "2024-04-06T06:23:00.000+02:00", "lat": 53.5511, "lon": 9.9526, "intensity": 0.7, "source": "Tagesschau"}, {"title": "Nachts zwischen Haltestellen aussteigen? SPD Bremerhaven diskutiert", "url": "https://www.tagesschau.de/inland/regional/bremen/rb-nachts-zwischen-haltestellen-aussteigen-spd-bremerhaven-diskutiert-100.html", "thumbnailUrl": "https://images.tagesschau.de/image/1dc91e56-2928-4b24-8f8f-8726989c922f/AAABjrGoD-I/AAABjcWesUg/16x9-512.jpg", "date": "2024-04-06T06:20:00.000+02:00", "lat": 53.0793, "lon": 8.8017, "intensity": 0.3, "source": "Tagesschau"}, {"title": "Mehr als zehn Jahre Haft nach t\u00f6dlichem Messerangriff in Harburg", "url": "https://www.tagesschau.de/inland/regional/hamburg/ndr-gefaengnisstrafe-urteil-nach-toedlichem-messerangriff-in-harburg-100.html", "thumbnailUrl": "https://images.tagesschau.de/image/05abe293-e6c5-440c-8ace-279bdb7eb26e/AAABjrGxf0w/AAABjcWesUg/16x9-512.jpg", "date": "2024-04-06T06:15:00.000+02:00", "lat": 53.463, "lon": 9.985, "intensity": 0.8, "source": "Tagesschau"}, {"title": "Der tiefste Punkt Deutschlands - ein norddeutscher Streit", "url": "https://www.tagesschau.de/inland/regional/schleswigholstein/ndr-der-tiefste-punkt-deutschlands-ein-norddeutscher-streit-100.html", "thumbnailUrl": "https://images.tagesschau.de/image/4d3f5a6d-4be7-4b2f-ac56-8674c29e0fce/AAABjrGQqQI/AAABjcWesUg/16x9-512.jpg", "date": "2024-04-06T06:00:00.000+02:00", "lat": 54.6253, "lon": 9.6869, "intensity": 0.8, "source": "Tagesschau"}, {"title": "Schrottreifer Reisebus mit 70 Jugendlichen auf A4 gestoppt", "url": "https://www.tagesschau.de/inland/regional/thueringen/mdr-schrottreifer-reisebus-mit-70-jugendlichen-auf-a4-gestoppt-100.html", "thumbnailUrl": "https://images.tagesschau.de/image/2593aa99-4ddb-43d4-94a7-25756d42521a/AAABjrEroJQ/AAABjcWesUg/16x9-512.jpg", "date": "2024-04-06T05:21:00.000+02:00", "lat": 50.8278, "lon": 10.4515, "intensity": 0.8, "source": "Tagesschau"}, {"title": "Gef\u00e4hrliche Gesetzesl\u00fccke: \"Legales LSD\" aus Automaten in BW", "url": "https://www.tagesschau.de/inland/regional/badenwuerttemberg/swr-gefaehrliche-gesetzesluecke-legales-lsd-aus-automaten-in-bw-100.html", "thumbnailUrl": "https://images.tagesschau.de/image/28030314-eb51-4947-bba6-0d798f3557b5/AAABjrFtbs8/AAABjcWesUg/16x9-512.jpg", "date": "2024-04-06T05:18:49.000+02:00", "lat": 48.6617, "lon": 9.3566, "intensity": 0.8, "source": "Tagesschau"}, {"title": "Sicherheit contra Datenschutz: Wie ver\u00e4ndern Bodycams den regionalen Bahnverkehr?", "url": "https://www.tagesschau.de/inland/regional/badenwuerttemberg/swr-sicherheit-contra-datenschutz-wie-veraendern-bodycams-den-regionalen-bahnverkehr-100.html", "thumbnailUrl": "https://images.tagesschau.de/image/6d74359e-6c4a-48d3-9b14-d78d3cfa551b/AAABjrFpxP8/AAABjcWesUg/16x9-512.jpg", "date": "2024-04-06T05:14:19.000+02:00", "lat": 48.6616, "lon": 9.9937, "intensity": 0.7, "source": "Tagesschau"}, {"title": "Stadt Trier testet heute neue Sirenen", "url": "https://www.tagesschau.de/inland/regional/rheinlandpfalz/swr-stadt-trier-testet-heute-neue-sirenen-100.html", "thumbnailUrl": "https://images.tagesschau.de/image/415f2abb-686c-4e59-b0df-6d6707de4065/AAABjrFp77Y/AAABjcWesUg/16x9-512.jpg", "date": "2024-04-06T05:13:00.000+02:00", "lat": 49.7579, "lon": 6.6412, "intensity": 0.7, "source": "Tagesschau"}, {"title": "Leichtes Beben in der Metropolregion New York", "url": "https://www.tagesschau.de/ausland/amerika/new-yorker-erdbeben-100.html", "thumbnailUrl": "https://images.tagesschau.de/image/fb77114e-4150-4715-a012-48ae6d090b2d/AAABjq9cpPo/AAABjcWesUg/16x9-512.jpg", "date": "2024-04-06T03:09:17.432+02:00", "lat": 40.7128, "lon": -74.0059, "intensity": 0.3, "source": "Tagesschau"}, {"title": "AWO-Chef Gro\u00df fordert schnelle Einigung bei Kindergrundsicherung", "url": "https://www.br.de/nachrichten/meldungen/index.html#n1", "thumbnailUrl": null, "date": "2024-04-06T09:58:08+02:00", "lat": 30.0444, "lon": 31.2357, "intensity": 0.8, "source": "Bayrischer Rundfunk"}, {"title": "Nach Brandanschlag auf Synagoge Oldenburg ermittelt der Staatsschutz", "url": "https://www.br.de/nachrichten/meldungen/index.html#n2", "thumbnailUrl": null, "date": "2024-04-06T09:58:08+02:00", "lat": 33.5138, "lon": 36.2021, "intensity": 0.8, "source": "Bayrischer Rundfunk"}, {"title": "USA und Israel bereiten sich auf iranischen Vergeltungsschlag vor", "url": "https://www.br.de/nachrichten/meldungen/index.html#n3", "thumbnailUrl": null, "date": "2024-04-06T09:58:08+02:00", "lat": 39.9334, "lon": 32.8597, "intensity": 0.8, "source": "Bayrischer Rundfunk"}, {"title": "Antisemitismusbeauftragter Klein kritisiert Vorgehen der israelischen Armee", "url": "https://www.br.de/nachrichten/meldungen/index.html#n4", "thumbnailUrl": null, "date": "2024-04-06T09:58:08+02:00", "lat": 52.520008, "lon": 13.404954, "intensity": 0.7, "source": "Bayrischer Rundfunk"}, {"title": "Bei SAP in Deutschland sollen offenbar 2.600 Stellen wegfallen", "url": "https://www.br.de/nachrichten/meldungen/index.html#n5", "thumbnailUrl": null, "date": "2024-04-06T09:58:08+02:00", "lat": 52.520008, "lon": 13.404954, "intensity": 0.6, "source": "Bayrischer Rundfunk"}, {"title": "Br\u00fcssel genehmigt Staatshilfe f\u00fcr deutsche Wasserstoffproduktion", "url": "https://www.br.de/nachrichten/meldungen/index.html#n6", "thumbnailUrl": null, "date": "2024-04-06T09:58:08+02:00", "lat": 48.135125, "lon": 11.581981, "intensity": 0.6, "source": "Bayrischer Rundfunk"}, {"title": "Drittes Todesopfer nach Br\u00fcckeneinsturz in Baltimore geborgen", "url": "https://www.br.de/nachrichten/meldungen/index.html#n7", "thumbnailUrl": null, "date": "2024-04-06T09:58:08+02:00", "lat": 50.110922, "lon": 8.682127, "intensity": 0.8, "source": "Bayrischer Rundfunk"}, {"title": "Slowakei w\u00e4hlt in Stichwahl neues Staatsoberhaupt", "url": "https://www.br.de/nachrichten/meldungen/index.html#n8", "thumbnailUrl": null, "date": "2024-04-06T09:58:08+02:00", "lat": 47.8684, "lon": 12.6394, "intensity": 0.8, "source": "Bayrischer Rundfunk"}, {"title": "Ungew\u00f6hnlich warmes Wochenende steht bevor", "url": "https://www.br.de/nachrichten/meldungen/index.html#n9", "thumbnailUrl": null, "date": "2024-04-06T09:58:08+02:00", "lat": 48.5844, "lon": 13.6722, "intensity": 0.8, "source": "Bayrischer Rundfunk"}, {"title": "Das Wetter: Meist sonnig bei 23 bis 28 Grad", "url": "https://www.br.de/nachrichten/meldungen/index.html#n10", "thumbnailUrl": null, "date": "2024-04-06T09:58:08+02:00", "lat": 53.5396, "lon": 8.5761, "intensity": 0.4, "source": "Bayrischer Rundfunk"}, {"title": "Zu hohe Kosten: \"Tagesspiegel\" und \"Berliner Morgenpost\" erscheinen sonntags nicht mehr gedruckt", "url": "https://www.rbb24.de/wirtschaft/beitrag/2024/04/berlin-zeitungen-morgenpost-tagesspiegel-keine-sonntagsausgaben-mehr.html", "thumbnailUrl": null, "date": "Sat, 06 Apr 2024 09:38:22 +0200", "lat": 52.520008, "lon": 13.404954, "intensity": 0.7, "source": "RBB"}, {"title": "Berlin-Marzahn: Feuerwehr l\u00f6scht Br\u00e4nde in f\u00fcnf Kellerverschl\u00e4gen", "url": "https://www.rbb24.de/panorama/beitrag/2024/04/berlin-feuer-flammen-brand-feuerwehr-marzahn-einsatz-treppenhaus.html", "thumbnailUrl": null, "date": "Sat, 06 Apr 2024 09:19:34 +0200", "lat": 52.5414, "lon": 13.5535, "intensity": 0.7, "source": "RBB"}, {"title": "209 Namen bekannt: Berliner Staatsanwaltschaft bearbeitet rund 680 Verfahren zum Nahost-Konflikt", "url": "https://www.rbb24.de/panorama/beitrag/2024/04/berlin-staatsanwaltschaft-verfahren-nahost-gaza-krieg-konflikt-hamas.html", "thumbnailUrl": null, "date": "Sat, 06 Apr 2024 08:22:00 +0200", "lat": 52.520008, "lon": 13.404954, "intensity": 0.7, "source": "RBB"}, {"title": "Berliner Wohnungsbaugesellschaften unter Druck", "url": "https://www.rbb24.de/wirtschaft/beitrag/2024/04/berlin-wohnungsbaugesellschaften-hohe-schulden-hohe-ziele-analyse.html", "thumbnailUrl": null, "date": "Sat, 06 Apr 2024 08:16:00 +0200", "lat": 52.520008, "lon": 13.404954, "intensity": 0.8, "source": "RBB"}, {"title": "\u00c4rzteausbildung in Brandenburg: Viele Medizin-Unis braucht das Land", "url": "https://www.rbb24.de/panorama/beitrag/2024/04/brandenburg-aerzte-ausbildung-medizin-universitaet-mul-mhb.html", "thumbnailUrl": null, "date": "Sat, 06 Apr 2024 07:13:56 +0200", "lat": 52.4125, "lon": 13.151, "intensity": 0.6, "source": "RBB"}, {"title": "Herthas Erfolg in Paderborn in der Analyse: Konzept Sieg", "url": "https://www.rbb24.de/sport/beitrag/2024/04/fussball-zweite-bundesliga-sc-paderborn-hertha-bsc-analyse.html", "thumbnailUrl": null, "date": "Fri, 05 Apr 2024 22:45:00 +0200", "lat": 51.7189, "lon": 8.7469, "intensity": 0.7, "source": "RBB"}, {"title": "Nach 3:2 gegen Straubing: Eisb\u00e4ren stehen vor dem Finaleinzug", "url": "https://www.rbb24.de/sport/beitrag/2024/04/eishockey-del-halbfinale-spiel-drei-eisbaeren-straubing.html", "thumbnailUrl": null, "date": "Fri, 05 Apr 2024 22:19:00 +0200", "lat": 52.52, "lon": 13.4386, "intensity": 0.8, "source": "RBB"}, {"title": "Video | Zus\u00e4tzliche medizinische Leistungen: Berliner FDP-Politiker verteidigt IGel-Selbstzahlerleistungen", "url": "https://www.rbb24.de/panorama/beitrag/av7/video-igeL-leistungen-politik-fdp-berlin-brandenburg.html", "thumbnailUrl": null, "date": "Fri, 05 Apr 2024 21:43:58 +0200", "lat": 52.520008, "lon": 13.404954, "intensity": 0.3, "source": "RBB"}, {"title": "98:58 gegen Halle: Albas Frauen starten mit Kantersieg in die Halbfinal-Serie", "url": "https://www.rbb24.de/sport/beitrag/2024/04/basketball-frauen-halbfinale-spiel-eins-alba-berlin-halle.html", "thumbnailUrl": null, "date": "Fri, 05 Apr 2024 21:25:00 +0200", "lat": 51.4792, "lon": 12.0017, "intensity": 0.7, "source": "RBB"}, {"title": "Video | W\u00fcnsdorf Neues vom Haus der Offiziere", "url": "https://www.rbb24.de/panorama/beitrag/av7/video-haus-offiziere-wuensdorf-geschichte-berlin-brandenburg.html", "thumbnailUrl": null, "date": "Fri, 05 Apr 2024 21:08:35 +0200", "lat": 52.1946, "lon": 13.2018, "intensity": 0.6, "source": "RBB"}, {"title": "3:2 in Paderborn: Hertha BSC mit drei Punkten aus dem Nichts", "url": "https://www.rbb24.de/sport/beitrag/2024/04/sport-fussball-zweite-bundesliga-paderborn-hertha-bsc-audio-ticker-spielbericht.html", "thumbnailUrl": null, "date": "Fri, 05 Apr 2024 20:26:00 +0200", "lat": 51.7566, "lon": 8.7566, "intensity": 0.3, "source": "RBB"}, {"title": "Scharfmacher an der Spitze: AfD Brandenburg will Kandidatenliste und Programm auf Parteitag beschlie\u00dfen", "url": "https://www.rbb24.de/politik/beitrag/2024/04/afd-brandenburg-parteitag-kandidatenliste-wahlprogramm.html", "thumbnailUrl": null, "date": "Fri, 05 Apr 2024 18:55:00 +0200", "lat": 52.412523, "lon": 13.301902, "intensity": 0.7, "source": "RBB"}, {"title": "Schienenverkehr: Bahn will Gleisanlagen auf Vordermann bringen und k\u00fcndigt zahlreiche Bauprojekte an", "url": "https://www.rbb24.de/panorama/beitrag/2024/04/berlin-brandenburg-db-deutsche-nahn-instandsetzung-infrastruktur.html", "thumbnailUrl": null, "date": "Fri, 05 Apr 2024 18:40:00 +0200", "lat": 52.520008, "lon": 13.404954, "intensity": 0.8, "source": "RBB"}, {"title": "Wetter in Berlin und Brandenburg: Schlingernder Jetstream weht hei\u00dfen Wind in die Region", "url": "https://www.rbb24.de/panorama/beitrag/2024/04/berlin-brandenburg-wetter-wochenende-prognose-rekordwerte.html", "thumbnailUrl": null, "date": "Fri, 05 Apr 2024 17:27:00 +0200", "lat": 52.520008, "lon": 13.404954, "intensity": 0.8, "source": "RBB"}, {"title": "Berliner Polizei entdeckt offenbar Drogenlabor in Bohnsdorf", "url": "https://www.rbb24.de/panorama/beitrag/2024/04/berlin-koepenick-bohnsdorf-polizei-chemikalien-ammoniak.html", "thumbnailUrl": null, "date": "Fri, 05 Apr 2024 17:21:00 +0200", "lat": 52.4044, "lon": 13.6131, "intensity": 0.7, "source": "RBB"}, {"title": "Bauarbeiten im Nordwesten Brandenburgs: Stress f\u00fcr Pendler auf A24 und RE6-Strecke", "url": "https://www.rbb24.de/panorama/beitrag/2024/04/brandenburg-a24-bahnstrecke-re6-bauarbeiten.html", "thumbnailUrl": null, "date": "Fri, 05 Apr 2024 17:05:28 +0200", "lat": 52.5256, "lon": 12.3811, "intensity": 0.7, "source": "RBB"}, {"title": "Amnestieregelung: H\u00e4ftling in Berlin nach Teil-Legalisierung von Cannabis entlassen", "url": "https://www.rbb24.de/politik/beitrag/2024/04/berlin-teillegalisierung-cannabis-haeftling-entlassen.html", "thumbnailUrl": null, "date": "Fri, 05 Apr 2024 16:03:41 +0200", "lat": 52.520008, "lon": 13.404954, "intensity": 0.7, "source": "RBB"}, {"title": "Wer am Sonntag antritt, wo gelaufen wird und welche Stra\u00dfen gesperrt werden", "url": "https://www.rbb24.de/sport/beitrag/2024/04/berlin-halbmarathon-2024-laufen-sperrungen-strecke-verkehr-teilnehmer.html", "thumbnailUrl": null, "date": "Fri, 05 Apr 2024 15:32:00 +0200", "lat": 52.516, "lon": 13.378, "intensity": 0.8, "source": "RBB"}, {"title": "Wetter in Berlin und Brandenburg: Bis zu 27 Grad am Wochenende erwartet - vorher Sturm und Hagel m\u00f6glich", "url": "https://www.rbb24.de/panorama/beitrag/2024/04/wetter-aussichten-wochenende-berlin-brandenburg.html", "thumbnailUrl": null, "date": "Fri, 05 Apr 2024 14:43:00 +0200", "lat": 52.52, "lon": 13.405, "intensity": 0.7, "source": "RBB"}, {"title": "Saison er\u00f6ffnet: Berliner Brunnen sprudeln wieder", "url": "https://www.rbb24.de/panorama/beitrag/2024/04/berlin-wasserbetriebe-brunnensaison-eroeffnet.html", "thumbnailUrl": null, "date": "Fri, 05 Apr 2024 13:52:00 +0200", "lat": 52.520008, "lon": 13.404954, "intensity": 0.5, "source": "RBB"}, {"title": "Geplante Nord-S\u00fcd-Verbindung: Berliner S21 geht erst Ende 2024 in Betrieb", "url": "https://www.rbb24.de/panorama/beitrag/2024/04/berlin-s-bahn-s21-s15-hauptbahnhof-gesundbrunnen-ende-2024.html", "thumbnailUrl": null, "date": "Fri, 05 Apr 2024 12:49:00 +0200", "lat": 52.5256, "lon": 13.3692, "intensity": 0.8, "source": "RBB"}, {"title": "BSR-Gebrauchtwarenkaufhaus \"NochMall\" verzeichnet mehr Nachfrage", "url": "https://www.rbb24.de/wirtschaft/beitrag/2024/04/berliner-stadtreinigung-bsr-gebrauchtwarenkaufhaus-nochmall-mehr-umsatz-mehr-kunden.html", "thumbnailUrl": null, "date": "Fri, 05 Apr 2024 12:31:00 +0200", "lat": 53.0736, "lon": 8.8076, "intensity": 0.6, "source": "RBB"}, {"title": "U19-Juniorenetappenfahrt: Internationaler Radsport-Nachwuchs tritt in Cottbus im Stra\u00dfenrennsport an", "url": "https://www.rbb24.de/sport/beitrag/2024/04/brandenburg-cottbus-juniorenetappenfahrt-strassenrennsport-rsc-wettkampf.html", "thumbnailUrl": null, "date": "Fri, 05 Apr 2024 12:13:04 +0200", "lat": 51.7562, "lon": 14.3356, "intensity": 0.4, "source": "RBB"}, {"title": "Berlin-Tiergarten: Stra\u00dfensperrungen durch Berliner Halbmarathon", "url": "https://www.rbb24.de/panorama/beitrag/2024/04/berlin-halbmarathon-strassensperrung-tiergarten-grosser-stern.html", "thumbnailUrl": null, "date": "Fri, 05 Apr 2024 11:28:00 +0200", "lat": 52.5166, "lon": 13.3789, "intensity": 0.6, "source": "RBB"}, {"title": "Einsatz in Berliner Rhinstra\u00dfe: M\u00e4nner werfen in Lichtenberg Fahrrad und Fernseher aus achtem Stock", "url": "https://www.rbb24.de/panorama/beitrag/2024/04/berlin-lichtenberg-rhinstrasse-fernseher-fahrrad-aus-achtem-stock-geworfen.html", "thumbnailUrl": null, "date": "Fri, 05 Apr 2024 09:50:00 +0200", "lat": 52.5256, "lon": 13.5034, "intensity": 0.7, "source": "RBB"}, {"title": "Handball-Bundesliga: F\u00fcchse Berlin nach Sieg in G\u00f6ppingen weiter Tabellenf\u00fchrer", "url": "https://www.rbb24.de/sport/beitrag/2024/04/berlin-sport-handball-bundesliga-goeppingen-fuechse-spielbericht.html", "thumbnailUrl": null, "date": "Fri, 05 Apr 2024 09:38:02 +0200", "lat": 48.7031, "lon": 9.6592, "intensity": 0.6, "source": "RBB"}, {"title": "Basketball-EuroLeague: Alba verliert letztes internationales Heimspiel gegen Partizan Belgrad", "url": "https://www.rbb24.de/sport/beitrag/2024/04/berlin-sport-basketball-euroleague-alba-partizan-belgrad-spielbericht.html", "thumbnailUrl": null, "date": "Thu, 04 Apr 2024 22:36:00 +0200", "lat": 52.52, "lon": 13.3833, "intensity": 0.7, "source": "RBB"}, {"title": "Video | Inka Gossmann-Reetz: Ein Jahr Polizeibeauftragte in Brandenburg", "url": "https://www.rbb24.de/panorama/beitrag/av7/video-brandenburg-ein-jahr-polizeibeauftragte-inka-gossmann-reetz.html", "thumbnailUrl": null, "date": "Thu, 04 Apr 2024 21:36:29 +0200", "lat": 52.5186, "lon": 13.3294, "intensity": 0.5, "source": "RBB"}, {"title": "Video | Alte Schule Karlshorst: Wohnen im Mehrgenerationenhaus", "url": "https://www.rbb24.de/panorama/beitrag/av7/video-berlin-besonderes-wohnen-alte-schule-karlshorst-mehrgenerationenhaus.html", "thumbnailUrl": null, "date": "Thu, 04 Apr 2024 21:19:14 +0200", "lat": 52.487586, "lon": 13.517769, "intensity": 0.5, "source": "RBB"}, {"title": "Politisch motivierte Dienstvergehen: Bei Berliner Polizei laufen 96 Disziplinarverfahren gegen Beamte", "url": "https://www.rbb24.de/panorama/beitrag/2024/04/disziplinarverfahren-berlin-polizei-beamte-dienstvergehen.html", "thumbnailUrl": null, "date": "Thu, 04 Apr 2024 19:32:59 +0200", "lat": 52.520008, "lon": 13.404954, "intensity": 0.8, "source": "RBB"}, {"title": "Berliner Polizei durchsucht in Gropiusstadt Wohnungen von mutma\u00dflichen Silvester-Randalierern", "url": "https://www.rbb24.de/panorama/beitrag/2024/04/berlin-gropiusstadt-durchsuchungen-ausschreitungen-silvesternach.html", "thumbnailUrl": null, "date": "Thu, 04 Apr 2024 19:27:25 +0200", "lat": 52.4363, "lon": 13.4764, "intensity": 0.7, "source": "RBB"}, {"title": "Auslosung Berliner Landespokal: Makkabi im Pokal-Halbfinale gegen Sparta Lichtenberg, Viktoria gegen Lichtenberg 47", "url": "https://www.rbb24.de/sport/beitrag/2024/04/sport-fussball-landespokal-berlin-viktoria-lichtenberg-makkabi-halbfinale-auslosung.html", "thumbnailUrl": null, "date": "Thu, 04 Apr 2024 19:02:00 +0200", "lat": 52.52, "lon": 13.4359, "intensity": 0.4, "source": "RBB"}, {"title": "Berliner Wasserbetriebe erneuern bis 2029 Rohre in Landsberger Allee", "url": "https://www.rbb24.de/panorama/beitrag/2024/04/berlin-landsberger-allee-bauarbeiten-wasserrohre-wasserbetriebe.html", "thumbnailUrl": null, "date": "Thu, 04 Apr 2024 17:47:00 +0200", "lat": 52.52, "lon": 13.4689, "intensity": 0.6, "source": "RBB"}, {"title": "R\u00e4tselhafte Holzkonstruktion aus dem 13. Jahrhundert in Prenzlau gefunden", "url": "https://www.rbb24.de/panorama/beitrag/2024/04/holz-balken-prenzlau-700-jahre-archaeologie.html", "thumbnailUrl": null, "date": "Thu, 04 Apr 2024 16:48:10 +0200", "lat": 53.3247, "lon": 13.8657, "intensity": 0.6, "source": "RBB"}, {"title": "Bundeswehr strukturiert an Standorten in Berlin und Brandenburg um - ein operatives F\u00fchrungskommando statt zwei", "url": "https://www.rbb24.de/politik/beitrag/2024/04/berlin-brandenburg-geltow-bundeswehr-einheitliches-fuehrung-kommando.html", "thumbnailUrl": null, "date": "Thu, 04 Apr 2024 15:24:00 +0200", "lat": 52.3759, "lon": 9.7031, "intensity": 0.5, "source": "RBB"}, {"title": "Berlin: Bundeskartellamt erlaubt Senat Kauf von Vattenfall-Fernw\u00e4rmenetz", "url": "https://www.rbb24.de/wirtschaft/beitrag/2024/04/berlin-fernwaerme-vattenfall-bundeskartellamt-.html", "thumbnailUrl": null, "date": "Thu, 04 Apr 2024 15:20:00 +0200", "lat": 52.520008, "lon": 13.404954, "intensity": 0.6, "source": "RBB"}, {"title": "Neugew\u00e4hlter Tesla-Betriebsrat in Gr\u00fcnheide best\u00e4tigt Michaela Schmitz als Vorsitzende", "url": "https://www.rbb24.de/wirtschaft/beitrag/2024/04/brandenburg-gruenheide-tesla-betriebsrat-konstituierende-sitzung-schmitz-vorsitzende.html", "thumbnailUrl": null, "date": "Thu, 04 Apr 2024 14:50:00 +0200", "lat": 52.4711, "lon": 13.8863, "intensity": 0.5, "source": "RBB"}, {"title": "Lkw-Fahrer nach Unfall auf dem s\u00fcdlichen Berliner Ring gestorben", "url": "https://www.rbb24.de/panorama/beitrag/2024/04/brandenburg-a10-berliner-ring-schwerer-verkehrsunfall-niederlehme.html", "thumbnailUrl": null, "date": "Thu, 04 Apr 2024 14:19:51 +0200", "lat": 52.4392, "lon": 13.5566, "intensity": 0.8, "source": "RBB"}, {"title": "Taxis halten wieder am Europaplatz vor Berliner Hauptbahnhof", "url": "https://www.rbb24.de/politik/beitrag/2024/04/taxi-streit-beendet-europaplatz-hauptbahnhof-berlin.html", "thumbnailUrl": null, "date": "Thu, 04 Apr 2024 13:43:00 +0200", "lat": 52.5251, "lon": 13.3694, "intensity": 0.4, "source": "RBB"}, {"title": "Berliner Hedwigs-Kathedrale wird im November er\u00f6ffnet - nach sechs Jahren Umbauarbeiten", "url": "https://www.rbb24.de/panorama/beitrag/2024/04/berlin-hedwigs-kathedrale-wird-im-november-eroeffnet.html", "thumbnailUrl": null, "date": "Thu, 04 Apr 2024 12:42:00 +0200", "lat": 52.517257, "lon": 13.388794, "intensity": 0.7, "source": "RBB"}, {"title": "Video | Freier Eintritt: J\u00fcdisches Kulturschiff \"MS Goldberg\" ist auf Brandenburg-Tour", "url": "https://www.rbb24.de/kultur/beitrag/av7/video-brandenburg-ms-goldberg-juedisches-kulturschiff.html", "thumbnailUrl": null, "date": "Wed, 03 Apr 2024 21:13:34 +0200", "lat": 52.4125, "lon": 13.9536, "intensity": 0.7, "source": "RBB"}, {"title": "Video | Neues Format: Aus rbbKultur wird radio3", "url": "https://www.rbb24.de/panorama/beitrag/av7/video-berlin-brandenburg-rbbkultur-wird-zu-radio3-umbenennung-programmaenderung-rbb.html", "thumbnailUrl": null, "date": "Tue, 02 Apr 2024 21:33:14 +0200", "lat": 52.520008, "lon": 13.404954, "intensity": 0.5, "source": "RBB"}, {"title": "Nach Gro\u00dfbrand in der Billstra\u00dfe: Ermittlungen eingestellt", "url": "https://www.ndr.de/nachrichten/hamburg/Nach-Grossbrand-in-der-Billstrasse-Ermittlungen-eingestellt,billstrasse168.html", "thumbnailUrl": "https://www.ndr.de/nachrichten/hamburg/billstrasse150_v-contentwidescreen.jpg", "date": "2024-04-06T09:39:23.132+02:00", "lat": 53.5286, "lon": 10.057, "intensity": 0.8, "source": "NDR"}, {"title": "A7-Sperrungen in Hamburg am Wochenende: Elbtunnel betroffen", "url": "https://www.ndr.de/nachrichten/hamburg/A7-Sperrungen-in-Hamburg-am-Wochenende-Elbtunnel-betroffen,asieben594.html", "thumbnailUrl": "https://www.ndr.de/nachrichten/hamburg/asieben596_v-contentwidescreen.jpg", "date": "2024-04-06T08:13:40.109+02:00", "lat": 53.5511, "lon": 9.9946, "intensity": 0.6, "source": "NDR"}, {"title": "Das Wetter im Norden: Heute sommerlich, morgen warmer Regen", "url": "https://www.ndr.de/nachrichten/info/Das-Wetter-im-Norden-Heute-sommerlich-morgen-warmer-Regen,wetter8754.html", "thumbnailUrl": "https://www.ndr.de/ratgeber/reise/inseln/amrum342_v-contentwidescreen.jpg", "date": "2024-04-06T09:35:51.859+02:00", "lat": 53.55, "lon": 10.0, "intensity": 0.6, "source": "NDR"}, {"title": "Der tiefste Punkt Deutschlands - ein norddeutscher Streit", "url": "https://www.ndr.de/nachrichten/schleswig-holstein/Der-tiefste-Punkt-Deutschlands-ein-norddeutscher-Streit,tiefstestelle100.html", "thumbnailUrl": "https://www.ndr.de/nachrichten/schleswig-holstein/tiefstestelle102_v-contentwidescreen.jpg", "date": "2024-04-06T07:19:55.715+02:00", "lat": 54.2472, "lon": 9.4766, "intensity": 0.5, "source": "NDR"}, {"title": "Jugendgruppe in Rostock schl\u00e4gt 17-J\u00e4hrigen nieder", "url": "https://www.ndr.de/nachrichten/mecklenburg-vorpommern/Jugendgruppe-in-Rostock-schlaegt-17-Jaehrigen-nieder,rostock1720.html", "thumbnailUrl": "https://www.ndr.de/nachrichten/mecklenburg-vorpommern/rostock1722_v-contentwidescreen.jpg", "date": "2024-04-06T09:06:19.352+02:00", "lat": 54.0834, "lon": 12.1406, "intensity": 0.8, "source": "NDR"}, {"title": "Brandanschlag auf Oldenburger Synagoge - Polizei wertet Spuren aus", "url": "https://www.ndr.de/nachrichten/niedersachsen/oldenburg_ostfriesland/Brandanschlag-auf-Oldenburger-Synagoge-Polizei-wertet-Spuren-aus,synagoge670.html", "thumbnailUrl": "https://www.ndr.de/nachrichten/niedersachsen/oldenburg_ostfriesland/synagoge682_v-contentwidescreen.jpg", "date": "2024-04-06T09:30:19.617+02:00", "lat": 53.14352, "lon": 8.221239, "intensity": 0.8, "source": "NDR"}, {"title": "Nienburg: Staatsanwalt warnt vor vorschnellen R\u00fcckschl\u00fcssen", "url": "https://www.ndr.de/nachrichten/niedersachsen/hannover_weser-leinegebiet/Nienburg-Staatsanwalt-warnt-vor-vorschnellen-Rueckschluessen,nienburg404.html", "thumbnailUrl": "https://www.ndr.de/nachrichten/niedersachsen/nienburg396_v-contentwidescreen.jpg", "date": "2024-04-05T22:33:46.836+02:00", "lat": 52.6371, "lon": 9.2123, "intensity": 0.7, "source": "NDR"}, {"title": "Verwaltungsgericht Oldenburg untersagt Abschuss von Wolf", "url": "https://www.ndr.de/nachrichten/niedersachsen/Verwaltungsgericht-Oldenburg-untersagt-Abschuss-von-Wolf,wolf5038.html", "thumbnailUrl": "https://www.ndr.de/nachrichten/niedersachsen/hannover_weser-leinegebiet/wolf4998_v-contentwidescreen.jpg", "date": "2024-04-05T19:54:33.803+02:00", "lat": 52.4043, "lon": 8.8046, "intensity": 0.8, "source": "NDR"}, {"title": "Pragsdorf-Prozess: Angeklagter nennt angeblichen Mitt\u00e4ter", "url": "https://www.ndr.de/nachrichten/mecklenburg-vorpommern/Pragsdorf-Prozess-Angeklagter-nennt-angeblichen-Mittaeter,pragsdorf144.html", "thumbnailUrl": "https://www.ndr.de/nachrichten/mecklenburg-vorpommern/landgericht324_v-contentwidescreen.png", "date": "2024-04-06T08:21:35.025+02:00", "lat": 53.726, "lon": 12.6893, "intensity": 0.8, "source": "NDR"}, {"title": "Antisemitische Attacke in Hamburg: Angreifer soll Schmerzensgeld zahlen", "url": "https://www.ndr.de/nachrichten/hamburg/Antisemitische-Attacke-in-Hamburg-Angreifer-soll-Schmerzensgeld-zahlen,antisemitismus414.html", "thumbnailUrl": "https://www.ndr.de/nachrichten/hamburg/landgericht616_v-contentwidescreen.jpg", "date": "2024-04-06T06:55:42.027+02:00", "lat": 53.5511, "lon": 9.9937, "intensity": 0.8, "source": "NDR"}, {"title": "Weiter strenge Haftbedingungen f\u00fcr Ex-RAF-Terroristin Klette", "url": "https://www.ndr.de/nachrichten/niedersachsen/oldenburg_ostfriesland/Weiter-strenge-Haftbedingungen-fuer-Ex-RAF-Terroristin-Klette,klette172.html", "thumbnailUrl": "https://www.ndr.de/nachrichten/niedersachsen/jva602_v-contentwidescreen.jpg", "date": "2024-04-05T18:16:45.938+02:00", "lat": 52.9234, "lon": 9.23, "intensity": 0.7, "source": "NDR"}, {"title": "Drogenrazzia: Polizei beschlagnahmt 2.000 Cannabispflanzen", "url": "https://www.ndr.de/nachrichten/niedersachsen/braunschweig_harz_goettingen/Drogenrazzia-Polizei-beschlagnahmt-2000-Cannabispflanzen,cannabis844.html", "thumbnailUrl": "https://www.ndr.de/nachrichten/niedersachsen/cannabis842_v-contentwidescreen.jpg", "date": "2024-04-05T16:09:36.051+02:00", "lat": 51.5414, "lon": 9.9592, "intensity": 0.8, "source": "NDR"}, {"title": "Neue correctiv-Recherche zu Gewaltt\u00e4tern in der AfD", "url": "https://www.ndr.de/nachrichten/info/Neue-correctiv-Recherche-zu-Gewalttaetern-in-der-AfD,audio1608722.html", "thumbnailUrl": "https://www.ndr.de/nachrichten/hamburg/afd3188_v-contentwidescreen.jpg", "date": "2024-04-06T08:08:47.484+02:00", "lat": 53.5511, "lon": 9.9937, "intensity": 0.8, "source": "NDR"}, {"title": "LKA stellt 103 Millionen Dollar Falschgeld sicher", "url": "https://www.ndr.de/nachrichten/info/LKA-stellt-103-Millionen-Dollar-Falschgeld-sicher,ndrinfo58242.html", "thumbnailUrl": "https://www.ndr.de/fernsehen/logoinfotv100_v-contentwidescreen.jpg", "date": "2024-04-05T22:09:12.082+02:00", "lat": 54.4776, "lon": 9.2861, "intensity": 0.8, "source": "NDR"}, {"title": "Mangelnde Meinungsvielfalt im \u00d6RR? \"Wir streiten jeden Tag\"", "url": "https://www.ndr.de/nachrichten/info/NDR-Info-im-Dialog-Manifest-fuer-Vielfalt,audio1608312.html", "thumbnailUrl": "https://www.ndr.de/nachrichten/info/adrianfeuerbacher100_v-contentwidescreen.jpg", "date": "2024-04-05T16:52:37.928+02:00", "lat": 53.5511, "lon": 10.0293, "intensity": 0.4, "source": "NDR"}, {"title": "Anteilnahme nach Brandanschlag auf Synagoge in Oldenburg", "url": "https://www.ndr.de/nachrichten/info/Anteilnahme-nach-Brandanschlag-auf-Synagoge-in-Oldenburg,ndrinfo58238.html", "thumbnailUrl": "https://www.ndr.de/fernsehen/logoinfotv100_v-contentwidescreen.jpg", "date": "2024-04-05T22:09:07.697+02:00", "lat": 53.1435, "lon": 8.2152, "intensity": 0.8, "source": "NDR"}, {"title": "Kieler Forschende entwickeln Wasserstoff-Katalysator", "url": "https://www.ndr.de/nachrichten/info/Kieler-Forschende-entwickeln-Wasserstoff-Katalysator,ndrinfo58222.html", "thumbnailUrl": "https://www.ndr.de/fernsehen/screenshot1727304_v-contentwidescreen.jpg", "date": "2024-04-05T19:23:27.597+02:00", "lat": 54.3233, "lon": 10.1228, "intensity": 0.6, "source": "NDR"}, {"title": "\"W\u00fcnsch Dir Deinen NDR\" - Jetzt f\u00fcr die Publikumsaktion bewerben!", "url": "https://www.ndr.de/wuensch_dir_deinen_ndr/index.html", "thumbnailUrl": "https://www.ndr.de/der_ndr/wunschprogramm131_v-contentwidescreen.jpg", "date": "2024-03-26T07:59:24.876+01:00", "lat": 53.551086, "lon": 9.993682, "intensity": 0.2, "source": "NDR"}, {"title": "Relaunch der vier NDR L\u00e4nder-Apps: Nachrichten aus Ihrer Region!", "url": "https://www.ndr.de/Relaunch-der-vier-NDR-Laender-Apps-Nachrichten-aus-Ihrer-Region,laenderapprelaunch100.html", "thumbnailUrl": "https://www.ndr.de/laenderapprelaunch102_v-contentwidescreen.jpg", "date": "2024-03-19T09:22:34.719+01:00", "lat": 53.8659, "lon": 9.8606, "intensity": 0.4, "source": "NDR"}, {"title": "Gaspreis Dashboard", "url": "https://www.ndr.de/home/gaspreis176.html", "thumbnailUrl": null, "date": "2023-04-06T14:49:06.409+02:00", "lat": 51.3426, "lon": 9.9976, "intensity": 0.7, "source": "NDR"}, {"title": "NDR Radioprogramme", "url": "https://www.ndr.de/radio/radiologobox100.html", "thumbnailUrl": null, "date": "2020-12-01T14:04:26.700+01:00", "lat": 53.5511, "lon": 9.9937, "intensity": 0.3, "source": "NDR"}, {"title": "Krieg und Terror - Die Lage im Nahen Osten und in der Ukraine", "url": "https://www.ndr.de/nachrichten/info/podcast5342.html", "thumbnailUrl": "https://www.ndr.de/nachrichten/info/podcastbild412_v-contentwidescreen.jpg", "date": "2024-04-06T08:03:36.891+02:00", "lat": 46.79651, "lon": 30.739834, "intensity": 0.8, "source": "NDR"}, {"title": "Die Ern\u00e4hrungs-Docs - Essen als Medizin", "url": "https://www.ndr.de/fernsehen/sendungen/die-ernaehrungsdocs/audio-podcast/index.html", "thumbnailUrl": "https://www.ndr.de/fernsehen/sendungen/die-ernaehrungsdocs/podcastbild338_v-contentwidescreen.jpg", "date": "2024-04-04T13:51:10.657+02:00", "lat": 53.5511, "lon": 9.9876, "intensity": 0.3, "source": "NDR"}, {"title": "Unsere Comedy \"Die Kur-Oase\"!", "url": "https://www.ndr.de/ndr2/podcasts/podcast5816.html", "thumbnailUrl": "https://www.ndr.de/ndr2/podcasts/podcast5812_v-contentwidescreen.jpg", "date": "2024-04-05T07:15:05.477+02:00", "lat": 54.9069, "lon": 8.7386, "intensity": 0.2, "source": "NDR"}, {"title": "Organisiertes Verbrechen - Recherchen im Verborgenen", "url": "https://www.ndr.de/nachrichten/info/podcast4992.html", "thumbnailUrl": "https://www.ndr.de/nachrichten/info/podcastbildov100_v-contentwidescreen.jpg", "date": "2024-03-01T06:00:27.490+01:00", "lat": 45.9432, "lon": 24.9668, "intensity": 0.8, "source": "NDR"}, {"title": "eat.READ.sleep. B\u00fccher f\u00fcr dich", "url": "https://www.ndr.de/kultur/sendungen/eat_read_sleep/index.html", "thumbnailUrl": "https://www.ndr.de/mediathek/podcastbild434_v-contentwidescreen.jpg", "date": "2024-03-29T06:00:20.892+01:00", "lat": 53.5511, "lon": 9.9937, "intensity": 0.2, "source": "NDR"}, {"title": "Killed in Action: Afghanistan - Mission ohne Ziel", "url": "https://www.ndr.de/nachrichten/info/sendungen/podcast4574.html", "thumbnailUrl": "https://www.ndr.de/nachrichten/info/podcasts/podcastbild478_v-contentwidescreen.jpg", "date": "2024-02-16T17:44:01.214+01:00", "lat": 33.9391, "lon": 66.2385, "intensity": 0.8, "source": "NDR"}, {"title": "Streitkr\u00e4fte und Strategien", "url": "https://www.ndr.de/nachrichten/info/podcast2998.html", "thumbnailUrl": "https://www.ndr.de/mediathek/mediathekbild566_v-contentwidescreen.jpg", "date": "2024-04-05T16:30:08.852+02:00", "lat": 53.5511, "lon": 9.9937, "intensity": 0.8, "source": "NDR"}, {"title": "Standpunkte", "url": "https://www.ndr.de/nachrichten/info/podcast4700.html", "thumbnailUrl": "https://www.ndr.de/mediathek/podcast5332_v-contentwidescreen.jpg", "date": "2024-04-06T00:01:05.427+02:00", "lat": 53.5511, "lon": 9.9937, "intensity": 0.5, "source": "NDR"}, {"title": "Mein Einsatz - der Feuerwehr-Podcast von NDR Niedersachsen", "url": "https://www.ndr.de/ndr1niedersachsen/podcast5774.html", "thumbnailUrl": "https://www.ndr.de/ndr1niedersachsen/podcasts/podcastbild364_v-contentwidescreen.jpg", "date": "2024-03-28T04:00:07.923+01:00", "lat": 52.3759, "lon": 9.7345, "intensity": 0.7, "source": "NDR"}, {"title": "\"Feel Hamburg\" - alle Folgen", "url": "https://www.ndr.de/903/podcasts/podcast5108.html", "thumbnailUrl": "https://www.ndr.de/mediathek/mediathekbild514_v-contentwidescreen.jpg", "date": "2024-04-03T05:00:09.975+02:00", "lat": 53.55, "lon": 10.0, "intensity": 0.4, "source": "NDR"}, {"title": "Intensiv-Station - Satire von NDR Info", "url": "https://www.ndr.de/nachrichten/info/podcast4274.html", "thumbnailUrl": "https://www.ndr.de/nachrichten/info/programm/intensivstation3272_v-contentwidescreen.jpg", "date": "2024-03-25T22:56:23.803+01:00", "lat": 54.3706, "lon": 10.5038, "intensity": 0.8, "source": "NDR"}, {"title": "Amerika, wir m\u00fcssen reden!", "url": "https://www.ndr.de/nachrichten/info/podcast4932.html", "thumbnailUrl": "https://www.ndr.de/nachrichten/info/podcastbild488_v-contentwidescreen.jpg", "date": "2024-04-03T18:15:10.308+02:00", "lat": 39.78373, "lon": -100.445882, "intensity": 0.7, "source": "NDR"}, {"title": "Klimaaktivisten blockieren Steinkohlekraftwerk in Gelsenkirchen", "url": "https://www1.wdr.de/nachrichten/ruhrgebiet/klimaaktivisten-besetzen-uniper-kraftwerk-100.html", "thumbnailUrl": null, "date": "2024-04-06T07:46:57Z", "lat": 51.5177, "lon": 7.0159, "intensity": 0.8, "source": "WDR"}, {"title": "Nachrichten f\u00fcr NRW am Morgen", "url": "https://www1.wdr.de/nachrichten/nrw-nachrichten-wochenendwetter-iran-israel-bezahlkarte-100.html", "thumbnailUrl": null, "date": "2024-04-06T05:45:22Z", "lat": 50.7374, "lon": 7.0982, "intensity": 0.6, "source": "WDR"}, {"title": "Deutsch-Israelin Shani Louk: Trauer ohne Beerdigung", "url": "https://www1.wdr.de/nachrichten/interview-ricarda-louk-100.html", "thumbnailUrl": null, "date": "2024-04-06T05:24:05Z", "lat": 31.7683, "lon": 35.2137, "intensity": 0.8, "source": "WDR"}, {"title": "Rekord-W\u00e4rme und Saharastaub erwartet", "url": "https://www1.wdr.de/nachrichten/wetter-nrw-gewitter-sonne-waerme-saharastaub-100.html", "thumbnailUrl": null, "date": "2024-04-06T07:24:46Z", "lat": 51.8133, "lon": 7.6261, "intensity": 0.8, "source": "WDR"}, {"title": "So wird man Rettungsschwimmer oder Schwimmmeisterin", "url": "https://www1.wdr.de/nachrichten/wie-wird-man-rettungsschwimmer-schwimmmeister-100.html", "thumbnailUrl": null, "date": "2024-04-05T15:07:37Z", "lat": 51.9607, "lon": 7.6261, "intensity": 0.5, "source": "WDR"}, {"title": "Nach t\u00f6dlichem Polizei-Schuss auf Obdachlosen: Demo in Dortmund", "url": "https://www1.wdr.de/nachrichten/ruhrgebiet/protest-dortmund-polizei-obdachloser-100.html", "thumbnailUrl": null, "date": "2024-04-06T07:01:34Z", "lat": 51.5136, "lon": 7.4682, "intensity": 0.8, "source": "WDR"}, {"title": "Mann im Dortmunder Hafen erstochen: 13-J\u00e4hriger ist mutma\u00dflicher T\u00e4ter", "url": "https://www1.wdr.de/nachrichten/dortmund-toetungsdelikt-hafen-100.html", "thumbnailUrl": null, "date": "2024-04-05T19:22:09Z", "lat": 51.5136, "lon": 7.459, "intensity": 0.8, "source": "WDR"}, {"title": "Supermarkt 2.0 in D\u00fcsseldorf: Einkaufen ohne Bezahlen an der Kasse", "url": "https://www1.wdr.de/nachrichten/rheinland/supermarkt-einkaufen-ohne-kasse-100.html", "thumbnailUrl": null, "date": "2024-04-05T19:05:00Z", "lat": 51.2277, "lon": 6.7735, "intensity": 0.6, "source": "WDR"}, {"title": "Beeindruckendes bei Techno Classica in Essen", "url": "https://www1.wdr.de/nachrichten/ruhrgebiet/techno-classica-essen-2024-100.html", "thumbnailUrl": null, "date": "2024-04-06T07:54:09Z", "lat": 51.4563, "lon": 7.0106, "intensity": 0.8, "source": "WDR"}, {"title": "Nahost-Krieg: Nahost-Liveblog: ++ Klein: Waffenembargo w\u00e4re \"falscher Weg\" ++", "url": "https://www.tagesschau.de/newsticker/liveblog-nahost-samstag-122.html", "thumbnailUrl": null, "date": "2024-04-06T08:00:06Z", "lat": 31.7683, "lon": 35.2137, "intensity": 0.8, "source": "WDR"}, {"title": "Gaza und Israel: Wie weit kann Netanjahu noch gehen?", "url": "https://www1.wdr.de/nachrichten/nah-dran-israel-sechs-monate-krieg-hamas-102.html", "thumbnailUrl": null, "date": "2024-04-05T14:40:40Z", "lat": 31.5, "lon": 34.483, "intensity": 0.7, "source": "WDR"}, {"title": "Nach Angriff auf Hilfsorganisation: Israel k\u00fcndigt \"sofortige\" Aufstockung von Gaza-Hilfen an", "url": "https://www.tagesschau.de/ausland/asien/biden-netanyahu-zivilisten-104.html", "thumbnailUrl": null, "date": "2024-04-05T09:21:02Z", "lat": 31.9466, "lon": 34.4538, "intensity": 0.8, "source": "WDR"}, {"title": "Nach Angriff auf Hilfsorganisation: Biden bekr\u00e4ftigt Israel-Kritik nach Angriff auf Hilfsorganisation", "url": "https://www.tagesschau.de/ausland/amerika/biden-unter-druck-100.html", "thumbnailUrl": null, "date": "2024-04-05T08:42:01Z", "lat": 31.7683, "lon": 35.2134, "intensity": 0.8, "source": "WDR"}, {"title": "Get\u00f6tete Helfer im Gazastreifen: Hilfsorganisationen \u00fcben massive Kritik an Israels Kriegsf\u00fchrung", "url": "https://www.tagesschau.de/ausland/israel-angriffe-hilfsorganisationen-100.html", "thumbnailUrl": null, "date": "2024-04-04T19:18:02Z", "lat": 31.522833, "lon": 35.303017, "intensity": 0.7, "source": "WDR"}, {"title": "Die wichtigsten Fakten \u00fcber den Gazastreifen", "url": "https://www1.wdr.de/nachrichten/gaza-gazastreifen-israel-hintergrund-100.html", "thumbnailUrl": null, "date": "2023-10-11T15:33:25Z", "lat": 31.5107, "lon": 34.3445, "intensity": 0.8, "source": "WDR"}, {"title": "WDR aktuell Whatsapp-Kanal abonnieren - so geht's", "url": "https://www1.wdr.de/nachrichten/wdr-aktuell-whatsapp-kanal-100.html", "thumbnailUrl": null, "date": "2023-12-22T20:22:52Z", "lat": 51.4818, "lon": 7.6261, "intensity": 0.1, "source": "WDR"}, {"title": "Krieg gegen die Ukraine: Ukraine-Liveblog: ++ Vier Tote bei Doppelangriff auf Saporischschja ++", "url": "https://www.tagesschau.de/newsticker/liveblog-ukraine-samstag-376.html", "thumbnailUrl": null, "date": "2024-04-06T01:12:02Z", "lat": 47.8388, "lon": 35.1396, "intensity": 1, "source": "WDR"}, {"title": "Deutsche Firmen in Mariupol: Deutsche Firmen am russischen Wiederaufbau von Mariupol beteiligt", "url": "https://www.tagesschau.de/investigativ/monitor/ukraine-mariupol-wiederaufbau-russland-100.html", "thumbnailUrl": null, "date": "2024-04-03T16:54:02Z", "lat": 47.0971, "lon": 37.5553, "intensity": 0.8, "source": "WDR"}, {"title": "Kommt Russland wegen Kriegsverbrechen vor den Internationalen Strafgerichtshof?", "url": "https://www1.wdr.de/nachrichten/kriegsverbrechen-fragen-antworten-100.html", "thumbnailUrl": null, "date": "2024-04-02T16:04:42Z", "lat": 52.0705, "lon": 4.3007, "intensity": 0.8, "source": "WDR"}, {"title": "Ukraine: Zwischen Krieg und Normalit\u00e4t", "url": "https://www1.wdr.de/mediathek/audio/wdr5/wdr5-mittagsecho/audio-ukraine-zwischen-krieg-und-normalitaet-100.html", "thumbnailUrl": null, "date": "2024-03-27T13:17:56Z", "lat": 50.4501, "lon": 30.5234, "intensity": 0.7, "source": "WDR"}, {"title": "Tornado-Verdacht in Korschenbroich - 20 H\u00e4user besch\u00e4digt", "url": "https://www1.wdr.de/nachrichten/korschenbroich-moenchengladbach-verdacht-tornado-100.html", "thumbnailUrl": null, "date": "2024-04-05T19:26:23Z", "lat": 51.1947, "lon": 6.5188, "intensity": 0.8, "source": "WDR"}, {"title": "Solarausbau: Mehrere NRW-St\u00e4dte schneiden gut ab", "url": "https://www1.wdr.de/nachrichten/kommunen-solarausbau-100.html", "thumbnailUrl": null, "date": "2024-04-05T19:27:14Z", "lat": 51.9607, "lon": 7.6261, "intensity": 0.6, "source": "WDR"}, {"title": "Gro\u00dfbrand in Lemgo gel\u00f6scht", "url": "https://www1.wdr.de/nachrichten/westfalen-lippe/lemgo-grossbrand-halle-100.html", "thumbnailUrl": null, "date": "2024-04-06T06:52:17Z", "lat": 52.0255, "lon": 8.9077, "intensity": 0.8, "source": "WDR"}, {"title": "Kein Investor gefunden - Krankenhaus in Ratingen steht vor dem Aus", "url": "https://www1.wdr.de/nachrichten/rheinland/krankenhaus-ratingen-insolvenz-100.html", "thumbnailUrl": null, "date": "2024-04-05T19:02:40Z", "lat": 51.296944, "lon": 6.851389, "intensity": 0.8, "source": "WDR"}, {"title": "Zwei W\u00f6lfe in zwei Monaten bei Verkehrsunf\u00e4llen get\u00f6tet", "url": "https://www1.wdr.de/nachrichten/westfalen-lippe/wolf-verkehrsunfall-tot-ostwestfalen-100.html", "thumbnailUrl": null, "date": "2024-04-05T09:05:57Z", "lat": 51.8756, "lon": 8.5216, "intensity": 0.8, "source": "WDR"}, {"title": "Kein Geld f\u00fcr Sport und Kultur?", "url": "https://1.ard.de/sport-kultur-podcast-rheinblick", "thumbnailUrl": null, "date": "2024-04-05T11:50:01Z", "lat": 50.35708, "lon": 7.59064, "intensity": 0.4, "source": "WDR"}, {"title": "Wo NRW noch Handlungsspielraum im Haushalt hat", "url": "https://www1.wdr.de/nachrichten/landespolitik/landeshaushalt-spielraeume-finanzen-100.html", "thumbnailUrl": null, "date": "2024-04-05T11:43:32Z", "lat": 51.9607, "lon": 7.6261, "intensity": 0.7, "source": "WDR"}, {"title": "NRW-Polizei identifiziert rund 80 Rechtsextreme in eigenen Reihen", "url": "https://www1.wdr.de/nachrichten/landespolitik/rechtsextreme-nrw-polizei-100.html", "thumbnailUrl": null, "date": "2024-04-05T10:25:42Z", "lat": 51.9607, "lon": 7.6261, "intensity": 0.7, "source": "WDR"}, {"title": "NRW-Landtag jetzt auf WhatsApp und YouTube Shorts", "url": "https://www1.wdr.de/nachrichten/landespolitik/landtag-whatsapp-youtube-100.html", "thumbnailUrl": null, "date": "2024-04-04T15:31:48Z", "lat": 51.5136, "lon": 7.4854, "intensity": 0.6, "source": "WDR"}, {"title": "NRW-Kriminalstatistik 2023: Mehr Straftaten und mehr junge Tatverd\u00e4chtige", "url": "https://www1.wdr.de/nachrichten/landespolitik/kriminalitaetsstatistik-nrw-reul-100.html", "thumbnailUrl": null, "date": "2024-04-04T15:09:10Z", "lat": 51.8133, "lon": 7.6261, "intensity": 0.8, "source": "WDR"}, {"title": "\"\u00d6cher Bend\" wird erste \"reizarme Kirmes\" in Aachen", "url": "https://www1.wdr.de/nachrichten/rheinland/oecher-bend-aachen-100.html", "thumbnailUrl": null, "date": "2024-04-05T14:56:24Z", "lat": 50.776, "lon": 6.083, "intensity": 0.3, "source": "WDR"}, {"title": "Wetten, dass...?, Michael Jackson und gro\u00dfe Sportevents: Abschied von Rhein-Ruhr-Halle in Duisburg", "url": "https://www1.wdr.de/nachrichten/ruhrgebiet/duisburg-rheinruhr-halle-abriss-100.html", "thumbnailUrl": null, "date": "2024-04-05T14:07:26Z", "lat": 51.4344, "lon": 6.7527, "intensity": 0.8, "source": "WDR"}, {"title": "Viel Gespr\u00e4chsbedarf zur Seilbahn in Bonn", "url": "https://www1.wdr.de/nachrichten/rheinland/seilbahn-bonn-114.html", "thumbnailUrl": null, "date": "2024-04-05T19:30:44Z", "lat": 50.7374, "lon": 7.0982, "intensity": 0.8, "source": "WDR"}, {"title": "A42: Vollsperrung bei Herne wegen Br\u00fcckenbauarbeiten", "url": "https://www1.wdr.de/nachrichten/ruhrgebiet/autobahn-zweiundvierzig-voll-gesperrt-bei-herne-100.html", "thumbnailUrl": null, "date": "2024-04-05T19:17:45Z", "lat": 51.5272, "lon": 7.2146, "intensity": 0.8, "source": "WDR"}, {"title": "Oberhausen: Feuerworkshop f\u00fcr Kinder und Erwachsene", "url": "https://www1.wdr.de/nachrichten/ruhrgebiet/feuerworkshop-oberhausen-100.html", "thumbnailUrl": null, "date": "2024-04-05T19:06:42Z", "lat": 51.4964, "lon": 6.8498, "intensity": 0.3, "source": "WDR"}, {"title": "Verst\u00fcmmelter Mann ohne Penis: Staatsanwaltschaft denkt \u00fcber Belohnung f\u00fcr Hinweise nach", "url": "https://www1.wdr.de/nachrichten/ruhrgebiet/herne-mann-ohne-genital-lebensgefahr-100.html", "thumbnailUrl": null, "date": "2024-04-05T13:54:44Z", "lat": 51.5272, "lon": 7.2108, "intensity": 0.8, "source": "WDR"}, {"title": "\"Da ist eine Kuh im Laden!\": Rind verirrt sich in Drolshagen", "url": "https://www1.wdr.de/nachrichten/westfalen-lippe/kuh-im-laden-in-drolshagen-102.html", "thumbnailUrl": null, "date": "2024-04-05T19:00:33Z", "lat": 51.083, "lon": 7.7093, "intensity": 0.3, "source": "WDR"}, {"title": "Krankenhausbetten f\u00fcr zerbombtes Dnipro", "url": "https://www1.wdr.de/nachrichten/westfalen-lippe/krankenhausbetten-utensilien-greven-ukraine-krieg-100.html", "thumbnailUrl": null, "date": "2024-04-05T19:09:06Z", "lat": 48.4547, "lon": 34.9796, "intensity": 0.8, "source": "WDR"}, {"title": "Nach Totschlag in Hilchenbach: Elf Jahre Haft", "url": "https://www1.wdr.de/nachrichten/westfalen-lippe/urteil-totschlagsprozess-hilchenbach-100.html", "thumbnailUrl": null, "date": "2024-04-05T15:49:19Z", "lat": 50.9836, "lon": 8.1007, "intensity": 0.7, "source": "WDR"}, {"title": "Die App WDR aktuell begleitet Sie durch den Tag", "url": "https://www1.wdr.de/nachrichten/wdr-aktuell-app-stores-100.html", "thumbnailUrl": null, "date": "2023-10-30T11:49:53Z", "lat": 51.4508, "lon": 7.6261, "intensity": 0.3, "source": "WDR"}, {"title": "WDR Newsroom: Informationen f\u00fcr den Westen rund um die Uhr auf allen Kan\u00e4len", "url": "https://www1.wdr.de/nachrichten/newsroom-information-nrw-westen-100.html", "thumbnailUrl": null, "date": "2021-04-14T22:00:15Z", "lat": 51.4556, "lon": 7.0116, "intensity": 0.1, "source": "WDR"}, {"title": "Das Leitungsteam des Newsrooms im WDR (Programmbereich Aktuelles)", "url": "https://www1.wdr.de/nachrichten/newsroom-leitung-team-programmbereich-aktuelles-100.html", "thumbnailUrl": null, "date": "2024-03-08T15:34:21Z", "lat": 51.460021, "lon": 7.014026, "intensity": 0.3, "source": "WDR"}, {"title": "Datenschutz und IT-Sicherheit: Problematische Software in Gesundheits\u00e4mtern in Th\u00fcringen und Sachsen-Anhalt im Einsatz", "url": "https://www.mdr.de/nachrichten/deutschland/politik/gesundheitsamt-software-mikropro-100.html", "thumbnailUrl": null, "date": "Sat, 06 Apr 2024 05:00:01 +0200", "lat": 51.165691, "lon": 11.581981, "intensity": 0.8, "source": "MDR"}, {"title": "Kein Badespa\u00df: Starke Chemikalienbelastung in deutschen Fl\u00fcssen", "url": "https://www.mdr.de/nachrichten/deutschland/panorama/baden-fluss-verschmutzung-100.html", "thumbnailUrl": null, "date": "Sat, 06 Apr 2024 04:50:00 +0200", "lat": 51.1642, "lon": 10.4515, "intensity": 0.8, "source": "MDR"}, {"title": "Drohne als Hobby: Bu\u00dfgeld bei Versto\u00df gegen Kennzeichnungspflicht und Abstandsregeln", "url": "https://www.mdr.de/ratgeber/recht/hobby-drohne-vorschriften-100.html", "thumbnailUrl": null, "date": "Sat, 06 Apr 2024 05:00:01 +0200", "lat": 53.629, "lon": 11.407, "intensity": 0.7, "source": "MDR"}, {"title": "Feuerwehreinsatz: Hauptbahnhof Erfurt zeitweise gesperrt", "url": "https://www.mdr.de/nachrichten/thueringen/mitte-thueringen/erfurt/hauptbahnhof-sperrung-feuerwehr-100.html", "thumbnailUrl": null, "date": "Sat, 06 Apr 2024 09:44:25 +0200", "lat": 51.0369, "lon": 11.0258, "intensity": 0.8, "source": "MDR"}, {"title": "Vollsperrung im Tunnel K\u00f6nigshainer Berge auf der A4", "url": "https://www.mdr.de/nachrichten/sachsen/bautzen/bautzen-hoyerswerda-kamenz/vollsperrung-tunnel-koenigshainer-berge-100.html", "thumbnailUrl": null, "date": "Sat, 06 Apr 2024 05:00:05 +0200", "lat": 51.197556, "lon": 14.960022, "intensity": 0.7, "source": "MDR"}, {"title": "Blitzer-Marathon 2024 in Th\u00fcringen: Hier wird am 19. April geblitzt", "url": "https://www.mdr.de/nachrichten/thueringen/blitzer-marathon-wo-raser-polizei-strafe-106.html", "thumbnailUrl": null, "date": "Fri, 05 Apr 2024 16:27:00 +0200", "lat": 50.972192, "lon": 11.580404, "intensity": 0.8, "source": "MDR"}, {"title": "Prognose: Hohe Waldbrandgefahr am Wochenende in Sachsen erwartet", "url": "https://www.mdr.de/nachrichten/sachsen/waldbrandgefahr-prognose-wochenende-100.html", "thumbnailUrl": null, "date": "Fri, 05 Apr 2024 17:53:57 +0200", "lat": 52.1165, "lon": 13.4073, "intensity": 0.8, "source": "MDR"}, {"title": "Am Dortmunder Hafen get\u00f6tet: 13 Jahre alter Junge soll einen Mann erstochen haben", "url": "https://www.brisant.de/dortmund-hafen-mann-erstochen-100.html", "thumbnailUrl": null, "date": "Fri, 05 Apr 2024 18:24:20 +0200", "lat": 51.5023, "lon": 7.3395, "intensity": 1, "source": "MDR"}, {"title": "Hermsdorfer Kreuz: Schrottreifer Reisebus mit 70 Jugendlichen gestoppt", "url": "https://www.mdr.de/nachrichten/thueringen/ost-thueringen/saale-holzland/bus-jugendliche-chor-defekt-hermsdorfer-100.html", "thumbnailUrl": null, "date": "Sat, 06 Apr 2024 05:21:00 +0200", "lat": 50.875877, "lon": 11.941411, "intensity": 0.8, "source": "MDR"}, {"title": "Magdeburg: Autofahrer sticht auf Fu\u00dfg\u00e4nger ein", "url": "https://www.mdr.de/nachrichten/sachsen-anhalt/magdeburg/magdeburg/versuchte-toetung-104.html", "thumbnailUrl": null, "date": "Fri, 05 Apr 2024 15:45:55 +0200", "lat": 52.1205, "lon": 11.6276, "intensity": 0.8, "source": "MDR"}, {"title": "Osteuropa", "url": "https://www.mdr.de/nachrichten/welt/osteuropa/index.html", "thumbnailUrl": null, "date": "Tue, 25 Apr 2023 13:02:57 +0200", "lat": 45.9432, "lon": 23.8859, "intensity": 0.5, "source": "MDR"}, {"title": "Verkehr", "url": "https://www.mdrjump.de/verkehr/index.html", "thumbnailUrl": null, "date": "Thu, 09 Jun 2022 11:05:09 +0200", "lat": 51.1657, "lon": 11.6229, "intensity": 0.2, "source": "MDR"}, {"title": "Karte: Waldbrand Gefahrenstufen in Mitteldeutschland", "url": "https://www.mdr.de/nachrichten/deutschland/xxiii-waldbrand-gefahr-stufen-karte-102.html", "thumbnailUrl": null, "date": "Wed, 03 Apr 2024 16:41:39 +0200", "lat": 51.1657, "lon": 11.6216, "intensity": 0.8, "source": "MDR"}, {"title": "Aktuelle Waldbrandgefahr und Vorschriften in W\u00e4ldern in Sachsen, Sachsen-Anhalt und Th\u00fcringen", "url": "https://www.mdr.de/nachrichten/deutschland/panorama/waldbrandgefahr-stufen-sachsen-anhalt-thueringen-100.html", "thumbnailUrl": null, "date": "Fri, 05 Apr 2024 15:56:11 +0200", "lat": 51.1045, "lon": 12.4964, "intensity": 0.6, "source": "MDR"}, {"title": "So ver\u00e4ndert sich das Klima in Sachsen, Sachsen-Anhalt und Th\u00fcringen", "url": "https://www.mdr.de/nachrichten/deutschland/panorama/wetter-klima-wandel-daten-archiv-region-100.html", "thumbnailUrl": null, "date": "Mon, 04 Mar 2024 10:27:56 +0100", "lat": 51.339695, "lon": 12.496365, "intensity": 0.6, "source": "MDR"}, {"title": "40 Milliarden f\u00fcr den Ausstieg aus der Braunkohle", "url": "https://www.mdr.de/nachrichten/deutschland/wirtschaft/kohlemilliarden/kohle-ausstieg-foerderung-steuergeld-100.html", "thumbnailUrl": null, "date": "Thu, 07 Dec 2023 14:06:43 +0100", "lat": 52.52, "lon": 13.405, "intensity": 0.7, "source": "MDR"}, {"title": "Schaffen wir die Energiewende? Live-Daten zum Ausbau der Windkraft in Deutschland", "url": "https://www.mdr.de/wissen/windkraft-windenergie-ausbau-deutschland-live-daten-aktuell-100.html", "thumbnailUrl": null, "date": "Thu, 16 Mar 2023 10:28:43 +0100", "lat": 51.1657, "lon": 10.4515, "intensity": 0.8, "source": "MDR"}, {"title": "Regionalliga: Carl Zeiss Jena \u00e4rgert Energie Cottbus ein wenig", "url": "https://www.mdr.de/sport/fussball_rl/bericht-fc-carl-zeiss-jena-fc-energie-cottbus-106.html", "thumbnailUrl": null, "date": "Fri, 05 Apr 2024 20:08:35 +0200", "lat": 50.9288, "lon": 11.5901, "intensity": 0.7, "source": "MDR"}, {"title": "3. Liga: Dynamo-Kapit\u00e4n Kutschke erh\u00e4lt Drohbrief", "url": "https://www.mdr.de/sport/fussball_3l/dynamo-dresden-stefan-kutschke-drohbrief-100.html", "thumbnailUrl": null, "date": "Fri, 05 Apr 2024 16:14:06 +0200", "lat": 51.03, "lon": 13.732, "intensity": 0.8, "source": "MDR"}, {"title": "RB Leipzig: Mehr als eine Flasche Wein will Marco Rose in Freiburg nicht verschenken", "url": "https://www.mdr.de/sport/fussball_1bl/vorschau-sc-freiburg-rb-leipzig-116.html", "thumbnailUrl": null, "date": "Sat, 06 Apr 2024 09:14:00 +0200", "lat": 47.998, "lon": 7.849, "intensity": 0.7, "source": "MDR"}, {"title": "1. FC Magdeburg in Elversberg unter Zugzwang - \"Das Maximum investieren\"", "url": "https://www.mdr.de/sport/fussball_2bl/vorschau-sv-elversberg-fc-magdeburg-100.html", "thumbnailUrl": null, "date": "Sat, 06 Apr 2024 08:25:00 +0200", "lat": 49.2906, "lon": 7.11, "intensity": 0.6, "source": "MDR"}, {"title": "Th\u00fcringen: Sushi mit Reinigungsmittel verunreinigt", "url": "https://www.mdr.de/nachrichten/thueringen/mitte-thueringen/weimar/sushi-notfall-lebensmittelvergiftung-reis-100.html", "thumbnailUrl": null, "date": "Fri, 05 Apr 2024 18:52:24 +0200", "lat": 50.9795, "lon": 11.3295, "intensity": 0.7, "source": "MDR"}, {"title": "Spargelernte in Th\u00fcringen beginnt 2024 fr\u00fcher als \u00fcblich - Preise bleiben stabil", "url": "https://www.mdr.de/nachrichten/thueringen/spargel-ernte-saison-verkauf-start-100.html", "thumbnailUrl": null, "date": "Fri, 05 Apr 2024 13:54:00 +0200", "lat": 51.0109, "lon": 10.8453, "intensity": 0.3, "source": "MDR"}, {"title": "Museum in Bernburg erinnert an vergessenen DDR-K\u00fcnstler Steffens", "url": "https://www.mdr.de/nachrichten/sachsen-anhalt/magdeburg/salzland/bernburg-ausstellung-kuenstler-heinz-steffens-kultur-news-100.html", "thumbnailUrl": null, "date": "Sat, 06 Apr 2024 05:01:00 +0200", "lat": 51.7948, "lon": 11.7394, "intensity": 0.6, "source": "MDR"}, {"title": "Dauerbrenner mit Ostalgie-Faktior: \"Traumzauberbaum\" im Puppentheater Zwickau", "url": "https://www.mdr.de/nachrichten/sachsen/chemnitz/zwickau/traumzauberbaum-puppe-theater-kinder-100.html", "thumbnailUrl": null, "date": "Sat, 06 Apr 2024 09:30:00 +0200", "lat": 50.7185, "lon": 12.4964, "intensity": 0.6, "source": "MDR"}, {"title": "Bunte B\u00e4lle anstupsen beim Supagolf in Bad D\u00fcben", "url": "https://www.mdr.de/nachrichten/sachsen/leipzig/delitzsch-eilenburg-torgau/familie-ausflug-golf-bunt-100.html", "thumbnailUrl": null, "date": "Sat, 06 Apr 2024 10:00:00 +0200", "lat": 51.573, "lon": 12.6408, "intensity": 0.4, "source": "MDR"}, {"title": "Doku \"Der Optimist\" begleitet den Ostbeauftragten Carsten Schneider", "url": "https://www.mdr.de/kultur/kino-und-film/doku-tipp-ostbeauftragter-carsten-schneider-100.html", "thumbnailUrl": null, "date": "Sat, 06 Apr 2024 04:00:00 +0200", "lat": 48.1351, "lon": 11.582, "intensity": 0.6, "source": "MDR"}, {"title": "Grundwasser in Brandenburg trotz viel Regen weiter unter Stand vor 2018", "url": "https://www.mdr.de/wissen/umwelt-klima/grundwasser-brandenburg-berlin-regen-trockenheit-duerre-100.html", "thumbnailUrl": null, "date": "Fri, 05 Apr 2024 15:57:44 +0200", "lat": 52.52, "lon": 13.2195, "intensity": 0.6, "source": "MDR"}, {"title": "Sind Windkraft-Anlagen in Frankreich jetzt wirklich illegal?", "url": "https://www.mdr.de/wissen/umwelt-klima/windkraft-frankreich-illegal-verboten-falschmeldung-100.html", "thumbnailUrl": null, "date": "Fri, 05 Apr 2024 16:46:45 +0200", "lat": 48.8566, "lon": 2.3522, "intensity": 0.3, "source": "MDR"}, {"title": "Abbau von Energiewende-Rohstoffen bedroht Menschenaffen in Afrika", "url": "https://www.mdr.de/wissen/umwelt-klima/menschenaffen-afrika-bergbau-kobalt-energiewende-bonobo-gorilla-schimpanse-100.html", "thumbnailUrl": null, "date": "Fri, 05 Apr 2024 14:59:30 +0200", "lat": -25.7325, "lon": 23.4162, "intensity": 0.8, "source": "MDR"}, {"title": "Streit um Verm\u00f6gen von Schauspieler: Alain Delon darf Geldgesch\u00e4fte nicht mehr allein regeln", "url": "https://www.brisant.de/stars/alain-delon-vermoegen-100.html", "thumbnailUrl": null, "date": "Fri, 05 Apr 2024 18:23:52 +0200", "lat": 48.8566, "lon": 2.3522, "intensity": 0.6, "source": "MDR"}, {"title": "Dessauer Brennpunkt \"Leipziger Tor\": Wenig Geld, aber viele M\u00f6glichkeiten?", "url": "https://www.mdr.de/nachrichten/sachsen-anhalt/dessau/dessau-rosslau/armut-dessau-leipziger-tor-segregation-100.html", "thumbnailUrl": null, "date": "Thu, 04 Apr 2024 18:00:01 +0200", "lat": 51.8398, "lon": 12.2376, "intensity": 0.8, "source": "MDR"}, {"title": "Jubil\u00e4um 600 Jahre Stendaler Dom", "url": "https://www.mdr.de/religion/dom-stendal-sechshundert-jahre-jubilaeum-100.html", "thumbnailUrl": null, "date": "Fri, 05 Apr 2024 10:32:08 +0200", "lat": 52.6147, "lon": 11.8634, "intensity": 0.3, "source": "MDR"}, {"title": "Sozialwesen: Es gibt zu wenige Pflegeeltern f\u00fcr immer mehr Pflegekinder", "url": "https://www.mdr.de/nachrichten/deutschland/gesellschaft/mehr-pflegekinder-weniger-pflegefamilien-100.html", "thumbnailUrl": null, "date": "Fri, 05 Apr 2024 09:31:01 +0200", "lat": 51.3784, "lon": 11.6276, "intensity": 0.8, "source": "MDR"}, {"title": "Enquete-Kommission im Landtag: Wie der MDR mit kritischen Beitr\u00e4gen umgeht", "url": "https://www.mdr.de/nachrichten/sachsen-anhalt/enquete-kommission-manifest-rundfunk-100.html", "thumbnailUrl": null, "date": "Fri, 05 Apr 2024 19:39:19 +0200", "lat": 51.3403, "lon": 12.3809, "intensity": 0.6, "source": "MDR"}, {"title": "MDR-B\u00fcrgertalk \u201eFakt ist!\u201c zum Thema: \u201eHalbzeit! Sachsen-Anhalts Landesregierung im B\u00fcrgertalk\u201c", "url": "https://www.mdr.de/presse/fakt-ist-aus-magdeburg-sachsen-anhalts-landesregierung-im-buergertalk-100.html", "thumbnailUrl": null, "date": "Fri, 05 Apr 2024 12:01:12 +0200", "lat": 52.1444, "lon": 11.6276, "intensity": 0.5, "source": "MDR"}, {"title": "FAQ Barrierefreiheit-Projekt: Welche Barrieren gibt es in Sachsen-Anhalt?", "url": "https://www.mdr.de/nachrichten/sachsen-anhalt/faq-fragen-barrierefreiheit-projekt-100.html", "thumbnailUrl": null, "date": "Fri, 05 Apr 2024 10:46:32 +0200", "lat": 52.1337, "lon": 11.582, "intensity": 0.6, "source": "MDR"}, {"title": "Gef\u00e4hrliche Gesetzesl\u00fccke: \"Legales LSD\" aus Automaten in BW", "url": "https://www.swr.de/swraktuell/baden-wuerttemberg/legale-lsd-derivate-aus-automaten-bw-100.html", "thumbnailUrl": "https://www.swr.de/swraktuell/baden-wuerttemberg/1712373528605%2Clsd3-100~_v-16x9@2dXL_-77ed5d09bafd4e3cf6a5a0264e5e16ea35f14925.jpg", "date": "Sat, 6 Apr 2024 05:33:35 +0200", "lat": 48.7373, "lon": 9.9937, "intensity": 0.8, "source": "SWR"}, {"title": "Gesuchte \"Reichsb\u00fcrgerin\" verliert Geldb\u00f6rse und wird geschnappt", "url": "https://www.swr.de/swraktuell/rheinland-pfalz/koblenz/gesuchte-reichsbuergerin-faellt-durch-verlorene-geldboerse-betzdorf-auf-100.html", "thumbnailUrl": "https://www.swr.de/swraktuell/rheinland-pfalz/1712383707701%2Csymbolbild-seniorin-portemonnaie-geldboerse-100~_v-16x9@2dXL_-77ed5d09bafd4e3cf6a5a0264e5e16ea35f14925.jpg", "date": "Sat, 6 Apr 2024 08:19:49 +0200", "lat": 50.7713, "lon": 7.884, "intensity": 0.6, "source": "SWR"}, {"title": "Sicherheit contra Datenschutz: Wie ver\u00e4ndern Bodycams den regionalen Bahnverkehr?", "url": "https://www.swr.de/swraktuell/baden-wuerttemberg/bodycams-zugbegleiter-deutsche-bahn-nahverkehr-sicherheit-mitarbeitender-versus-datenschutz-fahrgaeste-100.html", "thumbnailUrl": "https://www.swr.de/swraktuell/baden-wuerttemberg/1712373258675%2Cbodycam-112~_v-16x9@2dXL_-77ed5d09bafd4e3cf6a5a0264e5e16ea35f14925.jpg", "date": "Sat, 6 Apr 2024 05:14:19 +0200", "lat": 51.9607, "lon": 7.6261, "intensity": 0.7, "source": "SWR"}, {"title": "\"Reichsb\u00fcrger\" nerven Stadtverwaltung in Landau mit Post", "url": "https://www.swr.de/swraktuell/rheinland-pfalz/ludwigshafen/reichsbuerger-nerven-stadtverwaltung-landau-pfalz-mit-anschreiben-100.html", "thumbnailUrl": "https://www.swr.de/swraktuell/rheinland-pfalz/ludwigshafen/1712378186547%2Creichsbuerger-nerven-stadtverwaltung-landau-pfalz-mit-anschreiben-102~_v-16x9@2dXL_-77ed5d09bafd4e3cf6a5a0264e5e16ea35f14925.jpg", "date": "Sat, 6 Apr 2024 07:28:19 +0200", "lat": 49.2036, "lon": 8.1165, "intensity": 0.8, "source": "SWR"}, {"title": "Verein findet bei Putzete in N\u00fcrtingen zwei Pistolen", "url": "https://www.swr.de/swraktuell/baden-wuerttemberg/stuttgart/waffen-in-nuertingen-gefunden-galgenbergpark-100.html", "thumbnailUrl": "https://www.swr.de/swraktuell/baden-wuerttemberg/stuttgart/1712389180590%2Cwaffen-gefunden-nuertingen-muellsammelaktion-putzete-100~_v-16x9@2dXL_-77ed5d09bafd4e3cf6a5a0264e5e16ea35f14925.jpg", "date": "Sat, 6 Apr 2024 09:51:29 +0200", "lat": 48.6291, "lon": 9.3207, "intensity": 0.7, "source": "SWR"}, {"title": "Motorradsaison startet: Polizei im Westen der Pfalz mahnt zur Vorsicht", "url": "https://www.swr.de/swraktuell/rheinland-pfalz/kaiserslautern/motorrad-saison-start-polizei-westpfalz-warnt-vor-unfaellen-104.html", "thumbnailUrl": "https://www.swr.de/swraktuell/rheinland-pfalz/kaiserslautern/1712389300708%2Cmotorrad-saison-start-polizei-westpfalz-warnt-vor-unfaellen-100~_v-16x9@2dXL_-77ed5d09bafd4e3cf6a5a0264e5e16ea35f14925.jpg", "date": "Sat, 6 Apr 2024 09:41:41 +0200", "lat": 49.3994, "lon": 7.9699, "intensity": 0.7, "source": "SWR"}, {"title": "Mammut-Holzachterbahn in Tripsdrill bleibt stehen: Besucher evakuiert", "url": "https://www.swr.de/swraktuell/baden-wuerttemberg/heilbronn/erlebnispark-tripsdrill-mammut-holzachterbahn-stoerung-evakuiert-100.html", "thumbnailUrl": "https://www.swr.de/swraktuell/baden-wuerttemberg/heilbronn/1680270638215%2Cvorbereitung-auf-saisonstart-tripsdrill-104~_v-16x9@2dXL_-77ed5d09bafd4e3cf6a5a0264e5e16ea35f14925.jpg", "date": "Sat, 6 Apr 2024 05:53:01 +0200", "lat": 49.0535, "lon": 9.0813, "intensity": 0.8, "source": "SWR"}, {"title": "Warum der Saharastaub das Sommerwetter tr\u00fcben k\u00f6nnte", "url": "https://www.swr.de/swraktuell/rheinland-pfalz/sonniges-wochenende-wetter-fruehling-in-rlp-100.html", "thumbnailUrl": "https://www.swr.de/swraktuell/rheinland-pfalz/1712362076121%2Cwetter-am-wochenende-saharastaub-koennte-sommer-stimmung-trueben-100~_v-16x9@2dXL_-77ed5d09bafd4e3cf6a5a0264e5e16ea35f14925.jpg", "date": "Sat, 6 Apr 2024 09:43:52 +0200", "lat": 49.8153, "lon": 7.2662, "intensity": 0.6, "source": "SWR"}, {"title": "Rechenspielchen in Stuttgart: Wann macht der VfB Europa klar?", "url": "https://www.swr.de/sport/fussball/vfb-stuttgart/vfb-stuttgart-in-champions-league-oder-europa-league-100.html", "thumbnailUrl": "https://www.swr.de/sport/fussball/vfb-stuttgart/1712299041416%2Cvfb-stuttgart-champions-league-europa-league-104~_v-16x9@2dXL_-77ed5d09bafd4e3cf6a5a0264e5e16ea35f14925.jpg", "date": "Fri, 5 Apr 2024 22:47:29 +0200", "lat": 48.7758, "lon": 9.177, "intensity": 0.6, "source": "SWR"}, {"title": "Gro\u00dfer Umbruch bei den Adlern Mannheim", "url": "https://www.swr.de/sport/mehr-sport/eishockey/grosser-umbruch-bei-den-adlern-mannheim-100.html", "thumbnailUrl": "https://www.swr.de/sport/mehr-sport/eishockey/adler-mannheim/1712335090017%2Cfoto-adler-mannheim-102~_v-16x9@2dXL_-77ed5d09bafd4e3cf6a5a0264e5e16ea35f14925.jpg", "date": "Fri, 5 Apr 2024 19:05:11 +0200", "lat": 49.4875, "lon": 8.4647, "intensity": 0.6, "source": "SWR"}, {"title": "Trotz 0:2-R\u00fcckstand - DFB-Frauen besiegen \u00d6sterreich", "url": "https://www.sportschau.de/fussball/frauen-nationalmannschaft/spielberichtt-dfb-frauen-em-quali-oesterreich-deutschland-100.html", "thumbnailUrl": "https://www.swr.de/ard-importe/sportschau/1712353020945%2Csportschau-teaser-image-174286~_v-16x9@2dXL_-77ed5d09bafd4e3cf6a5a0264e5e16ea35f14925.jpg", "date": "Fri, 5 Apr 2024 23:37:01 +0200", "lat": 48.135125, "lon": 11.581981, "intensity": 0.8, "source": "SWR"}, {"title": "Kevin M\u00fcller: Der gro\u00dfe Mann beim FCH, der die Bayern-Tore verhindern soll", "url": "https://www.swr.de/sport/fussball/1-fc-heidenheim/heidenheim-keeper-kevin-mueller-soll-den-fc-bayern-muenchen-zum-verzweifeln-bringen-100.html", "thumbnailUrl": "https://www.swr.de/sport/fussball/1-fc-heidenheim/1712307725206%2Cbild-kevin-mueller-1-fc-heidenheim-100~_v-16x9@2dXL_-77ed5d09bafd4e3cf6a5a0264e5e16ea35f14925.jpg", "date": "Fri, 5 Apr 2024 13:47:23 +0200", "lat": 48.676, "lon": 10.154, "intensity": 0.7, "source": "SWR"}, {"title": "Schwergewichtsringer Jello Krahmer l\u00f6st das Olympia-Ticket", "url": "https://www.swr.de/sport/mehr-sport/ringen/jello-krahmer-fuer-olympia-qualifiziert-100.html", "thumbnailUrl": "https://www.swr.de/sport/mehr-sport/ringen/1712336823512%2Cjello-krahmer-104~_v-16x9@2dXL_-77ed5d09bafd4e3cf6a5a0264e5e16ea35f14925.jpg", "date": "Fri, 5 Apr 2024 19:15:03 +0200", "lat": 40.377, "lon": 49.892, "intensity": 0.5, "source": "SWR"}, {"title": "KSC-Torj\u00e4ger Igor Matanovic will auch gegen St. Pauli liefern", "url": "https://www.swr.de/sport/fussball/karlsruher-sc/ksc-gegen-spitzenreiter-st-pauli-100.html", "thumbnailUrl": "https://www.swr.de/sport/fussball/karlsruher-sc/1712326550546%2Cigor-matanovic-112~_v-16x9@2dXL_-77ed5d09bafd4e3cf6a5a0264e5e16ea35f14925.jpg", "date": "Fri, 5 Apr 2024 16:46:43 +0200", "lat": 49.0069, "lon": 8.4037, "intensity": 0.7, "source": "SWR"}, {"title": "Tipps f\u00fcr sch\u00f6ne und spannende Stadtf\u00fchrungen im Westen der Pfalz", "url": "https://www.swr.de/swraktuell/rheinland-pfalz/kaiserslautern/aussergewoehnliche-stadtfuehrungen-im-westen-der-pfalz-100.html", "thumbnailUrl": "https://www.swr.de/swraktuell/rheinland-pfalz/kaiserslautern/1711785119044%2Cschoene-und-spannende-stadtfuehrungen-in-der-westpfalz-100~_v-16x9@2dXL_-77ed5d09bafd4e3cf6a5a0264e5e16ea35f14925.jpg", "date": "Sat, 30 Mar 2024 08:52:01 +0100", "lat": 49.4447, "lon": 7.6327, "intensity": 0.3, "source": "SWR"}, {"title": "Wandern im Allg\u00e4u durch den Eistobel zur Riedholzer Kugel", "url": "https://www.swr.de/swr4/programm-bw/wandern-allgaeu-eistobel-riedholzer-kugel-120.html", "thumbnailUrl": "https://www.swr.de/swr4/programm-bw/1694145636814%2Cwandern-allgaeu-eistobel-riedholzer-kugel-104~_v-16x9@2dXL_-77ed5d09bafd4e3cf6a5a0264e5e16ea35f14925.jpg", "date": "Thu, 28 Mar 2024 09:59:51 +0100", "lat": 47.5947, "lon": 10.1789, "intensity": 0.7, "source": "SWR"}, {"title": "30 Jahre Time Warp \u2013 Sven V\u00e4th und andere Star-DJs durch die Linse von Luigi Toscano", "url": "https://www.swr.de/swr2/musik-jazz-und-pop/30-jahre-technofestival-time-warp-ausstellung-mit-portraets-internationaler-dj-groessen-luigi-toscano-100.html", "thumbnailUrl": null, "date": "Thu, 4 Apr 2024 09:31:38 +0200", "lat": 49.4875, "lon": 8.4626, "intensity": 0.2, "source": "SWR"}, {"title": "Die Natur ist meine zweite Wohnung", "url": "https://www.swr.de/heimat/freiburg/ralf-ist-survival-profi-und-uebernachtet-im-wald-100.html", "thumbnailUrl": "https://www.swr.de/heimat/freiburg/1712214378116%2Csurvial-profi-uebernachtet-im-wald-100~_v-16x9@2dXL_-77ed5d09bafd4e3cf6a5a0264e5e16ea35f14925.jpg", "date": "Thu, 4 Apr 2024 09:15:37 +0200", "lat": 47.8207, "lon": 8.2962, "intensity": 0.7, "source": "SWR"}, {"title": "Mammut-Holzachterbahn in Tripsdrill bleibt stehen: Besucher evakuiert", "url": "https://www.swr.de/swraktuell/baden-wuerttemberg/heilbronn/erlebnispark-tripsdrill-mammut-holzachterbahn-stoerung-evakuiert-100.html", "thumbnailUrl": "https://www.swr.de/swraktuell/baden-wuerttemberg/heilbronn/1680270638215%2Cvorbereitung-auf-saisonstart-tripsdrill-104~_v-16x9@2dXL_-77ed5d09bafd4e3cf6a5a0264e5e16ea35f14925.jpg", "date": "Sat, 6 Apr 2024 05:53:01 +0200", "lat": 49.0535, "lon": 9.0813, "intensity": 0.8, "source": "SWR"}, {"title": "U-Boot U 17 wird ab 30. Juni von Speyer nach Sinsheim transportiert", "url": "https://www.swr.de/swraktuell/rheinland-pfalz/ludwigshafen/u-boot-u17-zeitplan-des-weitertransport-steht-fest-100.html", "thumbnailUrl": "https://www.swr.de/swraktuell/rheinland-pfalz/ludwigshafen/1712324412966%2Cu-boot-u17-in-speyer-106~_v-16x9@2dXL_-77ed5d09bafd4e3cf6a5a0264e5e16ea35f14925.jpg", "date": "Fri, 5 Apr 2024 17:40:53 +0200", "lat": 49.3066, "lon": 8.4085, "intensity": 0.7, "source": "SWR"}, {"title": "Motorradfahrer stirbt nach Flucht vor der Polizei bei Unfall", "url": "https://www.swr.de/swraktuell/rheinland-pfalz/koblenz/motorradunfall-ulmen-mann-stirbt-nach-verfolgungsjagd-mit-polizei-100.html", "thumbnailUrl": "https://www.swr.de/swraktuell/rheinland-pfalz/koblenz/1712331854019%2Culmen-motorradfahrer-flieht-vor-polizei-und-stirbt-100~_v-16x9@2dXL_-77ed5d09bafd4e3cf6a5a0264e5e16ea35f14925.png", "date": "Fri, 5 Apr 2024 20:32:20 +0200", "lat": 50.164762, "lon": 7.167383, "intensity": 0.8, "source": "SWR"}, {"title": "Nach Messerangriff in Wangen im Allg\u00e4u: Vierj\u00e4hriger geht es besser", "url": "https://www.swr.de/swraktuell/baden-wuerttemberg/friedrichshafen/mann-sticht-in-supermarkt-auf-vierjaehrige-ein-100.html", "thumbnailUrl": "https://www.swr.de/swraktuell/baden-wuerttemberg/friedrichshafen/1712256430888%2Csupermarkt-wangen-mann-sticht-auf-vierjaehrige-ein-100~_v-16x9@2dXL_-77ed5d09bafd4e3cf6a5a0264e5e16ea35f14925.jpg", "date": "Fri, 5 Apr 2024 19:16:26 +0200", "lat": 47.6878, "lon": 9.8333, "intensity": 0.8, "source": "SWR"}, {"title": "Weniger Motorradl\u00e4rm im Schwarzwald? Gemeinden rund um Todtnau setzen auf neue Regeln", "url": "https://www.swr.de/swraktuell/baden-wuerttemberg/suedbaden/pilotprojekt-motorradlaerm-100.html", "thumbnailUrl": "https://www.swr.de/swraktuell/baden-wuerttemberg/suedbaden/1712252797821%2Cstrassenarbeiten-schilder-bei-todtnau-100~_v-16x9@2dXL_-77ed5d09bafd4e3cf6a5a0264e5e16ea35f14925.jpg", "date": "Fri, 5 Apr 2024 11:37:12 +0200", "lat": 47.8228, "lon": 7.9208, "intensity": 0.6, "source": "SWR"}, {"title": "Immer mehr Lehrkr\u00e4fte in BW fallen krankheitsbedingt lange aus", "url": "https://www.swr.de/swraktuell/baden-wuerttemberg/lehrer-hoher-krankenstand-100.html", "thumbnailUrl": "https://www.swr.de/swraktuell/baden-wuerttemberg/1712324788591%2Clehrer-tafel-102~_v-16x9@2dXL_-77ed5d09bafd4e3cf6a5a0264e5e16ea35f14925.jpg", "date": "Fri, 5 Apr 2024 16:39:19 +0200", "lat": 48.7601, "lon": 9.9937, "intensity": 0.7, "source": "SWR"}, {"title": "Konzert mit Fran\u00e7ois-Xavier Roth, Isabelle Faust & Jean-Fr\u00e9d\u00e9ric Neuburger in Schwetzingen", "url": "https://www.swr.de/swr2/veranstaltungen/va-schwetzinger-festspiele-2024-verlosung-100.html", "thumbnailUrl": "https://www.swr.de/swr2/musik-klassik/schwetzinger-festspiele/1707390478554%2Cbild-ssf-2024-isabelle-faust-100~_v-16x9@2dXL_-77ed5d09bafd4e3cf6a5a0264e5e16ea35f14925.jpg", "date": "Thu, 21 Mar 2024 15:46:53 +0100", "lat": 49.3909, "lon": 8.5659, "intensity": 0.7, "source": "SWR"}, {"title": "Schwetzinger SWR Festspiele", "url": "https://www.swr.de/swr2/musik-klassik/schwetzinger-festspiele/artikel-programm-ssf-2024-100.html", "thumbnailUrl": null, "date": "Wed, 24 Jan 2024 12:47:20 +0100", "lat": 49.3822, "lon": 8.5635, "intensity": 0.4, "source": "SWR"}, {"title": "F\u00fcr nur 7 Euro seht ihr diese K\u00fcnstler beim SWR3 Rheinland-Pfalz Open Air Mainz!", "url": "https://www.swr3.de/events/rheinland-pfalz-open-air-mainz-100.html", "thumbnailUrl": "https://www.swr3.de/events/1708067629255%2Crheinland-pfalz-open-air-mainz-2024-lineup-100~_v-16x9@2dXL_-77ed5d09bafd4e3cf6a5a0264e5e16ea35f14925.jpg", "date": "Thu, 28 Mar 2024 09:26:14 +0100", "lat": 50.00113, "lon": 8.24725, "intensity": 0.6, "source": "SWR"}, {"title": "SWR2 Vor Ort: live dabei sein beim lesenswert Quartett mit Denis Scheck", "url": "https://www.swr.de/swr2/veranstaltungen/va-lesenswert-quartett-104.html", "thumbnailUrl": "https://www.swrfernsehen.de/lesenswert/1655834746554%2Cdenis-scheck-im-lesenswert-quartett-juni-2022-102~_v-16x9@2dXL_-77ed5d09bafd4e3cf6a5a0264e5e16ea35f14925.jpg", "date": "Mon, 4 Mar 2024 11:59:11 +0100", "lat": 50.00068, "lon": 8.26992, "intensity": 0.7, "source": "SWR"}, {"title": "\"Darauf freue ich mich\"", "url": "https://www.swrfernsehen.de/landesschau-rp/specials/formular-worauf-freuen-sie-sich-100.html", "thumbnailUrl": "https://www.swrfernsehen.de/landesschau-rp/specials/1653530478121%2Cdarauf-freue-ich-mich-102~_v-16x9@2dXL_-77ed5d09bafd4e3cf6a5a0264e5e16ea35f14925.jpg", "date": "Thu, 1 Feb 2024 12:50:28 +0100", "lat": 50.3974, "lon": 7.2661, "intensity": 0.3, "source": "SWR"}, {"title": "Freitags erf\u00fcllt die Landesschau Zuschauerw\u00fcnsche", "url": "https://www.swrfernsehen.de/landesschau-bw/kontakt/formular-freitagswunsch-ls-bw-100.html", "thumbnailUrl": "https://www.swrfernsehen.de/landesschau-bw/1653496456565%2Cfreitagswunsch-torte-100~_v-16x9@2dXL_-77ed5d09bafd4e3cf6a5a0264e5e16ea35f14925.jpg", "date": "Thu, 1 Feb 2024 12:23:47 +0100", "lat": 48.782, "lon": 9.177, "intensity": 0.3, "source": "SWR"}, {"title": "Das gro\u00dfe Bl\u00fchen", "url": "https://www.swr.de/wissen/apfelbluete/index.html", "thumbnailUrl": null, "date": "Wed, 27 Mar 2024 14:25:16 +0100", "lat": 51.5143, "lon": 9.9534, "intensity": 0.3, "source": "SWR"}, {"title": "6. April: +++ Apfelbl\u00fcte breitet sich schnell nach Osten und Norden aus! +++", "url": "https://www.swr.de/wissen/apfelbluete/apfelbluete-liveticker-2024-100.html", "thumbnailUrl": "https://www.swr.de/wissen/apfelbluete/1711284440198%2Capfelbluete-moers-240323-102~_v-16x9@2dXL_-77ed5d09bafd4e3cf6a5a0264e5e16ea35f14925.jpg", "date": "Sat, 6 Apr 2024 09:36:15 +0200", "lat": 49.992861, "lon": 8.239895, "intensity": 0.4, "source": "SWR"}, {"title": "So tanken Sie heute g\u00fcnstig", "url": "https://www.swr.de/swraktuell/diesel-und-benzinpreise-aktuell-so-tanken-sie-heute-clever-100.html", "thumbnailUrl": "https://www.swr.de/swraktuell/1667503969159%2Cdiesel-und-benzinpreise-so-teuer-ist-tanken-102~_v-16x9@2dXL_-77ed5d09bafd4e3cf6a5a0264e5e16ea35f14925.jpg", "date": "Sat, 6 Apr 2024 09:30:04 +0200", "lat": 51.1657, "lon": 10.4515, "intensity": 0.2, "source": "SWR"}, {"title": "Vielfalt macht uns stark!", "url": "https://www.swr.de/home/diversitaetstag-100.html", "thumbnailUrl": "https://www.swr.de/home/1684163752619%2Cdiversity-day-2023-vielfalt-inklusion-logo-100~_v-16x9@2dXL_-77ed5d09bafd4e3cf6a5a0264e5e16ea35f14925.jpg", "date": "Fri, 5 Apr 2024 10:39:38 +0200", "lat": 48.791491, "lon": 9.993682, "intensity": 0.3, "source": "SWR"}, {"title": "Dossier: Wie wohnt Rheinland-Pfalz?", "url": "https://www.swr.de/swraktuell/rheinland-pfalz/dossier-wohnen-in-rheinland-pfalz-102.html", "thumbnailUrl": "https://www.swr.de/swraktuell/rheinland-pfalz/1710928774431%2Cwohnen-symbolbild-100~_v-16x9@2dXL_-77ed5d09bafd4e3cf6a5a0264e5e16ea35f14925.jpg", "date": "Thu, 21 Mar 2024 07:36:09 +0100", "lat": 49.7604, "lon": 7.4157, "intensity": 0.5, "source": "SWR"}, {"title": "Dossier: Wie der Klimawandel das Leben in Rheinland-Pfalz beeinflusst", "url": "https://www.swr.de/swraktuell/rheinland-pfalz/dossier-klimawandel-rheinland-pfalz-102.html", "thumbnailUrl": "https://www.swr.de/swraktuell/baden-wuerttemberg/ulm/1704477674263%2Causwirkungen-klimawandel-auf-wald-und-baeume-104~_v-16x9@2dXL_-77ed5d09bafd4e3cf6a5a0264e5e16ea35f14925.jpg", "date": "Thu, 21 Mar 2024 07:52:17 +0100", "lat": 49.7931, "lon": 7.2662, "intensity": 0.8, "source": "SWR"}, {"title": "Coronavirus: Alles Wichtige f\u00fcr Rheinland-Pfalz und Baden-W\u00fcrttemberg", "url": "https://www.swr.de/swraktuell/coronavirus-alles-wichtige-fuer-baden-wuerttemberg-und-rheinland-pfalz-100.html", "thumbnailUrl": "https://www.swr.de/home/1653540557339%2Ccoronabuendel-teaser-mud-abgestimmt-teaserbild-100~_v-16x9@2dXL_-77ed5d09bafd4e3cf6a5a0264e5e16ea35f14925.jpg", "date": "Thu, 21 Mar 2024 14:36:16 +0100", "lat": 49.992862, "lon": 8.239761, "intensity": 0.7, "source": "SWR"}, {"title": "Alles auf E \u00b7 Friedefeld", "url": "https://www.ardmediathek.de/video/friedefeld/alles-auf-e-friedefeld-oder-animated-sitcom/br-fernsehen/Y3JpZDovL2JyLmRlL2Jyb2FkY2FzdFNjaGVkdWxlU2xvdC80MTI2MzQ4NzM4MTNfRjIwMjRXTzAwMDcyM0Ew", "thumbnailUrl": "https://www.swrfernsehen.de/1711544631323%2Cfriedfeld-104~_v-16x9@2dXL_-77ed5d09bafd4e3cf6a5a0264e5e16ea35f14925.jpg", "date": "Wed, 27 Mar 2024 14:03:51 +0100", "lat": 50.35311, "lon": 7.58763, "intensity": 0.7, "source": "SWR"}, {"title": "Der SWR in der ARD Mediathek", "url": "https://www.ardmediathek.de/swr", "thumbnailUrl": "https://www.swrfernsehen.de/1653655919246%2Card-mediathek-168~_v-16x9@2dXL_-77ed5d09bafd4e3cf6a5a0264e5e16ea35f14925.jpg", "date": "Fri, 27 May 2022 14:51:59 +0200", "lat": 48.790447, "lon": 9.993682, "intensity": 0.1, "source": "SWR"}, {"title": "Danke! So toll war es mit und bei euch!", "url": "https://www.swr.de/swr1/bw/programm/so-war-die-fuer-uns-in-bw-tour-2024-100.html", "thumbnailUrl": "https://www.swr.de/swr1/bw/programm/1712332793774%2Cfuer-uns-in-baden-wuerttemberg-tour-allgemein-100~_v-16x9@2dXL_-77ed5d09bafd4e3cf6a5a0264e5e16ea35f14925.jpg", "date": "Fri, 5 Apr 2024 17:59:54 +0200", "lat": 49.0486, "lon": 9.1605, "intensity": 0.3, "source": "SWR"}, {"title": "30 Jahre Time Warp \u2013 Sven V\u00e4th und andere Star-DJs durch die Linse von Luigi Toscano", "url": "https://www.swr.de/swr2/musik-jazz-und-pop/30-jahre-technofestival-time-warp-ausstellung-mit-portraets-internationaler-dj-groessen-luigi-toscano-100.html", "thumbnailUrl": null, "date": "Thu, 4 Apr 2024 09:31:38 +0200", "lat": 49.4875, "lon": 8.4626, "intensity": 0.2, "source": "SWR"}, {"title": "Eschenbach dirigiert Mahlers Zweite", "url": "https://www.swr.de/swr2/musik-klassik/symphonieorchester/aexavarticle-swr-608.html", "thumbnailUrl": null, "date": "Wed, 3 Jan 2024 18:24:17 +0100", "lat": 48.7758, "lon": 9.1775, "intensity": 0.4, "source": "SWR"}, {"title": "Line Up komplett: Berq beim DASDING Festival 2024!", "url": "https://www.dasding.de/events/festivals/dasding-festival-mannheim-2024-114.html", "thumbnailUrl": "https://www.dasding.de/events/festivals/1702995256383%2Cdasding-festival-2024-header-102~_v-16x9@2dXL_-77ed5d09bafd4e3cf6a5a0264e5e16ea35f14925.jpg", "date": "Fri, 1 Mar 2024 06:00:05 +0100", "lat": 53.551086, "lon": 9.993682, "intensity": 0.4, "source": "SWR"}, {"title": "ABBA - Wie aus Flops, Niederlagen und Pannen ein weltweiter Hype wurde", "url": "https://www.swr.de/swr4/musik/abba-biografie-die-erfolgsgeschichte-der-schwedischen-popgruppe-102.html", "thumbnailUrl": "https://www.swr.de/swr4/musik/1712309028281%2Cabba-waterloo-esc-niederlage-sieg-schweden-100~_v-16x9@2dXL_-77ed5d09bafd4e3cf6a5a0264e5e16ea35f14925.jpg", "date": "Fri, 5 Apr 2024 11:23:49 +0200", "lat": 59.3293, "lon": 18.0649, "intensity": 0.7, "source": "SWR"}, {"title": "Schlaf: Die neuen Therapien gegen n\u00e4chtliches Wachliegen", "url": "https://www.spiegel.de/gesundheit/diagnose/schlaf-die-neuen-therapien-gegen-naechtliches-wachliegen-a-3ba01f9c-70f6-421d-a754-2aa818d5652e#ref=rss", "thumbnailUrl": "https://cdn.prod.www.spiegel.de/images/121d5d94-5f9b-4301-9dca-81097fbb104d_w520_r2.08_fpx39_fpy82.jpg", "date": "Sat, 6 Apr 2024 08:04:00 +0200", "lat": 51.1657, "lon": 10.4515, "intensity": 0.8, "source": "SPIEGEL"}, {"title": "News: Krieg in Gaza, Annalena Baerbock, Lisa Paus, Stichwahl in der Slowakei, ABBA", "url": "https://www.spiegel.de/politik/deutschland/news-krieg-in-gaza-annalena-baerbock-lisa-paus-stichwahl-in-der-slowakei-abba-a-e931addb-2898-4588-a646-6f3ecd50e1c1#ref=rss", "thumbnailUrl": "https://cdn.prod.www.spiegel.de/images/dd17189a-707c-4b57-af32-bf59855d3d25_w520_r2.08_fpx28.09_fpy49.93.png", "date": "Sat, 6 Apr 2024 06:43:00 +0200", "lat": 31.5107, "lon": 34.4536, "intensity": 0.8, "source": "SPIEGEL"}, {"title": "Israel-Gaza-Krieg: Nancy Pelosi fordert Stopp der US-Waffenlieferungen an Israel", "url": "https://www.spiegel.de/ausland/israel-gaza-krieg-nancy-pelosi-fordert-stopp-der-us-waffenlieferungen-an-israel-a-c787b438-12e6-4b8e-baac-bc5ca2134ff1#ref=rss", "thumbnailUrl": "https://cdn.prod.www.spiegel.de/images/87f75f13-465b-4e23-af0e-e01dbac5613a_w520_r2.08_fpx33.33_fpy50.jpg", "date": "Sat, 6 Apr 2024 05:09:00 +0200", "lat": 31.9522, "lon": 35.2137, "intensity": 0.8, "source": "SPIEGEL"}, {"title": "Verhaftung von Jorge Glas: Ecuadors Polizei dringt gewaltsam in mexikanische Botschaft ein", "url": "https://www.spiegel.de/ausland/verhaftung-von-jorge-glas-ecuadors-polizei-dringt-gewaltsam-in-mexikanische-botschaft-ein-a-68de8dbd-a3f0-45e4-ad53-1305f25d8f6b#ref=rss", "thumbnailUrl": "https://cdn.prod.www.spiegel.de/images/e8718629-2ec7-4b4e-ac50-db44589bc598_w520_r2.08_fpx33.32_fpy49.97.jpg", "date": "Sat, 6 Apr 2024 08:53:00 +0200", "lat": -0.2205, "lon": -78.4678, "intensity": 0.8, "source": "SPIEGEL"}, {"title": "\u00d6sterreich: Ein Verfassungssch\u00fctzer soll f\u00fcr Russland spioniert haben - und f\u00fcr Jan Marsalek - Podcast", "url": "https://www.spiegel.de/ausland/oesterreich-ein-verfassungsschuetzer-soll-fuer-russland-spioniert-haben-und-fuer-jan-marsalek-podcast-a-c7ef523c-06ed-4a01-8d96-e87cac9fbdb0#ref=rss", "thumbnailUrl": "https://cdn.prod.www.spiegel.de/images/773f934d-b424-434d-bea7-4fdaeb156110_w520_r2.08_fpx58.74_fpy55.jpg", "date": "Sat, 6 Apr 2024 07:27:00 +0200", "lat": 47.5162, "lon": 15.44, "intensity": 0.8, "source": "SPIEGEL"}, {"title": "Krise der E-Mobilit\u00e4t: Autoindustrie fordert Tempo beim Ladenetz-Ausbau", "url": "https://www.spiegel.de/wirtschaft/krise-der-e-mobilitaet-autoindustrie-fordert-tempo-beim-ladenetz-ausbau-a-773a9d90-fa20-4bfd-8692-341cb9d4f229#ref=rss", "thumbnailUrl": "https://cdn.prod.www.spiegel.de/images/f30d7740-ad1e-443f-92be-294d6f56d6da_w520_r2.08_fpx52_fpy50.jpg", "date": "Sat, 6 Apr 2024 08:43:00 +0200", "lat": 51.4649, "lon": 9.9042, "intensity": 0.8, "source": "SPIEGEL"}, {"title": "Ecuador: Zwei Deutsche nach Lawine auf Vulkan Cayambe vermisst", "url": "https://www.spiegel.de/panorama/ecuador-zwei-deutsche-nach-lawine-auf-vulkan-cayambe-vermisst-a-13c63a79-64ec-4f0b-9a06-3b9eacdc454a#ref=rss", "thumbnailUrl": "https://cdn.prod.www.spiegel.de/images/ae1226cb-0001-0004-0000-000000327112_w520_r2.08_fpx60.64_fpy54.95.jpg", "date": "Sat, 6 Apr 2024 07:17:00 +0200", "lat": -0.180653, "lon": -78.44283, "intensity": 0.8, "source": "SPIEGEL"}, {"title": "Anhaltendes Unwetter in Australien: Extremregen setzt Sydney unter Wasser", "url": "https://www.spiegel.de/panorama/anhaltendes-unwetter-in-australien-extremregen-setzt-sydney-unter-wasser-a-cdcd66dd-2669-40a1-a5f1-be01b9df7c5c#ref=rss", "thumbnailUrl": "https://cdn.prod.www.spiegel.de/images/d1365852-5cb8-4d3e-b58c-5d8f8958c1ad_w520_r2.08_fpx36.69_fpy55.jpg", "date": "Sat, 6 Apr 2024 07:32:00 +0200", "lat": -33.8688, "lon": 151.2093, "intensity": 0.9, "source": "SPIEGEL"},