[{"title": "DFB-Pokal in Saarbr\u00fccken: Fans ziehen zum Ludwigspark", "url": "https://www.tagesschau.de/inland/regional/saarland/sr-das-sind-die-strassensperrungen-zum-dfb-pokal-spiel-100.html", "thumbnailUrl": "https://images.tagesschau.de/image/5c302c75-79e9-4e36-bf45-85d009ca3e57/AAABjp-cRD4/AAABjcWesUg/16x9-512.jpg", "date": "2024-04-02T19:52:00.000+02:00", "lat": 49.233, "lon": 7.009, "intensity": 0.8, "source": "Tagesschau"}, {"title": "++ Deutschland kritisiert Israels Mediengesetz ++", "url": "https://www.tagesschau.de/newsticker/liveblog-nahost-dienstag-124.html", "thumbnailUrl": "https://images.tagesschau.de/image/303acc43-d709-47c7-8c87-d18683f43c91/AAABjXlxmsc/AAABjcWesUg/16x9-512.jpg", "date": "2024-04-02T19:17:16.236+02:00", "lat": 31.4611, "lon": 35.0036, "intensity": 0.7, "source": "Tagesschau"}, {"title": "Seltene Funde an der Nordsee: Kehren verschwundene Arten zur\u00fcck?", "url": "https://www.tagesschau.de/inland/regional/schleswigholstein/ndr-seltene-funde-an-der-nordsee-kehren-verschwundene-arten-zurueck-100.html", "thumbnailUrl": "https://images.tagesschau.de/image/66d39a31-4098-40c1-b670-8ff72574ed96/AAABjp5BBJ4/AAABjcWesUg/16x9-512.jpg", "date": "2024-04-02T19:36:00.000+02:00", "lat": 53.5444, "lon": 8.8139, "intensity": 0.7, "source": "Tagesschau"}, {"title": "Mark Lamsfu\u00df muss Badminton-EM absagen", "url": "https://www.tagesschau.de/inland/regional/saarland/sr-mark-lamsfuss-muss-badminton-em-absagen-100.html", "thumbnailUrl": "https://images.tagesschau.de/image/0f7a4abf-f19f-47dc-af29-1f5d545085ca/AAABjp_lgVM/AAABjcWesUg/16x9-512.jpg", "date": "2024-04-02T19:35:00.000+02:00", "lat": 49.2347, "lon": 7.0233, "intensity": 0.6, "source": "Tagesschau"}, {"title": "B\u00fcrgermeisterwahl ung\u00fcltig - Amtsinhaberin will in Berufung gehen", "url": "https://www.tagesschau.de/inland/regional/niedersachsen/ndr-buergermeisterwahl-ungueltig-amtsinhaberin-will-in-berufung-gehen-100.html", "thumbnailUrl": "https://images.tagesschau.de/image/819706e1-5f80-4d17-b7c9-29289e9ab628/AAABjp_c14M/AAABjcWesUg/16x9-512.jpg", "date": "2024-04-02T19:25:00.000+02:00", "lat": 51.8705, "lon": 10.0307, "intensity": 0.7, "source": "Tagesschau"}, {"title": "Tesla macht Brandanschlag in Gr\u00fcnheide f\u00fcr Absatzr\u00fcckgang mitverantwortlich", "url": "https://www.tagesschau.de/inland/regional/brandenburg/rbb-tesla-macht-brandanschlag-in-gruenheide-fuer-absatzrueckgang-mitverantwortlich-100.html", "thumbnailUrl": "https://images.tagesschau.de/image/965cb870-d5e3-4cfb-861a-c57a593e8778/AAABjp_ZGIw/AAABjcWesUg/16x9-512.jpg", "date": "2024-04-02T19:21:00.000+02:00", "lat": 52.7431, "lon": 13.8636, "intensity": 0.8, "source": "Tagesschau"}, {"title": "++ Ukraine senkt Einberufungsalter auf 25 Jahre ++", "url": "https://www.tagesschau.de/newsticker/liveblog-ukraine-dienstag-336.html", "thumbnailUrl": "https://images.tagesschau.de/image/25a277a8-4b46-47e6-a72d-9c6964f06c65/AAABjp_Tv60/AAABjcWesUg/16x9-512.jpg", "date": "2024-04-02T19:20:38.607+02:00", "lat": 53.7098, "lon": 27.9534, "intensity": 0.8, "source": "Tagesschau"}, {"title": "Lindners Neun-Milliarden-Gedankenspiel ", "url": "https://www.tagesschau.de/inland/innenpolitik/haushalt-verteidigung-fdp-100.html", "thumbnailUrl": "https://images.tagesschau.de/image/334357b2-3850-4c9a-80f2-303442fb6f5b/AAABjp-nGmE/AAABjcWesUg/16x9-512.jpg", "date": "2024-04-02T19:03:52.045+02:00", "lat": 52.52, "lon": 13.405, "intensity": 0.6, "source": "Tagesschau"}, {"title": "500-Kilo-Bombe in Wiesbaden-Biebrich gefunden - 10.000 Anwohner betroffen", "url": "https://www.tagesschau.de/inland/regional/hessen/hr-500-kilo-bombe-in-wiesbaden-biebrich-gefunden-10-000-anwohner-betroffen-100.html", "thumbnailUrl": "https://images.tagesschau.de/image/422f2409-7854-4f80-bcc4-80c7f6d922cb/AAABjp_Ewvk/AAABjcWesUg/16x9-512.jpg", "date": "2024-04-02T18:57:08.028+02:00", "lat": 50.0408, "lon": 8.2087, "intensity": 0.8, "source": "Tagesschau"}, {"title": "Drogentod einer 16-J\u00e4hrigen in Hamburg: Dealer vor Gericht", "url": "https://www.tagesschau.de/inland/regional/hamburg/ndr-drogentod-einer-16-jaehrigen-in-hamburg-dealer-vor-gericht-100.html", "thumbnailUrl": "https://images.tagesschau.de/image/01deb6f4-3a59-4be4-b277-2f8d5c3a36d9/AAABjp4GLNg/AAABjcWesUg/16x9-512.jpg", "date": "2024-04-02T18:57:00.000+02:00", "lat": 53.5511, "lon": 10.0018, "intensity": 0.8, "source": "Tagesschau"}, {"title": "\"Verschw\u00f6rungstheorien entkr\u00e4ften\": Bouffier f\u00fcr Aufarbeitung der Corona-Politik in Enquete-Kommission", "url": "https://www.tagesschau.de/inland/regional/hessen/hr-verschwoerungstheorien-entkraeften-bouffier-fuer-aufarbeitung-der-corona-politik-in-enquete-kommission-100.html", "thumbnailUrl": "https://images.tagesschau.de/image/f50f91c2-36ba-4f8f-b948-24093f9586d1/AAABjp-5tU8/AAABjcWesUg/16x9-512.jpg", "date": "2024-04-02T18:51:23.158+02:00", "lat": 50.110924, "lon": 8.239761, "intensity": 0.7, "source": "Tagesschau"}, {"title": "Neuer Sichtschutz f\u00fcr Drob Inn am Hauptbahnhof", "url": "https://www.tagesschau.de/inland/regional/hamburg/ndr-neuer-sichtschutz-fuer-drob-inn-am-hauptbahnhof-100.html", "thumbnailUrl": "https://images.tagesschau.de/image/997deb2e-1fda-4af7-acb3-d41c428cfc66/AAABjp-4Fxk/AAABjcWesUg/16x9-512.jpg", "date": "2024-04-02T18:51:00.000+02:00", "lat": 53.5511, "lon": 9.9937, "intensity": 0.7, "source": "Tagesschau"}, {"title": "Mehr als sieben Jahre Haft nach Gewaltattacke an Ex-Freundin", "url": "https://www.tagesschau.de/inland/regional/hessen/hr-mehr-als-sieben-jahre-haft-nach-gewaltattacke-an-ex-freundin-100.html", "thumbnailUrl": "https://images.tagesschau.de/image/fbbd30f3-8bdc-4a7e-9ca1-64bf4bff0eb8/AAABjp-wihw/AAABjcWesUg/16x9-512.jpg", "date": "2024-04-02T18:40:47.578+02:00", "lat": 50.1109, "lon": 8.6821, "intensity": 0.8, "source": "Tagesschau"}, {"title": "Netanyahu gesteht \"unbeabsichtigten Angriff\" in Gaza ein", "url": "https://www.tagesschau.de/ausland/asien/netanyahu-wck-angriff-100.html", "thumbnailUrl": "https://images.tagesschau.de/image/143deed6-a996-4f82-b245-eb3ded25fc9e/AAABjp7WUBk/AAABjcWesUg/16x9-512.jpg", "date": "2024-04-02T18:30:19.749+02:00", "lat": 31.5133, "lon": 34.3546, "intensity": 0.8, "source": "Tagesschau"}, {"title": "F\u00fcnfj\u00e4hriger in Lebensgefahr: Polizisten retten Kind", "url": "https://www.tagesschau.de/inland/regional/niedersachsen/ndr-fuenfjaehriger-in-lebensgefahr-polizisten-retten-kind-das-leben-100.html", "thumbnailUrl": "https://images.tagesschau.de/image/2ce8ad0c-a268-461c-a789-9d6026d70bc5/AAABjp_cx8o/AAABjcWesUg/16x9-512.jpg", "date": "2024-04-02T18:29:00.000+02:00", "lat": 52.3759, "lon": 9.7312, "intensity": 0.8, "source": "Tagesschau"}, {"title": "Agrarpolitik in Brandenburg: Ostdeutsche Landwirte fordern Verkauf von bundeseigenen Agrarfl\u00e4chen", "url": "https://www.tagesschau.de/inland/regional/brandenburg/rbb-agrarpolitik-in-brandenburg-ostdeutsche-landwirte-fordern-verkauf-von-bundeseigenen-agrarflaechen-100.html", "thumbnailUrl": "https://images.tagesschau.de/image/9b76b511-deaf-4b4d-a0b3-0b1cd8e8eced/AAABjp-eQxk/AAABjcWesUg/16x9-512.jpg", "date": "2024-04-02T18:16:00.000+02:00", "lat": 52.3874, "lon": 13.2171, "intensity": 0.6, "source": "Tagesschau"}, {"title": "Hunsr\u00fcckquerbahn wird doch nicht dieses Jahr fertig", "url": "https://www.tagesschau.de/inland/regional/rheinlandpfalz/swr-hunsrueckquerbahn-wird-doch-nicht-dieses-jahr-fertig-100.html", "thumbnailUrl": "https://images.tagesschau.de/image/40a99b68-e8c7-483d-97b3-5421838b6c27/AAABjp-7eRw/AAABjcWesUg/16x9-512.jpg", "date": "2024-04-02T18:12:50.000+02:00", "lat": 49.9808, "lon": 7.4474, "intensity": 0.5, "source": "Tagesschau"}, {"title": "OFC-Anh\u00e4nger beteiligt? Fans von Hessen Kassel auf Parkplatz angegriffen", "url": "https://www.tagesschau.de/inland/regional/hessen/hr-ofc-anhaenger-beteiligt-fans-von-hessen-kassel-auf-parkplatz-angegriffen-102.html", "thumbnailUrl": "https://images.tagesschau.de/image/06e715fe-814e-4b37-adc9-08a541306873/AAABjp-jufc/AAABjcWesUg/16x9-512.jpg", "date": "2024-04-02T18:11:34.182+02:00", "lat": 51.312711, "lon": 9.512016, "intensity": 0.8, "source": "Tagesschau"}, {"title": "Iran droht Israel mit Vergeltung", "url": "https://www.tagesschau.de/ausland/asien/iran-vergeltung-100.html", "thumbnailUrl": "https://images.tagesschau.de/image/f6d0523f-4cd8-41a0-a044-4ef0e6993236/AAABjp-UVbU/AAABjcWesUg/16x9-512.jpg", "date": "2024-04-02T18:11:23.021+02:00", "lat": 51.389, "lon": 35.6895, "intensity": 0.8, "source": "Tagesschau"}, {"title": "Norderelbbr\u00fccke: Bauarbeiten sorgen f\u00fcr Behinderungen auf der A1", "url": "https://www.tagesschau.de/inland/regional/hamburg/ndr-norderelbbruecke-100.html", "thumbnailUrl": "https://images.tagesschau.de/image/2119720b-227d-4b09-8231-ed268c71b979/AAABjp-ecgA/AAABjcWesUg/16x9-512.jpg", "date": "2024-04-02T18:11:00.000+02:00", "lat": 53.5511, "lon": 10.0003, "intensity": 0.7, "source": "Tagesschau"}, {"title": "Mieten steigen in Niedersachsen: So sieht es in Ihrem Landkreis aus", "url": "https://www.tagesschau.de/inland/regional/niedersachsen/ndr-mieten-steigen-in-niedersachsen-so-sieht-es-in-ihrem-landkreis-aus-100.html", "thumbnailUrl": "https://images.tagesschau.de/image/e3931de4-cb6f-43a5-b0b7-abd7fa7f0295/AAABjp-XQYs/AAABjcWesUg/16x9-512.jpg", "date": "2024-04-02T18:09:00.000+02:00", "lat": 52.6367, "lon": 9.7356, "intensity": 0.8, "source": "Tagesschau"}, {"title": "\"Die Ukrainer wollen Gerechtigkeit - und zwar jetzt\"", "url": "https://www.tagesschau.de/ausland/ukraine-konferenz-denhaag-100.html", "thumbnailUrl": "https://images.tagesschau.de/image/a7f1b3d5-1657-4807-bbf1-d4f6d5d92978/AAABjp9hcgU/AAABjcWesUg/16x9-512.jpg", "date": "2024-04-02T18:05:31.154+02:00", "lat": 50.4501, "lon": 30.5234, "intensity": 0.8, "source": "Tagesschau"}, {"title": "Marsaleks Helfer in Berlin?", "url": "https://www.tagesschau.de/investigativ/ndr-wdr/russland-spionage-oesterreich-marsalek-egisto-100.html", "thumbnailUrl": "https://images.tagesschau.de/image/54e98b9d-700d-477b-a896-f3c6424f5642/AAABiWncSRc/AAABjcWesUg/16x9-512.jpg", "date": "2024-04-02T18:00:06.170+02:00", "lat": 52.520008, "lon": 13.404954, "intensity": 0.8, "source": "Tagesschau"}, {"title": "Einen Schritt zur\u00fcck an der B\u00f6rse", "url": "https://www.tagesschau.de/wirtschaft/finanzen/marktberichte/marktbericht-dow-dax-geldanlage-boerse-aktien-100.html", "thumbnailUrl": "https://images.tagesschau.de/image/df83cbf8-106a-4b41-8aa8-311dde825088/AAABjmTt2oc/AAABjcWesUg/16x9-512.jpg", "date": "2024-04-02T17:59:59.422+02:00", "lat": 51.4728, "lon": 9.9937, "intensity": 0.6, "source": "Tagesschau"}, {"title": "Malaysias Regierung warnt vor Eskalation", "url": "https://www.tagesschau.de/ausland/asien/malaysia-socken-100.html", "thumbnailUrl": "https://images.tagesschau.de/image/eb2ed435-04b5-450e-bf00-ea6e6af8ed8c/AAABjp87mMU/AAABjcWesUg/16x9-512.jpg", "date": "2024-04-02T17:49:11.820+02:00", "lat": 4.2105, "lon": 101.9758, "intensity": 0.8, "source": "Tagesschau"}, {"title": "73-J\u00e4hrige lockt Schockanrufer in die Polizei-Falle", "url": "https://www.tagesschau.de/inland/regional/hessen/hr-73-jaehrige-lockt-schockanrufer-in-die-polizei-falle-100.html", "thumbnailUrl": "https://images.tagesschau.de/image/004c2507-2d22-46a3-a582-db6b858f60bf/AAABjp-BD6M/AAABjcWesUg/16x9-512.jpg", "date": "2024-04-02T17:48:14.569+02:00", "lat": 50.110922, "lon": 8.682127, "intensity": 0.7, "source": "Tagesschau"}, {"title": "Ammoniak auf Firmengel\u00e4nde in Berlin-Bohnsdorf ausgetreten", "url": "https://www.tagesschau.de/inland/regional/berlin/rbb-ammoniak-auf-firmengelaende-in-berlin-bohnsdorf-ausgetreten-100.html", "thumbnailUrl": "https://images.tagesschau.de/image/74ce2727-df7a-4720-9f69-4c2b4b2c15e3/AAABjp-BRAk/AAABjcWesUg/16x9-512.jpg", "date": "2024-04-02T17:47:25.000+02:00", "lat": 52.3876, "lon": 13.5918, "intensity": 0.8, "source": "Tagesschau"}, {"title": "Brandenburger Polizei z\u00e4hlt 60 Prozent mehr Betrugsf\u00e4lle mit \"Enkeltrick\"", "url": "https://www.tagesschau.de/inland/regional/brandenburg/rbb-brandenburger-polizei-zaehlt-60-prozent-mehr-betrugsfaelle-mit-enkeltrick-100.html", "thumbnailUrl": "https://images.tagesschau.de/image/29bee367-b9d8-4173-825d-2c331ec9ec13/AAABjp9_IN8/AAABjcWesUg/16x9-512.jpg", "date": "2024-04-02T17:35:00.000+02:00", "lat": 52.4125, "lon": 13.081, "intensity": 0.7, "source": "Tagesschau"}, {"title": "Polizei stoppt Jugendliche nach Verfolgungsjagd auf der B4", "url": "https://www.tagesschau.de/inland/regional/schleswigholstein/ndr-polizei-stoppt-jugendliche-nach-verfolgungsjagd-auf-der-b4-100.html", "thumbnailUrl": "https://images.tagesschau.de/image/87dbb139-1f6e-410e-a326-cc0a4b62e146/AAABjp94Gvs/AAABjcWesUg/16x9-512.jpg", "date": "2024-04-02T17:31:00.000+02:00", "lat": 53.7581, "lon": 9.7437, "intensity": 0.8, "source": "Tagesschau"}, {"title": "Zukunft der Bremer Karstadt-Filiale nach Insolvenz weiter offen", "url": "https://www.tagesschau.de/inland/regional/bremen/rb-zukunft-der-bremer-karstadt-filiale-weiter-offen-100.html", "thumbnailUrl": "https://images.tagesschau.de/image/0fe4efeb-35cb-43e3-8034-b658f66ecee9/AAABjp-3x3I/AAABjcWesUg/16x9-512.jpg", "date": "2024-04-02T17:31:00.000+02:00", "lat": 53.0793, "lon": 8.8017, "intensity": 0.8, "source": "Tagesschau"}, {"title": "SV Darmstadt 98: Showdown in Mainz", "url": "https://www.tagesschau.de/inland/regional/hessen/hr-sv-darmstadt-98-showdown-in-mainz-102.html", "thumbnailUrl": "https://images.tagesschau.de/image/18f60e82-596b-4832-b3cf-764efee15901/AAABjp9jsFU/AAABjcWesUg/16x9-512.jpg", "date": "2024-04-02T17:14:19.565+02:00", "lat": 49.992862, "lon": 8.270986, "intensity": 0.4, "source": "Tagesschau"}, {"title": "Zahl der Straftaten in MV steigt weiter an", "url": "https://www.tagesschau.de/inland/regional/mecklenburgvorpommern/ndr-zahl-der-straftaten-in-mv-steigt-weiter-an-100.html", "thumbnailUrl": "https://images.tagesschau.de/image/f1147c8d-f8e9-4bbc-b345-3e4692337c4d/AAABjp93qCA/AAABjcWesUg/16x9-512.jpg", "date": "2024-04-02T17:10:00.000+02:00", "lat": 53.6127, "lon": 13.4489, "intensity": 0.7, "source": "Tagesschau"}, {"title": "\u00d6kolandbau in Brandenburg w\u00e4chst", "url": "https://www.tagesschau.de/inland/regional/brandenburg/rbb-oekolandbau-in-brandenburg-waechst-100.html", "thumbnailUrl": "https://images.tagesschau.de/image/901dada6-3b46-4380-8471-56b17f29764d/AAABjp9gCBc/AAABjcWesUg/16x9-512.jpg", "date": "2024-04-02T17:08:09.000+02:00", "lat": 52.4125, "lon": 13.2904, "intensity": 0.7, "source": "Tagesschau"}, {"title": "Femizid? Get\u00f6tete Frau lag monatelang in Stuttgarter Wohnung", "url": "https://www.tagesschau.de/inland/regional/badenwuerttemberg/swr-femizid-getoetete-frau-lag-monatelang-in-wohnung-in-stuttgart-100.html", "thumbnailUrl": "https://images.tagesschau.de/image/e5c601ee-2550-4095-bd77-1aa12374cc83/AAABjp-TI24/AAABjcWesUg/16x9-512.jpg", "date": "2024-04-02T17:06:27.000+02:00", "lat": 48.7758, "lon": 9.1829, "intensity": 0.8, "source": "Tagesschau"}, {"title": "\"Hessengeld\" f\u00fcrs Eigenheim soll ab Herbst ausgezahlt werden", "url": "https://www.tagesschau.de/inland/regional/hessen/hr-hessengeld-fuers-eigenheim-soll-ab-herbst-ausgezahlt-werden-100.html", "thumbnailUrl": "https://images.tagesschau.de/image/8449abb1-3288-4e86-9821-2e15987dacab/AAABjp9VA3w/AAABjcWesUg/16x9-512.jpg", "date": "2024-04-02T16:59:25.551+02:00", "lat": 51.06022, "lon": 9.6925, "intensity": 0.8, "source": "Tagesschau"}, {"title": "Hafen-Besch\u00e4ftigte werfen Tschentscher in Anzeige Wortbruch vor", "url": "https://www.tagesschau.de/inland/regional/hamburg/ndr-hafen-beschaeftigte-werfen-tschentscher-in-anzeige-wortbruch-vor-100.html", "thumbnailUrl": "https://images.tagesschau.de/image/f9b67fe6-eef4-489e-804a-e90332fe8fe0/AAABjp9ygs4/AAABjcWesUg/16x9-512.jpg", "date": "2024-04-02T16:59:00.000+02:00", "lat": 53.5511, "lon": 9.9937, "intensity": 0.6, "source": "Tagesschau"}, {"title": "W\u00e4rmster M\u00e4rz in Berlin und Brandenburg seit Beginn der Aufzeichnungen", "url": "https://www.tagesschau.de/inland/regional/brandenburg/rbb-deutsche-wetterdienst-dwd-cottbus-und-klitzschen-meldeten-temperatur-hoechstwert-im-maerz-100.html", "thumbnailUrl": "https://images.tagesschau.de/image/76d77c99-6d37-4456-9b6a-d7bfd0c08d8d/AAABjp9PhqU/AAABjcWesUg/16x9-512.jpg", "date": "2024-04-02T16:55:00.000+02:00", "lat": 51.7565, "lon": 15.3275, "intensity": 0.6, "source": "Tagesschau"}, {"title": "Nach Oster-Feiertagen: Touristiker ziehen durchwachsene Bilanz", "url": "https://www.tagesschau.de/inland/regional/schleswigholstein/ndr-nach-oster-feiertagen-touristiker-ziehen-durchwachsene-bilanz-100.html", "thumbnailUrl": "https://images.tagesschau.de/image/502d60ad-d3f8-4f8e-a849-51cf36a8e299/AAABjp9RmAs/AAABjcWesUg/16x9-512.jpg", "date": "2024-04-02T16:52:00.000+02:00", "lat": 54.2194, "lon": 9.9937, "intensity": 0.6, "source": "Tagesschau"}, {"title": "Mindestens 29 Tote nach Brand in Istanbul", "url": "https://www.tagesschau.de/ausland/tote-istanbul-nachtclub-tuerkei-100.html", "thumbnailUrl": "https://images.tagesschau.de/image/3bdad39c-a62e-47da-b942-8d18ab27373c/AAABjp8JmWE/AAABjcWesUg/16x9-512.jpg", "date": "2024-04-02T16:51:00.141+02:00", "lat": 41.008237, "lon": 28.978358, "intensity": 0.9, "source": "Tagesschau"}, {"title": "Schlechtes Netz: So gro\u00df ist das Problem bei Handys wirklich", "url": "https://www.tagesschau.de/inland/regional/nordrheinwestfalen/wdr-schlechtes-netz-so-gross-ist-das-problem-bei-handys-wirklich-100.html", "thumbnailUrl": "https://images.tagesschau.de/image/030ea0de-d473-4f3f-89dc-d604135154d6/AAABjp9NhA0/AAABjcWesUg/16x9-512.jpg", "date": "2024-04-02T16:41:00.000+02:00", "lat": 51.247093, "lon": 7.425988, "intensity": 0.8, "source": "Tagesschau"}, {"title": "Eine Million Euro f\u00fcr die Tafeln in Schleswig-Holstein", "url": "https://www.tagesschau.de/inland/regional/schleswigholstein/ndr-eine-million-euro-fuer-die-tafeln-in-schleswig-holstein-100.html", "thumbnailUrl": "https://images.tagesschau.de/image/e0ca7e4b-a0ea-4b73-aa6a-57e45ab5ad9e/AAABjp9E5FQ/AAABjcWesUg/16x9-512.jpg", "date": "2024-04-02T16:40:00.000+02:00", "lat": 54.3233, "lon": 9.9833, "intensity": 0.8, "source": "Tagesschau"}, {"title": "Gericht er\u00f6ffnet Insolvenzverfahren f\u00fcr Galeria Karstadt Kaufhof", "url": "https://www.tagesschau.de/inland/regional/brandenburg/rbb-filialen-auch-in-berlin-und-brandenburg-gericht-eroeffnet-insolvenzverfahren-fuer-galeria-karstadt-kaufhof-100.html", "thumbnailUrl": "https://images.tagesschau.de/image/3c520841-76d9-4b61-bd0c-9f1ee3996254/AAABjp6lecA/AAABjcWesUg/16x9-512.jpg", "date": "2024-04-02T16:38:56.000+02:00", "lat": 52.520008, "lon": 13.404954, "intensity": 0.8, "source": "Tagesschau"}, {"title": "Alkoholkonsum im und am Hamburger Hauptbahnhof verboten", "url": "https://www.tagesschau.de/inland/regional/hamburg/ndr-alkoholverbot-am-hamburger-hauptbahnhof-tritt-am-dienstag-in-kraft-100.html", "thumbnailUrl": "https://images.tagesschau.de/image/76d4bde1-7a57-4248-98ab-fef9f536b522/AAABjp8TQiw/AAABjcWesUg/16x9-512.jpg", "date": "2024-04-02T16:36:00.000+02:00", "lat": 53.5526, "lon": 9.9937, "intensity": 0.8, "source": "Tagesschau"}, {"title": "Eisb\u00e4ren, Volleys, Alba und SCP: So pr\u00e4sentieren sich die Top-Teams derzeit in den Playoffs", "url": "https://www.tagesschau.de/inland/regional/brandenburg/rbb-eisbaeren-volleys-alba-und-scp-so-praesentieren-sich-die-top-teams-derzeit-in-den-playoffs-102.html", "thumbnailUrl": "https://images.tagesschau.de/image/c6994e04-e13a-4cc1-9a79-e63ed0ce124a/AAABjp87p3Y/AAABjcWesUg/16x9-512.jpg", "date": "2024-04-02T16:29:20.000+02:00", "lat": 52.520008, "lon": 13.404954, "intensity": 0.6, "source": "Tagesschau"}, {"title": "Mitgliederbefragung: Berliner SPD verschickt Wahlunterlagen f\u00fcr k\u00fcnftigen Parteivorsitz", "url": "https://www.tagesschau.de/inland/regional/berlin/rbb-mitgliederbefragung-berliner-spd-verschickt-wahlunterlagen-fuer-kuenftigen-parteivorsitz-100.html", "thumbnailUrl": "https://images.tagesschau.de/image/3bc24a30-9dc3-4ce4-bc52-6b3320429462/AAABjp87lww/AAABjcWesUg/16x9-512.jpg", "date": "2024-04-02T16:27:58.000+02:00", "lat": 52.520008, "lon": 13.404954, "intensity": 0.7, "source": "Tagesschau"}, {"title": "Bus auf Abruf - Flitsaar startet in St. Wendel", "url": "https://www.tagesschau.de/inland/regional/saarland/sr-bus-auf-abruf-flitsaar-startet-in-st-wendel-102.html", "thumbnailUrl": "https://images.tagesschau.de/image/5de5cd64-79fe-4bd0-a9ac-26c27ef8bbf6/AAABjp81uu8/AAABjcWesUg/16x9-512.jpg", "date": "2024-04-02T16:24:00.000+02:00", "lat": 49.4655, "lon": 7.1781, "intensity": 0.7, "source": "Tagesschau"}, {"title": "\"Israel geht ein gro\u00dfes Risiko ein\"", "url": "https://www.tagesschau.de/ausland/asien/syrien-iran-angriff-botschaft-100.html", "thumbnailUrl": "https://images.tagesschau.de/image/7a1b029a-14d6-428f-a18b-668c33b80305/AAABjp8wBM0/AAABjcWesUg/16x9-512.jpg", "date": "2024-04-02T16:21:48.372+02:00", "lat": 31.7717, "lon": 35.2137, "intensity": 0.8, "source": "Tagesschau"}, {"title": "Prostitution in Stuttgart: Bordellbetreiber gewinnt im Rechtsstreit gegen Politikerin", "url": "https://www.tagesschau.de/inland/regional/badenwuerttemberg/swr-prostitution-in-stuttgart-bordellbetreiber-gewinnt-im-rechtsstreit-gegen-politikerin-100.html", "thumbnailUrl": "https://images.tagesschau.de/image/27556f68-5a61-4ecc-8418-4156a9def4a2/AAABjp9TEEU/AAABjcWesUg/16x9-512.jpg", "date": "2024-04-02T16:15:47.000+02:00", "lat": 48.775845, "lon": 9.182932, "intensity": 0.7, "source": "Tagesschau"}, {"title": "Gedenkmarsch in Ulm: 230 Bundeswehrangeh\u00f6rige erinnern an Karfreitagsgefecht", "url": "https://www.tagesschau.de/inland/regional/badenwuerttemberg/swr-gedenkmarsch-in-ulm-230-soldatinnen-und-soldaten-erinnern-an-das-karfreitagsgefecht-100.html", "thumbnailUrl": "https://images.tagesschau.de/image/5eb3df28-e322-49d6-9783-45ade884e5ec/AAABjp8snSA/AAABjcWesUg/16x9-512.jpg", "date": "2024-04-02T16:15:00.000+02:00", "lat": 48.401082, "lon": 9.993682, "intensity": 0.4, "source": "Tagesschau"}, {"title": "Cannabis-Liberalisierung in Kraft getreten", "url": "https://www.tagesschau.de/inland/regional/saarland/sr-cannabis-liberalisierung-tritt-heute-in-kraft-100.html", "thumbnailUrl": "https://images.tagesschau.de/image/7e7322b5-6d6d-4393-9cd0-15ec7a662a85/AAABjp8qw7s/AAABjcWesUg/16x9-512.jpg", "date": "2024-04-02T16:15:00.000+02:00", "lat": 49.3964, "lon": 6.9934, "intensity": 0.8, "source": "Tagesschau"}, {"title": "Eintracht: +++ Kr\u00f6sche verl\u00e4ngert Vertrag +++ Larsson zur\u00fcck im Eintracht-Training +++ Das Union-Spiel im Highlight-Video +++", "url": "https://www.tagesschau.de/inland/regional/hessen/hr--eintracht-wohl-mit-chaibi-einig--glasner-fast-nur-kolo-muani-der-tore-erzielt--bericht-eintracht-sagt-aouar-ab-100.html", "thumbnailUrl": "https://images.tagesschau.de/image/037aca47-e388-486e-b0a7-f86ad9db415f/AAABjp8pGNU/AAABjcWesUg/16x9-512.jpg", "date": "2024-04-02T16:13:49.305+02:00", "lat": 50.1109, "lon": 8.6821, "intensity": 0.5, "source": "Tagesschau"}, {"title": "Bremer Personalkosten knacken in Stadt und Land die Milliardengrenze", "url": "https://www.tagesschau.de/inland/regional/bremen/rb-bremer-personalkosten-knacken-in-stadt-und-land-die-milliardengrenze-100.html", "thumbnailUrl": "https://images.tagesschau.de/image/8cf47fc1-f53c-42e3-852c-ba9773b31027/AAABjp8_H-0/AAABjcWesUg/16x9-512.jpg", "date": "2024-04-02T16:09:00.000+02:00", "lat": 53.0793, "lon": 8.8017, "intensity": 0.8, "source": "Tagesschau"}, {"title": "Ein Sechser zu Ostern: Tipper freut sich \u00fcber Lottogewinn", "url": "https://www.tagesschau.de/inland/regional/niedersachsen/ndr-ein-sechser-zu-ostern-tipper-freut-sich-ueber-lottogewinn-100.html", "thumbnailUrl": "https://images.tagesschau.de/image/72f196c7-7c56-43b6-9110-3094c9d7ab3c/AAABjp9N62Q/AAABjcWesUg/16x9-512.jpg", "date": "2024-04-02T16:04:00.000+02:00", "lat": 52.26886, "lon": 10.52677, "intensity": 0.9, "source": "Tagesschau"}, {"title": "Greifswalder Dom: Fenster von \u00d3lafur El\u00edasson enth\u00fcllt ", "url": "https://www.tagesschau.de/inland/regional/mecklenburgvorpommern/ndr-greifswalder-dom-fenster-von-lafur-elasson-enthuellt-100.html", "thumbnailUrl": "https://images.tagesschau.de/image/139cc744-08da-45fe-9565-edeb14723320/AAABjp9wWc4/AAABjcWesUg/16x9-512.jpg", "date": "2024-04-02T15:57:00.000+02:00", "lat": 54.0975, "lon": 13.3896, "intensity": 0.7, "source": "Tagesschau"}, {"title": "BW: W\u00e4rmster M\u00e4rz seit mehr als 140 Jahren ", "url": "https://www.tagesschau.de/inland/regional/badenwuerttemberg/swr-bw-waermster-maerz-seit-mehr-als-140-jahren-100.html", "thumbnailUrl": "https://images.tagesschau.de/image/8e787d4b-9131-4d38-9c2b-720884c9fb46/AAABjp8aWX0/AAABjcWesUg/16x9-512.jpg", "date": "2024-04-02T15:56:34.000+02:00", "lat": 48.7904, "lon": 9.0238, "intensity": 0.8, "source": "Tagesschau"}, {"title": "Cannabispolitik: Die Unterschiede unserer Nachbarn Luxemburg und Frankreich", "url": "https://www.tagesschau.de/inland/regional/saarland/sr-cannabispolitik-die-unterschiede-unserer-nachbarn-luxemburg-und-frankreich-100.html", "thumbnailUrl": "https://images.tagesschau.de/image/13942680-808f-466b-a27e-cf72339b8698/AAABjp8aST0/AAABjcWesUg/16x9-512.jpg", "date": "2024-04-02T15:55:00.000+02:00", "lat": 49.2463, "lon": 6.9109, "intensity": 0.7, "source": "Tagesschau"}, {"title": "K\u00f6hlbrandbr\u00fccke: Hamburger Senat beschlie\u00dft Neubau", "url": "https://www.tagesschau.de/inland/regional/hamburg/ndr-koehlbrandbruecke-leonhard-will-neue-plaene-praesentieren-100.html", "thumbnailUrl": "https://images.tagesschau.de/image/acaf40ed-50c3-402c-b0e9-4304cfe7e813/AAABjp7VKa8/AAABjcWesUg/16x9-512.jpg", "date": "2024-04-02T15:54:00.000+02:00", "lat": 53.5461, "lon": 9.9869, "intensity": 0.7, "source": "Tagesschau"}, {"title": "Frachter aus Russland in Rostock festgesetzt", "url": "https://www.tagesschau.de/inland/regional/mecklenburgvorpommern/frachter-rostock-festgesetzt-100.html", "thumbnailUrl": "https://images.tagesschau.de/image/a39e991a-ed1a-4a68-b2ce-e7d32fcde83a/AAABjp-YoLM/AAABjcWesUg/16x9-512.jpg", "date": "2024-04-02T15:54:00.000+02:00", "lat": 54.083, "lon": 12.099, "intensity": 0.6, "source": "Tagesschau"}, {"title": "DIHK \u00e4ndert Logo als Zeichen gegen Ausgrenzung", "url": "https://www.tagesschau.de/wirtschaft/dihk-logo-gegen-rassismus-100.html", "thumbnailUrl": "https://images.tagesschau.de/image/310a5cbf-61c3-4caf-91fd-d8bf255d3ee6/AAABjp8kgfc/AAABjcWesUg/16x9-512.jpg", "date": "2024-04-02T15:53:45.433+02:00", "lat": 51.3249, "lon": 9.9976, "intensity": 0.6, "source": "Tagesschau"}, {"title": "Wildschweine verw\u00fcsten etwa 100 Gr\u00e4ber in Budenheim", "url": "https://www.tagesschau.de/inland/regional/rheinlandpfalz/swr-wildschweine-verwuesten-etwa-100-graeber-in-budenheim-100.html", "thumbnailUrl": "https://images.tagesschau.de/image/18e9b4ee-db50-4c31-8dfc-0a50d8948f29/AAABjp8lTvE/AAABjcWesUg/16x9-512.jpg", "date": "2024-04-02T15:51:00.000+02:00", "lat": 49.9525, "lon": 8.2575, "intensity": 0.6, "source": "Tagesschau"}, {"title": "Warum jetzt 2 Jahre an der A27 bei Bremerhaven gebaut wird", "url": "https://www.tagesschau.de/inland/regional/bremen/rb-warum-jetzt-2-jahre-an-der-a27-bei-bremerhaven-gebaut-wird-100.html", "thumbnailUrl": "https://images.tagesschau.de/image/e10853a6-cee7-42fa-874f-cd6673422042/AAABjp8U7kk/AAABjcWesUg/16x9-512.jpg", "date": "2024-04-02T15:50:00.000+02:00", "lat": 53.5444, "lon": 8.5851, "intensity": 0.8, "source": "Tagesschau"}, {"title": "Warum f\u00fcr Scheuer niemand in den Bundestag nachr\u00fccken soll", "url": "https://www.tagesschau.de/inland/regional/bayern/br-warum-fuer-scheuer-niemand-in-den-bundestag-nachruecken-soll-104.html", "thumbnailUrl": "https://images.tagesschau.de/image/9d052933-ddb7-4cee-b38d-23ad12545151/AAABjp8TUjA/AAABjcWesUg/16x9-512.jpg", "date": "2024-04-02T15:48:30.289+02:00", "lat": 48.1371, "lon": 11.5761, "intensity": 0.7, "source": "Tagesschau"}, {"title": "Nach Antisemitismusvorw\u00fcrfen: Forderung nach Aberkennung des Adorno-Preises f\u00fcr Judith Butler", "url": "https://www.tagesschau.de/inland/regional/hessen/hr-nach-antisemitismusvorwuerfen-forderung-nach-aberkennung-des-adorno-preises-fuer-judith-butler-100.html", "thumbnailUrl": "https://images.tagesschau.de/image/11be16ba-1fe7-484e-80ef-a7754850b8af/AAABjp936CY/AAABjcWesUg/16x9-512.jpg", "date": "2024-04-02T15:47:32.933+02:00", "lat": 50.1109, "lon": 8.6821, "intensity": 0.8, "source": "Tagesschau"}, {"title": "Overtourism: Mit K\u00fcnstlicher Intelligenz gegen Besuchermassen", "url": "https://www.tagesschau.de/inland/regional/bayern/br-overtourism-mit-kuenstlicher-intelligenz-gegen-besuchermassen-102.html", "thumbnailUrl": "https://images.tagesschau.de/image/08adf30a-526c-4434-9494-06f61169fa59/AAABjp8RZs4/AAABjcWesUg/16x9-512.jpg", "date": "2024-04-02T15:46:12.004+02:00", "lat": 47.623, "lon": 10.7126, "intensity": 0.8, "source": "Tagesschau"}, {"title": "Brandstiftung in Solingen: Verletzte au\u00dfer Lebensgefahr", "url": "https://www.tagesschau.de/inland/regional/nordrheinwestfalen/wdr-brandstiftung-in-solingen-verletzte-ausser-lebensgefahr-102.html", "thumbnailUrl": "https://images.tagesschau.de/image/409f4e3a-5904-4560-97bb-d69116d70b99/AAABjp-LxEc/AAABjcWesUg/16x9-512.jpg", "date": "2024-04-02T15:43:00.000+02:00", "lat": 51.1657, "lon": 7.0786, "intensity": 0.8, "source": "Tagesschau"}, {"title": "Frau muss f\u00fcr Betrug ihres Ex-Partners 11.000 Euro bezahlen", "url": "https://www.tagesschau.de/inland/regional/niedersachsen/ndr-frau-muss-fuer-betrug-ihres-ex-partners-11-000-euro-bezahlen-100.html", "thumbnailUrl": "https://images.tagesschau.de/image/9c5ed984-b994-48d7-a953-9845e5428680/AAABjp8clII/AAABjcWesUg/16x9-512.jpg", "date": "2024-04-02T15:41:00.000+02:00", "lat": 52.6367, "lon": 10.4234, "intensity": 0.7, "source": "Tagesschau"}, {"title": "Streikland Deutschland?", "url": "https://www.tagesschau.de/inland/gesellschaft/streik-deutschland-100.html", "thumbnailUrl": "https://images.tagesschau.de/image/7bd896e2-4290-4111-ab42-5909c07436e5/AAABjp6-cSw/AAABjcWesUg/16x9-512.jpg", "date": "2024-04-02T15:39:26.518+02:00", "lat": 51.1657, "lon": 10.4515, "intensity": 0.8, "source": "Tagesschau"}, {"title": "T\u00f6dliche Einsatzfahrt in Frankfurt: Frau stirbt nach Zusammensto\u00df von Rettungswagen mit Pkw ", "url": "https://www.tagesschau.de/inland/regional/hessen/hr-toedliche-einsatzfahrt-in-frankfurt-frau-stirbt-nach-zusammenstoss-von-rettungswagen-mit-pkw-100.html", "thumbnailUrl": "https://images.tagesschau.de/image/7f608da8-0a31-4c61-af1e-028dee107a60/AAABjp8GV1I/AAABjcWesUg/16x9-512.jpg", "date": "2024-04-02T15:35:55.877+02:00", "lat": 50.0615, "lon": 8.6213, "intensity": 0.8, "source": "Tagesschau"}, {"title": "Cannabis legal - wer soll das alles kontrollieren?", "url": "https://www.tagesschau.de/inland/regional/nordrheinwestfalen/wdr-cannabis-legal-wer-soll-das-alles-kontrollieren-100.html", "thumbnailUrl": "https://images.tagesschau.de/image/4dee92e6-9698-40a0-9e1e-6e9e17eeef10/AAABjp-WwTw/AAABjcWesUg/16x9-512.jpg", "date": "2024-04-02T15:35:00.000+02:00", "lat": 51.9607, "lon": 7.5951, "intensity": 0.8, "source": "Tagesschau"}, {"title": "Wie auf Osterm\u00e4rschen seit Jahrzehnten gegen Atomwaffen und Abr\u00fcstung demonstriert wird", "url": "https://www.tagesschau.de/inland/regional/brandenburg/rbb-geschichte-der-ostermaersche-streitbare-pazifisten-100.html", "thumbnailUrl": "https://images.tagesschau.de/image/e269753d-27ae-4f00-b1a3-d2892a6a3e1f/AAABjp8EdJY/AAABjcWesUg/16x9-512.jpg", "date": "2024-04-02T15:29:53.000+02:00", "lat": 52.520008, "lon": 13.404954, "intensity": 0.8, "source": "Tagesschau"}, {"title": "Burg im Spreewald: 22-J\u00e4hriger von Vermummtem attackiert - Sch\u00e4delbruch", "url": "https://www.tagesschau.de/inland/regional/brandenburg/rbb-burg-im-spreewald-22-jaehriger-von-vermummten-attackiert-schaedelbruch-100.html", "thumbnailUrl": "https://images.tagesschau.de/image/5412691c-6a77-4547-82cb-da47280fde5a/AAABjp7yO2Y/AAABjcWesUg/16x9-512.jpg", "date": "2024-04-02T15:11:00.000+02:00", "lat": 51.8254, "lon": 14.1159, "intensity": 0.8, "source": "Tagesschau"}, {"title": "T\u00f6dliche Sch\u00fcsse in Nienburg: Messer-Angreifer achtmal getroffen", "url": "https://www.tagesschau.de/inland/regional/niedersachsen/ndr-toedliche-polizeischuesse-in-nienburg-staatsanwaltschaft-aeussert-sich-100.html", "thumbnailUrl": "https://images.tagesschau.de/image/14227532-ddec-4d64-9598-129a82838fa5/AAABjp8Gjnw/AAABjcWesUg/16x9-512.jpg", "date": "2024-04-02T15:08:00.000+02:00", "lat": 52.6367, "lon": 9.2386, "intensity": 0.8, "source": "Tagesschau"}, {"title": "Sexpuppe sorgt f\u00fcr Gro\u00dfeinsatz am Baldeneysee", "url": "https://www.tagesschau.de/inland/regional/nordrheinwestfalen/wdr-sexpuppe-sorgt-fuer-grosseinsatz-am-baldeneysee-102.html", "thumbnailUrl": "https://images.tagesschau.de/image/07c3d57e-ccdb-458d-b4aa-a3ad5cf6dd02/AAABjp71pI8/AAABjcWesUg/16x9-512.jpg", "date": "2024-04-02T15:03:00.000+02:00", "lat": 51.4227, "lon": 7.0086, "intensity": 0.6, "source": "Tagesschau"}, {"title": "Angriff auf Botschaft - was bislang bekannt ist", "url": "https://www.tagesschau.de/ausland/asien/angriff-botschaft-iran-israel-100.html", "thumbnailUrl": "https://images.tagesschau.de/image/a5fffc68-2aa5-44f7-8769-2e84d9c55ad6/AAABjp918tw/AAABjcWesUg/16x9-512.jpg", "date": "2024-04-02T14:59:56.399+02:00", "lat": 33.5138, "lon": 36.32, "intensity": 0.8, "source": "Tagesschau"}, {"title": "65-J\u00e4hrige in Hage get\u00f6tet: Bekannter des Opfers festgenommen", "url": "https://www.tagesschau.de/inland/regional/niedersachsen/ndr-65-jaehrige-in-hage-getoetet-bekannter-des-opfers-festgenommen-100.html", "thumbnailUrl": "https://images.tagesschau.de/image/53a614c6-5d70-4e52-811d-6f91f10de0ee/AAABjp7lk4w/AAABjcWesUg/16x9-512.jpg", "date": "2024-04-02T14:58:00.000+02:00", "lat": 53.6144, "lon": 7.4778, "intensity": 0.9, "source": "Tagesschau"}, {"title": "Auf den w\u00e4rmsten Februar folgt der w\u00e4rmste M\u00e4rz", "url": "https://www.tagesschau.de/inland/gesellschaft/maerz-wetter-100.html", "thumbnailUrl": "https://images.tagesschau.de/image/ab34ccd5-55f0-4996-b73b-91a49054d0d6/AAABjp893H4/AAABjcWesUg/16x9-512.jpg", "date": "2024-04-02T14:57:00.465+02:00", "lat": 51.1657, "lon": 10.4515, "intensity": 0.8, "source": "Tagesschau"}, {"title": "Herpes-Impfung f\u00fcr Turnierpferde bald nicht mehr Pflicht", "url": "https://www.tagesschau.de/inland/regional/niedersachsen/ndr-herpes-impfung-fuer-turnierpferde-bald-nicht-mehr-pflicht-100.html", "thumbnailUrl": "https://images.tagesschau.de/image/110b95f9-9ed6-4442-a618-ec52c304d0bd/AAABjp7lpOY/AAABjcWesUg/16x9-512.jpg", "date": "2024-04-02T14:56:00.000+02:00", "lat": 52.3732, "lon": 10.4515, "intensity": 0.6, "source": "Tagesschau"}, {"title": "Mutter des in Bremen get\u00f6teten 7-J\u00e4hrigen hatte Angst vor Ex-Partner", "url": "https://www.tagesschau.de/inland/regional/bremen/rb-7-jaehriger-getoetet-mutter-hatte-angst-vor-ex-partner-100.html", "thumbnailUrl": "https://images.tagesschau.de/image/645a0d15-927a-4e2c-9809-033b7a109ef2/AAABjp7yCIE/AAABjcWesUg/16x9-512.jpg", "date": "2024-04-02T14:54:00.000+02:00", "lat": 53.079296, "lon": 8.801693, "intensity": 0.8, "source": "Tagesschau"}, {"title": "Europawahl: Tausende Wahlhelfer in Niedersachsen gesucht", "url": "https://www.tagesschau.de/inland/regional/niedersachsen/ndr-europawahl-tausende-wahlhelfer-in-niedersachsen-gesucht-100.html", "thumbnailUrl": "https://images.tagesschau.de/image/c85f30a6-ff00-49f3-89dd-eba981c6fdd0/AAABjp5L4TY/AAABjcWesUg/16x9-512.jpg", "date": "2024-04-02T14:52:00.000+02:00", "lat": 52.6367, "lon": 10.4515, "intensity": 0.7, "source": "Tagesschau"}, {"title": "T\u00f6dliches Ungl\u00fcck bei Osterfeuer: 22-J\u00e4hrige von Baum getroffen", "url": "https://www.tagesschau.de/inland/regional/niedersachsen/ndr-toedliches-unglueck-bei-osterfeuer-22-jaehrige-von-baum-getroffen-100.html", "thumbnailUrl": "https://images.tagesschau.de/image/3f105132-f5c1-4328-ba02-69569a5c9a21/AAABjp7gEXA/AAABjcWesUg/16x9-512.jpg", "date": "2024-04-02T14:52:00.000+02:00", "lat": 52.6693, "lon": 10.2456, "intensity": 0.8, "source": "Tagesschau"}, {"title": "Inflation verliert weiter an Tempo", "url": "https://www.tagesschau.de/wirtschaft/konjunktur/inflation-maerz-100.html", "thumbnailUrl": "https://images.tagesschau.de/image/f01eda95-3b63-4b03-a3e2-10b1dde19685/AAABjp7aEwA/AAABjcWesUg/16x9-512.jpg", "date": "2024-04-02T14:47:05.229+02:00", "lat": 51.1657, "lon": 10.4515, "intensity": 0.4, "source": "Tagesschau"}, {"title": "Ukraine greift Drohnenfabrik in Russland an", "url": "https://www.tagesschau.de/ausland/tatarstan-russland-drohnenangriff-100.html", "thumbnailUrl": "https://images.tagesschau.de/image/830a5f02-278c-479a-bead-432ad932983d/AAABjp7ssXg/AAABjcWesUg/16x9-512.jpg", "date": "2024-04-02T14:41:44.526+02:00", "lat": 55.7558, "lon": 37.6176, "intensity": 0.8, "source": "Tagesschau"}, {"title": "Vermisster 85-J\u00e4hriger aus Lehrte wird leblos aufgefunden", "url": "https://www.tagesschau.de/inland/regional/niedersachsen/ndr-polizei-sucht-den-85-jaehrigen-anatoli-r-aus-lehrte-100.html", "thumbnailUrl": "https://images.tagesschau.de/image/f9927396-7cda-456f-9f87-aa73601c8622/AAABjp7Pl2o/AAABjcWesUg/16x9-512.jpg", "date": "2024-04-02T14:36:00.000+02:00", "lat": 52.3791, "lon": 9.919, "intensity": 0.7, "source": "Tagesschau"}, {"title": "Spannung vor dem DFB-Pokal-Halbfinale 1. FC Saarbr\u00fccken gegen 1. FC Kaiserslautern", "url": "https://www.tagesschau.de/inland/regional/saarland/sr-countdown-zum-pokalhalbfinale-1-fc-saarbruecken-gegen-1-fc-kaiserlautern-100.html", "thumbnailUrl": "https://images.tagesschau.de/image/8f0d814d-b0c3-4e93-8b8a-6dcd285c1fe3/AAABjp_yU5k/AAABjcWesUg/16x9-512.jpg", "date": "2024-04-02T14:08:00.000+02:00", "lat": 49.35, "lon": 7.0, "intensity": 0.8, "source": "Tagesschau"}, {"title": "Verkehr in Berlin und Brandenburg: Kreisverkehr am Gro\u00dfen Stern gesperrt - Einschr\u00e4nkungen auch bei der Bahn", "url": "https://www.tagesschau.de/inland/regional/brandenburg/rbb-grosser-stern-markgrafendamm-re1-baustellen-fuehren-zu-verkehrseinschraenkungen-auf-strasse-und-schiene-100.html", "thumbnailUrl": "https://images.tagesschau.de/image/995d9549-e87f-4442-bb6c-bad4dedfce9f/AAABjp6qzus/AAABjcWesUg/16x9-512.jpg", "date": "2024-04-02T13:53:03.000+02:00", "lat": 52.5141, "lon": 13.3623, "intensity": 0.6, "source": "Tagesschau"}, {"title": "\"Kinderpornografie\": Ermittler m\u00fcssen immer mehr Daten sichten", "url": "https://www.tagesschau.de/inland/regional/niedersachsen/ndr-kinderpornografie-ermittler-muessen-immer-mehr-daten-sichten-100.html", "thumbnailUrl": "https://images.tagesschau.de/image/9ceaec4e-8c1d-426c-b1a0-07b4f6d8effc/AAABjp8BDWU/AAABjcWesUg/16x9-512.jpg", "date": "2024-04-02T13:52:00.000+02:00", "lat": 52.6367, "lon": 10.4515, "intensity": 0.8, "source": "Tagesschau"}, {"title": "Caspar-David-Friedrich-Schau in Hamburg: Besucherrekord f\u00fcr Kunsthalle", "url": "https://www.tagesschau.de/inland/regional/hamburg/ndr-caspar-david-friedrich-schau-besucherrekord-fuer-kunsthalle-100.html", "thumbnailUrl": "https://images.tagesschau.de/image/feea5694-eb8a-48fc-92e7-75ce355cf69e/AAABjp67Wyw/AAABjcWesUg/16x9-512.jpg", "date": "2024-04-02T13:50:00.000+02:00", "lat": 53.5511, "lon": 9.9937, "intensity": 0.8, "source": "Tagesschau"}, {"title": "Nach schwerem Busunfall auf der A9 bei Leipzig ist die Identit\u00e4t aller Toten gekl\u00e4rt", "url": "https://www.tagesschau.de/inland/regional/berlin/rbb-nach-schwerem-busunfall-auf-der-a9-bei-leipzig-ist-die-identitaet-aller-toten-geklaert-100.html", "thumbnailUrl": "https://images.tagesschau.de/image/e8de54ad-8dfe-4e4f-9ed5-da8109332ccc/AAABjp6lnWU/AAABjcWesUg/16x9-512.jpg", "date": "2024-04-02T13:46:06.000+02:00", "lat": 51.3436, "lon": 12.3878, "intensity": 0.9, "source": "Tagesschau"}, {"title": "Sinkende Energiepreise: Verbraucherpreise steigen weniger stark in der Region an", "url": "https://www.tagesschau.de/inland/regional/berlin/rbb-sinkende-energiepreise-verbraucherpreise-steigen-weniger-stark-in-der-region-an-100.html", "thumbnailUrl": "https://images.tagesschau.de/image/7919298f-0907-4570-93c3-ddd3e00a9bc4/AAABjp6hlow/AAABjcWesUg/16x9-512.jpg", "date": "2024-04-02T13:42:46.000+02:00", "lat": 52.520008, "lon": 13.404954, "intensity": 0.3, "source": "Tagesschau"}, {"title": "Internationale Rufe nach Aufkl\u00e4rung", "url": "https://www.tagesschau.de/ausland/asien/nahost-israel-luftangriff-hilfsorganisation-100.html", "thumbnailUrl": "https://images.tagesschau.de/image/43b7624f-98f1-4169-aa50-ff82be6094cc/AAABjp67osc/AAABjcWesUg/16x9-512.jpg", "date": "2024-04-02T13:33:49.603+02:00", "lat": 31.50139, "lon": 34.34433, "intensity": 0.8, "source": "Tagesschau"}, {"title": "Eintracht Frankfurt: Sportvorstand Markus Kr\u00f6sche verl\u00e4ngert Vertrag bis 2028", "url": "https://www.tagesschau.de/inland/regional/hessen/hr-eintracht-frankfurt-140.html", "thumbnailUrl": "https://images.tagesschau.de/image/bf954128-7ee6-44f4-9c0b-f62e29e37169/AAABjp6cGRo/AAABjcWesUg/16x9-512.jpg", "date": "2024-04-02T13:33:48.372+02:00", "lat": 50.068, "lon": 8.6365, "intensity": 0.5, "source": "Tagesschau"}, {"title": "Kommunalwahlen 2024: Brandenburg w\u00e4hlt mehr als 10.000 Kommunalpolitiker:innen", "url": "https://www.tagesschau.de/inland/regional/brandenburg/rbb-kommunalwahlen-2024-brandenburg-waehlt-mehr-als-10-000-kommunalpolitikerinnen-100.html", "thumbnailUrl": "https://images.tagesschau.de/image/eee60d54-1cf0-4ebd-a198-e76e8552cc72/AAABjp6S920/AAABjcWesUg/16x9-512.jpg", "date": "2024-04-02T13:26:27.000+02:00", "lat": 52.520008, "lon": 13.404954, "intensity": 0.7, "source": "Tagesschau"}, {"title": "Wetter in Hessen: Erster Sommertag am Wochenende erwartet - Rekord in Reichweite", "url": "https://www.tagesschau.de/inland/regional/hessen/hr-wetter-in-hessen-erster-sommertag-am-wochenende-erwartet-rekord-in-reichweite-100.html", "thumbnailUrl": "https://images.tagesschau.de/image/c64e1c43-2318-4f47-b42f-d0e3bf93b01a/AAABjp7IEg0/AAABjcWesUg/16x9-512.jpg", "date": "2024-04-02T13:25:49.201+02:00", "lat": 50.652, "lon": 9.371, "intensity": 0.6, "source": "Tagesschau"}, {"title": "Auf der Flucht Waffen und Munition aus Fahrzeug geworfen", "url": "https://www.tagesschau.de/inland/regional/berlin/rbb-auf-der-flucht-waffen-und-munition-aus-fahrzeug-geworfen-100.html", "thumbnailUrl": "https://images.tagesschau.de/image/79cda2a1-e807-4ffe-9509-258bd73d431a/AAABjp6LyHM/AAABjcWesUg/16x9-512.jpg", "date": "2024-04-02T13:18:37.000+02:00", "lat": 52.520008, "lon": 13.404954, "intensity": 0.7, "source": "Tagesschau"}, {"title": "DFB-Pokal: Mehr Zuschauer beim Public Viewing des FCK als in Saarbr\u00fccken", "url": "https://www.tagesschau.de/inland/regional/rheinlandpfalz/swr-dfb-pokal-mehr-zuschauer-beim-public-viewing-des-fck-als-in-saarbruecken-102.html", "thumbnailUrl": "https://images.tagesschau.de/image/646d880a-a956-49f3-8c50-e341887a89d1/AAABjp6WfCA/AAABjcWesUg/16x9-512.jpg", "date": "2024-04-02T13:16:00.000+02:00", "lat": 49.758076, "lon": 7.28134, "intensity": 0.7, "source": "Tagesschau"}, {"title": "Cannabis: Machen Dealer jetzt das Gesch\u00e4ft ihres Lebens?", "url": "https://www.tagesschau.de/inland/regional/bayern/br-cannabis-machen-dealer-jetzt-das-geschaeft-ihres-lebens-102.html", "thumbnailUrl": "https://images.tagesschau.de/image/e31f2107-8c27-4300-91b5-ec1b98125784/AAABjp55bxs/AAABjcWesUg/16x9-512.jpg", "date": "2024-04-02T13:00:11.168+02:00", "lat": 48.1454, "lon": 11.6276, "intensity": 0.8, "source": "Tagesschau"}, {"title": "Nach langem Streit: Baustart des neuen BMW-Werks in Niederbayern", "url": "https://www.tagesschau.de/inland/regional/bayern/br-nach-langem-streit-baustart-des-neuen-bmw-werks-in-niederbayern-104.html", "thumbnailUrl": "https://images.tagesschau.de/image/62f2426a-bf01-49da-87d8-14221a4028b4/AAABjp53ugU/AAABjcWesUg/16x9-512.jpg", "date": "2024-04-02T12:59:31.973+02:00", "lat": 48.833333, "lon": 12.883333, "intensity": 0.8, "source": "Tagesschau"}, {"title": "Kind nach Sch\u00fcssen an Schule gestorben", "url": "https://www.tagesschau.de/ausland/europa/finnland-schuesse-schule-102.html", "thumbnailUrl": "https://images.tagesschau.de/image/7673ea72-26de-4b4f-a97b-886616869c82/AAABjp7GH7g/AAABjcWesUg/16x9-512.jpg", "date": "2024-04-02T12:48:21.650+02:00", "lat": 60.3116, "lon": 24.9384, "intensity": 0.9, "source": "Tagesschau"}, {"title": "Tesla-Fabrik: Zugshuttle zwischen Berlin und Gr\u00fcnheide gestartet", "url": "https://www.tagesschau.de/inland/regional/berlin/rbb-tesla-fabrik-zugshuttle-zwischen-berlin-und-gruenheide-gestartet-100.html", "thumbnailUrl": "https://images.tagesschau.de/image/faacb1d3-3a29-4c45-b064-3a73208cac53/AAABjp_ZHBk/AAABjcWesUg/16x9-512.jpg", "date": "2024-04-02T12:46:28.000+02:00", "lat": 52.390569, "lon": 13.616546, "intensity": 0.6, "source": "Tagesschau"}, {"title": "Freckenfeld: Herdplatte hat t\u00f6dlichen Brand ausgel\u00f6st", "url": "https://www.tagesschau.de/inland/regional/rheinlandpfalz/swr-brand-in-mehrfamilienhaus-in-freckenfeld-eine-frau-stirbt-100.html", "thumbnailUrl": "https://images.tagesschau.de/image/b247121b-561c-4136-85fc-a4c90cf1f238/AAABjp7GGD4/AAABjcWesUg/16x9-512.jpg", "date": "2024-04-02T12:45:00.000+02:00", "lat": 49.112115, "lon": 8.226388, "intensity": 0.8, "source": "Tagesschau"}, {"title": "B241 gesperrt: 300 Liter Diesel aus Lkw ausgelaufen", "url": "https://www.tagesschau.de/inland/regional/niedersachsen/ndr-b241-gesperrt-300-liter-diesel-aus-lkw-ausgelaufen-100.html", "thumbnailUrl": "https://images.tagesschau.de/image/53a614c6-5d70-4e52-811d-6f91f10de0ee/AAABjp7lk4w/AAABjcWesUg/16x9-512.jpg", "date": "2024-04-02T12:37:00.000+02:00", "lat": 51.9036, "lon": 10.4291, "intensity": 0.8, "source": "Tagesschau"}, {"title": "Winternotprogramm f\u00fcr Obdachlose in Hamburg endet", "url": "https://www.tagesschau.de/inland/regional/hamburg/ndr-winternotprogramm-in-hamburg-endet-100.html", "thumbnailUrl": "https://images.tagesschau.de/image/d720793b-31b9-4516-85a1-560b7f1f1ba6/AAABjp4GFp4/AAABjcWesUg/16x9-512.jpg", "date": "2024-04-02T12:34:00.000+02:00", "lat": 53.55, "lon": 10.0, "intensity": 0.8, "source": "Tagesschau"}, {"title": "Erster Sommertag steht BW am Wochenende bevor", "url": "https://www.tagesschau.de/inland/regional/badenwuerttemberg/swr-stau-sonne-sahara-staub-das-erwartet-die-menschen-in-bw-an-ostern-100.html", "thumbnailUrl": "https://images.tagesschau.de/image/8019c53e-074f-4963-b63d-3aff3c24b0ac/AAABjp8aX8s/AAABjcWesUg/16x9-512.jpg", "date": "2024-04-02T12:34:00.000+02:00", "lat": 48.6616, "lon": 9.0878, "intensity": 0.6, "source": "Tagesschau"}, {"title": "\"Reichsb\u00fcrger\"-Netzwerk: Prozess gegen Malsack-Winkemann und acht weitere Angeklagte startet im Mai", "url": "https://www.tagesschau.de/inland/regional/berlin/rbb-reichsbuerger-netzwerk-prozess-gegen-malsack-winkemann-und-acht-weitere-angeklagte-startet-im-mai-100.html", "thumbnailUrl": "https://images.tagesschau.de/image/f8ff0b62-0f31-42f0-8123-6f079aa1fcc2/AAABjp4ug9k/AAABjcWesUg/16x9-512.jpg", "date": "2024-04-02T12:32:40.000+02:00", "lat": 52.520008, "lon": 13.404954, "intensity": 0.8, "source": "Tagesschau"}, {"title": "Trotz Warnstreiks bei Lidl und Kaufland in Berlin und Brandenburg sind keine Filialschlie\u00dfungen zu erwarten", "url": "https://www.tagesschau.de/inland/regional/brandenburg/rbb-trotz-warnstreiks-bei-lidl-und-kaufland-in-berlin-und-brandenburg-sind-keine-filialschliessungen-zu-erwarten-100.html", "thumbnailUrl": "https://images.tagesschau.de/image/c8ea9a2f-103a-4ec6-a848-2e7539f24525/AAABjp5eDmY/AAABjcWesUg/16x9-512.jpg", "date": "2024-04-02T12:29:59.000+02:00", "lat": 52.520008, "lon": 13.404954, "intensity": 0.6, "source": "Tagesschau"}, {"title": "Regenmengen", "url": "https://www.tagesschau.de/wetter/wetterthema/2024-04-02-regenmengen-102.html", "thumbnailUrl": "https://images.tagesschau.de/image/a4063c29-f003-427e-828d-96ad8a411a1e/AAABjp5QR3c/AAABjcWesUg/16x9-512.jpg", "date": "2024-04-02T12:19:37.292+02:00", "lat": 51.1657, "lon": 10.4515, "intensity": 0.7, "source": "Tagesschau"}, {"title": "Wetter-Bilanz Winterhalbjahr: So viel Regen gab es in NRW noch nie", "url": "https://www.tagesschau.de/inland/regional/nordrheinwestfalen/wdr-bilanz-winterhalbjahr-so-viel-regen-gab-es-in-nrw-noch-nie-100.html", "thumbnailUrl": "https://images.tagesschau.de/image/949064b0-deb2-415e-aeeb-badbcf3c0b3b/AAABjp9TAQc/AAABjcWesUg/16x9-512.jpg", "date": "2024-04-02T12:17:00.000+02:00", "lat": 51.4818, "lon": 7.6261, "intensity": 0.8, "source": "Tagesschau"}, {"title": "Wirtschaftskriminalit\u00e4t in Deutschland steigt", "url": "https://www.tagesschau.de/wirtschaft/wirtschaftskriminalitaet-deutschland-steigt-100.html", "thumbnailUrl": "https://images.tagesschau.de/image/e957f2e4-434d-493c-9ebc-ebd7c2f2f1b5/AAABjp5ACbY/AAABjcWesUg/16x9-512.jpg", "date": "2024-04-02T12:12:13.058+02:00", "lat": 51.1657, "lon": 10.4515, "intensity": 0.8, "source": "Tagesschau"}, {"title": "Prozess gegen Reichsb\u00fcrger-Gruppe um Prinz Reu\u00df beginnt in Frankfurt", "url": "https://www.tagesschau.de/inland/regional/hessen/hr-prozess-gegen-reichsbuerger-gruppe-um-prinz-reuss-ab-21-mai-in-frankfurt-100.html", "thumbnailUrl": "https://images.tagesschau.de/image/d401bff0-e593-414d-8ae0-c108ab2d75a3/AAABjp7As5o/AAABjcWesUg/16x9-512.jpg", "date": "2024-04-02T12:11:52.381+02:00", "lat": 50.1109, "lon": 8.6821, "intensity": 0.6, "source": "Tagesschau"}, {"title": "Nutzen Islamisten in Hamburg den Ramadan f\u00fcr ihre Ideologien?", "url": "https://www.tagesschau.de/inland/regional/hamburg/ndr-nutzen-islamisten-in-hamburg-den-ramadan-fuer-ihre-ideologien-100.html", "thumbnailUrl": "https://images.tagesschau.de/image/efbbfc7f-f651-4a35-8a37-075fa4eee533/AAABjp6Ay5E/AAABjcWesUg/16x9-512.jpg", "date": "2024-04-02T12:11:00.000+02:00", "lat": 53.5511, "lon": 9.9937, "intensity": 0.8, "source": "Tagesschau"}, {"title": "Ex-Verfassungssch\u00fctzer in Wien festgenommen", "url": "https://www.tagesschau.de/ausland/europa/wien-spionage-verdacht-russland-100.html", "thumbnailUrl": "https://images.tagesschau.de/image/d690c2b6-c60b-4abc-8173-a986ee13c5d1/AAABjp7H-1I/AAABjcWesUg/16x9-512.jpg", "date": "2024-04-02T12:08:23.089+02:00", "lat": 48.2082, "lon": 16.3738, "intensity": 0.8, "source": "Tagesschau"}, {"title": "Erneuerung des Gerichtsbezirks in Frankfurt kostet mehrere hundert Millionen Euro", "url": "https://www.tagesschau.de/inland/regional/hessen/hr-erneuerung-des-gerichtsviertels-in-frankfurt-dauert-jahre-und-kostet-millionen-100.html", "thumbnailUrl": "https://images.tagesschau.de/image/17f649ed-0826-498d-ac55-02e0bb7d172d/AAABjp7CiNA/AAABjcWesUg/16x9-512.jpg", "date": "2024-04-02T12:05:08.387+02:00", "lat": 50.1109, "lon": 8.6821, "intensity": 0.7, "source": "Tagesschau"}, {"title": "Lebensmittelpreise nur noch wenig gestiegen", "url": "https://www.tagesschau.de/inland/regional/saarland/sr-lebensmittelpreise-nur-noch-wenig-gestiegen-100.html", "thumbnailUrl": "https://images.tagesschau.de/image/60268631-f904-4870-abe1-a3af5c2662c3/AAABjp5Hu3U/AAABjcWesUg/16x9-512.jpg", "date": "2024-04-02T12:05:00.000+02:00", "lat": 49.3964, "lon": 7.0, "intensity": 0.3, "source": "Tagesschau"}, {"title": "AKN: Einschr\u00e4nkungen zwischen Norderstedt und Neum\u00fcnster", "url": "https://www.tagesschau.de/inland/regional/schleswigholstein/ndr-akn-einschraenkungen-zwischen-norderstedt-und-neumuenster-100.html", "thumbnailUrl": "https://images.tagesschau.de/image/8f0385b9-84a2-4dc1-b30f-a51868c395e1/AAABjp-IfwM/AAABjcWesUg/16x9-512.jpg", "date": "2024-04-02T12:04:00.000+02:00", "lat": 54.0784, "lon": 9.9793, "intensity": 0.7, "source": "Tagesschau"}, {"title": "Neues Cannabis-Gesetz macht Eltern s\u00fcchtiger Kinder Angst", "url": "https://www.tagesschau.de/inland/regional/badenwuerttemberg/swr-neues-cannabis-gesetz-macht-eltern-suechtiger-kinder-angst-100.html", "thumbnailUrl": "https://images.tagesschau.de/image/6eeae98a-e972-43d7-8164-dcc977800772/AAABjp6H5DQ/AAABjcWesUg/16x9-512.jpg", "date": "2024-04-02T11:59:37.000+02:00", "lat": 48.775845, "lon": 9.815583, "intensity": 0.8, "source": "Tagesschau"}, {"title": "Darmstadt 98: +++ M\u00fcller nimmt Holtmann in Schutz +++ M\u00fcller hofft auf Topleistung und Matchgl\u00fcck +++ Das Highlight-Video vom Punktgewinn in Bochum +++", "url": "https://www.tagesschau.de/inland/regional/hessen/hr--tietz-vermisst-fehlende-gier--lilien-fans-liefern-sich-raststaetten-pruegelei--die-niederlage-der-lilien-in-der-video-zusammenfassung-102.html", "thumbnailUrl": "https://images.tagesschau.de/image/2f6e2391-3955-4c73-884b-d4c968fbc75c/AAABjp47Fx8/AAABjcWesUg/16x9-512.jpg", "date": "2024-04-02T11:54:00.521+02:00", "lat": 49.8728, "lon": 8.6512, "intensity": 0.4, "source": "Tagesschau"}, {"title": "Resistenter Keim in Kinderspielzeug entdeckt", "url": "https://www.tagesschau.de/inland/regional/saarland/sr-resistenter-keim-in-kinderspielzeug-entdeckt-100.html", "thumbnailUrl": "https://images.tagesschau.de/image/1179c259-a8ec-47ea-bcb3-a4e64bea1fe2/AAABjp463kI/AAABjcWesUg/16x9-512.jpg", "date": "2024-04-02T11:46:00.000+02:00", "lat": 49.3964, "lon": 6.9754, "intensity": 0.7, "source": "Tagesschau"}, {"title": "Pfefferspray im Schnellrestaurant verspr\u00fcht - 15 Verletzte", "url": "https://www.tagesschau.de/inland/regional/niedersachsen/ndr-pfefferspray-im-schnellrestaurant-versprueht-15-verletzte-100.html", "thumbnailUrl": "https://images.tagesschau.de/image/c83bf4b3-8dd9-40d0-bbcd-6dbc0987d5fe/AAABjp45hQo/AAABjcWesUg/16x9-512.jpg", "date": "2024-04-02T11:44:00.000+02:00", "lat": 53.0793, "lon": 8.8086, "intensity": 0.9, "source": "Tagesschau"}, {"title": "Zwei Wohnungen noch unbewohnbar nach Hochhaus-Brand in Krefeld", "url": "https://www.tagesschau.de/inland/regional/nordrheinwestfalen/wdr-im-siebten-stock-brand-in-hochhaus-in-krefeld-100.html", "thumbnailUrl": "https://images.tagesschau.de/image/d4affa58-8ba0-4baa-9983-057ebcc8ac28/AAABjp5b0Vk/AAABjcWesUg/16x9-512.jpg", "date": "2024-04-02T11:40:00.000+02:00", "lat": 51.3387, "lon": 6.5734, "intensity": 0.8, "source": "Tagesschau"}, {"title": "Pflegenotstand: Brasilianer starten Ausbildung in G\u00f6ttingen", "url": "https://www.tagesschau.de/inland/regional/niedersachsen/ndr-pflegenotstand-brasilianer-starten-ausbildung-in-goettingen-100.html", "thumbnailUrl": "https://images.tagesschau.de/image/efc7d166-256e-45ef-97ec-dec0a43954bb/AAABjp4wYpM/AAABjcWesUg/16x9-512.jpg", "date": "2024-04-02T11:36:00.000+02:00", "lat": 51.5413, "lon": 9.9356, "intensity": 0.8, "source": "Tagesschau"}, {"title": "Insolvenzverfahren f\u00fcr Galeria Karstadt Kaufhof er\u00f6ffnet", "url": "https://www.tagesschau.de/inland/regional/nordrheinwestfalen/wdr-insolvenzverfahren-fuer-galeria-karstadt-kaufhof-eroeffnet-100.html", "thumbnailUrl": "https://images.tagesschau.de/image/4e2ffc92-c501-49f6-a474-fb8ae18ee743/AAABjp8aPgk/AAABjcWesUg/16x9-512.jpg", "date": "2024-04-02T11:34:00.000+02:00", "lat": 51.4556, "lon": 7.0116, "intensity": 0.8, "source": "Tagesschau"}, {"title": "Auff\u00fcll-Arbeiten von Erdl\u00f6chern beginnen versp\u00e4tet", "url": "https://www.tagesschau.de/inland/regional/thueringen/mdr-erneut-tut-sich-erde-im-unstrut-hainich-kreis-auf-100.html", "thumbnailUrl": "https://images.tagesschau.de/image/a68ead6d-f2e6-4735-916b-8036343fe3be/AAABjp5ETp4/AAABjcWesUg/16x9-512.jpg", "date": "2024-04-02T11:30:00.000+02:00", "lat": 51.1614, "lon": 10.6652, "intensity": 0.5, "source": "Tagesschau"}, {"title": "Entenfamilie l\u00f6st Unfall auf A61 aus, Schwan auf A60 unterwegs", "url": "https://www.tagesschau.de/inland/regional/rheinlandpfalz/swr-entenfamilie-loest-unfall-auf-a61-bei-gensingen-aus-100.html", "thumbnailUrl": "https://images.tagesschau.de/image/5ebcc044-e9d6-4fe5-b524-e323a8f02150/AAABjp8lVWk/AAABjcWesUg/16x9-512.jpg", "date": "2024-04-02T11:22:00.000+02:00", "lat": 49.9613, "lon": 7.9002, "intensity": 0.4, "source": "Tagesschau"}, {"title": "Verdi ruft Postbankbesch\u00e4ftigte erneut zu Streiks auf", "url": "https://www.tagesschau.de/inland/regional/saarland/sr-verdi-ruft-postbankbeschaeftigte-erneut-zu-streiks-auf-100.html", "thumbnailUrl": "https://images.tagesschau.de/image/18eb5b36-c5eb-424c-b3bc-0d77131dd0a7/AAABjp4fZsQ/AAABjcWesUg/16x9-512.jpg", "date": "2024-04-02T11:20:00.000+02:00", "lat": 49.2354, "lon": 6.9815, "intensity": 0.8, "source": "Tagesschau"}, {"title": "Einbrecher \"mit gro\u00dfen Z\u00e4hnen\" - Vierj\u00e4hriger w\u00e4hlt Notruf", "url": "https://www.tagesschau.de/inland/regional/niedersachsen/ndr-einbrecher-mit-grossen-zaehnen-vierjaehriger-waehlt-notruf-100.html", "thumbnailUrl": "https://images.tagesschau.de/image/0ff08dfa-fee2-4f4c-a618-ea8ab7d83169/AAABjp4f4Hw/AAABjcWesUg/16x9-512.jpg", "date": "2024-04-02T11:17:00.000+02:00", "lat": 52.2694, "lon": 10.4705, "intensity": 0.6, "source": "Tagesschau"}, {"title": "Markenrecht verletzt? Natursch\u00fctzer kritisieren DDR-Wanderweg", "url": "https://www.tagesschau.de/inland/regional/niedersachsen/ndr-markenrecht-verletzt-naturschuetzer-kritisieren-ddr-wanderweg-100.html", "thumbnailUrl": "https://images.tagesschau.de/image/051f8f76-50f6-40ae-9d20-2373d655788c/AAABjp4XNGE/AAABjcWesUg/16x9-512.jpg", "date": "2024-04-02T11:13:00.000+02:00", "lat": 52.4167, "lon": 11.1333, "intensity": 0.6, "source": "Tagesschau"}, {"title": "Mann in der N\u00e4he des Hamburger Hauptbahnhofs niedergeschossen", "url": "https://www.tagesschau.de/inland/regional/hamburg/ndr-mann-in-der-naehe-des-hamburger-hauptbahnhofs-niedergeschossen-100.html", "thumbnailUrl": "https://images.tagesschau.de/image/e706aec3-efa8-41ef-8e8d-955aad9cab6b/AAABjpOhoQY/AAABjcWesUg/16x9-512.jpg", "date": "2024-04-02T11:11:00.000+02:00", "lat": 53.5526, "lon": 10.0106, "intensity": 0.8, "source": "Tagesschau"}, {"title": "Millionen-Auftrag f\u00fcr IONOS aus Montabaur", "url": "https://www.tagesschau.de/inland/regional/rheinlandpfalz/swr-400-millionen-euro-auftrag-fuer-ionos-aus-montabaur-100.html", "thumbnailUrl": "https://images.tagesschau.de/image/a70f03c4-8efd-4baf-9b1e-e403f7b016b7/AAABjp4k-dg/AAABjcWesUg/16x9-512.jpg", "date": "2024-04-02T11:06:43.000+02:00", "lat": 50.4354, "lon": 7.8189, "intensity": 0.8, "source": "Tagesschau"}, {"title": "Verletzte nach Sch\u00fcssen an finnischer Grundschule", "url": "https://www.tagesschau.de/ausland/europa/finnland-schuesse-schule-100.html", "thumbnailUrl": "https://images.tagesschau.de/image/fe727d3c-0e83-4a30-aacf-ca343f50af6b/AAABjp3tusQ/AAABjcWesUg/16x9-512.jpg", "date": "2024-04-02T11:00:15.174+02:00", "lat": 60.1695, "lon": 25.0136, "intensity": 0.8, "source": "Tagesschau"}, {"title": "Bobbahn am Marzahner Kienberg wird nach Brandstiftung wieder aufgebaut", "url": "https://www.tagesschau.de/inland/regional/berlin/rbb-bobbahn-am-marzahner-kienberg-wird-nach-brandstiftung-wieder-aufgebaut-100.html", "thumbnailUrl": "https://images.tagesschau.de/image/3103656c-8b01-4047-b27c-46a6fb69a6e4/AAABjp37L-Q/AAABjcWesUg/16x9-512.jpg", "date": "2024-04-02T10:42:38.000+02:00", "lat": 52.5186, "lon": 13.6114, "intensity": 0.7, "source": "Tagesschau"}, {"title": "Von W\u00fcrde, Respekt und Anerkennung", "url": "https://www.tagesschau.de/inland/innenpolitik/mindestlohn-einfuehrung-100.html", "thumbnailUrl": "https://images.tagesschau.de/image/5e39d839-edc2-4440-adae-b5ee1c6d1f56/AAABi-bDF6s/AAABjcWesUg/16x9-512.jpg", "date": "2024-04-02T10:41:58.022+02:00", "lat": 51.1657, "lon": 10.4515, "intensity": 0.5, "source": "Tagesschau"}, {"title": "Reglose Person in Bankfiliale: Mann schl\u00e4ft beim Geldabheben ein", "url": "https://www.tagesschau.de/inland/regional/niedersachsen/ndr-reglose-person-in-bankfiliale-mann-schlaeft-beim-geldabheben-ein-100.html", "thumbnailUrl": "https://images.tagesschau.de/image/1940cecd-5be1-4549-9e56-6e5f4e5b7a80/AAABjp35Zbk/AAABjcWesUg/16x9-512.jpg", "date": "2024-04-02T10:40:00.000+02:00", "lat": 53.1636, "lon": 8.8312, "intensity": 0.3, "source": "Tagesschau"}, {"title": "Kultur : +++ Doch keine Goldmaske des Tutanchamun in Frankfurt +++ Gro\u00dfes Glockengel\u00e4ute zu Ostern in Frankfurt +++ Filmdreh in Marburg mit Kinostar Tony Leung +++", "url": "https://www.tagesschau.de/inland/regional/hessen/hr--schauspiel-frankfurt-bringt-putin-und-macbeth-zusammen--die-filmfestival-saison-2023-startet--lichter-filmfest-zum-thema-liebe-startet-am-dienstag-100.html", "thumbnailUrl": "https://images.tagesschau.de/image/a7c56f39-bfd0-4c9e-9aba-df12eb240b46/AAABjpjsivA/AAABjcWesUg/16x9-512.jpg", "date": "2024-04-02T10:38:20.541+02:00", "lat": 50.1109, "lon": 8.6821, "intensity": 0.5, "source": "Tagesschau"}, {"title": "Schl\u00e4gerei am Osterfeuer eskaliert: Polizist leicht verletzt", "url": "https://www.tagesschau.de/inland/regional/niedersachsen/ndr-schlaegerei-am-osterfeuer-eskaliert-polizist-leicht-verletzt-100.html", "thumbnailUrl": "https://images.tagesschau.de/image/53a614c6-5d70-4e52-811d-6f91f10de0ee/AAABjp7lk4w/AAABjcWesUg/16x9-512.jpg", "date": "2024-04-02T10:36:00.000+02:00", "lat": 53.2378, "lon": 9.9711, "intensity": 0.7, "source": "Tagesschau"}, {"title": "Barnim: Motorradfahrer stirbt bei Verkehrsunfall in Joachimsthal", "url": "https://www.tagesschau.de/inland/regional/brandenburg/rbb-barnim-motorradfahrer-stirbt-bei-verkehrsunfall-in-joachimsthal-100.html", "thumbnailUrl": "https://images.tagesschau.de/image/812a582d-431a-4416-a855-c1c28bcbfb65/AAABjp3wBng/AAABjcWesUg/16x9-512.jpg", "date": "2024-04-02T10:27:16.000+02:00", "lat": 53.0472, "lon": 13.7458, "intensity": 0.8, "source": "Tagesschau"}, {"title": "Abbau von \"Section Control\": B6 Richtung Laatzen gesperrt", "url": "https://www.tagesschau.de/inland/regional/niedersachsen/ndr-abbau-von-section-control-b6-richtung-laatzen-gesperrt-100.html", "thumbnailUrl": "https://images.tagesschau.de/image/37305dec-4d3f-4227-9a12-2cd96ec0b085/AAABjp3z6Oo/AAABjcWesUg/16x9-512.jpg", "date": "2024-04-02T10:26:00.000+02:00", "lat": 52.3015, "lon": 9.822, "intensity": 0.7, "source": "Tagesschau"}, {"title": "Lagerhalle in Flammen: Rauchs\u00e4ule zieht \u00fcber Hannover", "url": "https://www.tagesschau.de/inland/regional/niedersachsen/ndr-lagerhalle-in-flammen-80-feuerwehrleute-bei-brand-im-einsatz-100.html", "thumbnailUrl": "https://images.tagesschau.de/image/0c164e77-d37a-457b-8de0-6c36ea09da48/AAABjp5PZoI/AAABjcWesUg/16x9-512.jpg", "date": "2024-04-02T10:23:00.000+02:00", "lat": 52.3759, "lon": 9.7332, "intensity": 0.8, "source": "Tagesschau"}, {"title": "Milder Winter: Kr\u00f6tenwanderung endet in diesem Jahr fr\u00fcher", "url": "https://www.tagesschau.de/inland/regional/niedersachsen/ndr-milder-winter-kroetenwanderung-endet-in-diesem-jahr-frueher-100.html", "thumbnailUrl": "https://images.tagesschau.de/image/e920d905-ce2a-4571-b2db-892bc9713701/AAABjp3fwSk/AAABjcWesUg/16x9-512.jpg", "date": "2024-04-02T10:13:00.000+02:00", "lat": 52.2864, "lon": 10.4274, "intensity": 0.6, "source": "Tagesschau"}, {"title": "Radwege in Hamburg: Wie Verb\u00e4nde den Ausbau bewerten", "url": "https://www.tagesschau.de/inland/regional/hamburg/ndr-radwege-in-hamburg-wie-verbaende-den-ausbau-bewerten-100.html", "thumbnailUrl": "https://images.tagesschau.de/image/d8c52d9f-1222-4631-a5e8-4b01fdf34fff/AAABjp3d1dg/AAABjcWesUg/16x9-512.jpg", "date": "2024-04-02T10:09:00.000+02:00", "lat": 53.55, "lon": 10.0, "intensity": 0.7, "source": "Tagesschau"}, {"title": "Martin Matz: Berliner SPD-Innenexperte erwartet kaum Probleme durch Cannabis-Teil-Legalisierung", "url": "https://www.tagesschau.de/inland/regional/berlin/rbb-martin-matz-berliner-spd-innenexperte-erwartet-kaum-probleme-durch-cannabis-teil-legalisierung-100.html", "thumbnailUrl": "https://images.tagesschau.de/image/cd364f0d-34ef-4e15-be92-bf6b1ff40b2f/AAABjp3eGdA/AAABjcWesUg/16x9-512.jpg", "date": "2024-04-02T10:08:29.000+02:00", "lat": 52.520008, "lon": 13.404954, "intensity": 0.3, "source": "Tagesschau"}, {"title": "Nach AWO-Aff\u00e4re: Wohlfahrtsverb\u00e4nde meiden Transparenz-Plattform", "url": "https://www.tagesschau.de/inland/regional/hessen/hr-nach-awo-affaere-wohlfahrtsverbaende-meiden-transparenz-plattform-100.html", "thumbnailUrl": "https://images.tagesschau.de/image/5bbffba3-135e-48d0-a97d-83b199a1595d/AAABjp3WXPc/AAABjcWesUg/16x9-512.jpg", "date": "2024-04-02T10:03:35.634+02:00", "lat": 50.6411, "lon": 9.6756, "intensity": 0.5, "source": "Tagesschau"}, {"title": "Hessen am Morgen: +++ Lagerhalle in Lich in Flammen +++ Polizei stoppt Auto mit 39 M\u00e4ngeln +++ CDU bei Google zwangsgegendert +++", "url": "https://www.tagesschau.de/inland/regional/hessen/hr-hessen-am-morgen--lagerhalle-in-lich-in-flammen-100.html", "thumbnailUrl": "https://images.tagesschau.de/image/a4ff5d2b-9ff3-42e8-9ddd-9c0d40f743a1/AAABjpz4yX8/AAABjcWesUg/16x9-512.jpg", "date": "2024-04-02T10:00:20.407+02:00", "lat": 50.5358, "lon": 8.8197, "intensity": 0.7, "source": "Tagesschau"}, {"title": "Kein Kiffen in vielen Kneipen, FCK spielt um Pokalfinale, Gro\u00dfauftrag f\u00fcr Cloudanbieter aus RLP", "url": "https://www.tagesschau.de/inland/regional/rheinlandpfalz/swr-fck-im-dfb-pokal-dreyer-reist-nach-ruanda-ankiffen-in-mainz-100.html", "thumbnailUrl": "https://images.tagesschau.de/image/8e7bbe2d-6644-40d0-b5dd-fe099f80df71/AAABjp1FoL4/AAABjcWesUg/16x9-512.jpg", "date": "2024-04-02T10:00:00.000+02:00", "lat": 49.9929, "lon": 7.2662, "intensity": 0.5, "source": "Tagesschau"}, {"title": "Halmich-Comeback im Box-Ring gegen Stefan Raab? Verkaufsstopp von DFB-Trikot wegen Nazi-Symbolik, Details zu t\u00f6dlichem Autounfall bei VS", "url": "https://www.tagesschau.de/inland/regional/badenwuerttemberg/swr-bw-newsticker-am-morgen-halmich-comeback-im-box-ring-gegen-stefan-raab-schnitzeljagd-legt-skigebiet-lahm-100.html", "thumbnailUrl": "https://images.tagesschau.de/image/d774ac47-3bb4-44cf-8197-679f7e8e06e1/AAABjp0SW1M/AAABjcWesUg/16x9-512.jpg", "date": "2024-04-02T10:00:00.000+02:00", "lat": 48.7858, "lon": 9.9937, "intensity": 0.7, "source": "Tagesschau"}, {"title": "Grundsteuer: 400.000 Einspr\u00fcche bei drei Millionen Bescheiden", "url": "https://www.tagesschau.de/inland/regional/niedersachsen/ndr-grundsteuer-400-000-einsprueche-bei-drei-millionen-bescheiden-100.html", "thumbnailUrl": "https://images.tagesschau.de/image/8ef3bb0c-10d0-4a8c-a9a9-07c4c7cd5df7/AAABjp3NeNY/AAABjcWesUg/16x9-512.jpg", "date": "2024-04-02T09:52:00.000+02:00", "lat": 52.4387, "lon": 9.7627, "intensity": 0.7, "source": "Tagesschau"}, {"title": "Prozess: Bilder und Videos nackter Kinder ins Netz gestellt?", "url": "https://www.tagesschau.de/inland/regional/niedersachsen/ndr-prozess-bilder-und-videos-nackter-kinder-ins-netz-gestellt-100.html", "thumbnailUrl": "https://images.tagesschau.de/image/46ac13b3-c189-4075-8527-7b34eb89c236/AAABjp8BFhY/AAABjcWesUg/16x9-512.jpg", "date": "2024-04-02T09:33:00.000+02:00", "lat": 52.2799, "lon": 8.0476, "intensity": 0.8, "source": "Tagesschau"}, {"title": "Gerettet per Kran: Pferd st\u00fcrzt zw\u00f6lf Meter tiefen Hang hinab ", "url": "https://www.tagesschau.de/inland/regional/thueringen/mdr-gerettet-per-kran-pferd-stuerzt-zwoelf-meter-tiefen-hang-hinab-100.html", "thumbnailUrl": "https://images.tagesschau.de/image/9bafbb42-7877-44ec-a7e4-3ec6b97dc0f8/AAABjp262Nc/AAABjcWesUg/16x9-512.jpg", "date": "2024-04-02T09:32:35.000+02:00", "lat": 50.4303, "lon": 10.8533, "intensity": 0.7, "source": "Tagesschau"}, {"title": "Bund l\u00e4sst sichere Cloud von Ionos aufbauen", "url": "https://www.tagesschau.de/wirtschaft/ionos-cloud-bund-100.html", "thumbnailUrl": "https://images.tagesschau.de/image/af4ed1b6-721f-495f-979d-23bd6997b355/AAABjp1aU5Y/AAABjcWesUg/16x9-512.jpg", "date": "2024-04-02T09:26:39.176+02:00", "lat": 52.52, "lon": 13.405, "intensity": 0.7, "source": "Tagesschau"}, {"title": "Arsen-belastete B\u00fccher nicht ablecken: Was der Bibliotheksverband empfiehlt", "url": "https://www.tagesschau.de/inland/regional/nordrheinwestfalen/wdr-arsen-belastete-buecher-nicht-ablecken-was-der-bibliotheksverband-empfiehlt-100.html", "thumbnailUrl": "https://images.tagesschau.de/image/7d112c9a-3292-4187-b0be-9497583fbec5/AAABjp3vzsU/AAABjcWesUg/16x9-512.jpg", "date": "2024-04-02T09:19:00.000+02:00", "lat": 51.322328, "lon": 8.801693, "intensity": 0.7, "source": "Tagesschau"}, {"title": "Unfall auf A30: Kleinwagen schleudert in Leitplanke", "url": "https://www.tagesschau.de/inland/regional/niedersachsen/ndr-unfall-auf-a30-kleinwagen-schleudert-in-leitplanke-100.html", "thumbnailUrl": "https://images.tagesschau.de/image/ae074b8e-f3c7-4dc2-bb41-936e6128a166/AAABjp2aLok/AAABjcWesUg/16x9-512.jpg", "date": "2024-04-02T08:55:00.000+02:00", "lat": 52.279, "lon": 8.0419, "intensity": 0.6, "source": "Tagesschau"}, {"title": "Luftangriff t\u00f6tet Mitarbeiter von Hilfsorganisation", "url": "https://www.tagesschau.de/ausland/asien/nahost-isreal-luftangriff-hilfsorganisation-100.html", "thumbnailUrl": "https://images.tagesschau.de/image/41451e04-9c88-4998-9401-205cb03cca2a/AAABjp0PR6w/AAABjcWesUg/16x9-512.jpg", "date": "2024-04-02T08:48:16.355+02:00", "lat": 31.5204, "lon": 34.3447, "intensity": 0.9, "source": "Tagesschau"}, {"title": "Cannabis-Freigabe: Ankl\u00e4ger pr\u00fcfen Tausende Drogen-Verfahren", "url": "https://www.tagesschau.de/inland/regional/niedersachsen/ndr-cannabis-freigabe-anklaeger-pruefen-tausende-drogen-verfahren-100.html", "thumbnailUrl": "https://images.tagesschau.de/image/39d69996-f32f-4d8b-a87c-449d6e2f7cca/AAABjp3dlQ4/AAABjcWesUg/16x9-512.jpg", "date": "2024-04-02T08:47:00.000+02:00", "lat": 52.268874, "lon": 10.52677, "intensity": 0.8, "source": "Tagesschau"}, {"title": "Berlin: Autofahrer st\u00f6\u00dft mit Motorradfahrer in Kreuzberg zusammen", "url": "https://www.tagesschau.de/inland/regional/berlin/rbb-berlin-autofahrer-stoesst-mit-motorradfahrer-in-kreuzberg-zusammen-100.html", "thumbnailUrl": "https://images.tagesschau.de/image/6e793ff6-98d7-477d-b3d4-52dd427654b3/AAABjp2EIs0/AAABjcWesUg/16x9-512.jpg", "date": "2024-04-02T08:32:30.000+02:00", "lat": 52.52, "lon": 13.4105, "intensity": 0.7, "source": "Tagesschau"}, {"title": "Nach Strafbefehl: Waldorfschule Schw\u00e4bisch Hall um Ver\u00e4nderung bem\u00fcht", "url": "https://www.tagesschau.de/inland/regional/badenwuerttemberg/swr-nach-strafbefehl-waldorfschule-schwaebisch-hall-um-veraenderung-bemueht-100.html", "thumbnailUrl": "https://images.tagesschau.de/image/674ecbd9-f1cc-4684-8a97-dafc5316f242/AAABjp_Cv5M/AAABjcWesUg/16x9-512.jpg", "date": "2024-04-02T08:30:48.000+02:00", "lat": 49.1144, "lon": 9.7415, "intensity": 0.7, "source": "Tagesschau"}, {"title": "Filmemacherin Annekatrin Hendel: \"F\u00fcr mich ist Union Berlin ein Betrieb und keine Familie, wie oft gesagt wird\"", "url": "https://www.tagesschau.de/inland/regional/berlin/rbb-filmemacherin-annekatrin-hendel-fuer-mich-ist-union-berlin-ein-betrieb-und-keine-familie-wie-oft-gesagt-wird-102.html", "thumbnailUrl": "https://images.tagesschau.de/image/07e5ea3c-63a7-49de-a0b5-64e5a5ade4f9/AAABjp2AlGU/AAABjcWesUg/16x9-512.jpg", "date": "2024-04-02T08:28:55.000+02:00", "lat": 52.52, "lon": 13.4754, "intensity": 0.9, "source": "Tagesschau"}, {"title": "Unfall bei Villingen-Schwenningen: Zwei Autofahrer tot", "url": "https://www.tagesschau.de/inland/regional/badenwuerttemberg/swr-unfall-bei-villingen-schwenningen-zwei-autofahrer-tot-100.html", "thumbnailUrl": "https://images.tagesschau.de/image/041a152c-8579-45c8-a645-0f376e7a25ac/AAABjp5m1X4/AAABjcWesUg/16x9-512.jpg", "date": "2024-04-02T08:12:00.000+02:00", "lat": 48.0602, "lon": 8.4626, "intensity": 0.8, "source": "Tagesschau"}, {"title": "Niederlage gegen Osnabr\u00fcck: SV Wehen Wiesbaden zwischen Schiri-Frust und Abstiegsangst", "url": "https://www.tagesschau.de/inland/regional/hessen/hr-niederlage-gegen-osnabrueck-sv-wehen-wiesbaden-zwischen-schiri-frust-und-abstiegsangst-102.html", "thumbnailUrl": "https://images.tagesschau.de/image/e7a9a87d-15d1-4a9e-8fe3-91b0ef8ddaad/AAABjp4otvE/AAABjcWesUg/16x9-512.jpg", "date": "2024-04-02T08:07:47.895+02:00", "lat": 50.953865, "lon": 8.051587, "intensity": 0.7, "source": "Tagesschau"}, {"title": "Hilfe f\u00fcr die Menschen in der Ukraine", "url": "https://www.tagesschau.de/spendenkonten/spendenkonten-133.html", "thumbnailUrl": "https://images.tagesschau.de/image/af005073-bb3d-428a-b6f8-a685c725811f/AAABh4VRChA/AAABjcWesUg/16x9-512.jpg", "date": "2024-04-02T08:07:12.688+02:00", "lat": 50.4501, "lon": 30.5234, "intensity": 0.7, "source": "Tagesschau"}, {"title": "iRobot Factory: Wie Sch\u00fcler spielerisch programmieren lernen", "url": "https://www.tagesschau.de/inland/regional/niedersachsen/ndr-irobot-factory-wie-schueler-spielerisch-programmieren-lernen-100.html", "thumbnailUrl": "https://images.tagesschau.de/image/ec5ceb90-dd44-4f18-8eef-fb905f599082/AAABjp1nEIs/AAABjcWesUg/16x9-512.jpg", "date": "2024-04-02T07:59:00.000+02:00", "lat": 52.3759, "lon": 10.4667, "intensity": 0.6, "source": "Tagesschau"}, {"title": "Leonhard: Reise ins Baltikum soll Wirtschaftsbeziehungen st\u00e4rken", "url": "https://www.tagesschau.de/inland/regional/hamburg/ndr-leonhard-reise-ins-baltikum-fuer-wirtschaftsbeziehungen-100.html", "thumbnailUrl": "https://images.tagesschau.de/image/7f6e6747-c41e-4616-9971-4ac33cfd71cf/AAABjp4jXc8/AAABjcWesUg/16x9-512.jpg", "date": "2024-04-02T07:50:00.000+02:00", "lat": 53.5511, "lon": 10.0003, "intensity": 0.8, "source": "Tagesschau"}, {"title": "Fahrradwerkst\u00e4tten in Schleswig-Holstein sind am Limit", "url": "https://www.tagesschau.de/inland/regional/schleswigholstein/ndr-hilfe-fuer-zwei-raeder-gefragt-fahrradwerkstaetten-am-limit-100.html", "thumbnailUrl": "https://images.tagesschau.de/image/a8c70b1b-1568-4dbf-86a6-2fee38182cbf/AAABjp6A7GM/AAABjcWesUg/16x9-512.jpg", "date": "2024-04-02T07:35:00.000+02:00", "lat": 54.526, "lon": 9.985, "intensity": 0.7, "source": "Tagesschau"}, {"title": "Saarl\u00e4nder leiden besonders h\u00e4ufig unter chronischen Schmerzen", "url": "https://www.tagesschau.de/inland/regional/saarland/sr-saarlaender-leiden-besonders-haeufig-unter-chronischen-schmerzen-100.html", "thumbnailUrl": "https://images.tagesschau.de/image/72e1460c-9683-4682-a13e-6518be279821/AAABjp2JRjs/AAABjcWesUg/16x9-512.jpg", "date": "2024-04-02T07:24:00.000+02:00", "lat": 49.3964, "lon": 7.0, "intensity": 0.8, "source": "Tagesschau"}, {"title": "Mega-Bauarbeiten an Darmverschlingung Bingen beginnen", "url": "https://www.tagesschau.de/inland/regional/rheinlandpfalz/swr-mega-bauarbeiten-an-darmverschlingung-bingen-beginnen-100.html", "thumbnailUrl": "https://images.tagesschau.de/image/41c12c64-b9aa-4a7e-b3cd-f147632b093c/AAABjp5jM1I/AAABjcWesUg/16x9-512.jpg", "date": "2024-04-02T07:15:00.000+02:00", "lat": 49.9667, "lon": 7.8749, "intensity": 0.7, "source": "Tagesschau"}, {"title": "Nordkorea testet offenbar Mittelstreckenrakete", "url": "https://www.tagesschau.de/ausland/asien/nordkorea-raketentest-332.html", "thumbnailUrl": "https://images.tagesschau.de/image/91e4c98d-b7f2-4eb7-8a5b-915af0544729/AAABjp03h_c/AAABjcWesUg/16x9-512.jpg", "date": "2024-04-02T07:10:46.530+02:00", "lat": 39.0392, "lon": 125.7625, "intensity": 0.8, "source": "Tagesschau"}, {"title": "Sicherheitsrisiko: E-Roller in Hannovers Bussen und Bahnen verboten", "url": "https://www.tagesschau.de/inland/regional/niedersachsen/ndr-sicherheitsrisiko-e-roller-in-hannovers-bussen-und-bahnen-verboten-100.html", "thumbnailUrl": "https://images.tagesschau.de/image/a7c4e095-9113-4396-8a4b-7a4d0775064c/AAABjp3H_DQ/AAABjcWesUg/16x9-512.jpg", "date": "2024-04-02T07:08:00.000+02:00", "lat": 52.3759, "lon": 9.7332, "intensity": 0.6, "source": "Tagesschau"}, {"title": "Aus rbbKultur wird radio3 - \"Die Klassik bleibt journalistisches Thema\"", "url": "https://www.tagesschau.de/inland/regional/berlin/rbb-aus-rbbkultur-wird-radio3-die-klassik-bleibt-journalistisches-thema-100.html", "thumbnailUrl": "https://images.tagesschau.de/image/32ba47e3-369c-4197-bfc6-4ea0436147c1/AAABjp0xjAs/AAABjcWesUg/16x9-512.jpg", "date": "2024-04-02T06:59:39.000+02:00", "lat": 52.520008, "lon": 13.404954, "intensity": 0.6, "source": "Tagesschau"}, {"title": "Schleuse Banzkow: Schweriner Seen wieder f\u00fcr Boote erreichbar", "url": "https://www.tagesschau.de/inland/regional/mecklenburgvorpommern/ndr-schleuse-banzkow-schweriner-seen-wieder-fuer-boote-erreichbar-100.html", "thumbnailUrl": "https://images.tagesschau.de/image/b4c873b0-0514-4a72-8bc5-ac8a2c63806f/AAABjp34-To/AAABjcWesUg/16x9-512.jpg", "date": "2024-04-02T06:55:00.000+02:00", "lat": 53.6269, "lon": 11.4501, "intensity": 0.6, "source": "Tagesschau"}, {"title": "Senioren hinter Gittern: So leben \u00fcber 60-J\u00e4hrige in Berlin Haft", "url": "https://www.tagesschau.de/inland/regional/brandenburg/rbb-senioren-hinter-gittern-so-leben-ueber-60-jaehrige-in-berlin-haft-100.html", "thumbnailUrl": "https://images.tagesschau.de/image/2c04c053-2648-475d-ae2b-00e306084c3d/AAABjp0k2a8/AAABjcWesUg/16x9-512.jpg", "date": "2024-04-02T06:45:41.000+02:00", "lat": 52.520008, "lon": 13.404954, "intensity": 0.7, "source": "Tagesschau"}, {"title": "Femizid: Selbsthilfegruppe f\u00fcr Angeh\u00f6rige in Ludwigshafen gegr\u00fcndet", "url": "https://www.tagesschau.de/inland/regional/rheinlandpfalz/swr-femizid-selbsthilfegruppe-fuer-angehoerige-in-ludwigshafen-gegruendet-102.html", "thumbnailUrl": "https://images.tagesschau.de/image/628b704a-28f8-464d-9175-3027a26c155f/AAABjp11Ob4/AAABjcWesUg/16x9-512.jpg", "date": "2024-04-02T06:45:03.000+02:00", "lat": 49.4844443, "lon": 8.4407293, "intensity": 0.8, "source": "Tagesschau"}, {"title": "B72: Autofahrer zur K\u00fcste m\u00fcssen monatelang weite Umwege fahren", "url": "https://www.tagesschau.de/inland/regional/niedersachsen/ndr-b72-autofahrer-zur-kueste-muessen-monatelang-weite-umwege-fahren-100.html", "thumbnailUrl": "https://images.tagesschau.de/image/9c966a88-374c-490a-b977-8baca1a1637c/AAABjp3z9m4/AAABjcWesUg/16x9-512.jpg", "date": "2024-04-02T06:38:00.000+02:00", "lat": 53.6596, "lon": 7.5541, "intensity": 0.6, "source": "Tagesschau"}, {"title": "\u00dcberf\u00fcllte Tierheime: weniger Homeoffice nach der Pandemie?", "url": "https://www.tagesschau.de/inland/regional/badenwuerttemberg/swr-tierheim-randvoll-weil-das-homeoffice-leer-bleibt-100.html", "thumbnailUrl": "https://images.tagesschau.de/image/ae913e9f-e38c-41f4-b67a-d147da744179/AAABjp2hNTY/AAABjcWesUg/16x9-512.jpg", "date": "2024-04-02T06:24:27.000+02:00", "lat": 48.7758, "lon": 9.1919, "intensity": 0.6, "source": "Tagesschau"}, {"title": "Saisonstart in MV: Tourismusbranche zufrieden mit dem Ostergesch\u00e4ft", "url": "https://www.tagesschau.de/inland/regional/mecklenburgvorpommern/ndr-saisonstart-in-mv-tourismusbranche-zufrieden-mit-dem-ostergeschaeft-100.html", "thumbnailUrl": "https://images.tagesschau.de/image/cef98533-7c61-43f7-8fd8-763616c96cd6/AAABjp4AUeA/AAABjcWesUg/16x9-512.jpg", "date": "2024-04-02T06:14:00.000+02:00", "lat": 53.6127, "lon": 12.5655, "intensity": 0.8, "source": "Tagesschau"}, {"title": "B\u00e4cker aus Serrig: \"Kleine B\u00e4ckereien auf dem Land werden verschwinden\" ", "url": "https://www.tagesschau.de/inland/regional/rheinlandpfalz/swr-baecker-aus-serrig-kleine-baeckereien-auf-dem-land-werden-verschwinden-102.html", "thumbnailUrl": "https://images.tagesschau.de/image/9b14f521-c2db-498e-ae01-eb3e9afd31e6/AAABjp31Zrc/AAABjcWesUg/16x9-512.jpg", "date": "2024-04-02T06:07:16.000+02:00", "lat": 49.7566, "lon": 6.7987, "intensity": 0.7, "source": "Tagesschau"}, {"title": "St\u00e4rkere Stimme f\u00fcr Kinder und Jugendliche in MVs Politik", "url": "https://www.tagesschau.de/inland/regional/mecklenburgvorpommern/ndr-staerkere-stimme-fuer-kinder-und-jugendliche-in-mvs-politik-100.html", "thumbnailUrl": "https://images.tagesschau.de/image/b189e7ad-bab5-42c3-8230-62b05796b98c/AAABjp38pbY/AAABjcWesUg/16x9-512.jpg", "date": "2024-04-02T06:06:00.000+02:00", "lat": 53.6127, "lon": 13.2394, "intensity": 0.6, "source": "Tagesschau"}, {"title": "Falsch bef\u00fcllte Biotonnen in Aachen werden nicht mehr geleert", "url": "https://www.tagesschau.de/inland/regional/nordrheinwestfalen/wdr-falsch-befuellte-biotonnen-in-aachen-werden-nicht-mehr-geleert-102.html", "thumbnailUrl": "https://images.tagesschau.de/image/872e514e-85f8-40ef-9c0a-41f4452ac3cd/AAABjp3bp-I/AAABjcWesUg/16x9-512.jpg", "date": "2024-04-02T06:00:00.000+02:00", "lat": 50.7753, "lon": 6.083, "intensity": 0.6, "source": "Tagesschau"}, {"title": "Das Westfalenstadion: Gr\u00f6\u00dfte Fu\u00dfball-Kultst\u00e4tte wird 50", "url": "https://www.tagesschau.de/inland/regional/nordrheinwestfalen/wdr-das-westfalenstadion-100.html", "thumbnailUrl": "https://images.tagesschau.de/image/99d008c6-d381-4a21-8fd1-e21db4610db0/AAABjp5zshc/AAABjcWesUg/16x9-512.jpg", "date": "2024-04-02T06:00:00.000+02:00", "lat": 51.4926, "lon": 7.4516, "intensity": 0.8, "source": "Tagesschau"}, {"title": "Campino h\u00e4lt erste Vorlesung als Gastprofessor in D\u00fcsseldorf", "url": "https://www.tagesschau.de/inland/regional/nordrheinwestfalen/wdr-campino-haelt-erste-vorlesung-als-gastprofessor-in-duesseldorf-100.html", "thumbnailUrl": "https://images.tagesschau.de/image/e9da32b1-57ce-4195-82e2-fdc58304969f/AAABjp7NYHs/AAABjcWesUg/16x9-512.jpg", "date": "2024-04-02T06:00:00.000+02:00", "lat": 51.2277, "lon": 6.7715, "intensity": 0.7, "source": "Tagesschau"}, {"title": "Israel will Sender Al Jazeera abschalten", "url": "https://www.tagesschau.de/ausland/asien/israel-gesetz-al-jazeera-100.html", "thumbnailUrl": "https://images.tagesschau.de/image/303acc43-d709-47c7-8c87-d18683f43c91/AAABjXlxmsc/AAABjcWesUg/16x9-512.jpg", "date": "2024-04-02T05:06:35.955+02:00", "lat": 31.7683, "lon": 35.2137, "intensity": 0.8, "source": "Tagesschau"}, {"title": "\"Team nebenan\": 1.000 Euro f\u00fcr eine Idee", "url": "https://www.tagesschau.de/inland/regional/hamburg/ndr-team-nebenan-1-000-euro-fuer-eine-idee-100.html", "thumbnailUrl": "https://images.tagesschau.de/image/3f02b3f4-0eb7-4235-9427-2fc3ac61bd1c/AAABjpzANPE/AAABjcWesUg/16x9-512.jpg", "date": "2024-04-02T05:00:00.000+02:00", "lat": 53.5511, "lon": 9.9937, "intensity": 0.8, "source": "Tagesschau"}, {"title": "Musikschulen in Schleswig-Holstein bangen um ihre Existenz", "url": "https://www.tagesschau.de/inland/regional/schleswigholstein/ndr-musikschulen-in-schleswig-holstein-bangen-um-ihre-existenz-100.html", "thumbnailUrl": "https://images.tagesschau.de/image/c41dfc03-5f08-4263-b201-17dec24f6a09/AAABjp4ukoo/AAABjcWesUg/16x9-512.jpg", "date": "2024-04-02T05:00:00.000+02:00", "lat": 54.438, "lon": 9.9888, "intensity": 0.7, "source": "Tagesschau"}, {"title": "Signalrakete gez\u00fcndet: Segelboot ger\u00e4t auf dem Bodensee in Not", "url": "https://www.tagesschau.de/inland/regional/badenwuerttemberg/swr-signalrakete-gezuendet-segelboot-geraet-auf-dem-bodensee-in-seenot-100.html", "thumbnailUrl": "https://images.tagesschau.de/image/7eb4256f-6d49-4847-a77e-9963fc05acf7/AAABjpYtHhw/AAABjcWesUg/16x9-512.jpg", "date": "2024-04-02T03:42:00.000+02:00", "lat": 47.6244, "lon": 9.5901, "intensity": 0.7, "source": "Tagesschau"}, {"title": "\"Russland zur Verantwortung ziehen\"", "url": "https://www.tagesschau.de/ausland/europa/ukraine-konferenz-den-haag-100.html", "thumbnailUrl": "https://images.tagesschau.de/image/eb3d950f-4829-486b-b1a2-199386a98828/AAABjpsu1T0/AAABjcWesUg/16x9-512.jpg", "date": "2024-04-02T03:31:09.152+02:00", "lat": 50.4501, "lon": 30.5234, "intensity": 0.6, "source": "Tagesschau"}, {"title": "Drei Tote nach Lawine bei Zermatt", "url": "https://www.tagesschau.de/ausland/europa/zermatt-lawine-100.html", "thumbnailUrl": "https://images.tagesschau.de/image/694c65f7-1b97-44b0-ab95-bc14122e246d/AAABjpxg7Bc/AAABjcWesUg/16x9-512.jpg", "date": "2024-04-02T03:25:32.693+02:00", "lat": 46.0207, "lon": 7.7439, "intensity": 0.9, "source": "Tagesschau"}, {"title": "Sorge vor Eskalation nach Angriff auf iranische Botschaft", "url": "https://www.tagesschau.de/ausland/asien/damaskus-explosion-iran-botschaft-102.html", "thumbnailUrl": "https://images.tagesschau.de/image/1886863b-49f1-47ca-8a35-18432ba8a835/AAABjpvNylw/AAABjcWesUg/16x9-512.jpg", "date": "2024-04-02T00:45:47.888+02:00", "lat": 33.5138, "lon": 36.3033, "intensity": 0.8, "source": "Tagesschau"}, {"title": "Cannabis-Bef\u00fcrworter in Mainz feiern Teillegalisierung", "url": "https://www.tagesschau.de/inland/regional/rheinlandpfalz/swr-cannabis-befuerworter-in-mainz-feiern-teillegalisierung-102.html", "thumbnailUrl": "https://images.tagesschau.de/image/b2ff0170-2d7b-45c2-b143-46654ca26461/AAABjp3CCww/AAABjcWesUg/16x9-512.jpg", "date": "2024-04-02T00:06:41.000+02:00", "lat": 50.002541, "lon": 8.247252, "intensity": 0.8, "source": "Tagesschau"}, {"title": "60 Jahre Kampfschwimmer: Die Bundeswehr-Elite in Eckernf\u00f6rde", "url": "https://www.tagesschau.de/inland/regional/schleswigholstein/ndr-60-jahre-kampfschwimmer-die-bundeswehr-elite-in-eckernfoerde-100.html", "thumbnailUrl": "https://images.tagesschau.de/image/8fc59b10-318e-4564-8a39-b12f6b72fc0f/AAABjpuxQdE/AAABjcWesUg/16x9-512.jpg", "date": "2024-04-02T00:04:00.000+02:00", "lat": 54.4773, "lon": 9.8347, "intensity": 0.8, "source": "Tagesschau"}, {"title": "Israel steht nach Angriff auf Hilfskonvoi international in der Kritik", "url": "https://www.br.de/nachrichten/meldungen/index.html#n1", "thumbnailUrl": null, "date": "2024-04-02T19:57:02+02:00", "lat": 30.0444, "lon": 31.2357, "intensity": 0.8, "source": "Bayrischer Rundfunk"}, {"title": "UN-Chef verurteilt Angriff auf iranische Botschaft in Syrien", "url": "https://www.br.de/nachrichten/meldungen/index.html#n2", "thumbnailUrl": null, "date": "2024-04-02T19:57:02+02:00", "lat": 33.5138, "lon": 36.2021, "intensity": 0.8, "source": "Bayrischer Rundfunk"}, {"title": "Ukraine senkt Alter f\u00fcr Einberufung von Reservisten", "url": "https://www.br.de/nachrichten/meldungen/index.html#n3", "thumbnailUrl": null, "date": "2024-04-02T19:57:02+02:00", "lat": 39.9334, "lon": 32.8597, "intensity": 0.8, "source": "Bayrischer Rundfunk"}, {"title": "Mindestens 29 Menschen sterben bei Brand in Istanbuler Nachtclub", "url": "https://www.br.de/nachrichten/meldungen/index.html#n4", "thumbnailUrl": null, "date": "2024-04-02T19:57:02+02:00", "lat": 52.520008, "lon": 13.404954, "intensity": 0.7, "source": "Bayrischer Rundfunk"}, {"title": "Inflation sinkt im M\u00e4rz auf 2,2 Prozent", "url": "https://www.br.de/nachrichten/meldungen/index.html#n5", "thumbnailUrl": null, "date": "2024-04-02T19:57:02+02:00", "lat": 52.520008, "lon": 13.404954, "intensity": 0.6, "source": "Bayrischer Rundfunk"}, {"title": "Gericht er\u00f6ffnet Insolvenzverfahren f\u00fcr Galeria Karstadt Kaufhof", "url": "https://www.br.de/nachrichten/meldungen/index.html#n6", "thumbnailUrl": null, "date": "2024-04-02T19:57:02+02:00", "lat": 48.135125, "lon": 11.581981, "intensity": 0.6, "source": "Bayrischer Rundfunk"}, {"title": "Zw\u00f6lfj\u00e4hriger stirbt bei Schusswaffenangriff in finnischer Schule", "url": "https://www.br.de/nachrichten/meldungen/index.html#n7", "thumbnailUrl": null, "date": "2024-04-02T19:57:02+02:00", "lat": 50.110922, "lon": 8.682127, "intensity": 0.8, "source": "Bayrischer Rundfunk"}, {"title": "Verwaltungsgerichtshof weist Klagen gegen Ausbau des Frankenschnellwegs in N\u00fcrnberg ab", "url": "https://www.br.de/nachrichten/meldungen/index.html#n8", "thumbnailUrl": null, "date": "2024-04-02T19:57:02+02:00", "lat": 47.8684, "lon": 12.6394, "intensity": 0.8, "source": "Bayrischer Rundfunk"}, {"title": "Grillkohle war vermutlich Ursache f\u00fcr Gro\u00dfbrand in Niederbayern", "url": "https://www.br.de/nachrichten/meldungen/index.html#n9", "thumbnailUrl": null, "date": "2024-04-02T19:57:02+02:00", "lat": 48.5844, "lon": 13.6722, "intensity": 0.8, "source": "Bayrischer Rundfunk"}, {"title": "Bayerische Verkehrsbetriebe verbieten Mitnahme von E-Scootern", "url": "https://www.br.de/nachrichten/meldungen/index.html#n10", "thumbnailUrl": null, "date": "2024-04-02T19:57:02+02:00", "lat": 53.5396, "lon": 8.5761, "intensity": 0.4, "source": "Bayrischer Rundfunk"}, {"title": "\"Ultravox\"-Bassist Chris Cross ist tot", "url": "https://www.br.de/nachrichten/meldungen/index.html#n11", "thumbnailUrl": null, "date": "2024-04-02T19:57:02+02:00", "lat": 48.1351, "lon": 11.582, "intensity": 0.3, "source": "Bayrischer Rundfunk"}, {"title": "Das Wetter in Bayern: In der Nacht zun\u00e4chst klar, Tiefstwerte 8 bis 0 Grad", "url": "https://www.br.de/nachrichten/meldungen/index.html#n12", "thumbnailUrl": null, "date": "2024-04-02T19:57:02+02:00", "lat": 48.1351, "lon": 11.582, "intensity": 0.4, "source": "Bayrischer Rundfunk"}, {"title": "Tesla macht Brandanschlag in Gr\u00fcnheide f\u00fcr Absatzr\u00fcckgang mitverantwortlich", "url": "https://www.rbb24.de/wirtschaft/beitrag/2024/04/tesla-absatz-sinkt-acht-prozent-musk-gruenheide-brandanschlag.html", "thumbnailUrl": null, "date": "Tue, 02 Apr 2024 19:21:00 +0200", "lat": 52.3791, "lon": 13.7534, "intensity": 0.8, "source": "RBB"}, {"title": "Agrarpolitik in Brandenburg: Ostdeutsche Landwirte fordern Verkauf von bundeseigenen Agrarfl\u00e4chen", "url": "https://www.rbb24.de/wirtschaft/beitrag/2024/04/ostdeutsche-bauern-fordern-von-bund-weiteren-verkauf-flaechen.html", "thumbnailUrl": null, "date": "Tue, 02 Apr 2024 18:16:00 +0200", "lat": 52.4125, "lon": 13.6416, "intensity": 0.7, "source": "RBB"}, {"title": "Ammoniak auf Firmengel\u00e4nde in Berlin-Bohnsdorf ausgetreten", "url": "https://www.rbb24.de/panorama/beitrag/2024/04/ammoniak-austritt-bohnsdorf-feuerwehr-einsatz.html", "thumbnailUrl": null, "date": "Tue, 02 Apr 2024 17:47:25 +0200", "lat": 52.3787, "lon": 13.5786, "intensity": 0.7, "source": "RBB"}, {"title": "Brandenburger Polizei z\u00e4hlt 60 Prozent mehr Betrugsf\u00e4lle mit \"Enkeltrick\"", "url": "https://www.rbb24.de/panorama/beitrag/2024/04/enkeltrick-faelle-brandenburg-polizei-betrug-telefon-senioren.html", "thumbnailUrl": null, "date": "Tue, 02 Apr 2024 17:35:00 +0200", "lat": 52.405476, "lon": 13.249043, "intensity": 0.7, "source": "RBB"}, {"title": "\u00d6kolandbau in Brandenburg w\u00e4chst", "url": "https://www.rbb24.de/wirtschaft/beitrag/2024/04/oekolandbau-brandenburg-wachstum-bio-bio-produkte-axel-vogel.html", "thumbnailUrl": null, "date": "Tue, 02 Apr 2024 17:08:00 +0200", "lat": 52.4125, "lon": 13.9001, "intensity": 0.6, "source": "RBB"}, {"title": "W\u00e4rmster M\u00e4rz in Berlin und Brandenburg seit Beginn der Aufzeichnungen", "url": "https://www.rbb24.de/panorama/beitrag/2024/04/brandenburg-cottbus-temperatur-rekord-maerz-klitzschen-dwd.html", "thumbnailUrl": null, "date": "Tue, 02 Apr 2024 16:55:00 +0200", "lat": 51.756, "lon": 14.3333, "intensity": 0.6, "source": "RBB"}, {"title": "Gericht er\u00f6ffnet Insolvenzverfahren f\u00fcr Galeria Karstadt Kaufhof", "url": "https://www.rbb24.de/wirtschaft/beitrag/2024/04/berlin-brandenburg-amtsgericht-essen-insolvenzverfahren-warenhauskonzern-galeria-karstadt-kaufhof.html", "thumbnailUrl": null, "date": "Tue, 02 Apr 2024 16:38:56 +0200", "lat": 51.4556, "lon": 7.0131, "intensity": 0.8, "source": "RBB"}, {"title": "Eisb\u00e4ren, Volleys, Alba und SCP: So pr\u00e4sentieren sich die Top-Teams derzeit in den Playoffs", "url": "https://www.rbb24.de/sport/beitrag/2024/04/playoffs-ueberblick-teams-alba-sc-potsdam-eisbaeren-volleys.html", "thumbnailUrl": null, "date": "Tue, 02 Apr 2024 16:29:20 +0200", "lat": 52.52, "lon": 13.405, "intensity": 0.5, "source": "RBB"}, {"title": "Mitgliederbefragung: Berliner SPD verschickt Wahlunterlagen f\u00fcr k\u00fcnftigen Parteivorsitz", "url": "https://www.rbb24.de/politik/beitrag/2024/04/berlin-spd-mitgliederbefragung-briefwahl-saleh-parteivorsitz.html", "thumbnailUrl": null, "date": "Tue, 02 Apr 2024 16:27:00 +0200", "lat": 52.520008, "lon": 13.404954, "intensity": 0.6, "source": "RBB"}, {"title": "Burg im Spreewald: 22-J\u00e4hriger von Vermummtem attackiert - Sch\u00e4delbruch", "url": "https://www.rbb24.de/panorama/beitrag/2024/04/brandenburg-mueschen-burg-angriff-osterfeuer-auf-mann-schaedelbruch-polizei.html", "thumbnailUrl": null, "date": "Tue, 02 Apr 2024 15:11:00 +0200", "lat": 52.033, "lon": 14.065, "intensity": 0.8, "source": "RBB"}, {"title": "Staus zum Ende der Osterferien am Wochenende erwartet", "url": "https://www.rbb24.de/panorama/beitrag/2024/04/stau-ostern-adac-berlin-brandenburg-verkehr-autobahn-auto.html", "thumbnailUrl": null, "date": "Tue, 02 Apr 2024 14:20:07 +0200", "lat": 51.5143, "lon": 9.9937, "intensity": 0.3, "source": "RBB"}, {"title": "Verkehr in Berlin und Brandenburg: Kreisverkehr am Gro\u00dfen Stern gesperrt - Einschr\u00e4nkungen auch bei der Bahn", "url": "https://www.rbb24.de/panorama/beitrag/2024/04/berlin-brandenburg-verkehr-einschraenkungen-grosser-stern-ampelanlage-kraneinsatz-tiefbauarbeiten-re1-bahn-a100.html", "thumbnailUrl": null, "date": "Tue, 02 Apr 2024 13:53:03 +0200", "lat": 52.517, "lon": 13.3696, "intensity": 0.6, "source": "RBB"}, {"title": "Identit\u00e4t aller Todesopfer von Busunfall auf A9 gekl\u00e4rt", "url": "https://www.rbb24.de/panorama/beitrag/2024/04/busunfall-a9-flixbus-todesopfer-leipzig-busfahrer-unfall.html", "thumbnailUrl": null, "date": "Tue, 02 Apr 2024 13:46:00 +0200", "lat": 51.3401, "lon": 12.3926, "intensity": 1, "source": "RBB"}, {"title": "Berlin und Brandenburg: Verbraucherpreise steigen in der Region weniger stark an", "url": "https://www.rbb24.de/wirtschaft/beitrag/2024/04/verbraucherpreise-berlin-brandenburg-abgeschwaecht-teuerung-wirtschaft.html", "thumbnailUrl": null, "date": "Tue, 02 Apr 2024 13:42:00 +0200", "lat": 52.520008, "lon": 13.404954, "intensity": 0.3, "source": "RBB"}, {"title": "Kommunalwahlen 2024: Brandenburg w\u00e4hlt mehr als 10.000 Kommunalpolitiker:innen", "url": "https://www.rbb24.de/politik/wahl/kommunalwahlen/2024/brandenburg-buergermeister-kreistage-stadtverordnete-gemeinden-ortsbeiraete.html", "thumbnailUrl": null, "date": "Tue, 02 Apr 2024 13:26:27 +0200", "lat": 52.6367, "lon": 13.7373, "intensity": 0.5, "source": "RBB"}, {"title": "Auf der Flucht Waffen und Munition aus Fahrzeug geworfen", "url": "https://www.rbb24.de/panorama/beitrag/2024/04/auto-schnell-berlin-kontrolle-polizei-waffen-aus-fenster.html", "thumbnailUrl": null, "date": "Tue, 02 Apr 2024 13:18:37 +0200", "lat": 41.8902, "lon": 12.4924, "intensity": 0.6, "source": "RBB"}, {"title": "Tesla-Fabrik: Zugshuttle zwischen Berlin und Gr\u00fcnheide gestartet", "url": "https://www.rbb24.de/wirtschaft/beitrag/2024/04/tesla-zug-shuttle-start-lichtenberg-berlin-gruenheide-brandenburg-.html", "thumbnailUrl": null, "date": "Tue, 02 Apr 2024 12:46:00 +0200", "lat": 52.303487, "lon": 13.589326, "intensity": 0.8, "source": "RBB"}, {"title": "\"Reichsb\u00fcrger\"-Netzwerk: Prozess gegen Malsack-Winkemann und acht weitere Angeklagte startet im Mai", "url": "https://www.rbb24.de/panorama/beitrag/2024/04/prozess-reichsbrger-frankfurt-verfahren-berliner-richterin-malsack-winkemann.html", "thumbnailUrl": null, "date": "Tue, 02 Apr 2024 12:32:00 +0200", "lat": 50.1109, "lon": 8.6821, "intensity": 0.8, "source": "RBB"}, {"title": "Trotz Warnstreiks bei Lidl und Kaufland in Berlin und Brandenburg sind keine Filialschlie\u00dfungen zu erwarten", "url": "https://www.rbb24.de/wirtschaft/beitrag/2024/04/warnstreik-kaufland-lidl-verdi-tarifstreit-lohn-luebbenau.html", "thumbnailUrl": null, "date": "Tue, 02 Apr 2024 12:29:00 +0200", "lat": 52.520008, "lon": 13.404954, "intensity": 0.7, "source": "RBB"}, {"title": "Bob-Bahn am Marzahner Kienberg wird nach Brandstiftung wieder aufgebaut", "url": "https://www.rbb24.de/panorama/beitrag/2024/04/bobbahn-rodelbahn-gaerten-der-welt-kienberg-marzahn.html", "thumbnailUrl": null, "date": "Tue, 02 Apr 2024 10:42:00 +0200", "lat": 52.5407, "lon": 13.6298, "intensity": 0.8, "source": "RBB"}, {"title": "Barnim: Motorradfahrer stirbt bei Verkehrsunfall in Joachimsthal", "url": "https://www.rbb24.de/panorama/beitrag/2024/04/motorrad-fahrer-tot-verkehr-unfall-joachimsthal-barnim-brandenburg.html", "thumbnailUrl": null, "date": "Tue, 02 Apr 2024 10:27:16 +0200", "lat": 52.9821, "lon": 13.7858, "intensity": 0.8, "source": "RBB"}, {"title": "Martin Matz: Berliner SPD-Innenexperte erwartet kaum Probleme durch Cannabis-Teil-Legalisierung", "url": "https://www.rbb24.de/politik/beitrag/2024/04/innenexperte-spd-martin-matz-legalisierung-cannabis-wenige-probleme.html", "thumbnailUrl": null, "date": "Tue, 02 Apr 2024 10:08:00 +0200", "lat": 52.520008, "lon": 13.404954, "intensity": 0.2, "source": "RBB"}, {"title": "Berlin: Autofahrer st\u00f6\u00dft mit Motorradfahrer in Kreuzberg zusammen", "url": "https://www.rbb24.de/panorama/beitrag/2024/04/motorradfahrer-berlin-kreuzberg-auto-zusammengestossen-prinzenstrasse.html", "thumbnailUrl": null, "date": "Tue, 02 Apr 2024 08:32:30 +0200", "lat": 52.4931, "lon": 13.3986, "intensity": 0.6, "source": "RBB"}, {"title": "Gro\u00dfer Stern in Berlin-Tiergarten f\u00fcr vier Tage gesperrt", "url": "https://www.rbb24.de/panorama/beitrag/2024/03/berlin-tiergarten-grosser-stern-sperrung-neue-ampeln.html", "thumbnailUrl": null, "date": "Tue, 02 Apr 2024 06:52:00 +0200", "lat": 52.5146, "lon": 13.3503, "intensity": 0.6, "source": "RBB"}, {"title": "Senioren hinter Gittern: So leben \u00fcber 60-J\u00e4hrige in Berlin Haft", "url": "https://www.rbb24.de/panorama/beitrag/2024/04/senioren-aeltere-menschen-im-gefaengnis-haft-berlin.html", "thumbnailUrl": null, "date": "Tue, 02 Apr 2024 06:45:00 +0200", "lat": 52.52, "lon": 13.4073, "intensity": 0.7, "source": "RBB"}, {"title": "Landkreis Spree-Nei\u00dfe: Vier Menschen bei Verkehrsunfall in Kolkwitz schwer verletzt", "url": "https://www.rbb24.de/panorama/beitrag/2024/03/brandenburg-kolkwitz-verkehrsunfall-verletzte.html", "thumbnailUrl": null, "date": "Mon, 01 Apr 2024 14:53:24 +0200", "lat": 51.722, "lon": 14.308, "intensity": 0.8, "source": "RBB"}, {"title": "Berlin-Nikolassee: Zwei Schwerverletzte nach mutma\u00dflichem illegalen Rennen", "url": "https://www.rbb24.de/panorama/beitrag/2024/04/illegales-rennen-unfall-zehlendorf.html", "thumbnailUrl": null, "date": "Mon, 01 Apr 2024 13:47:00 +0200", "lat": 52.431, "lon": 13.2377, "intensity": 0.8, "source": "RBB"}, {"title": "Kind mit Spielzeugwaffe auf A11 l\u00f6st Polizeieinsatz aus", "url": "https://www.rbb24.de/panorama/beitrag/2024/04/polizeieinsatz-kind-spielzeugwaffe-autobahn-11-prenzlau.html", "thumbnailUrl": null, "date": "Mon, 01 Apr 2024 12:39:31 +0200", "lat": 52.518, "lon": 11.632, "intensity": 0.6, "source": "RBB"}, {"title": "Waldbrandgefahr im Brandenburger S\u00fcden steigt leicht", "url": "https://www.rbb24.de/panorama/beitrag/2024/04/suedbrandenburg-waldbrandgefahr-steigt-leicht.html", "thumbnailUrl": null, "date": "Mon, 01 Apr 2024 12:20:00 +0200", "lat": 52.5016, "lon": 13.3326, "intensity": 0.4, "source": "RBB"}, {"title": "Invasive Art: Imkerverband will Ausbreitung der Asiatischen Hornisse in Berlin verhindern", "url": "https://www.rbb24.de/panorama/beitrag/2024/04/berlin-imkerverband-schulungen-asiatische-hornisse.html", "thumbnailUrl": null, "date": "Mon, 01 Apr 2024 09:13:21 +0200", "lat": 52.520008, "lon": 13.404954, "intensity": 0.6, "source": "RBB"}, {"title": "Video: Hertha und N\u00fcrnberg trennen sich nach furiosem Spiel mit 3:3", "url": "https://www.rbb24.de/sport/beitrag/av7/video-fussball-berlin-hertha-bsc-zweite-bundesliga-1-fc-nuernberg.html", "thumbnailUrl": null, "date": "Mon, 01 Apr 2024 00:00:00 +0200", "lat": 52.52, "lon": 13.5007, "intensity": 0.8, "source": "RBB"}, {"title": "Video: Union Berlin entf\u00fchrt einen Punkt aus Frankfurt", "url": "https://www.rbb24.de/sport/beitrag/av7/video-fussball-berlin-1-fc-union-bundesliga-eintracht-frankfurt.html", "thumbnailUrl": null, "date": "Mon, 01 Apr 2024 00:00:00 +0200", "lat": 52.457778, "lon": 13.494167, "intensity": 0.7, "source": "RBB"}, {"title": "Video | Spreewald: Sorbische Ostern", "url": "https://www.rbb24.de/panorama/beitrag/av7/video-sorbisch-ostern-ostersingen-tradition.html", "thumbnailUrl": null, "date": "Sun, 31 Mar 2024 21:40:56 +0200", "lat": 51.8667, "lon": 14.0833, "intensity": 0.2, "source": "RBB"},