[{"title": "++ US-Au\u00dfenminister Blinken spricht mit Amtskollegen ++", "url": "https://www.tagesschau.de/newsticker/liveblog-nahost-montag-128.html", "thumbnailUrl": "https://images.tagesschau.de/image/8ae0024d-3563-48d2-abb6-a37b012c51a6/AAABjmDbMUI/AAABjcWesUg/16x9-512.jpg", "date": "2024-04-15T04:33:56.286+02:00", "lat": 31.7683, "lon": 35.2137, "intensity": 0.8, "source": "Tagesschau"}, {"title": "Der n\u00e4chtliche Angriff und die Folgen", "url": "https://www.tagesschau.de/ausland/asien/iran-angriff-auf-israel-faq-100.html", "thumbnailUrl": "https://images.tagesschau.de/image/d7d3a773-d7d2-47d4-98ec-6990f20b09d0/AAABjt5PIu4/AAABjcWesUg/16x9-512.jpg", "date": "2024-04-15T00:50:04.881+02:00", "lat": 31.7613, "lon": 35.2271, "intensity": 0.8, "source": "Tagesschau"}, {"title": "++ \"M\u00fcssen aus Eskalationsspirale heraus\" ++", "url": "https://www.tagesschau.de/newsticker/liveblog-nahost-sonntag-130.html", "thumbnailUrl": "https://images.tagesschau.de/image/e2055dc1-7dee-4929-8476-e86ecaa9459a/AAABjt3vxrY/AAABjcWesUg/16x9-512.jpg", "date": "2024-04-15T00:27:37.419+02:00", "lat": 31.7683, "lon": 35.2137, "intensity": 0.8, "source": "Tagesschau"}, {"title": "F\u00fcr mehr Sicherheit und Ordnung: Heide bekommt Ordnungsdienst", "url": "https://www.tagesschau.de/inland/regional/schleswigholstein/ndr-fuer-mehr-sicherheit-und-ordnung-heide-bekommt-ordnungsdienst-100.html", "thumbnailUrl": "https://images.tagesschau.de/image/e76b2914-8270-487a-8984-304fe9803210/AAABjt6iDaU/AAABjcWesUg/16x9-512.jpg", "date": "2024-04-15T00:01:00.000+02:00", "lat": 54.192, "lon": 9.0974, "intensity": 0.6, "source": "Tagesschau"}, {"title": "Sorgen um Ex-Frankfurter: N'Dicka bricht auf Platz zusammen", "url": "https://www.tagesschau.de/inland/regional/hessen/hr-sorgen-um-ex-frankfurter-ndicka-bricht-auf-platz-zusammen-102.html", "thumbnailUrl": "https://images.tagesschau.de/image/c47c14ff-894a-45dd-9c59-0c57ed0e9911/AAABjt47R4o/AAABjcWesUg/16x9-512.jpg", "date": "2024-04-14T22:08:49.878+02:00", "lat": 50.1109, "lon": 8.6821, "intensity": 0.8, "source": "Tagesschau"}, {"title": "++ Zehn russische Drohnen zerst\u00f6rt ++", "url": "https://www.tagesschau.de/newsticker/liveblog-ukraine-sonntag-414.html", "thumbnailUrl": "https://images.tagesschau.de/image/5b073b67-29bf-4703-b6b1-71469e4c25bb/AAABizMn-kk/AAABjcWesUg/16x9-512.jpg", "date": "2024-04-14T21:53:06.802+02:00", "lat": 50.4501, "lon": 30.5234, "intensity": 0.9, "source": "Tagesschau"}, {"title": "ADAC Luftrettung trainiert Spezialeins\u00e4tze", "url": "https://www.tagesschau.de/inland/regional/rheinlandpfalz/swr-adac-luftrettung-trainiert-spezialeinsaetze-102.html", "thumbnailUrl": "https://images.tagesschau.de/image/151ee493-44ad-4af0-b7c7-52dfc6e55867/AAABjt53mCE/AAABjcWesUg/16x9-512.jpg", "date": "2024-04-14T21:28:04.000+02:00", "lat": 49.9842, "lon": 8.2001, "intensity": 0.7, "source": "Tagesschau"}, {"title": "Polizei in BW will beim \"Blitzermarathon\" Tempos\u00fcnder kontrollieren", "url": "https://www.tagesschau.de/inland/regional/badenwuerttemberg/swr-polizei-in-bw-will-beim-blitzermarathon-temposuender-kontrollieren-100.html", "thumbnailUrl": "https://images.tagesschau.de/image/7a945668-bae7-4190-bb9c-960f6bdadfba/AAABjt39FG8/AAABjcWesUg/16x9-512.jpg", "date": "2024-04-14T21:24:00.000+02:00", "lat": 48.7276, "lon": 9.4867, "intensity": 0.8, "source": "Tagesschau"}, {"title": "Nach Angriff auf Israel: Solidarit\u00e4tsdemonstration in Hamburg", "url": "https://www.tagesschau.de/inland/regional/hamburg/ndr-nach-angriff-auf-israel-solidaritaetsdemonstration-in-hamburg-100.html", "thumbnailUrl": "https://images.tagesschau.de/image/161be1e8-af48-45ae-863a-ae08a6930f86/AAABjt4A3WQ/AAABjcWesUg/16x9-512.jpg", "date": "2024-04-14T21:21:00.000+02:00", "lat": 53.5511, "lon": 10.0006, "intensity": 0.7, "source": "Tagesschau"}, {"title": "Adrian Sonder wird neuer OB von Freudenstadt", "url": "https://www.tagesschau.de/inland/regional/badenwuerttemberg/swr-adrian-sonder-ist-neuer-ob-von-freudenstadt-100.html", "thumbnailUrl": "https://images.tagesschau.de/image/d39b4914-2e83-4b43-b19f-068f1cc5b913/AAABjt3b-Pk/AAABjcWesUg/16x9-512.jpg", "date": "2024-04-14T21:06:00.000+02:00", "lat": 48.4647, "lon": 8.4098, "intensity": 0.7, "source": "Tagesschau"}, {"title": "Norderelbbr\u00fccke: K\u00fcnftige Bauarbeiten auf der A1", "url": "https://www.tagesschau.de/inland/regional/hamburg/ndr-norderelbbruecke-100.html", "thumbnailUrl": "https://images.tagesschau.de/image/2119720b-227d-4b09-8231-ed268c71b979/AAABjt35mH8/AAABjcWesUg/16x9-512.jpg", "date": "2024-04-14T20:56:00.000+02:00", "lat": 53.5511, "lon": 9.9833, "intensity": 0.7, "source": "Tagesschau"}, {"title": "Elektroauto f\u00e4ngt Feuer: Zwei Menschen sterben bei Unfall", "url": "https://www.tagesschau.de/inland/regional/niedersachsen/ndr-auto-faengt-feuer-zwei-menschen-bei-verkehrsunfall-gestorben-100.html", "thumbnailUrl": "https://images.tagesschau.de/image/22d00e2d-a5bc-496a-a8ca-59185248c115/AAABjt3pMLo/AAABjcWesUg/16x9-512.jpg", "date": "2024-04-14T20:46:00.000+02:00", "lat": 52.2799, "lon": 9.7384, "intensity": 0.8, "source": "Tagesschau"}, {"title": "Ausschreibung gegen Bahn-Tochter verloren: Busunternehmen legt Beschwerde bei EU-Kommission ein", "url": "https://www.tagesschau.de/inland/regional/hessen/hr-ausschreibung-gegen-bahn-tochter-verloren-busunternehmen-legt-beschwerde-bei-eu-kommission-ein-100.html", "thumbnailUrl": "https://images.tagesschau.de/image/a68512e5-e643-4067-a839-e9c6e81cdfa0/AAABjt3sq_A/AAABjcWesUg/16x9-512.jpg", "date": "2024-04-14T20:43:57.179+02:00", "lat": 50.6412, "lon": 9.6752, "intensity": 0.8, "source": "Tagesschau"}, {"title": "68:65 in Spiel drei gegen die Gisa Lions MBC: Albas Basketballerinnen ziehen ins Finale ein", "url": "https://www.tagesschau.de/inland/regional/berlin/rbb-6865-in-spiel-drei-gegen-die-gisa-lions-mbc-albas-basketballerinnen-ziehen-ins-finale-ein-102.html", "thumbnailUrl": "https://images.tagesschau.de/image/550d3457-6847-4d42-92ec-948f0dd68382/AAABjt3q_xc/AAABjcWesUg/16x9-512.jpg", "date": "2024-04-14T20:40:43.000+02:00", "lat": 52.520008, "lon": 13.404954, "intensity": 0.8, "source": "Tagesschau"}, {"title": "Cannabis-Freigabe: Wann mit dem Anbau in Hamburg begonnen wird", "url": "https://www.tagesschau.de/inland/regional/hamburg/ndr-cannabis-freigabe-wann-mit-dem-anbau-in-hamburg-begonnen-wird-100.html", "thumbnailUrl": "https://images.tagesschau.de/image/571954d7-40ea-4183-9942-df8526c55e59/AAABjt1qxD8/AAABjcWesUg/16x9-512.jpg", "date": "2024-04-14T20:39:00.000+02:00", "lat": 53.5511, "lon": 10.0003, "intensity": 0.6, "source": "Tagesschau"}, {"title": "Bundestagausstellung kommt nach Saarbr\u00fccken", "url": "https://www.tagesschau.de/inland/regional/saarland/sr-bundestagausstellung-kommt-nach-saarbruecken-100.html", "thumbnailUrl": "https://images.tagesschau.de/image/aaa63fb4-5083-413e-8d78-776314a05a30/AAABjt3jUaw/AAABjcWesUg/16x9-512.jpg", "date": "2024-04-14T20:33:00.000+02:00", "lat": 49.2402, "lon": 6.9969, "intensity": 0.2, "source": "Tagesschau"}, {"title": "Bayer Leverkusen nach Sieg gegen Werder Bremen erstmals deutscher Meister", "url": "https://www.tagesschau.de/inland/regional/niedersachsen/ndr-bayer-leverkusen-nach-sieg-gegen-werder-bremen-erstmals-deutscher-meister-104.html", "thumbnailUrl": "https://images.tagesschau.de/image/c3c40095-6526-427e-86ac-d802a3c1b740/AAABjt3RggI/AAABjcWesUg/16x9-512.jpg", "date": "2024-04-14T20:32:00.000+02:00", "lat": 52.3759, "lon": 9.7332, "intensity": 0.9, "source": "Tagesschau"}, {"title": "Eintracht: +++ Ex-Frankfurter N'Dicka bricht auf Platz zusammen +++ Eintracht gratuliert Meister Leverkusen +++ Freiburg setzt Eintracht unter Druck +++ ", "url": "https://www.tagesschau.de/inland/regional/hessen/hr--eintracht-wohl-mit-chaibi-einig--glasner-fast-nur-kolo-muani-der-tore-erzielt--bericht-eintracht-sagt-aouar-ab-100.html", "thumbnailUrl": "https://images.tagesschau.de/image/d616371d-9760-47e5-8e89-ff5ba22a0e8c/AAABjt3hli8/AAABjcWesUg/16x9-512.jpg", "date": "2024-04-14T20:31:28.207+02:00", "lat": 50.110922, "lon": 8.682127, "intensity": 0.6, "source": "Tagesschau"}, {"title": "Nach iranischem Angriff: Hunderte demonstrieren am Brandenburger Tor Solidarit\u00e4t mit Israel", "url": "https://www.tagesschau.de/inland/regional/berlin/rbb-nach-iranischem-angriff-hunderte-demonstrieren-am-brandenburger-tor-solidaritaet-mit-israel-100.html", "thumbnailUrl": "https://images.tagesschau.de/image/053eaf7b-887d-4fc3-a928-bdc3995e007c/AAABjt3Wyt0/AAABjcWesUg/16x9-512.jpg", "date": "2024-04-14T20:14:41.000+02:00", "lat": 52.516275, "lon": 13.377704, "intensity": 0.9, "source": "Tagesschau"}, {"title": "Bayer Leverkusen ist Deutscher Meister", "url": "https://www.tagesschau.de/inland/regional/nordrheinwestfalen/wdr-bayer-leverkusen-ist-deutscher-meister-100.html", "thumbnailUrl": "https://images.tagesschau.de/image/021f96d0-a2e0-4557-ab27-a22774efbe26/AAABjt4jVI8/AAABjcWesUg/16x9-512.jpg", "date": "2024-04-14T20:11:00.000+02:00", "lat": 51.0, "lon": 7.0, "intensity": 1, "source": "Tagesschau"}, {"title": "NATO-\u00dcbung: Mehrere Konvois fahren durch Niedersachsen", "url": "https://www.tagesschau.de/inland/regional/niedersachsen/ndr-nato-uebung-mehrere-konvois-fahren-durch-niedersachsen-100.html", "thumbnailUrl": "https://images.tagesschau.de/image/321a54b4-e233-4ae6-b3c5-0e1edfc4f95b/AAABjtJnHio/AAABjcWesUg/16x9-512.jpg", "date": "2024-04-14T20:00:00.000+02:00", "lat": 52.3759, "lon": 9.732, "intensity": 0.8, "source": "Tagesschau"}, {"title": "T\u00f6dlicher Unfall in Peine: Polizei muss Schaulustige fernhalten", "url": "https://www.tagesschau.de/inland/regional/niedersachsen/ndr-toedlicher-unfall-in-peine-polizei-muss-schaulustige-fernhalten-100.html", "thumbnailUrl": "https://images.tagesschau.de/image/c6652e96-0dc9-45b2-a152-2df8c8a4f88c/AAABjt3IPzs/AAABjcWesUg/16x9-512.jpg", "date": "2024-04-14T19:59:00.000+02:00", "lat": 52.3167, "lon": 10.2333, "intensity": 0.8, "source": "Tagesschau"}, {"title": "Kreuzbandriss: Bittere Nachricht f\u00fcr Niehues und den FCK", "url": "https://www.tagesschau.de/inland/regional/rheinlandpfalz/swr-kreuzbandriss-bittere-nachricht-fuer-niehues-und-den-fck-102.html", "thumbnailUrl": "https://images.tagesschau.de/image/bd0a3d04-02f4-4a2d-8e50-cc8ab2264d0a/AAABjt3Hzuc/AAABjcWesUg/16x9-512.jpg", "date": "2024-04-14T19:43:56.000+02:00", "lat": 49.4466, "lon": 7.5069, "intensity": 0.8, "source": "Tagesschau"}, {"title": "Bayer Leverkusen ist vorzeitig Deutscher Meister", "url": "https://www.tagesschau.de/sport/bundesliga-leverkusen-meister-100.html", "thumbnailUrl": "https://images.tagesschau.de/image/cdd0c6db-01eb-4f1f-a7d4-121a321d037b/AAABjt2qtUA/AAABjcWesUg/16x9-512.jpg", "date": "2024-04-14T19:34:16.280+02:00", "lat": 51.0318, "lon": 7.0106, "intensity": 0.9, "source": "Tagesschau"}, {"title": "Solidarit\u00e4t mit Israel: 50 Menschen demonstrieren in Hannover", "url": "https://www.tagesschau.de/inland/regional/niedersachsen/ndr-solidaritaet-mit-israel-50-menschen-demonstrieren-in-hannover-100.html", "thumbnailUrl": "https://images.tagesschau.de/image/6fdf596a-4cdb-4e87-a1fe-e48b0549d685/AAABjt2ust8/AAABjcWesUg/16x9-512.jpg", "date": "2024-04-14T19:32:00.000+02:00", "lat": 52.3759, "lon": 9.7332, "intensity": 0.6, "source": "Tagesschau"}, {"title": "Klare Niederlage: Kassel Huskies kassieren Ausgleich in DEL2-Finalserie", "url": "https://www.tagesschau.de/inland/regional/hessen/hr-klare-niederlage-kassel-huskies-kassieren-ausgleich-in-del2-finalserie-102.html", "thumbnailUrl": "https://images.tagesschau.de/image/d197da1b-cc72-44b3-9370-13977b0fd906/AAABjt3PRA8/AAABjcWesUg/16x9-512.jpg", "date": "2024-04-14T19:26:29.305+02:00", "lat": 51.3167, "lon": 9.9833, "intensity": 0.8, "source": "Tagesschau"}, {"title": "Saar-Gr\u00fcne stellen Weichen f\u00fcr Kommunalwahl", "url": "https://www.tagesschau.de/inland/regional/saarland/sr-saar-gruene-wollen-sich-grundlegend-reformieren-100.html", "thumbnailUrl": "https://images.tagesschau.de/image/ac60c4eb-8cf3-4783-9e5e-527cd33aae3a/AAABjtZc_Xw/AAABjcWesUg/16x9-512.jpg", "date": "2024-04-14T19:20:00.000+02:00", "lat": 49.3964, "lon": 7.0, "intensity": 0.3, "source": "Tagesschau"}, {"title": "Singen: Brand in Wohngeb\u00e4ude - zehn Bewohner und sechs Feuerwehrleute verletzt", "url": "https://www.tagesschau.de/inland/regional/badenwuerttemberg/swr-singen-brand-in-wohngebaeude-zehn-bewohner-und-sechs-feuerwehrleute-verletzt-100.html", "thumbnailUrl": "https://images.tagesschau.de/image/a4828037-5296-4c8e-a4c5-9c14da4920a4/AAABjt2aBUs/AAABjcWesUg/16x9-512.jpg", "date": "2024-04-14T19:11:55.000+02:00", "lat": 47.7663, "lon": 8.8597, "intensity": 0.8, "source": "Tagesschau"}, {"title": "Wetterlage und Temperaturen", "url": "https://www.tagesschau.de/wetter/europa-welt", "thumbnailUrl": "https://images.tagesschau.de/image/6e7d3b16-79c8-4308-822b-20c3035236b5/AAABjt2XcqQ/AAABjcWesUg/16x9-512.jpg", "date": "2024-04-14T19:11:46.793+02:00", "lat": 51.1657, "lon": 10.4515, "intensity": 0.3, "source": "Tagesschau"}, {"title": "Wie MoneyGram und Co. funktionieren", "url": "https://www.tagesschau.de/wirtschaft/weltwirtschaft/geld-geldtransfer-moneygram-100.html", "thumbnailUrl": "https://images.tagesschau.de/image/c465a64b-819b-4959-80cf-6ef02e210b23/AAABjq4vMCg/AAABjcWesUg/16x9-512.jpg", "date": "2024-04-14T19:08:00.731+02:00", "lat": 53.5511, "lon": 9.9937, "intensity": 0.3, "source": "Tagesschau"}, {"title": "Waschb\u00e4ren f\u00fchlen sich auch im Saarland immer wohler ", "url": "https://www.tagesschau.de/inland/regional/saarland/sr-waschbaeren-fuehlen-sich-auch-im-saarland-immer-wohler-100.html", "thumbnailUrl": "https://images.tagesschau.de/image/5c8984f3-2738-49d1-a6cf-f4b0387513b3/AAABjt2UhRM/AAABjcWesUg/16x9-512.jpg", "date": "2024-04-14T19:06:00.000+02:00", "lat": 49.3964, "lon": 6.9538, "intensity": 0.7, "source": "Tagesschau"}, {"title": "Baskets Koblenz gewinnen gegen Bayreuth", "url": "https://www.tagesschau.de/inland/regional/rheinlandpfalz/swr-baskets-koblenz-gewinnen-gegen-bayreuth-102.html", "thumbnailUrl": "https://images.tagesschau.de/image/9694eb7a-64bd-439f-91d6-6f4e0c9e8a48/AAABjt2Q8a4/AAABjcWesUg/16x9-512.jpg", "date": "2024-04-14T19:00:56.000+02:00", "lat": 50.3569, "lon": 7.5945, "intensity": 0.8, "source": "Tagesschau"}, {"title": "Antonsen und Marin holen Badminton-EM-Titel", "url": "https://www.tagesschau.de/inland/regional/saarland/sr-antonsen-und-marin-holen-badminton-em-titel-102.html", "thumbnailUrl": "https://images.tagesschau.de/image/bcbcf021-b9a3-4f8b-9d7a-f1f3470320eb/AAABjt2Srys/AAABjcWesUg/16x9-512.jpg", "date": "2024-04-14T18:56:00.000+02:00", "lat": 49.2402, "lon": 6.9969, "intensity": 0.6, "source": "Tagesschau"}, {"title": "Darmstadt 98: +++ Fassungslosigkeit bei Darmstadt 98 +++ Lilien verlieren auch gegen Freiburg +++ Lilien verl\u00e4ngern mit Hauptsponsor +++", "url": "https://www.tagesschau.de/inland/regional/hessen/hr--tietz-vermisst-fehlende-gier--lilien-fans-liefern-sich-raststaetten-pruegelei--die-niederlage-der-lilien-in-der-video-zusammenfassung-102.html", "thumbnailUrl": "https://images.tagesschau.de/image/be2e1006-f46c-4560-acfa-f052665a7137/AAABjt3RP9E/AAABjcWesUg/16x9-512.jpg", "date": "2024-04-14T18:38:36.106+02:00", "lat": 49.878, "lon": 8.6536, "intensity": 0.6, "source": "Tagesschau"}, {"title": "Stimmen zur Lilien-Niederlage: \"Traurig und ein Spiegelbild der Saison\"", "url": "https://www.tagesschau.de/inland/regional/hessen/hr-stimmen-zur-lilien-niederlage-traurig-und-ein-spiegelbild-der-saison-102.html", "thumbnailUrl": "https://images.tagesschau.de/image/0d7aa127-762f-47f7-9429-330d74f1e30a/AAABjt17GFQ/AAABjcWesUg/16x9-512.jpg", "date": "2024-04-14T18:36:13.239+02:00", "lat": 49.8709, "lon": 8.6524, "intensity": 0.7, "source": "Tagesschau"}, {"title": "Mehrere Menschen erleiden Atemwegsreizung: Reizgas vor queerer Party in Neuk\u00f6lln verspr\u00fcht - Staatsschutz ermittelt", "url": "https://www.tagesschau.de/inland/regional/berlin/rbb-mehrere-menschen-erleiden-atemwegsreizung-reizgas-vor-queerer-party-in-neukoelln-versprueht-staatsschutz-ermittelt-100.html", "thumbnailUrl": "https://images.tagesschau.de/image/c8280ee1-57ed-4217-9932-b50c4c207c76/AAABjt15ZRg/AAABjcWesUg/16x9-512.jpg", "date": "2024-04-14T18:35:52.000+02:00", "lat": 52.4938, "lon": 13.4354, "intensity": 0.8, "source": "Tagesschau"}, {"title": "\"Massiver Pyro-Beschuss\": Ministerin kritisiert Fans nach Derby", "url": "https://www.tagesschau.de/inland/regional/niedersachsen/ndr-massiver-pyro-beschuss-ministerin-kritisiert-fans-nach-derby-104.html", "thumbnailUrl": "https://images.tagesschau.de/image/6b163a6f-a289-4915-a112-0a35d2b84b23/AAABjt5PuLU/AAABjcWesUg/16x9-512.jpg", "date": "2024-04-14T18:35:00.000+02:00", "lat": 52.2681, "lon": 10.5268, "intensity": 0.8, "source": "Tagesschau"}, {"title": "Fu\u00dfball-Bundesliga: So realistisch sind Unions Ab- und Herthas Aufstieg", "url": "https://www.tagesschau.de/inland/regional/berlin/rbb-fussball-bundesliga-so-realistisch-sind-unions-ab-und-herthas-aufstieg-102.html", "thumbnailUrl": "https://images.tagesschau.de/image/f5f3320f-a143-4920-8209-b18f139270d7/AAABjt1z_M4/AAABjcWesUg/16x9-512.jpg", "date": "2024-04-14T18:29:00.000+02:00", "lat": 52.520008, "lon": 13.404954, "intensity": 0.7, "source": "Tagesschau"}, {"title": "Regionalliga Nordost der Frauen: Union Berlin und Viktoria gewinnen deutlich, Hertha BSC spielt Unentschieden", "url": "https://www.tagesschau.de/inland/regional/brandenburg/rbb-regionalliga-nordost-der-frauen-union-berlin-und-viktoria-gewinnen-deutlich-hertha-bsc-spielt-unentschieden-102.html", "thumbnailUrl": "https://images.tagesschau.de/image/0813e847-4952-4da7-8cf3-6aab6b47c504/AAABjt1cINI/AAABjcWesUg/16x9-512.jpg", "date": "2024-04-14T18:04:06.000+02:00", "lat": 52.52, "lon": 13.405, "intensity": 0.7, "source": "Tagesschau"}, {"title": "Basketball Bundesliga: Alba Berlin gewinnt knappes Spiel in Wei\u00dfenfels", "url": "https://www.tagesschau.de/inland/regional/berlin/rbb-basketball-bundesliga-alba-berlin-gewinnt-knappes-spiel-in-weissenfels-102.html", "thumbnailUrl": "https://images.tagesschau.de/image/841328bb-98bf-4b41-841c-2b346fdb028e/AAABjt1aR4M/AAABjcWesUg/16x9-512.jpg", "date": "2024-04-14T18:01:01.000+02:00", "lat": 51.476018, "lon": 11.964536, "intensity": 0.7, "source": "Tagesschau"}, {"title": "Mindestens 14 Tote nach Erdrutsch ", "url": "https://www.tagesschau.de/ausland/asien/erdrutsch-indonesien-100.html", "thumbnailUrl": "https://images.tagesschau.de/image/1f86536d-3a09-44f4-8a5e-acc4e6223fbe/AAABjt03WIM/AAABjcWesUg/16x9-512.jpg", "date": "2024-04-14T17:44:53.997+02:00", "lat": -8.6525, "lon": 120.2161, "intensity": 1, "source": "Tagesschau"}, {"title": "Eintracht Braunschweig - Hannover 96: Viel Rauch um ein 0:0 im Derby", "url": "https://www.tagesschau.de/inland/regional/niedersachsen/ndr-eintracht-braunschweig-hannover-96-viel-rauch-um-ein-00-im-derby-102.html", "thumbnailUrl": "https://images.tagesschau.de/image/f375132d-5090-458a-97de-9414ada5d236/AAABjt5Pvgw/AAABjcWesUg/16x9-512.jpg", "date": "2024-04-14T17:42:00.000+02:00", "lat": 52.2641, "lon": 10.5296, "intensity": 0.5, "source": "Tagesschau"}, {"title": "Welche Selbstzahler-Leistungen beim Arzt wirklich sinnvoll sind", "url": "https://www.tagesschau.de/inland/regional/bremen/rb-welche-selbstzahler-leistungen-beim-arzt-sinnvoll-sind-100.html", "thumbnailUrl": "https://images.tagesschau.de/image/96a34ceb-11c1-4163-892a-708f82f1585a/AAABjt08qww/AAABjcWesUg/16x9-512.jpg", "date": "2024-04-14T17:38:00.000+02:00", "lat": 53.079296, "lon": 8.801693, "intensity": 0.4, "source": "Tagesschau"}, {"title": "A24: Tourbus von Mark Forster drohte umzukippen", "url": "https://www.tagesschau.de/inland/regional/schleswigholstein/ndr-a24-tourbus-drohte-umzukippen-100.html", "thumbnailUrl": "https://images.tagesschau.de/image/b582e887-c38f-437f-b5af-16410fd8eb70/AAABjtxO91M/AAABjcWesUg/16x9-512.jpg", "date": "2024-04-14T17:31:00.000+02:00", "lat": 54.4596, "lon": 9.5569, "intensity": 0.7, "source": "Tagesschau"}, {"title": "Engagiert, aber gl\u00fccklos: Lilien starten Abschiedstour mit Niederlage", "url": "https://www.tagesschau.de/inland/regional/hessen/hr-engagiert-aber-gluecklos-lilien-starten-abschiedstour-mit-niederlage-102.html", "thumbnailUrl": "https://images.tagesschau.de/image/0daf1409-2264-442b-bab3-3da71edd8065/AAABjt1CZjg/AAABjcWesUg/16x9-512.jpg", "date": "2024-04-14T17:27:53.510+02:00", "lat": 49.8728, "lon": 8.6526, "intensity": 0.7, "source": "Tagesschau"}, {"title": "Iranischer Angriff: Hessische Politik und Kirchen best\u00fcrzt nach Angriff auf Israel", "url": "https://www.tagesschau.de/inland/regional/hessen/hr-iranischer-angriff-hessische-politik-und-kirchen-bestuerzt-nach-angriff-auf-israel-100.html", "thumbnailUrl": "https://images.tagesschau.de/image/ccf5b0dc-8564-4d43-b68a-3ffd67e8e830/AAABjt03XTM/AAABjcWesUg/16x9-512.jpg", "date": "2024-04-14T17:24:44.148+02:00", "lat": 50.6521, "lon": 9.6752, "intensity": 0.8, "source": "Tagesschau"}, {"title": "Polizei ermittelt: Unbekannte z\u00fcnden vor Haus von Rapper Capital Bra Auto an", "url": "https://www.tagesschau.de/inland/regional/brandenburg/rbb-polizei-ermittelt-unbekannte-zuenden-vor-haus-von-rapper-capital-bra-auto-an-100.html", "thumbnailUrl": "https://images.tagesschau.de/image/4aeafa11-e87e-442b-bbea-2e934bb3fe1d/AAABjt0x1tE/AAABjcWesUg/16x9-512.jpg", "date": "2024-04-14T17:15:34.000+02:00", "lat": 52.5218, "lon": 13.4634, "intensity": 0.8, "source": "Tagesschau"}, {"title": "DHB-Pokalfinale: MT Melsungen k\u00e4mpft - und verliert doch klar", "url": "https://www.tagesschau.de/inland/regional/hessen/hr-dhb-pokalfinale-mt-melsungen-kaempft-und-verliert-dann-doch-klar-102.html", "thumbnailUrl": "https://images.tagesschau.de/image/3d153994-2b7e-4da8-9c80-0b03e6c1a5d1/AAABjt1EIBo/AAABjcWesUg/16x9-512.jpg", "date": "2024-04-14T17:13:32.332+02:00", "lat": 51.3126, "lon": 9.6756, "intensity": 0.7, "source": "Tagesschau"}, {"title": "Vom Saarland nach New York: Die Werke des Saarbr\u00fccker Pop-Art-K\u00fcnstlers Mike Hieronymus", "url": "https://www.tagesschau.de/inland/regional/saarland/sr-vom-saarland-nach-new-york-die-werke-des-saarbruecker-pop-art-kuenstlers-mike-hieronymus-100.html", "thumbnailUrl": "https://images.tagesschau.de/image/654e1968-e650-4a09-9a14-aaf7bc280aca/AAABjt0qZeo/AAABjcWesUg/16x9-512.jpg", "date": "2024-04-14T17:10:00.000+02:00", "lat": 40.73061, "lon": -73.935242, "intensity": 0.8, "source": "Tagesschau"}, {"title": "\"Iran hat nicht sein volles Potenzial eingesetzt\"", "url": "https://www.tagesschau.de/ausland/asien/carlo-masala-nahost-krieg-israel-iran-100.html", "thumbnailUrl": "https://images.tagesschau.de/image/86a93c76-9319-4b64-a39b-ac5d8cb1120b/AAABjt0A01Q/AAABjcWesUg/16x9-512.jpg", "date": "2024-04-14T17:07:53.286+02:00", "lat": 35.689506, "lon": 51.388973, "intensity": 0.8, "source": "Tagesschau"}, {"title": "Abschlepp-Marathon zum Hannover-Marathon", "url": "https://www.tagesschau.de/inland/regional/niedersachsen/ndr-marathon-am-sonntag-zahlreiche-strassen-in-hannover-gesperrt-100.html", "thumbnailUrl": "https://images.tagesschau.de/image/d89c930c-94cc-4e8c-b5f9-e83d8e56504b/AAABjt3YzIU/AAABjcWesUg/16x9-512.jpg", "date": "2024-04-14T17:01:00.000+02:00", "lat": 52.37403, "lon": 9.73322, "intensity": 0.8, "source": "Tagesschau"}, {"title": "So bereitet sich Leverkusen auf den Meistertitel vor", "url": "https://www.tagesschau.de/inland/regional/nordrheinwestfalen/wdr-so-bereitet-die-stadt-leverkusen-sich-auf-moeglichen-meistertitel-vor-100.html", "thumbnailUrl": "https://images.tagesschau.de/image/c54065fc-e3a3-4277-a401-f65cf4f99955/AAABjt25S1I/AAABjcWesUg/16x9-512.jpg", "date": "2024-04-14T17:01:00.000+02:00", "lat": 51.045, "lon": 7.08, "intensity": 0.8, "source": "Tagesschau"}, {"title": "Ab morgen neue Streiks bei Bussen und Bahnen - bei Rheinbahn, Bogestra und SWK mobil", "url": "https://www.tagesschau.de/inland/regional/nordrheinwestfalen/wdr-ab-montag-neue-streiks-im-oepnv-100.html", "thumbnailUrl": "https://images.tagesschau.de/image/6055557f-da8d-4f7f-b281-17863ffa2616/AAABjt280Ko/AAABjcWesUg/16x9-512.jpg", "date": "2024-04-14T16:57:00.000+02:00", "lat": 51.2277, "lon": 6.7735, "intensity": 0.8, "source": "Tagesschau"}, {"title": "Flattern die Nerven? FC St. Pauli mit erster Heimniederlage", "url": "https://www.tagesschau.de/inland/regional/hamburg/ndr-flattern-die-nerven-fc-st-pauli-mit-erster-heimniederlage-102.html", "thumbnailUrl": "https://images.tagesschau.de/image/9530d5bd-8ebf-4e14-a0ea-c7ee32cf9b94/AAABjtzwC6g/AAABjcWesUg/16x9-512.jpg", "date": "2024-04-14T16:49:00.000+02:00", "lat": 53.5511, "lon": 9.9692, "intensity": 0.8, "source": "Tagesschau"}, {"title": "Speed Week in NRW: Polizei jagt ab Montag wieder Raser", "url": "https://www.tagesschau.de/inland/regional/nordrheinwestfalen/wdr-speed-week-in-nrw-polizei-jagt-ab-montag-wieder-raser-100.html", "thumbnailUrl": "https://images.tagesschau.de/image/2027334c-3e8f-45a4-84a5-f2998b738679/AAABjt1LR40/AAABjcWesUg/16x9-512.jpg", "date": "2024-04-14T16:34:00.000+02:00", "lat": 51.1657, "lon": 7.6261, "intensity": 0.6, "source": "Tagesschau"}, {"title": "Wie sich Israel gegen Luftangriffe sch\u00fctzt", "url": "https://www.tagesschau.de/ausland/asien/israel-iron-dome-104.html", "thumbnailUrl": "https://images.tagesschau.de/image/df819bc9-f29c-411e-a697-016354224822/AAABjt0OyHY/AAABjcWesUg/16x9-512.jpg", "date": "2024-04-14T16:23:58.193+02:00", "lat": 31.046051, "lon": 34.851612, "intensity": 0.8, "source": "Tagesschau"}, {"title": "Gr\u00fcne und CDU einigen sich auf Paket f\u00fcr Sprachf\u00f6rderung in dreistelliger Millionenh\u00f6he", "url": "https://www.tagesschau.de/inland/regional/badenwuerttemberg/swr-spitzen-von-gruenen-und-cdu-bw-entscheiden-ueber-millionenschwere-bildungsreformen-100.html", "thumbnailUrl": "https://images.tagesschau.de/image/773e912a-1b15-43b9-bb55-7ff89c1afc05/AAABjtwSPeU/AAABjcWesUg/16x9-512.jpg", "date": "2024-04-14T16:17:00.000+02:00", "lat": 48.7758, "lon": 9.1895, "intensity": 0.8, "source": "Tagesschau"}, {"title": "Ostberliner Ikone wird K\u00fcnstlerort: Wie aus dem Eierh\u00e4uschen gepellt", "url": "https://www.tagesschau.de/inland/regional/berlin/rbb-ostberliner-ikone-wird-kuenstlerort-wie-aus-dem-eierhaeuschen-gepellt-100.html", "thumbnailUrl": "https://images.tagesschau.de/image/aab348af-f060-41ec-9607-67e97bd08644/AAABjtz5QZg/AAABjcWesUg/16x9-512.jpg", "date": "2024-04-14T16:14:11.000+02:00", "lat": 52.4852, "lon": 13.4748, "intensity": 0.6, "source": "Tagesschau"}, {"title": "Woidke w\u00fcrdigt Kraft der \u00dcberlebenden", "url": "https://www.tagesschau.de/inland/regional/brandenburg/gedenken-an-kz-befreiung-in-sachsenhausen-und-ravensbrueck-100.html", "thumbnailUrl": "https://images.tagesschau.de/image/f5536caa-e0a6-4b10-89b8-d78c69a658aa/AAABjtz3WHA/AAABjcWesUg/16x9-512.jpg", "date": "2024-04-14T16:10:05.000+02:00", "lat": 52.7794, "lon": 13.2483, "intensity": 0.8, "source": "Tagesschau"}, {"title": "Iran verteidigt Angriffe und droht Israel", "url": "https://www.tagesschau.de/ausland/iran-angriff-israel-102.html", "thumbnailUrl": "https://images.tagesschau.de/image/f0982202-7afc-4d1a-9f21-9237a6a7e57e/AAABjtzIfWE/AAABjcWesUg/16x9-512.jpg", "date": "2024-04-14T15:49:25.203+02:00", "lat": 35.6895, "lon": 51.389, "intensity": 0.8, "source": "Tagesschau"}, {"title": "Erneute Soli-Demo f\u00fcr Ex-RAF-Terroristin Klette in Vechta", "url": "https://www.tagesschau.de/inland/regional/niedersachsen/ndr-erneute-soli-demo-fuer-ex-raf-terroristin-klette-in-vechta-100.html", "thumbnailUrl": "https://images.tagesschau.de/image/4e7c5419-4dca-4c8f-9efc-8824d64f835b/AAABjtzhqh4/AAABjcWesUg/16x9-512.jpg", "date": "2024-04-14T15:49:00.000+02:00", "lat": 52.7233, "lon": 8.2864, "intensity": 0.3, "source": "Tagesschau"}, {"title": "Entgleiste Diesellock: Z\u00fcge zwischen Berlin und Oranienburg sollen ab Mittwoch wieder fahren", "url": "https://www.tagesschau.de/inland/regional/brandenburg/rbb-entgleiste-diesellock-zuege-zwischen-berlin-und-oranienburg-sollen-ab-mittwoch-wieder-fahren-100.html", "thumbnailUrl": "https://images.tagesschau.de/image/ae289ef1-37c3-428a-a097-0099e5a69912/AAABjtzfaoA/AAABjcWesUg/16x9-512.jpg", "date": "2024-04-14T15:48:13.000+02:00", "lat": 52.52, "lon": 13.25, "intensity": 0.7, "source": "Tagesschau"}, {"title": "Holstein Kiel besiegt Osnabr\u00fcck souver\u00e4n und springt auf Platz eins", "url": "https://www.tagesschau.de/inland/regional/schleswigholstein/ndr-holstein-kiel-besiegt-osnabrueck-souveraen-und-springt-auf-platz-eins-102.html", "thumbnailUrl": "https://images.tagesschau.de/image/6b25b96e-36e1-4eb6-bce6-82157da9753f/AAABjtesnSk/AAABjcWesUg/16x9-512.jpg", "date": "2024-04-14T15:45:00.000+02:00", "lat": 54.3213, "lon": 10.1391, "intensity": 0.8, "source": "Tagesschau"}, {"title": "Meffert-Tor rettet HSV in letzter Sekunde Remis in Magdeburg ", "url": "https://www.tagesschau.de/inland/regional/hamburg/ndr-meffert-tor-rettet-hsv-in-letzter-sekunde-remis-in-magdeburg-102.html", "thumbnailUrl": "https://images.tagesschau.de/image/5ec31875-9266-417b-bde8-c7b450ee337f/AAABjtzx2XI/AAABjcWesUg/16x9-512.jpg", "date": "2024-04-14T15:38:00.000+02:00", "lat": 53.551086, "lon": 10.004492, "intensity": 0.8, "source": "Tagesschau"}, {"title": "Hilfsangebot f\u00fcr Lokalpolitiker: Brandenburger Beratungsstelle gegen Hass und Hetze soll ab Mai online sein", "url": "https://www.tagesschau.de/inland/regional/brandenburg/rbb-hilfsangebot-fuer-lokalpolitiker-brandenburger-beratungsstelle-gegen-hass-und-hetze-soll-ab-mai-online-sein-100.html", "thumbnailUrl": "https://images.tagesschau.de/image/d0fedd21-51bc-4ba7-a5fe-ec41bc661728/AAABjtzUnWA/AAABjcWesUg/16x9-512.jpg", "date": "2024-04-14T15:37:03.000+02:00", "lat": 52.516, "lon": 13.166, "intensity": 0.8, "source": "Tagesschau"}, {"title": "Werden die Pinguins Meister? Verfolgen Sie unsere Live-Reportagen!", "url": "https://www.tagesschau.de/inland/regional/bremen/rb-werden-die-pinguins-meister-verfolgen-sie-unsere-live-reportagen-102.html", "thumbnailUrl": "https://images.tagesschau.de/image/c2a69e25-23b3-4943-9a86-98e3ec63e972/AAABjtzO0Ok/AAABjcWesUg/16x9-512.jpg", "date": "2024-04-14T15:29:00.000+02:00", "lat": 53.079296, "lon": 8.805865, "intensity": 0.8, "source": "Tagesschau"}, {"title": "\u00dcberraschungssieg f\u00fcr die SV Elversberg gegen St. Pauli", "url": "https://www.tagesschau.de/inland/regional/saarland/sr-sv-elversberg-will-bei-st-pauli-dem-klassenerhalt-naeherkommen-100.html", "thumbnailUrl": "https://images.tagesschau.de/image/363f4e81-4121-4b01-8199-c3b349d78440/AAABjtzi5vU/AAABjcWesUg/16x9-512.jpg", "date": "2024-04-14T15:26:00.000+02:00", "lat": 53.5511, "lon": 9.9563, "intensity": 0.7, "source": "Tagesschau"}, {"title": "Tsch\u00fcss, Sommergef\u00fchle: Jetzt wird es k\u00e4lter in Bremen und Bremerhaven", "url": "https://www.tagesschau.de/inland/regional/bremen/rb-tschuess-sommergefuehle-jetzt-wird-es-kaelter-in-bremen-und-bremerhaven-100.html", "thumbnailUrl": "https://images.tagesschau.de/image/b1b0e405-bd26-4b5a-b92e-32d0225c4d1b/AAABjtzLO2w/AAABjcWesUg/16x9-512.jpg", "date": "2024-04-14T15:25:00.000+02:00", "lat": 53.079296, "lon": 8.801694, "intensity": 0.6, "source": "Tagesschau"}, {"title": "28:31 gegen Flensburg: F\u00fcchse Berlin verlieren beim DHB-Pokal auch Spiel um Platz drei", "url": "https://www.tagesschau.de/inland/regional/berlin/rbb-2831-gegen-flensburg-fuechse-berlin-verlieren-beim-dhb-pokal-auch-spiel-um-platz-drei-102.html", "thumbnailUrl": "https://images.tagesschau.de/image/2fc3168c-9d74-4565-9ee9-c4dcfebd951d/AAABjty1eAE/AAABjcWesUg/16x9-512.jpg", "date": "2024-04-14T14:59:28.000+02:00", "lat": 52.520008, "lon": 13.404954, "intensity": 0.7, "source": "Tagesschau"}, {"title": "Bundespolizei findet Rucksack voller Drogen", "url": "https://www.tagesschau.de/inland/regional/niedersachsen/ndr-bundespolizei-findet-rucksack-voller-drogen-100.html", "thumbnailUrl": "https://images.tagesschau.de/image/0c0538cd-b7bc-4e59-8769-92e2447ba503/AAABjtyz77U/AAABjcWesUg/16x9-512.jpg", "date": "2024-04-14T14:55:00.000+02:00", "lat": 52.374, "lon": 9.732, "intensity": 0.8, "source": "Tagesschau"}, {"title": "Gr\u00fcne in Oldenburg: Vorsitzende fordert Einsatz f\u00fcr Demokratie", "url": "https://www.tagesschau.de/inland/regional/niedersachsen/ndr-landesparteitag-gruene-diskutieren-in-oldenburg-ueber-europa-100.html", "thumbnailUrl": "https://images.tagesschau.de/image/258eefbf-a6d9-49b9-9074-64acf914a0cd/AAABjtxCfPQ/AAABjcWesUg/16x9-512.jpg", "date": "2024-04-14T14:40:00.000+02:00", "lat": 53.1435, "lon": 8.2159, "intensity": 0.7, "source": "Tagesschau"}, {"title": "Frau in Karlsruhe durch herabfallende Gaskartusche aus Hochhaus t\u00f6dlich verletzt", "url": "https://www.tagesschau.de/inland/regional/badenwuerttemberg/swr-frau-in-karlsruhe-durch-herabfallenden-gegenstand-toedlich-verletzt-100.html", "thumbnailUrl": "https://images.tagesschau.de/image/e0a0b9bc-ad50-49d1-8012-5ba20adac2df/AAABjtv4leQ/AAABjcWesUg/16x9-512.jpg", "date": "2024-04-14T14:39:00.000+02:00", "lat": 49.00689, "lon": 8.403653, "intensity": 0.8, "source": "Tagesschau"}, {"title": "Wie reagiert die arabische Welt?", "url": "https://www.tagesschau.de/ausland/israel-iran-arabische-reaktionen-100.html", "thumbnailUrl": "https://images.tagesschau.de/image/208ec37a-b375-4a93-a963-8e84e6111838/AAABjtyPqlI/AAABjcWesUg/16x9-512.jpg", "date": "2024-04-14T14:14:49.455+02:00", "lat": 31.0461, "lon": 35.8434, "intensity": 0.7, "source": "Tagesschau"}, {"title": "AfD Mecklenburg-Vorpommern: \"Dexit\" nicht undenkbar", "url": "https://www.tagesschau.de/inland/regional/mecklenburgvorpommern/ndr-afd-mecklenburg-vorpommern-dexit-nicht-undenkbar-100.html", "thumbnailUrl": "https://images.tagesschau.de/image/08d70d01-b127-4b69-a1ca-fb30ce81f990/AAABjtyHYFY/AAABjcWesUg/16x9-512.jpg", "date": "2024-04-14T14:04:00.000+02:00", "lat": 53.6127, "lon": 13.2188, "intensity": 0.6, "source": "Tagesschau"}, {"title": "++ Laut Milit\u00e4r nur wenige Raketen in Israel eingeschlagen ++ ", "url": "https://www.tagesschau.de/newsticker/liveblog-nahost-samstag-124.html", "thumbnailUrl": "https://images.tagesschau.de/image/45dbb046-3abb-44d8-9591-2054b93edeb3/AAABjtoSmJI/AAABjcWesUg/16x9-512.jpg", "date": "2024-04-14T14:02:43.848+02:00", "lat": 31.046051, "lon": 34.851612, "intensity": 0.7, "source": "Tagesschau"}, {"title": "Scholz warnt Iran vor weiteren Angriffen", "url": "https://www.tagesschau.de/ausland/iran-israel-angriff-104.html", "thumbnailUrl": "https://images.tagesschau.de/image/0ee2285f-231c-444e-afe8-116d13574c4e/AAABjtxJeR8/AAABjcWesUg/16x9-512.jpg", "date": "2024-04-14T14:01:30.776+02:00", "lat": 35.689197, "lon": 51.388973, "intensity": 0.8, "source": "Tagesschau"}, {"title": "Mann in Berlin-Friedenau niedergestochen", "url": "https://www.tagesschau.de/inland/regional/berlin/rbb-polizeieinsatz-102.html", "thumbnailUrl": "https://images.tagesschau.de/image/acedefce-28a7-4f76-ba45-2e8706f4a246/AAABjtvi60A/AAABjcWesUg/16x9-512.jpg", "date": "2024-04-14T13:35:11.000+02:00", "lat": 52.4714, "lon": 13.3386, "intensity": 0.8, "source": "Tagesschau"}, {"title": "Mannheimer BUGA-Gel\u00e4nde Spinelli ist wiederer\u00f6ffnet", "url": "https://www.tagesschau.de/inland/regional/badenwuerttemberg/swr-mannheimer-buga-gelaende-spinelli-wird-wiedereroeffnet-100.html", "thumbnailUrl": "https://images.tagesschau.de/image/4f190ec5-f378-495e-bff9-7df9058122b6/AAABjt0WL6g/AAABjcWesUg/16x9-512.jpg", "date": "2024-04-14T13:27:00.000+02:00", "lat": 49.4875, "lon": 8.4975, "intensity": 0.6, "source": "Tagesschau"}, {"title": "Kiel: Bombe in Schwentine entsch\u00e4rft", "url": "https://www.tagesschau.de/inland/regional/schleswigholstein/ndr-kiel-blindgaenger-in-schwentine-gefunden-entschaerfung-am-sonntag-100.html", "thumbnailUrl": "https://images.tagesschau.de/image/0d15a98d-0d26-428b-a2ac-8f4ca5725edc/AAABjtyqkGs/AAABjcWesUg/16x9-512.jpg", "date": "2024-04-14T13:20:00.000+02:00", "lat": 54.3227, "lon": 10.1393, "intensity": 0.8, "source": "Tagesschau"}, {"title": "Mehr Geld f\u00fcr die Abgeordneten im Nieders\u00e4chsischen Landtag", "url": "https://www.tagesschau.de/inland/regional/niedersachsen/ndr-mehr-geld-fuer-die-abgeordneten-im-niedersaechsischen-landtag-100.html", "thumbnailUrl": "https://images.tagesschau.de/image/bd40b838-4f8a-4fb6-92f7-11b1c38cc153/AAABjtxWX18/AAABjcWesUg/16x9-512.jpg", "date": "2024-04-14T13:17:00.000+02:00", "lat": 52.375892, "lon": 9.73201, "intensity": 0.5, "source": "Tagesschau"}, {"title": "27-J\u00e4hriger in St. Ingbert von Wildschwein angegriffen ", "url": "https://www.tagesschau.de/inland/regional/saarland/sr-27-jaehriger-in-st-ingbert-von-wildschwein-angegriffen-100.html", "thumbnailUrl": "https://images.tagesschau.de/image/a342230a-cef7-459f-b008-996b4b6a56e0/AAABjtxivE0/AAABjcWesUg/16x9-512.jpg", "date": "2024-04-14T13:17:00.000+02:00", "lat": 49.2764, "lon": 7.1192, "intensity": 0.6, "source": "Tagesschau"}, {"title": "Obdachloser in Wohnung in Peine offenbar stundenlang gequ\u00e4lt", "url": "https://www.tagesschau.de/inland/regional/niedersachsen/ndr-obdachloser-in-wohnung-in-peine-offenbar-stundenlang-gequaelt-100.html", "thumbnailUrl": "https://images.tagesschau.de/image/6d5f7b1f-2738-4bb8-8d04-f674f40add99/AAABjtwk8cc/AAABjcWesUg/16x9-512.jpg", "date": "2024-04-14T13:14:00.000+02:00", "lat": 52.3194, "lon": 10.2267, "intensity": 0.8, "source": "Tagesschau"}, {"title": "Freibad und Riesen-Rutsche im Salinarium Bad D\u00fcrkheim wieder offen", "url": "https://www.tagesschau.de/inland/regional/rheinlandpfalz/swr-freibad-und-riesen-rutsche-im-salinarium-bad-duerkheim-machen-auf-100.html", "thumbnailUrl": "https://images.tagesschau.de/image/ee121d23-0506-4a9c-8595-fad45a9d99b9/AAABjt1-m1I/AAABjcWesUg/16x9-512.jpg", "date": "2024-04-14T13:13:00.000+02:00", "lat": 49.4564, "lon": 8.1812, "intensity": 0.6, "source": "Tagesschau"}, {"title": "Eintritt in einigen Schwimmb\u00e4dern im Westen der Pfalz bald teurer", "url": "https://www.tagesschau.de/inland/regional/rheinlandpfalz/swr-eintritt-in-einigen-schwimmbaedern-im-westen-der-pfalz-bald-teurer-100.html", "thumbnailUrl": "https://images.tagesschau.de/image/3b3fc981-eb25-4bfb-9c4c-22210bd16fc3/AAABjt1-ohg/AAABjcWesUg/16x9-512.jpg", "date": "2024-04-14T13:07:18.000+02:00", "lat": 49.5547, "lon": 8.0778, "intensity": 0.4, "source": "Tagesschau"}, {"title": "Millionen-Einsparungen: Wiesbaden k\u00fcrzt Busangebot drastisch", "url": "https://www.tagesschau.de/inland/regional/hessen/hr-millionen-einsparungen-wiesbaden-kuerzt-busangebot-drastisch-100.html", "thumbnailUrl": "https://images.tagesschau.de/image/5c573305-c19a-47b2-8468-f0607022d642/AAABjtxFnSU/AAABjcWesUg/16x9-512.jpg", "date": "2024-04-14T13:00:16.196+02:00", "lat": 50.078218, "lon": 8.23976, "intensity": 0.8, "source": "Tagesschau"}, {"title": "Autofahrerin hinterl\u00e4sst Spur der Verw\u00fcstung im Raum Wolfsburg", "url": "https://www.tagesschau.de/inland/regional/niedersachsen/ndr-autofahrerin-hinterlaesst-spur-der-verwuestung-im-raum-wolfsburg-100.html", "thumbnailUrl": "https://images.tagesschau.de/image/13640ee7-8888-4ff3-8ae8-7ae4e019b4d9/AAABjtxJiW0/AAABjcWesUg/16x9-512.jpg", "date": "2024-04-14T13:00:00.000+02:00", "lat": 52.4226, "lon": 10.7863, "intensity": 0.8, "source": "Tagesschau"}, {"title": "Tosca im Staatstheater: Cottbus trampelt und jubelt", "url": "https://www.tagesschau.de/inland/regional/brandenburg/rbb-tosca-im-staatstheater-cottbus-trampelt-und-jubelt-100.html", "thumbnailUrl": "https://images.tagesschau.de/image/57557a99-cde8-49c7-9019-4714586153d8/AAABjtxDxlA/AAABjcWesUg/16x9-512.jpg", "date": "2024-04-14T12:57:07.000+02:00", "lat": 51.756, "lon": 14.331, "intensity": 0.6, "source": "Tagesschau"}, {"title": "Stralsund: Polizei stellt Droge \"Blue Punisher\" sicher", "url": "https://www.tagesschau.de/inland/regional/mecklenburgvorpommern/ndr-stralsund-polizei-stellt-auf-party-blue-punisher-pillen-sicher-100.html", "thumbnailUrl": "https://images.tagesschau.de/image/094ab93e-0245-4fb6-b3d1-cf0ee7dded80/AAABjtwxWhY/AAABjcWesUg/16x9-512.jpg", "date": "2024-04-14T12:40:00.000+02:00", "lat": 54.3119, "lon": 13.0818, "intensity": 0.8, "source": "Tagesschau"}, {"title": "44-J\u00e4hriger in Heusweiler wegen Hausfriedensbruch verhaftet", "url": "https://www.tagesschau.de/inland/regional/saarland/sr-44-jaehriger-in-heusweiler-wegen-hausfriedensbruch-verhaftet-100.html", "thumbnailUrl": "https://images.tagesschau.de/image/918b9ece-ec2d-47d1-bf6d-9585fe617719/AAABjtxivfM/AAABjcWesUg/16x9-512.jpg", "date": "2024-04-14T12:35:00.000+02:00", "lat": 49.3303, "lon": 6.9363, "intensity": 0.6, "source": "Tagesschau"}, {"title": "Frau durch Gas-Verpuffung in ihrer Wohnung schwer verletzt", "url": "https://www.tagesschau.de/inland/regional/niedersachsen/ndr-frau-durch-gas-verpuffung-in-ihrer-wohnung-schwer-verletzt-100.html", "thumbnailUrl": "https://images.tagesschau.de/image/b3256ef1-46be-4997-85e3-ba89be6d0381/AAABjtyH0E4/AAABjcWesUg/16x9-512.jpg", "date": "2024-04-14T12:35:00.000+02:00", "lat": 52.3167, "lon": 10.2333, "intensity": 0.8, "source": "Tagesschau"}, {"title": "Berlin-Marzahn: Metallstangen aus dem 13. und 14. Stock eines Hochhauses geworfen", "url": "https://www.tagesschau.de/inland/regional/berlin/rbb-berlin-marzahn-metallstangen-aus-dem-13-und-14-stock-eines-hochhauses-geworfen-100.html", "thumbnailUrl": "https://images.tagesschau.de/image/15a93442-774e-410b-8eb2-249da7a61a65/AAABjtwv3t8/AAABjcWesUg/16x9-512.jpg", "date": "2024-04-14T12:34:10.000+02:00", "lat": 52.5394, "lon": 13.5656, "intensity": 0.7, "source": "Tagesschau"}, {"title": "MT Melsungen greift nach den Sternen: \"\u2026 dann holen wir den Pokal!\"", "url": "https://www.tagesschau.de/inland/regional/hessen/hr-mt-melsungen-greift-nach-den-sternen--dann-holen-wir-den-pokal-102.html", "thumbnailUrl": "https://images.tagesschau.de/image/2aa2f0e2-56e5-4ad6-8140-26068e0b4d12/AAABjtwzVgw/AAABjcWesUg/16x9-512.jpg", "date": "2024-04-14T12:30:14.884+02:00", "lat": 51.314, "lon": 9.578, "intensity": 0.8, "source": "Tagesschau"}, {"title": "Kultur: +++ Hessischer Verdienstorden f\u00fcr Nicol\u00e1s Pasquet +++ Schwert an Kaiser-Statue in Frankfurt gestohlen +++ Sammler aus Nordhessen gesucht +++ ", "url": "https://www.tagesschau.de/inland/regional/hessen/hr--schauspiel-frankfurt-bringt-putin-und-macbeth-zusammen--die-filmfestival-saison-2023-startet--lichter-filmfest-zum-thema-liebe-startet-am-dienstag-100.html", "thumbnailUrl": "https://images.tagesschau.de/image/2050372a-3999-42ba-b58d-c5a685757605/AAABjtwofJs/AAABjcWesUg/16x9-512.jpg", "date": "2024-04-14T12:28:23.184+02:00", "lat": 50.110922, "lon": 8.682127, "intensity": 0.7, "source": "Tagesschau"}, {"title": "Unfall auf der A7 bei Aalen-Ebnat: Autofahrer fl\u00fcchtet", "url": "https://www.tagesschau.de/inland/regional/badenwuerttemberg/swr-unfall-auf-der-a7-bei-aalen-ebnat-autofahrer-fluechtet-100.html", "thumbnailUrl": "https://images.tagesschau.de/image/472c0a10-1483-4fe4-95c9-671dfaee3c23/AAABjtwoRQw/AAABjcWesUg/16x9-512.jpg", "date": "2024-04-14T12:26:12.000+02:00", "lat": 48.8859, "lon": 10.1543, "intensity": 0.8, "source": "Tagesschau"}, {"title": "Anti-Kater-Lieferservice: Berliner Start-up schickt Infusion und Krankenpfleger", "url": "https://www.tagesschau.de/inland/regional/berlin/rbb-anti-kater-lieferservice-start-up-schickt-infusion-und-krankenpfleger-100.html", "thumbnailUrl": "https://images.tagesschau.de/image/7815a24c-bd92-474e-81f8-5a8475776509/AAABjtwZ0HA/AAABjcWesUg/16x9-512.jpg", "date": "2024-04-14T12:12:00.000+02:00", "lat": 52.520008, "lon": 13.404954, "intensity": 0.6, "source": "Tagesschau"}, {"title": "Emsland: 20-J\u00e4hriger bei Unfall mit Quad schwer verletzt", "url": "https://www.tagesschau.de/inland/regional/niedersachsen/ndr-emsland-20-jaehriger-bei-unfall-mit-quad-schwer-verletzt-100.html", "thumbnailUrl": "https://images.tagesschau.de/image/b1b4f1c0-5021-4be0-b380-9e8350a38501/AAABjtuB6FQ/AAABjcWesUg/16x9-512.jpg", "date": "2024-04-14T12:05:00.000+02:00", "lat": 52.8363, "lon": 7.5231, "intensity": 0.7, "source": "Tagesschau"}, {"title": "Goethes- Ritterdrama \"G\u00f6tz von Berlichingen\" feiert 250-j\u00e4hriges Jubil\u00e4um", "url": "https://www.tagesschau.de/inland/regional/badenwuerttemberg/swr-goethes-ritterdrama-goetz-von-berlichingen-feiert-250-jaehriges-jubilaeum-100.html", "thumbnailUrl": "https://images.tagesschau.de/image/f9b78743-08a9-4c99-ab5e-427de5825e54/AAABjt1QyUg/AAABjcWesUg/16x9-512.jpg", "date": "2024-04-14T12:03:20.000+02:00", "lat": 48.6616, "lon": 9.9937, "intensity": 0.7, "source": "Tagesschau"}, {"title": "3D-Modell von U-Boot-Wrack: Die letzte Reise von \"UC71\"", "url": "https://www.tagesschau.de/inland/regional/schleswigholstein/ndr-3d-modell-von-u-boot-wrack-100.html", "thumbnailUrl": "https://images.tagesschau.de/image/7f1b7f28-3adf-4e6f-8f6c-30be365ccf95/AAABjtwYCB4/AAABjcWesUg/16x9-512.jpg", "date": "2024-04-14T12:00:00.000+02:00", "lat": 54.1787, "lon": 8.6879, "intensity": 0.7, "source": "Tagesschau"}, {"title": "Verschmutztes Wasser im Hafen von Bremerv\u00f6rde: \u00d6lsperre ausgelegt", "url": "https://www.tagesschau.de/inland/regional/niedersachsen/ndr-verschmutztes-wasser-im-hafen-von-bremervoerde-oelsperre-ausgelegt-100.html", "thumbnailUrl": "https://images.tagesschau.de/image/0367151f-3fe9-471c-8ea2-6516e0136fcf/AAABjtwLTqU/AAABjcWesUg/16x9-512.jpg", "date": "2024-04-14T11:54:00.000+02:00", "lat": 53.4804, "lon": 9.1317, "intensity": 0.8, "source": "Tagesschau"}, {"title": "Geringe Sch\u00e4den durch Irans Gro\u00dfangriff auf Israel", "url": "https://www.tagesschau.de/ausland/asien/israel-iran-angriff-drohnen-nahost-krieg-100.html", "thumbnailUrl": "https://images.tagesschau.de/image/48de35fc-4103-4ed2-85d6-2f67a134789f/AAABjtnTCBE/AAABjcWesUg/16x9-512.jpg", "date": "2024-04-14T11:49:07.310+02:00", "lat": 31.7961, "lon": 35.2433, "intensity": 0.3, "source": "Tagesschau"}, {"title": "Hannover-Marathon: Petros und Mayer mit Streckenrekord deutsche Meister", "url": "https://www.tagesschau.de/inland/regional/niedersachsen/ndr-hannover-marathon-petros-und-mayer-mit-streckenrekord-deutsche-meister-102.html", "thumbnailUrl": "https://images.tagesschau.de/image/63517e9f-d526-473a-a08e-c91738a82fd3/AAABjt3Yvxg/AAABjcWesUg/16x9-512.jpg", "date": "2024-04-14T11:48:00.000+02:00", "lat": 52.3759, "lon": 9.7332, "intensity": 0.8, "source": "Tagesschau"}, {"title": "Einzigartig sch\u00f6n: Drei imposante Naturdenkm\u00e4ler in Eifel und Hunsr\u00fcck ", "url": "https://www.tagesschau.de/inland/regional/rheinlandpfalz/swr-einzigartig-schoen-drei-imposante-naturdenkmaeler-in-eifel-und-hunsrueck-100.html", "thumbnailUrl": "https://images.tagesschau.de/image/04c37c0e-4638-44a5-9e80-55d6a2952afe/AAABjtwQbeE/AAABjcWesUg/16x9-512.jpg", "date": "2024-04-14T11:45:56.000+02:00", "lat": 50.4227, "lon": 7.1533, "intensity": 0.6, "source": "Tagesschau"}, {"title": "Drei M\u00e4nner bei Messerangriff in Kaiserslautern teils schwer verletzt ", "url": "https://www.tagesschau.de/inland/regional/saarland/sr-drei-maenner-bei-messerangriff-in-kaiserslautern-teils-schwer-verletzt-100.html", "thumbnailUrl": "https://images.tagesschau.de/image/c45228bc-6ca9-4bd0-a92e-e6b94e5e7121/AAABjtxiv2c/AAABjcWesUg/16x9-512.jpg", "date": "2024-04-14T11:35:00.000+02:00", "lat": 49.4435, "lon": 7.7554, "intensity": 0.8, "source": "Tagesschau"}, {"title": "Nach Brand in der AfA Trier: Gefl\u00fcchtete ziehen nach Kusel um", "url": "https://www.tagesschau.de/inland/regional/rheinlandpfalz/swr-vier-verletzte-bei-brand-in-der-afa-in-trier-nord-100.html", "thumbnailUrl": "https://images.tagesschau.de/image/97fe4a03-8da2-4d76-81d8-698574d96403/AAABjtwBzZI/AAABjcWesUg/16x9-512.jpg", "date": "2024-04-14T11:30:00.000+02:00", "lat": 49.7561, "lon": 6.6519, "intensity": 0.8, "source": "Tagesschau"}, {"title": "Was man zur Cannabis-Legalisierung wissen sollte - ein FAQ", "url": "https://www.tagesschau.de/inland/regional/hessen/hr-was-man-zur-cannabis-legalisierung-wissen-sollte-ein-faq-100.html", "thumbnailUrl": "https://images.tagesschau.de/image/ccbb711d-50fe-4d1f-966b-517a59bf6da6/AAABjtviuRk/AAABjcWesUg/16x9-512.jpg", "date": "2024-04-14T11:12:59.823+02:00", "lat": 50.7343, "lon": 9.368, "intensity": 0.6, "source": "Tagesschau"}, {"title": "Mercedes-Benz war 2023 so profitabel wie keiner der Top-Konkurrenten", "url": "https://www.tagesschau.de/inland/regional/badenwuerttemberg/swr-mercedes-benz-war-2023-so-profitabel-wie-keiner-der-top-konkurrenten-100.html", "thumbnailUrl": "https://images.tagesschau.de/image/8bfdc4f0-d2e1-4755-9f9e-aff9802174f4/AAABjtvbRdU/AAABjcWesUg/16x9-512.jpg", "date": "2024-04-14T10:48:44.000+02:00", "lat": 48.7758, "lon": 9.9937, "intensity": 0.7, "source": "Tagesschau"}, {"title": "Gro\u00dfeinsatz gegen Auto-Poser in Bedburg", "url": "https://www.tagesschau.de/inland/regional/nordrheinwestfalen/wdr-grosseinsatz-gegen-auto-poser-in-bedburg-100.html", "thumbnailUrl": "https://images.tagesschau.de/image/3355d3a8-1a75-4047-a9f2-eb6711f40482/AAABjtyLAQg/AAABjcWesUg/16x9-512.jpg", "date": "2024-04-14T10:46:00.000+02:00", "lat": 51.0364, "lon": 6.5797, "intensity": 0.8, "source": "Tagesschau"}, {"title": "Die \"Harry Potter\"-Ferienwohnungen in Colmar", "url": "https://www.tagesschau.de/inland/regional/saarland/sr-die-harry-potter-ferienwohnungen-in-colmar-100.html", "thumbnailUrl": "https://images.tagesschau.de/image/b565abab-ba5a-445c-a0d0-38adade65529/AAABjtvKv0k/AAABjcWesUg/16x9-512.jpg", "date": "2024-04-14T10:46:00.000+02:00", "lat": 48.079, "lon": 7.357, "intensity": 0.3, "source": "Tagesschau"}, {"title": "Motorradfahrer kollidiert in Beesten mit Lkw und stirbt", "url": "https://www.tagesschau.de/inland/regional/niedersachsen/ndr-motorradfahrer-kollidiert-in-beesten-mit-lkw-und-stirbt-100.html", "thumbnailUrl": "https://images.tagesschau.de/image/eb246ecf-9400-4a1f-bf2c-b744e569871b/AAABjtvJXas/AAABjcWesUg/16x9-512.jpg", "date": "2024-04-14T10:39:00.000+02:00", "lat": 52.432684, "lon": 7.448328, "intensity": 0.8, "source": "Tagesschau"}, {"title": "Die Kidnapping-Industrie von Boko Haram", "url": "https://www.tagesschau.de/ausland/afrika/10-jahre-nigeria-massenentfuehrung-boko-haram-100.html", "thumbnailUrl": "https://images.tagesschau.de/image/e08888e8-25b3-47a2-bdc9-72d374152004/AAABjtu_Mbs/AAABjcWesUg/16x9-512.jpg", "date": "2024-04-14T10:35:24.539+02:00", "lat": 12.422, "lon": 13.181, "intensity": 0.8, "source": "Tagesschau"}, {"title": "Wirtschaftsthemen stehen im Vordergrund", "url": "https://www.tagesschau.de/ausland/asien/scholz-besuch-china-100.html", "thumbnailUrl": "https://images.tagesschau.de/image/8977675d-5245-4faf-b4c6-aed3bbb78935/AAABjtvGW-Y/AAABjcWesUg/16x9-512.jpg", "date": "2024-04-14T10:27:33.871+02:00", "lat": 39.9042, "lon": 116.4074, "intensity": 0.7, "source": "Tagesschau"}, {"title": "\"Eine neue Stufe der Destabilisierung\"", "url": "https://www.tagesschau.de/ausland/iran-israel-angriff-102.html", "thumbnailUrl": "https://images.tagesschau.de/image/a12bf6ad-f531-4ba5-b6dc-916de7c99db5/AAABjtpJ7x8/AAABjcWesUg/16x9-512.jpg", "date": "2024-04-14T10:23:01.649+02:00", "lat": 51.3963, "lon": 35.6895, "intensity": 0.8, "source": "Tagesschau"}, {"title": "\"Letzte Generation\": Blockade-Aktion in Hamburg", "url": "https://www.tagesschau.de/inland/regional/hamburg/ndr-letzte-generation-blockiert-kreuzung-in-hamburg-altona-100.html", "thumbnailUrl": "https://images.tagesschau.de/image/1a521e71-6c70-4905-be86-70b848756abc/AAABjtifYGc/AAABjcWesUg/16x9-512.jpg", "date": "2024-04-14T10:22:00.000+02:00", "lat": 53.5511, "lon": 9.9616, "intensity": 0.7, "source": "Tagesschau"}, {"title": "Massives Polizeiaufgebot bei SPD-Treffen auf Norderney", "url": "https://www.tagesschau.de/inland/regional/niedersachsen/ndr-massives-polizeiaufgebot-bei-spd-treffen-auf-norderney-100.html", "thumbnailUrl": "https://images.tagesschau.de/image/d9466dd5-cb58-48b5-9dab-8fdee4b3a027/AAABjtu6ug0/AAABjcWesUg/16x9-512.jpg", "date": "2024-04-14T10:22:00.000+02:00", "lat": 53.7067, "lon": 7.1574, "intensity": 0.8, "source": "Tagesschau"}, {"title": "Wetter in NRW: Sonntag l\u00e4utet Wetterwechsel ein", "url": "https://www.tagesschau.de/inland/regional/nordrheinwestfalen/wdr-wetter-in-nrw-am-samstag-noch-mal-die-sonne-geniessen-100.html", "thumbnailUrl": "https://images.tagesschau.de/image/85309a29-4a9a-426d-a627-2cd2a845e762/AAABjt15CYU/AAABjcWesUg/16x9-512.jpg", "date": "2024-04-14T10:16:00.000+02:00", "lat": 51.4332, "lon": 7.6261, "intensity": 0.5, "source": "Tagesschau"}, {"title": "Ludwigshafen f\u00f6rdert umstrittene Stadttour \"Ugliest City\" nicht mehr", "url": "https://www.tagesschau.de/inland/regional/rheinlandpfalz/swr-ludwigshafen-foerdert-umstrittene-stadttour-ugliest-city-nicht-mehr-100.html", "thumbnailUrl": "https://images.tagesschau.de/image/47f789da-1473-47a9-adc4-fc2d7a45c640/AAABjtumLRY/AAABjcWesUg/16x9-512.jpg", "date": "2024-04-14T10:03:40.000+02:00", "lat": 49.4818, "lon": 8.4452, "intensity": 0.7, "source": "Tagesschau"}, {"title": "Leinen los: Start der Kreuzfahrtsaison in Warnem\u00fcnde", "url": "https://www.tagesschau.de/inland/regional/mecklenburgvorpommern/ndr-leinen-los-heute-start-der-kreuzfahrtsaison-in-warnemuende-100.html", "thumbnailUrl": "https://images.tagesschau.de/image/d7f36e1e-6482-4bea-9dd7-2f045bbf4f55/AAABjty2_Bs/AAABjcWesUg/16x9-512.jpg", "date": "2024-04-14T09:56:00.000+02:00", "lat": 54.175712, "lon": 12.089303, "intensity": 0.6, "source": "Tagesschau"}, {"title": "Einsatz\u00fcbung f\u00fcr die Feuerwehr im Emstunnel bei Leer", "url": "https://www.tagesschau.de/inland/regional/niedersachsen/ndr-einsatzuebung-im-emstunnel-bei-leer-a31-bis-15-uhr-gesperrt-100.html", "thumbnailUrl": "https://images.tagesschau.de/image/8e65971f-3f48-4b63-b97b-b7796c3e4c27/AAABjthTNsA/AAABjcWesUg/16x9-512.jpg", "date": "2024-04-14T09:54:00.000+02:00", "lat": 53.2326, "lon": 7.4409, "intensity": 0.6, "source": "Tagesschau"}, {"title": "Beispielloser Gro\u00dfangriff des Iran auf Israel", "url": "https://www.tagesschau.de/ausland/asien/iran-drohnen-israel-raketen-100.html", "thumbnailUrl": "https://images.tagesschau.de/image/48de35fc-4103-4ed2-85d6-2f67a134789f/AAABjtnTCBE/AAABjcWesUg/16x9-512.jpg", "date": "2024-04-14T09:38:27.163+02:00", "lat": 32.0853, "lon": 34.851612, "intensity": 0.9, "source": "Tagesschau"}, {"title": "A7-Sperrung wegen Bauarbeiten f\u00fcr L\u00e4rmschutztunnel in Altona", "url": "https://www.tagesschau.de/inland/regional/hamburg/ndr-a7-sperrung-wegen-bauarbeiten-fuer-laermschutztunnel-in-altona-100.html", "thumbnailUrl": "https://images.tagesschau.de/image/739e1662-63f0-4762-b2ae-f48c466b570c/AAABjtuFi0I/AAABjcWesUg/16x9-512.jpg", "date": "2024-04-14T09:31:00.000+02:00", "lat": 53.5511, "lon": 9.9039, "intensity": 0.8, "source": "Tagesschau"}, {"title": "Parteipropaganda per k\u00fcnstlicher Intelligenz", "url": "https://www.tagesschau.de/ausland/asien/china-ki-propaganda-100.html", "thumbnailUrl": "https://images.tagesschau.de/image/c09c3b06-da45-4df5-aab1-ba252dea1cb0/AAABjtKyAcw/AAABjcWesUg/16x9-512.jpg", "date": "2024-04-14T09:30:50.216+02:00", "lat": 39.9042, "lon": 116.4074, "intensity": 0.8, "source": "Tagesschau"}, {"title": "Eintracht-Niederlage in f\u00fcnf Punkten: Letzte Ausfahrt Augsburg", "url": "https://www.tagesschau.de/inland/regional/hessen/hr-eintracht-niederlage-in-fuenf-punkten-letzte-ausfahrt-augsburg-102.html", "thumbnailUrl": "https://images.tagesschau.de/image/eb57968b-5e6c-4e55-ab0a-00e4d313addf/AAABjtur1BI/AAABjcWesUg/16x9-512.jpg", "date": "2024-04-14T09:27:18.523+02:00", "lat": 48.3705, "lon": 10.9003, "intensity": 0.8, "source": "Tagesschau"}, {"title": "Tipps gegen die Fr\u00fchjahrsm\u00fcdigkeit ", "url": "https://www.tagesschau.de/inland/regional/saarland/sr-tipps-gegen-die-fruehjahrsmuedigkeit-100.html", "thumbnailUrl": "https://images.tagesschau.de/image/42c59246-fde9-4e24-897e-f0698a531467/AAABjtt6LoY/AAABjcWesUg/16x9-512.jpg", "date": "2024-04-14T09:00:00.000+02:00", "lat": 49.39641, "lon": 8.27499, "intensity": 0.5, "source": "Tagesschau"}, {"title": "Waldbrand bei Schwielowsee gel\u00f6scht", "url": "https://www.tagesschau.de/inland/regional/brandenburg/rbb-waldbrand-bei-ferch-ausgebrochen-100.html", "thumbnailUrl": "https://images.tagesschau.de/image/191a52af-44d5-4e68-a087-f4a6f939ff75/AAABjttQVFQ/AAABjcWesUg/16x9-512.jpg", "date": "2024-04-14T08:31:08.000+02:00", "lat": 52.3845, "lon": 12.9377, "intensity": 0.8, "source": "Tagesschau"}, {"title": "Sorge in den USA \u00fcber m\u00f6gliche Eskalation", "url": "https://www.tagesschau.de/ausland/amerika/usa-biden-iran-israel-100.html", "thumbnailUrl": "https://images.tagesschau.de/image/9869dbdb-5d2a-45ae-86b2-6fb71041095f/AAABjth34uw/AAABjcWesUg/16x9-512.jpg", "date": "2024-04-14T08:25:14.031+02:00", "lat": 37.09024, "lon": -95.712891, "intensity": 0.8, "source": "Tagesschau"}, {"title": "Invasives lobul\u00e4res Mammakarzinom: Charit\u00e9 forscht zu seltenem Brustkrebs und verbessert Angebote f\u00fcr Patientinnen", "url": "https://www.tagesschau.de/inland/regional/berlin/rbb-invasives-lobulaeres-mammakarzinom-charit-forscht-zu-seltenem-brustkrebs-und-verbessert-angebote-fuer-patientinnen-100.html", "thumbnailUrl": "https://images.tagesschau.de/image/08a37b0e-4127-4613-9cfb-aedac8a15907/AAABjttB1oU/AAABjcWesUg/16x9-512.jpg", "date": "2024-04-14T08:11:44.000+02:00", "lat": 52.520008, "lon": 13.404954, "intensity": 0.8, "source": "Tagesschau"}, {"title": "Autor Ingo Schulze: \"Im innerdeutschen Verh\u00e4ltnis ist die westdeutsche Sozialisation der Goldstandard\"", "url": "https://www.tagesschau.de/inland/regional/brandenburg/rbb-autor-ingo-schulze-im-innerdeutschen-verhaeltnis-ist-die-westdeutsche-sozialisation-der-goldstandard-100.html", "thumbnailUrl": "https://images.tagesschau.de/image/3fc84cc8-d8f3-4889-a63f-4ca4eab6d2b2/AAABjttByXw/AAABjcWesUg/16x9-512.jpg", "date": "2024-04-14T08:11:41.000+02:00", "lat": 52.520008, "lon": 13.404954, "intensity": 0.7, "source": "Tagesschau"}, {"title": "A7 bei Rendsburg bis Montag gesperrt", "url": "https://www.tagesschau.de/inland/regional/schleswigholstein/ndr-a7-im-april-an-zwei-wochenenden-teilweise-voll-gesperrt-100.html", "thumbnailUrl": "https://images.tagesschau.de/image/c94e1b76-ddf3-408c-b9fd-92bae2df40ee/AAABjtv3IUg/AAABjcWesUg/16x9-512.jpg", "date": "2024-04-14T08:00:00.000+02:00", "lat": 54.2994, "lon": 9.6477, "intensity": 0.7, "source": "Tagesschau"}, {"title": "Manuela Schwesig bleibt Vorsitzende der SPD in MV", "url": "https://www.tagesschau.de/inland/regional/mecklenburgvorpommern/ndr-wiedergewaehlt-schwesig-bleibt-an-der-spitze-der-landes-spd-100.html", "thumbnailUrl": "https://images.tagesschau.de/image/c5f38713-4d2e-4afd-ba79-f24ace666799/AAABjttvQ10/AAABjcWesUg/16x9-512.jpg", "date": "2024-04-14T07:52:00.000+02:00", "lat": 53.6127, "lon": 12.4964, "intensity": 0.6, "source": "Tagesschau"}, {"title": "Volleyball: SSC Schwerin macht ersten Schritt zur Meisterschaft", "url": "https://www.tagesschau.de/inland/regional/mecklenburgvorpommern/ndr-volleyball-schwerin-macht-ersten-schritt-richtung-meisterschaft-100.html", "thumbnailUrl": "https://images.tagesschau.de/image/42fc6129-ab29-4e14-ad29-52a01494b6f5/AAABjt0xqQo/AAABjcWesUg/16x9-512.jpg", "date": "2024-04-14T07:16:00.000+02:00", "lat": 53.6291, "lon": 11.4149, "intensity": 0.8, "source": "Tagesschau"}, {"title": "Wasserspender in Hamburg: Mehr kostenloses Trinkwasser ", "url": "https://www.tagesschau.de/inland/regional/hamburg/ndr-wasserspender-in-hamburg-mehr-kostenloses-trinkwasser-100.html", "thumbnailUrl": "https://images.tagesschau.de/image/27229b93-aa85-4f1e-ae59-12ebb6ba666a/AAABjtsFZOI/AAABjcWesUg/16x9-512.jpg", "date": "2024-04-14T07:08:00.000+02:00", "lat": 53.5511, "lon": 10.0003, "intensity": 0.5, "source": "Tagesschau"}, {"title": "So wird der Batterie-Rohstoff Lithium in Hessen klimaneutral gewonnen", "url": "https://www.tagesschau.de/inland/regional/hessen/hr-so-wird-der-batterie-rohstoff-lithium-in-hessen-klimaneutral-gewonnen-100.html", "thumbnailUrl": "https://images.tagesschau.de/image/ac591103-4da4-43b0-af76-045f84f8bdc6/AAABjtsBf5Y/AAABjcWesUg/16x9-512.jpg", "date": "2024-04-14T07:06:07.404+02:00", "lat": 50.75, "lon": 8.5, "intensity": 0.7, "source": "Tagesschau"}, {"title": "Der HSV hat Schnupfen: Baumgart muss vor Magdeburg-Spiel umbauen", "url": "https://www.tagesschau.de/inland/regional/hamburg/ndr-der-hsv-hat-schnupfen-baumgart-muss-vor-magdeburg-spiel-umbauen-102.html", "thumbnailUrl": "https://images.tagesschau.de/image/7c86d98d-7aff-4bc9-9b32-eb6d9a59db56/AAABjtat8Hg/AAABjcWesUg/16x9-512.jpg", "date": "2024-04-14T07:05:00.000+02:00", "lat": 53.5511, "lon": 9.9937, "intensity": 0.8, "source": "Tagesschau"}, {"title": "Eintracht Braunschweig - Hannover 96: Viel Brisanz im Niedersachsen-Derby", "url": "https://www.tagesschau.de/inland/regional/niedersachsen/ndr-eintracht-braunschweig-hannover-96-viel-brisanz-im-niedersachsen-derby-102.html", "thumbnailUrl": "https://images.tagesschau.de/image/56ebc715-74e6-4877-aa6e-07053c6d5a4b/AAABjtfFLNo/AAABjcWesUg/16x9-512.jpg", "date": "2024-04-14T07:00:00.000+02:00", "lat": 52.2689, "lon": 10.5286, "intensity": 0.8, "source": "Tagesschau"}, {"title": "Wie ein Bremerhavener K\u00fcnstler den Alltag in der Seestadt einf\u00e4ngt", "url": "https://www.tagesschau.de/inland/regional/bremen/rb-wie-ein-bremerhavener-kuenstler-den-alltag-in-der-seestadt-einfaengt-102.html", "thumbnailUrl": "https://images.tagesschau.de/image/6b2e9044-7ee3-4cf2-b799-cef4f6efe648/AAABjt25arY/AAABjcWesUg/16x9-512.jpg", "date": "2024-04-14T06:32:00.000+02:00", "lat": 53.5396, "lon": 8.5961, "intensity": 0.4, "source": "Tagesschau"}, {"title": "Erneut Wolfsriss in der N\u00e4he von Redderstorf", "url": "https://www.tagesschau.de/inland/regional/mecklenburgvorpommern/ndr-erneuter-wolfsriss-in-der-naehe-von-redderstorf-100.html", "thumbnailUrl": "https://images.tagesschau.de/image/f3ed7626-8ad1-4af3-9920-43865686368e/AAABjttZXSQ/AAABjcWesUg/16x9-512.jpg", "date": "2024-04-14T06:28:00.000+02:00", "lat": 53.7683, "lon": 12.0299, "intensity": 0.8, "source": "Tagesschau"}, {"title": "Scholz' TikTok-Auftritt ist \"ein Fehler\"", "url": "https://www.tagesschau.de/inland/innenpolitik/ataman-tiktok-scholz-100.html", "thumbnailUrl": "https://images.tagesschau.de/image/fc2575d2-c81d-4cca-b0bf-d00b836b505e/AAABjbuJnik/AAABjcWesUg/16x9-512.jpg", "date": "2024-04-14T06:00:01.977+02:00", "lat": 39.9042, "lon": 116.4074, "intensity": 0.7, "source": "Tagesschau"}, {"title": "Polizei geht nicht von Terrormotiv aus", "url": "https://www.tagesschau.de/ausland/ozeanien/sydney-angriff-tote-102.html", "thumbnailUrl": "https://images.tagesschau.de/image/49295675-83f3-4f4b-96c8-f15655cbabc4/AAABjtn61K8/AAABjcWesUg/16x9-512.jpg", "date": "2024-04-14T02:21:18.399+02:00", "lat": -33.8688, "lon": 151.2093, "intensity": 0.3, "source": "Tagesschau"}, {"title": "Iran greift Israel an", "url": "https://www.tagesschau.de/ausland/asien/iran-drohnen-114.html", "thumbnailUrl": "https://images.tagesschau.de/image/415a798f-30b2-448d-927a-3f50a827da03/AAABjG8AzS8/AAABjcWesUg/16x9-512.jpg", "date": "2024-04-14T01:50:34.511+02:00", "lat": 31.5497, "lon": 35.6895, "intensity": 0.8, "source": "Tagesschau"}, {"title": "Deutsche in Israel sollen Beh\u00f6rdenanweisungen folgen", "url": "https://www.tagesschau.de/ausland/asien/israel-iran-drohnen-deutsche-botschaft-100.html", "thumbnailUrl": "https://images.tagesschau.de/image/df88685b-94e2-462e-8743-b347cd67fa86/AAABiqbAKxw/AAABjcWesUg/16x9-512.jpg", "date": "2024-04-14T00:33:51.986+02:00", "lat": 32.0853, "lon": 34.781768, "intensity": 0.7, "source": "Tagesschau"}, {"title": "Gro\u00dfe Sorge in den USA vor der Reaktion Israels", "url": "https://www.tagesschau.de/ausland/asien/iran-israel-angriff-100.html", "thumbnailUrl": "https://images.tagesschau.de/image/c3d0ecc4-36d8-4875-bf68-c43ef480d8e3/AAABjtl4vrk/AAABjcWesUg/16x9-512.jpg", "date": "2024-04-14T00:08:01.180+02:00", "lat": 39.8283, "lon": -98.5795, "intensity": 0.8, "source": "Tagesschau"}, {"title": "Kriegskabinett in Israel geht offenbar ohne Entscheidung auseinander", "url": "https://www.br.de/nachrichten/meldungen/index.html#n1", "thumbnailUrl": null, "date": "2024-04-15T03:08:52+02:00", "lat": 30.0444, "lon": 31.2357, "intensity": 0.8, "source": "Bayrischer Rundfunk"}, {"title": "Baerbock setzt auf Deeskalation zwischen Iran und Israel", "url": "https://www.br.de/nachrichten/meldungen/index.html#n2", "thumbnailUrl": null, "date": "2024-04-15T03:08:52+02:00", "lat": 33.5138, "lon": 36.2021, "intensity": 0.8, "source": "Bayrischer Rundfunk"}, {"title": "Antisemitisbeauftragter Klein warnt vor Anstieg antisemitischer Hetze", "url": "https://www.br.de/nachrichten/meldungen/index.html#n3", "thumbnailUrl": null, "date": "2024-04-15T03:08:52+02:00", "lat": 39.9334, "lon": 32.8597, "intensity": 0.8, "source": "Bayrischer Rundfunk"}, {"title": "Gedenkfeier in Buchenwald erinnert an Opfer des NS-Terrors", "url": "https://www.br.de/nachrichten/meldungen/index.html#n4", "thumbnailUrl": null, "date": "2024-04-15T03:08:52+02:00", "lat": 52.520008, "lon": 13.404954, "intensity": 0.7, "source": "Bayrischer Rundfunk"}, {"title": "Gesundheitsminister Lauterbach bef\u00fcrchtet Haus\u00e4rztemangel", "url": "https://www.br.de/nachrichten/meldungen/index.html#n5", "thumbnailUrl": null, "date": "2024-04-15T03:08:52+02:00", "lat": 52.520008, "lon": 13.404954, "intensity": 0.6, "source": "Bayrischer Rundfunk"}, {"title": "Krankenkassen melden deutlichen Anstieg von Pflegef\u00e4llen", "url": "https://www.br.de/nachrichten/meldungen/index.html#n6", "thumbnailUrl": null, "date": "2024-04-15T03:08:52+02:00", "lat": 48.135125, "lon": 11.581981, "intensity": 0.6, "source": "Bayrischer Rundfunk"}, {"title": "Beh\u00f6rden nehmen Verd\u00e4chtige nach Seilbahnungl\u00fcck fest", "url": "https://www.br.de/nachrichten/meldungen/index.html#n7", "thumbnailUrl": null, "date": "2024-04-15T03:08:52+02:00", "lat": 50.110922, "lon": 8.682127, "intensity": 0.8, "source": "Bayrischer Rundfunk"}, {"title": "Leverkusen entthront den FC Bayern als Fu\u00dfball-Meister", "url": "https://www.br.de/nachrichten/meldungen/index.html#n8", "thumbnailUrl": null, "date": "2024-04-15T03:08:52+02:00", "lat": 47.8684, "lon": 12.6394, "intensity": 0.8, "source": "Bayrischer Rundfunk"}, {"title": "Das Wetter: In der Nacht \u00f6rtlich Regen", "url": "https://www.br.de/nachrichten/meldungen/index.html#n9", "thumbnailUrl": null, "date": "2024-04-15T03:08:52+02:00", "lat": 48.5844, "lon": 13.6722, "intensity": 0.8, "source": "Bayrischer Rundfunk"}, {"title": "Video | Fu\u00dfball-Bundesliga: Union verliert nach katastrophalem Pass in Augsburg", "url": "https://www.rbb24.de/sport/beitrag/av7/video-fussball-bundesliga-spielbericht-fc-augsburg-union-berlin.html", "thumbnailUrl": null, "date": "Mon, 15 Apr 2024 00:00:00 +0200", "lat": 48.3717, "lon": 10.8978, "intensity": 0.8, "source": "RBB"}, {"title": "Video | Hunderte demonstrieren f\u00fcr Erhalt: Tuntenhaus auf der Kastanienallee steht vor dem Aus", "url": "https://www.rbb24.de/panorama/beitrag/av7/video-berlin-tuntenhaus-investor.html", "thumbnailUrl": null, "date": "Sun, 14 Apr 2024 20:57:06 +0200", "lat": 52.5354, "lon": 13.4154, "intensity": 0.7, "source": "RBB"}, {"title": "68:65 in Spiel drei gegen die Gisa Lions MBC: Albas Basketballerinnen ziehen ins Finale ein", "url": "https://www.rbb24.de/sport/beitrag/2024/04/dbbl-frauen-basketball-bundesliga-playoffs-halbfinale-alba-berlin-mbc.html", "thumbnailUrl": null, "date": "Sun, 14 Apr 2024 20:40:43 +0200", "lat": 52.5192, "lon": 11.5942, "intensity": 0.6, "source": "RBB"}, {"title": "Video | Was Berliner von einem autofreien Wochenende halten", "url": "https://www.rbb24.de/panorama/beitrag/av7/video-verkehr-klima-autofreiestadt.html", "thumbnailUrl": null, "date": "Sun, 14 Apr 2024 20:38:00 +0200", "lat": 52.520008, "lon": 13.404954, "intensity": 0.3, "source": "RBB"}, {"title": "Nach iranischem Angriff: Hunderte demonstrieren am Brandenburger Tor Solidarit\u00e4t mit Israel", "url": "https://www.rbb24.de/panorama/beitrag/2024/04/berlin-solidaritaets-demo-israel-angriff-iran.html", "thumbnailUrl": null, "date": "Sun, 14 Apr 2024 20:14:41 +0200", "lat": 52.516275, "lon": 13.377704, "intensity": 0.8, "source": "RBB"}, {"title": "Mehrere Menschen erleiden Atemwegsreizung: Reizgas vor queerer Party in Neuk\u00f6lln verspr\u00fcht - Staatsschutz ermittelt", "url": "https://www.rbb24.de/panorama/beitrag/2024/04/berlin-neukoelln-reizgas-lokal-flinta-veranstaltung.html", "thumbnailUrl": null, "date": "Sun, 14 Apr 2024 18:35:52 +0200", "lat": 52.4819, "lon": 13.4354, "intensity": 0.7, "source": "RBB"}, {"title": "Fu\u00dfball-Bundesliga: So realistisch sind Unions Ab- und Herthas Aufstieg", "url": "https://www.rbb24.de/sport/beitrag/2024/04/fussball-bundesliga-zweite-bundesliga-union-berlin-hertha-bsc-abstiegskampf-aufstiegskampf-chancen.html", "thumbnailUrl": null, "date": "Sun, 14 Apr 2024 18:29:00 +0200", "lat": 52.5166, "lon": 13.3759, "intensity": 0.7, "source": "RBB"}, {"title": "Regionalliga Nordost der Frauen: Union Berlin und Viktoria gewinnen deutlich, Hertha BSC spielt Unentschieden", "url": "https://www.rbb24.de/sport/beitrag/2024/04/fussball-regionalliga-nordos-frauen-union-berlin-hertha-bsc-viktoria.html", "thumbnailUrl": null, "date": "Sun, 14 Apr 2024 18:04:06 +0200", "lat": 52.509648, "lon": 13.439319, "intensity": 0.8, "source": "RBB"}, {"title": "Basketball Bundesliga: Alba Berlin gewinnt knappes Spiel in Wei\u00dfenfels", "url": "https://www.rbb24.de/sport/beitrag/2024/04/basketball-bundesliga-bbl-alba-berlin-mbc-doppelspieltag-playoff-rennen.html", "thumbnailUrl": null, "date": "Sun, 14 Apr 2024 18:01:00 +0200", "lat": 51.203372, "lon": 11.994338, "intensity": 0.7, "source": "RBB"}, {"title": "Polizei ermittelt: Unbekannte z\u00fcnden vor Haus von Rapper Capital Bra Auto an", "url": "https://www.rbb24.de/panorama/beitrag/2024/04/capital-bra-auto-angezuendet-feuer-brandenburg-potsdam-mittelmark.html", "thumbnailUrl": null, "date": "Sun, 14 Apr 2024 17:15:34 +0200", "lat": 52.5256, "lon": 13.5254, "intensity": 0.7, "source": "RBB"}, {"title": "Regionalliga Nordost: Hertha II holte wichtigen Sieg im Kampf um den Klassenerhalt", "url": "https://www.rbb24.de/sport/beitrag/2024/04/fussball-regionalliga-nordost-nofv-hertha-bsc-luckenwalde-sv-babelsberg-03.html", "thumbnailUrl": null, "date": "Sun, 14 Apr 2024 16:22:15 +0200", "lat": 52.52, "lon": 13.2546, "intensity": 0.7, "source": "RBB"}, {"title": "Ostberliner Ikone wird K\u00fcnstlerort: Wie aus dem Eierh\u00e4uschen gepellt", "url": "https://www.rbb24.de/kultur/beitrag/2024/04/berlin-treptower-park-spreepark-eierhaeuschen-ausstellung-kuenstlerresidenz.html", "thumbnailUrl": null, "date": "Sun, 14 Apr 2024 16:14:11 +0200", "lat": 52.4946, "lon": 13.4833, "intensity": 0.6, "source": "RBB"}, {"title": "79 Jahre nach KZ-Befreiung: Woidke w\u00fcrdigt Kraft der \u00dcberlebenden von Sachsenhausen und Ravensbr\u00fcck", "url": "https://www.rbb24.de/panorama/beitrag/2024/04/befreiung-gedenkveranstaltung-sachsenhausen-ravensbrueck.html", "thumbnailUrl": null, "date": "Sun, 14 Apr 2024 16:10:00 +0200", "lat": 52.6695, "lon": 13.2963, "intensity": 0.9, "source": "RBB"}, {"title": "2. Bundesliga der Frauen: Turbine Potsdam feiert gegen Weinberg wichtigen Heimsieg im Aufstiegsrennen", "url": "https://www.rbb24.de/sport/beitrag/2024/04/frauen-fussball-2-bundesliga-turbine-potsdam-aufstieg-bundesliga.html", "thumbnailUrl": null, "date": "Sun, 14 Apr 2024 16:08:00 +0200", "lat": 52.3943, "lon": 13.0672, "intensity": 0.8, "source": "RBB"}, {"title": "Entgleiste Diesellok: Z\u00fcge zwischen Berlin und Oranienburg sollen ab Mittwoch wieder fahren", "url": "https://www.rbb24.de/panorama/beitrag/2024/04/zugverkehr-berlin-oranienburg-ab-mittwoch-diesellok-entgleist.html", "thumbnailUrl": null, "date": "Sun, 14 Apr 2024 15:48:00 +0200", "lat": 52.520007, "lon": 13.252553, "intensity": 0.7, "source": "RBB"}, {"title": "Hilfsangebot f\u00fcr Lokalpolitiker: Brandenburger Beratungsstelle gegen Hass und Hetze soll ab Mai online sein", "url": "https://www.rbb24.de/panorama/beitrag/2024/04/brandenburg-beratungsstelle-hass-stuebgen-meldeportal.html", "thumbnailUrl": null, "date": "Sun, 14 Apr 2024 15:37:00 +0200", "lat": 52.4125, "lon": 13.1696, "intensity": 0.6, "source": "RBB"}, {"title": "28:31 gegen Flensburg: F\u00fcchse Berlin verlieren beim DHB-Pokal auch Spiel um Platz drei", "url": "https://www.rbb24.de/sport/beitrag/2024/04/handball-dhb-pokal-final-four-koeln-spiel-um-platz-drei-fuechse-berlin-flensburg-handewitt.html", "thumbnailUrl": null, "date": "Sun, 14 Apr 2024 14:59:00 +0200", "lat": 54.7935, "lon": 9.4294, "intensity": 0.6, "source": "RBB"}, {"title": "Mann in Berlin-Friedenau niedergestochen", "url": "https://www.rbb24.de/panorama/beitrag/2024/04/berlin-friedenau-messer-toter.html", "thumbnailUrl": null, "date": "Sun, 14 Apr 2024 13:35:00 +0200", "lat": 52.4725, "lon": 13.3275, "intensity": 0.8, "source": "RBB"}, {"title": "Berlin-Lichtenberg: Drei Verletzte nach Schl\u00e4gerei im Nagelstudio", "url": "https://www.rbb24.de/panorama/beitrag/2024/04/berlin-lichtenberg-nagelstudio-schlaegerei-verletzte.html", "thumbnailUrl": null, "date": "Sun, 14 Apr 2024 13:30:41 +0200", "lat": 52.5109, "lon": 13.4902, "intensity": 0.7, "source": "RBB"}, {"title": "Tosca im Staatstheater: Cottbus trampelt und jubelt", "url": "https://www.rbb24.de/kultur/beitrag/2024/04/cottbus-theater-tosca-staatstheater.html", "thumbnailUrl": null, "date": "Sun, 14 Apr 2024 12:57:07 +0200", "lat": 51.7562, "lon": 14.3356, "intensity": 0.8, "source": "RBB"}, {"title": "Berlin-Marzahn: Metallstangen aus dem 13. und 14. Stock eines Hochhauses geworfen", "url": "https://www.rbb24.de/panorama/beitrag/2024/04/berlin-marzahn-hochhaus-metallstangen.html", "thumbnailUrl": null, "date": "Sun, 14 Apr 2024 12:34:10 +0200", "lat": 52.5277, "lon": 13.5461, "intensity": 0.7, "source": "RBB"}, {"title": "Anti-Kater-Lieferservice: Berliner Start-up schickt Infusion und Krankenpfleger", "url": "https://www.rbb24.de/panorama/beitrag/2024/04/startup-infusion-krankenpfleger-kater-alkohol-.html", "thumbnailUrl": null, "date": "Sun, 14 Apr 2024 12:12:00 +0200", "lat": 52.52, "lon": 13.405, "intensity": 0.6, "source": "RBB"}, {"title": "Mieterverein: Diese Rechte haben Mieter, wenn ihr Wohnhaus einsturzgef\u00e4hrdet ist", "url": "https://www.rbb24.de/panorama/beitrag/2024/04/berlin-schoeneberg-haus-risse-rechte-mieter-mieterverein.html", "thumbnailUrl": null, "date": "Sun, 14 Apr 2024 12:05:18 +0200", "lat": 52.4986, "lon": 13.3417, "intensity": 0.7, "source": "RBB"}, {"title": "Nachhaltiger D\u00fcnger: Wie Weltraumtechnik Urind\u00fcnger zum Durchbruch verhelfen k\u00f6nnte", "url": "https://www.rbb24.de/wirtschaft/beitrag/2024/04/duenger-urin-recyclingduenger-urinduenger-landwirtschaft-weltraumtechnik.html", "thumbnailUrl": null, "date": "Sun, 14 Apr 2024 10:54:00 +0200", "lat": 52.4125, "lon": 13.2946, "intensity": 0.7, "source": "RBB"}, {"title": "Waldbrand bei Schwielowsee gel\u00f6scht", "url": "https://www.rbb24.de/panorama/beitrag/2024/04/waldbrand-ferch-potsdam-mittelmark-feuerwehr.html", "thumbnailUrl": null, "date": "Sun, 14 Apr 2024 08:31:00 +0200", "lat": 52.4233, "lon": 12.9541, "intensity": 0.8, "source": "RBB"}, {"title": "Invasives lobul\u00e4res Mammakarzinom: Charit\u00e9 forscht zu seltenem Brustkrebs und verbessert Angebote f\u00fcr Patientinnen", "url": "https://www.rbb24.de/panorama/beitrag/2024/04/charite-brustkrebs-invasives-lobulaeres-mammakarzinom-forschung-studie.html", "thumbnailUrl": null, "date": "Sun, 14 Apr 2024 08:11:44 +0200", "lat": 52.520008, "lon": 13.38886, "intensity": 0.8, "source": "RBB"}, {"title": "Video | Training von freiwilligen Helfern f\u00fcr den Einsatz in Gaza", "url": "https://www.rbb24.de/panorama/beitrag/av7/video-ausbildung-gaza-freiwillige-verein-cadus-berlin.html", "thumbnailUrl": null, "date": "Sat, 13 Apr 2024 20:22:04 +0200", "lat": 31.5276, "lon": 34.4505, "intensity": 0.7, "source": "RBB"}, {"title": "Autofahrer erfasst Rollerfahrer - 85-J\u00e4hriger lebensgef\u00e4hrlich verletzt", "url": "https://www.rbb24.de/panorama/beitrag/2024/04/autofahrer-unfall-rollerfahrer-berlin-reinickendorf.html", "thumbnailUrl": null, "date": "Sat, 13 Apr 2024 14:24:02 +0200", "lat": 52.520008, "lon": 13.404954, "intensity": 0.8, "source": "RBB"}, {"title": "Berlin-Charlottenburg: Siebenj\u00e4hriger bricht sich bei Verkehrsunfall das Bein", "url": "https://www.rbb24.de/panorama/beitrag/2024/04/berlin-charlottenburg-unfall-kind-verletzt.html", "thumbnailUrl": null, "date": "Sat, 13 Apr 2024 13:52:42 +0200", "lat": 52.516, "lon": 13.305, "intensity": 0.4, "source": "RBB"}, {"title": "Berlin-Zehlendorf: Autofahrer prallt gegen Baum und fl\u00fcchtet zu Fu\u00df", "url": "https://www.rbb24.de/panorama/beitrag/2024/04/berlin-zehlendorf-unfall-fahrerflucht-fussgaenger-verletzt.html", "thumbnailUrl": null, "date": "Sat, 13 Apr 2024 12:44:20 +0200", "lat": 52.4298, "lon": 13.2529, "intensity": 0.6, "source": "RBB"}, {"title": "Vollendung der A14: Teil der Elbbr\u00fccke bei Wittenberge wird verschoben", "url": "https://www.rbb24.de/panorama/beitrag/2024/04/bruecke-elbe-wittenberge-autobahn-a14-verschiebung.html", "thumbnailUrl": null, "date": "Sat, 13 Apr 2024 12:33:59 +0200", "lat": 52.9996, "lon": 11.808, "intensity": 0.6, "source": "RBB"}, {"title": "Feuer in Germendorf (Oberhavel) f\u00fchrt zu starker Rauchentwicklung", "url": "https://www.rbb24.de/panorama/beitrag/2024/04/brandenburg-brand-germendorf-oberhavel-rauchentwicklung.html", "thumbnailUrl": null, "date": "Fri, 12 Apr 2024 22:46:00 +0200", "lat": 52.7146, "lon": 13.2242, "intensity": 0.8, "source": "RBB"}, {"title": "0:2-Niederlage: Union Berlin entt\u00e4uscht beim FC Augsburg auf ganzer Linie", "url": "https://www.rbb24.de/sport/beitrag/2024/04/fussball-bundesliga-1-fc-union-berlin-fc-augsburg-audiostream-liveticker-spielbericht.html", "thumbnailUrl": null, "date": "Fri, 12 Apr 2024 22:23:00 +0200", "lat": 48.3653, "lon": 10.8978, "intensity": 0.7, "source": "RBB"}, {"title": "Basketball-Playoffs: Alba-Frauen erk\u00e4mpfen sich zweiten Halbfinal-Sieg", "url": "https://www.rbb24.de/sport/beitrag/2024/04/basketball-frauen-playoffs-halbfinale-spiel-zwei-alba-berlin-gisa-lions-mbc-halle.html", "thumbnailUrl": null, "date": "Fri, 12 Apr 2024 22:10:00 +0200", "lat": 52.5075, "lon": 13.3847, "intensity": 0.7, "source": "RBB"}, {"title": "Video | Produktion in Wildau: Innovative Leuchttechnologie f\u00fcr den Alltag", "url": "https://www.rbb24.de/panorama/beitrag/av7/video-brandenburg-wildau-inuru-oled-leuchten-produktion-.html", "thumbnailUrl": null, "date": "Fri, 12 Apr 2024 21:39:38 +0200", "lat": 52.3225, "lon": 13.6231, "intensity": 0.7, "source": "RBB"}, {"title": "Entgleiste Lok: Strecke zwischen Oranienburg und Berlin bleibt bis Mittwoch unterbrochen", "url": "https://www.rbb24.de/panorama/beitrag/2024/04/brandenburg-oberhavel-birkenwerder-entgleiste-lok-strecke-bis-mittwoch-unterbrochen-sev.html", "thumbnailUrl": null, "date": "Fri, 12 Apr 2024 21:29:43 +0200", "lat": 52.7519, "lon": 13.2463, "intensity": 0.8, "source": "RBB"}, {"title": "Video | Berlin-Lichtenberg: Unterk\u00fcnfte f\u00fcr Gefl\u00fcchtete, statt lange versprochener Schule", "url": "https://www.rbb24.de/panorama/beitrag/av7/video-berlin-hohenschoenhausen-pankow-gefluechtetenheim-schule.html", "thumbnailUrl": null, "date": "Fri, 12 Apr 2024 21:02:00 +0200", "lat": 52.5108, "lon": 13.4901, "intensity": 0.6, "source": "RBB"}, {"title": "S\u00e4nger Frank Zander feiert R\u00fcckkehr ins Berliner Olympiastadion", "url": "https://www.rbb24.de/panorama/beitrag/2024/04/berlin-frank-zander-rueckkehr-olympiastadion-hertha-bsc.html", "thumbnailUrl": null, "date": "Fri, 12 Apr 2024 20:22:08 +0200", "lat": 52.5145, "lon": 13.2506, "intensity": 0.3, "source": "RBB"}, {"title": "Dorfanwohner protestieren gegen Pl\u00e4ne f\u00fcr 250 Meter hohe Windr\u00e4der", "url": "https://www.rbb24.de/panorama/beitrag/2024/04/boernicke-windrad-250-meter-hoch-protest-anwohner.html", "thumbnailUrl": null, "date": "Fri, 12 Apr 2024 19:06:12 +0200", "lat": 51.541218, "lon": 7.450033, "intensity": 0.7, "source": "RBB"}, {"title": "Nach Kabelbrand wochenlang unterbrochen: U6 f\u00e4hrt ab Montag wieder bis zum Kurt-Schumacher-Platz", "url": "https://www.rbb24.de/panorama/beitrag/2024/04/berlin-u6-unterbrochen-kabelbrand-reperaturarbeiten-abgeschlosse.html", "thumbnailUrl": null, "date": "Fri, 12 Apr 2024 15:49:00 +0200", "lat": 52.5822, "lon": 13.2988, "intensity": 0.7, "source": "RBB"}, {"title": "Nach Gefahrenhinweis: Polizeieinsatz an Berliner Schule beendet", "url": "https://www.rbb24.de/panorama/beitrag/2024/04/berlin-marzahn-mann-mit-waffe-schule.html", "thumbnailUrl": null, "date": "Fri, 12 Apr 2024 15:38:00 +0200", "lat": 52.520008, "lon": 13.404954, "intensity": 0.5, "source": "RBB"}, {"title": "Mietshaus in Sch\u00f6neberg wegen Rissen in H\u00e4userwand teilweise gesperrt", "url": "https://www.rbb24.de/panorama/beitrag/2024/04/berlin-schoeneberg-risse-hauswand-feuerwehr-polizei.html", "thumbnailUrl": null, "date": "Wed, 10 Apr 2024 20:30:00 +0200", "lat": 52.49195, "lon": 13.341665, "intensity": 0.8, "source": "RBB"}, {"title": "Bayer Leverkusen nach Sieg gegen Werder Bremen erstmals deutscher Meister", "url": "https://www.ndr.de/sport/fussball/Bayer-Leverkusen-nach-Sieg-gegen-Werder-Bremen-erstmals-deutscher-Meister,werder15772.html", "thumbnailUrl": "https://www.ndr.de/sport/fussball/leverkusen156_v-contentwidescreen.jpg", "date": "2024-04-14T22:11:58.385+02:00", "lat": 53.5586, "lon": 9.9937, "intensity": 0.9, "source": "NDR"}, {"title": "Lage in Nahost: G7 bekr\u00e4ftigen Unterst\u00fctzung f\u00fcr Israel", "url": "https://www.tagesschau.de/", "thumbnailUrl": "https://www.ndr.de/nachrichten/info/scholz2772_v-contentwidescreen.jpg", "date": "2024-04-14T21:18:18.296+02:00", "lat": 51.389, "lon": 35.6895, "intensity": 0.8, "source": "NDR"}, {"title": "Nach Angriff auf Israel: Solidarit\u00e4tsdemonstration in Hamburg", "url": "https://www.ndr.de/nachrichten/hamburg/Nach-Angriff-auf-Israel-Solidaritaetsdemonstration-in-Hamburg,konsulat212.html", "thumbnailUrl": "https://www.ndr.de/fernsehen/screenshot1732616_v-contentwidescreen.jpg", "date": "2024-04-14T21:22:00.425+02:00", "lat": 53.5511, "lon": 9.9866, "intensity": 0.7, "source": "NDR"}, {"title": "\"Massiver Pyro-Beschuss\": Ministerin kritisiert Fans nach Derby", "url": "https://www.ndr.de/sport/fussball/Massiver-Pyro-Beschuss-Ministerin-kritisiert-Fans-nach-Derby,derby2856.html", "thumbnailUrl": "https://www.ndr.de/sport/fussball/zweitebundesliga/niedersachsenderby372_v-contentwidescreen.jpg", "date": "2024-04-14T22:37:09.169+02:00", "lat": 52.2689, "lon": 10.5265, "intensity": 0.8, "source": "NDR"}, {"title": "DHB-Pokal: Flensburg-Handewitt wird beim Final Four Dritter", "url": "https://www.ndr.de/sport/handball/DHB-Pokal-Flensburg-Handewitt-wird-beim-Final-Four-Dritter,handball4018.html", "thumbnailUrl": "https://www.ndr.de/sport/handball/dhb-pokal/dhbpokal408_v-contentwidescreen.jpg", "date": "2024-04-14T20:27:23.479+02:00", "lat": 54.793, "lon": 9.4246, "intensity": 0.4, "source": "NDR"}, {"title": "Kiel: Bombe in Schwentine entsch\u00e4rft", "url": "https://www.ndr.de/nachrichten/schleswig-holstein/Kiel-Bombe-in-Schwentine-entschaerft,bombe4212.html", "thumbnailUrl": "https://www.ndr.de/nachrichten/schleswig-holstein/bombenentschaerfung586_v-contentwidescreen.jpg", "date": "2024-04-14T17:32:21.373+02:00", "lat": 54.3233, "lon": 10.1371, "intensity": 0.8, "source": "NDR"}, {"title": "Elektroauto f\u00e4ngt Feuer: Zwei Menschen sterben bei Unfall", "url": "https://www.ndr.de/nachrichten/niedersachsen/osnabrueck_emsland/Elektroauto-faengt-Feuer-Zwei-Menschen-sterben-bei-Unfall,aktuellosnabrueck11240.html", "thumbnailUrl": "https://www.ndr.de/nachrichten/schleswig-holstein/polizei6500_v-contentwidescreen.jpg", "date": "2024-04-14T20:46:24.439+02:00", "lat": 52.2977, "lon": 8.2802, "intensity": 0.9, "source": "NDR"}, {"title": "Stralsund: Polizei stellt Droge \"Blue Punisher\" sicher", "url": "https://www.ndr.de/nachrichten/mecklenburg-vorpommern/Stralsund-Polizei-stellt-Droge-Blue-Punisher-sicher,punisher100.html", "thumbnailUrl": "https://www.ndr.de/fernsehen/screenshot1561732_v-contentwidescreen.jpg", "date": "2024-04-14T19:07:05.457+02:00", "lat": 54.3115, "lon": 13.0827, "intensity": 0.8, "source": "NDR"}, {"title": "A24: Tourbus von Mark Forster drohte umzukippen", "url": "https://www.ndr.de/nachrichten/schleswig-holstein/A24-Tourbus-drohte-umzukippen,bus734.html", "thumbnailUrl": "https://www.ndr.de/nachrichten/schleswig-holstein/feuerwehr4032_v-contentwidescreen.jpg", "date": "2024-04-14T17:31:14.888+02:00", "lat": 53.5305, "lon": 10.2372, "intensity": 0.6, "source": "NDR"}, {"title": "Obdachloser in Wohnung in Peine offenbar stundenlang gequ\u00e4lt", "url": "https://www.ndr.de/nachrichten/niedersachsen/braunschweig_harz_goettingen/Obdachloser-in-Wohnung-in-Peine-offenbar-stundenlang-gequaelt,aktuellbraunschweig12668.html", "thumbnailUrl": "https://www.ndr.de/nachrichten/schleswig-holstein/polizei6508_v-contentwidescreen.jpg", "date": "2024-04-14T13:53:53.737+02:00", "lat": 52.3193, "lon": 10.2254, "intensity": 0.8, "source": "NDR"}, {"title": "Verschmutztes Wasser im Hafen von Bremerv\u00f6rde: \u00d6lsperre ausgelegt", "url": "https://www.ndr.de/nachrichten/niedersachsen/oldenburg_ostfriesland/Verschmutztes-Wasser-im-Hafen-von-Bremervoerde-Oelsperre-ausgelegt,aktuelloldenburg15408.html", "thumbnailUrl": "https://www.ndr.de/nachrichten/niedersachsen/oldenburg_ostfriesland/bremervoerde302_v-contentwidescreen.jpg", "date": "2024-04-14T16:02:15.784+02:00", "lat": 53.4851, "lon": 9.1322, "intensity": 0.8, "source": "NDR"}, {"title": "Start der Kreuzfahrt-Saison in Warnem\u00fcnde", "url": "https://www.ndr.de/fernsehen/sendungen/nordmagazin/Start-der-Kreuzfahrt-Saison-in-Warnemuende,nordmagazin117242.html", "thumbnailUrl": "https://www.ndr.de/fernsehen/screenshot1732606_v-contentwidescreen.jpg", "date": "2024-04-14T20:58:01.861+02:00", "lat": 54.17443, "lon": 12.08919, "intensity": 0.6, "source": "NDR"}, {"title": "Das Alte Land bl\u00fcht rekordverd\u00e4chtig fr\u00fch", "url": "https://www.ndr.de/fernsehen/sendungen/hallo_niedersachsen/Das-Alte-Land-blueht-rekordverdaechtig-frueh,hallonds86932.html", "thumbnailUrl": "https://www.ndr.de/fernsehen/screenshot1732682_v-contentwidescreen.jpg", "date": "2024-04-14T20:42:06.110+02:00", "lat": 53.5131, "lon": 9.6125, "intensity": 0.6, "source": "NDR"}, {"title": "Sport-Aktionstag gegen Rechtsextremismus im Stadtpark", "url": "https://www.ndr.de/fernsehen/sendungen/hamburg_journal/Sport-Aktionstag-gegen-Rechtsextremismus-im-Stadtpark,hamj146078.html", "thumbnailUrl": "https://www.ndr.de/fernsehen/screenshot1732518_v-contentwidescreen.jpg", "date": "2024-04-14T20:23:18.771+02:00", "lat": 53.5953, "lon": 10.0268, "intensity": 0.8, "source": "NDR"}, {"title": "\"Gorch-Fock\": Korruptionsvorw\u00fcrfe gegen Elsflether Werft", "url": "https://www.ndr.de/fernsehen/sendungen/hallo_niedersachsen/Gorch-Fock-Korruptionsvorwuerfe-gegen-Elsflether-Werft,hallonds86928.html", "thumbnailUrl": "https://www.ndr.de/fernsehen/sendungen/hallo_niedersachsen/logo313_v-contentwidescreen.jpg", "date": "2024-04-14T21:00:05.540+02:00", "lat": 53.1439, "lon": 8.2167, "intensity": 0.8, "source": "NDR"}, {"title": "Ausflugsdampfer starten auf der Schlei in die neue Saison", "url": "https://www.ndr.de/fernsehen/sendungen/schleswig-holstein_magazin/Ausflugsdampfer-starten-auf-der-Schlei-in-die-neue-Saison,shmag115508.html", "thumbnailUrl": "https://www.ndr.de/fernsehen/screenshot1732612_v-contentwidescreen.jpg", "date": "2024-04-14T20:05:47.532+02:00", "lat": 54.5239, "lon": 9.8133, "intensity": 0.5, "source": "NDR"}, {"title": "Trinkwasser in Hamburg: Mehr Wasserspender f\u00fcr die Stadt", "url": "https://www.ndr.de/903/Trinkwasser-in-Hamburg-Mehr-Wasserspender-fuer-die-Stadt,audio1614134.html", "thumbnailUrl": "https://www.ndr.de/nachrichten/hamburg/extremwetter218_v-contentwidescreen.jpg", "date": "2024-04-14T07:08:28.920+02:00", "lat": 53.551085, "lon": 9.993682, "intensity": 0.4, "source": "NDR"}, {"title": "Eskalation im Nahen Osten - Der Tag nach dem iranischen Angriff", "url": "https://www.ndr.de/nachrichten/info/Eskalation-im-Nahen-Osten-Der-Tag-nach-dem-iranischen-Angriff,audio1614326.html", "thumbnailUrl": "https://www.ndr.de/mediathek/mediathekbild554_v-contentwidescreen.jpg", "date": "2024-04-14T20:59:17.379+02:00", "lat": 35.689506, "lon": 51.388973, "intensity": 0.8, "source": "NDR"}, {"title": "Baerbock: Iran hat Nahen Osten an Rand des Abgrunds gef\u00fchrt", "url": "https://www.ndr.de/nachrichten/info/Baerbock-Iran-hat-Nahen-Osten-an-Rand-des-Abgrunds-gefuehrt,audio1614230.html", "thumbnailUrl": "https://www.ndr.de/nachrichten/info/baerbock494_v-contentwidescreen.jpg", "date": "2024-04-14T13:15:24.688+02:00", "lat": 35.689506, "lon": 51.388973, "intensity": 0.8, "source": "NDR"}, {"title": "Jetzt anmelden: Workshops zum Tag der Pressefreiheit", "url": "https://www.ndr.de/ratgeber/medienkompetenz/Jetzt-anmelden-Workshops-zum-Tag-der-Pressefreiheit,tdpressefreiheit100.html", "thumbnailUrl": "https://www.ndr.de/ratgeber/medienkompetenz/pressefreiheit418_v-contentwidescreen.jpg", "date": "2024-04-11T12:50:59.616+02:00", "lat": 53.5511, "lon": 10.0103, "intensity": 0.3, "source": "NDR"}, {"title": "Relaunch der vier NDR L\u00e4nder-Apps: Nachrichten aus Ihrer Region!", "url": "https://www.ndr.de/Relaunch-der-vier-NDR-Laender-Apps-Nachrichten-aus-Ihrer-Region,laenderapprelaunch100.html", "thumbnailUrl": "https://www.ndr.de/laenderapprelaunch102_v-contentwidescreen.jpg", "date": "2024-03-19T09:22:34.719+01:00", "lat": 53.8659, "lon": 9.8606, "intensity": 0.4, "source": "NDR"}, {"title": "Gaspreis Dashboard", "url": "https://www.ndr.de/home/gaspreis176.html", "thumbnailUrl": null, "date": "2023-04-06T14:49:06.409+02:00", "lat": 51.3426, "lon": 9.9976, "intensity": 0.7, "source": "NDR"}, {"title": "NDR Radioprogramme", "url": "https://www.ndr.de/radio/radiologobox100.html", "thumbnailUrl": null, "date": "2020-12-01T14:04:26.700+01:00", "lat": 53.5511, "lon": 9.9937, "intensity": 0.3, "source": "NDR"}, {"title": "Krieg und Terror - Die Lage im Nahen Osten und in der Ukraine", "url": "https://www.ndr.de/nachrichten/info/podcast5342.html", "thumbnailUrl": "https://www.ndr.de/nachrichten/info/podcastbild412_v-contentwidescreen.jpg", "date": "2024-04-14T19:46:11.598+02:00", "lat": 46.79651, "lon": 30.739834, "intensity": 0.8, "source": "NDR"}, {"title": "eat.READ.sleep. B\u00fccher f\u00fcr dich", "url": "https://www.ndr.de/kultur/sendungen/eat_read_sleep/index.html", "thumbnailUrl": "https://www.ndr.de/mediathek/podcastbild434_v-contentwidescreen.jpg", "date": "2024-04-12T06:00:31.991+02:00", "lat": 53.5511, "lon": 9.9937, "intensity": 0.2, "source": "NDR"}, {"title": "Die Ern\u00e4hrungs-Docs - Essen als Medizin", "url": "https://www.ndr.de/fernsehen/sendungen/die-ernaehrungsdocs/audio-podcast/index.html", "thumbnailUrl": "https://www.ndr.de/fernsehen/sendungen/die-ernaehrungsdocs/podcastbild338_v-contentwidescreen.jpg", "date": "2024-04-10T08:00:11.160+02:00", "lat": 53.5511, "lon": 9.9876, "intensity": 0.3, "source": "NDR"}, {"title": "Unsere Comedy \"Die Kur-Oase\"!", "url": "https://www.ndr.de/ndr2/podcasts/podcast5816.html", "thumbnailUrl": "https://www.ndr.de/ndr2/podcasts/podcast5812_v-contentwidescreen.jpg", "date": "2024-04-12T07:15:07.605+02:00", "lat": 54.9069, "lon": 8.7386, "intensity": 0.2, "source": "NDR"}, {"title": "Streitkr\u00e4fte und Strategien", "url": "https://www.ndr.de/nachrichten/info/podcast2998.html", "thumbnailUrl": "https://www.ndr.de/mediathek/mediathekbild652_v-contentwidescreen.jpg", "date": "2024-04-12T15:35:16.518+02:00", "lat": 53.5511, "lon": 9.9937, "intensity": 0.8, "source": "NDR"}, {"title": "Standpunkte", "url": "https://www.ndr.de/nachrichten/info/podcast4700.html", "thumbnailUrl": "https://www.ndr.de/mediathek/podcast5332_v-contentwidescreen.jpg", "date": "2024-04-15T00:03:41.824+02:00", "lat": 53.5511, "lon": 9.9937, "intensity": 0.5, "source": "NDR"}, {"title": "Mein Einsatz - der Feuerwehr-Podcast von NDR Niedersachsen", "url": "https://www.ndr.de/ndr1niedersachsen/podcast5774.html", "thumbnailUrl": "https://www.ndr.de/ndr1niedersachsen/podcasts/podcastbild364_v-contentwidescreen.jpg", "date": "2024-04-11T04:00:07.819+02:00", "lat": 52.3759, "lon": 9.7345, "intensity": 0.7, "source": "NDR"}, {"title": "\"Feel Hamburg\" - alle Folgen", "url": "https://www.ndr.de/903/podcasts/podcast5108.html", "thumbnailUrl": "https://www.ndr.de/mediathek/mediathekbild514_v-contentwidescreen.jpg", "date": "2024-04-09T15:20:56.109+02:00", "lat": 53.55, "lon": 10.0, "intensity": 0.4, "source": "NDR"}, {"title": "Intensiv-Station - Satire von NDR Info", "url": "https://www.ndr.de/nachrichten/info/podcast4274.html", "thumbnailUrl": "https://www.ndr.de/nachrichten/info/programm/intensivstation3272_v-contentwidescreen.jpg", "date": "2024-04-08T21:21:32.487+02:00", "lat": 54.3706, "lon": 10.5038, "intensity": 0.8, "source": "NDR"}, {"title": "Amerika, wir m\u00fcssen reden!", "url": "https://www.ndr.de/nachrichten/info/podcast4932.html", "thumbnailUrl": "https://www.ndr.de/nachrichten/info/podcastbild488_v-contentwidescreen.jpg", "date": "2024-04-03T18:15:10.308+02:00", "lat": 39.78373, "lon": -100.445882, "intensity": 0.7, "source": "NDR"}, {"title": "Autofahrer aufgepasst: In NRW startet heute die Blitzer-Woche", "url": "https://www1.wdr.de/nachrichten/speedweek-blitzermarathon-autofahrer-nrw-100.html", "thumbnailUrl": null, "date": "2024-04-14T15:45:41Z", "lat": 51.4177, "lon": 7.6261, "intensity": 0.7, "source": "WDR"}, {"title": "Angriff auf Israel: Was geschieht im Nahen Osten?", "url": "https://www1.wdr.de/nachrichten/iran-israel-angriff-faq-100.html", "thumbnailUrl": null, "date": "2024-04-14T19:32:20Z", "lat": 31.7683, "lon": 35.2433, "intensity": 0.9, "source": "WDR"}, {"title": "Bayer Leverkusen ist Deutscher Meister", "url": "https://www1.wdr.de/nachrichten/bayer-leverkusen-ist-deutscher-meister-100.html", "thumbnailUrl": null, "date": "2024-04-14T19:42:27Z", "lat": 51.038, "lon": 7.0014, "intensity": 1, "source": "WDR"}, {"title": "Bayer Leverkusen holt die Schale", "url": "https://www1.wdr.de/nachrichten/bayer-leverkusen-200.html", "thumbnailUrl": null, "date": "2024-04-14T18:46:37Z", "lat": 51.0333, "lon": 7.0, "intensity": 0.8, "source": "WDR"}, {"title": "So bereitet sich Leverkusen auf den Meistertitel vor", "url": "https://www1.wdr.de/nachrichten/rheinland/moegliche-meisterfeier-bayer-leverkusen-100.html", "thumbnailUrl": null, "date": "2024-04-14T17:44:33Z", "lat": 51.045, "lon": 7.0069, "intensity": 0.6, "source": "WDR"}, {"title": "Leverkusen freut sich: Hoffnung auf Fu\u00dfball", "url": "https://www1.wdr.de/nachrichten/leverkusen-fans-104.html", "thumbnailUrl": null, "date": "2024-04-13T13:10:36Z", "lat": 51.045, "lon": 7.0059, "intensity": 0.3, "source": "WDR"}, {"title": "Konstellation pl\u00f6tzlich top: Bayer Leverkusens Triple-Chance stark verbessert", "url": "https://www.sportschau.de/fussball/europaleague/analyse-triple-chance-fuer-bayer-leverkusen-100.html", "thumbnailUrl": null, "date": "2024-04-12T11:42:04Z", "lat": 51.038822, "lon": 7.031308, "intensity": 0.8, "source": "WDR"}, {"title": "Schluss mit Vizekusen: Was die Meisterschaft f\u00fcr Leverkusen bedeutet", "url": "https://www1.wdr.de/nachrichten/wird-leverkusen-meister-nah-dran-podcast100.html", "thumbnailUrl": null, "date": "2024-04-13T15:07:42Z", "lat": 51.0451, "lon": 7.0086, "intensity": 0.8, "source": "WDR"}, {"title": "Ab morgen neue Streiks bei Bussen und Bahnen - bei Rheinbahn, Bogestra und SWK mobil", "url": "https://www1.wdr.de/nachrichten/streik-nahverkehr-102.html", "thumbnailUrl": null, "date": "2024-04-14T17:48:34Z", "lat": 51.9607, "lon": 7.6279, "intensity": 0.8, "source": "WDR"}, {"title": "Wetter in NRW: Sonntag l\u00e4utet Wetterwechsel ein", "url": "https://www1.wdr.de/nachrichten/wetter-wochenende-april-nrw100.html", "thumbnailUrl": null, "date": "2024-04-14T16:34:52Z", "lat": 51.8133, "lon": 7.6261, "intensity": 0.6, "source": "WDR"}, {"title": "Gro\u00dfeinsatz gegen Auto-Poser in Bedburg", "url": "https://www1.wdr.de/nachrichten/grosseinsatz-autoposer-100.html", "thumbnailUrl": null, "date": "2024-04-14T12:15:15Z", "lat": 51.0018, "lon": 6.5794, "intensity": 0.8, "source": "WDR"}, {"title": "Zwei Kinder sterben bei Verkehrsunfall nahe Borgentreich", "url": "https://www1.wdr.de/nachrichten/westfalen-lippe/verkehrsunfall-borgentreich-kinder-100.html", "thumbnailUrl": null, "date": "2024-04-14T10:13:11Z", "lat": 51.5449, "lon": 9.0153, "intensity": 0.8, "source": "WDR"}, {"title": "Hamm: Mann ger\u00e4t in Schredder und stirbt", "url": "https://www1.wdr.de/nachrichten/ruhrgebiet/hamm-mann-schredder-gestorben100.html", "thumbnailUrl": null, "date": "2024-04-14T17:21:50Z", "lat": 51.6739, "lon": 7.821, "intensity": 0.8, "source": "WDR"}, {"title": "Gro\u00dfer Andrang beim Bonn-Marathon", "url": "https://www1.wdr.de/nachrichten/bonn-marathon-108.html", "thumbnailUrl": null, "date": "2024-04-14T16:36:54Z", "lat": 50.7374, "lon": 7.0982, "intensity": 0.8, "source": "WDR"}, {"title": "In Gro\u00df Reken ist ein Bus in die Terrasse einer Eisdiele gefahren", "url": "https://www1.wdr.de/nachrichten/westfalen-lippe/unfall-reken-bus-eisdiele-100.html", "thumbnailUrl": null, "date": "2024-04-14T06:45:04Z", "lat": 51.8539, "lon": 7.2374, "intensity": 0.8, "source": "WDR"}, {"title": "Krieg im Nahen Osten: Nahost-Liveblog: ++ Baerbock: \"M\u00fcssen aus Eskalationsspirale heraus\" ++", "url": "https://www.tagesschau.de/newsticker/liveblog-nahost-sonntag-130.html", "thumbnailUrl": null, "date": "2024-04-14T22:30:02Z", "lat": 31.7683, "lon": 35.2137, "intensity": 0.8, "source": "WDR"}, {"title": "Umstrittenes Treffen in Berlin: Proteste nach Aufl\u00f6sung von \"Pal\u00e4stina-Kongress\" in Berlin", "url": "https://www.tagesschau.de/inland/regional/berlin/proteste-palaestina-kongress-berlin-100.html", "thumbnailUrl": null, "date": "2024-04-13T17:00:04Z", "lat": 52.520008, "lon": 13.404954, "intensity": 0.8, "source": "WDR"}, {"title": "Vorfall im Golf von Oman: Golf von Oman: Iranische Revolutionsgarden kapern Handelsschiff", "url": "https://www.tagesschau.de/ausland/asien/iran-beschlagnahmt-schiff-100.html", "thumbnailUrl": null, "date": "2024-04-13T16:48:02Z", "lat": 26.0667, "lon": 56.2808, "intensity": 0.9, "source": "WDR"}, {"title": "Familie von Hanija: Familienangeh\u00f6rige von Hamas-F\u00fchrer Hanija bei Angriff get\u00f6tet", "url": "https://www.tagesschau.de/ausland/asien/hamas-hanija-familie-100.html", "thumbnailUrl": null, "date": "2024-04-11T05:39:01Z", "lat": 31.5226, "lon": 34.4534, "intensity": 0.8, "source": "WDR"}, {"title": "Kritik an deutscher Nahost-Politik: Arabische Kritik an deutscher Nahost-Politik: Verlorenes Vertrauen", "url": "https://www.tagesschau.de/ausland/asien/nahost-krieg-rolle-deutschland-100.html", "thumbnailUrl": null, "date": "2024-04-11T04:36:47Z", "lat": 51.111111, "lon": 9.999999, "intensity": 0.8, "source": "WDR"}, {"title": "Uneinigkeit \u00fcber Termin: Gallant widerspricht offenbar Netanyahu bei Rafah-Offensive", "url": "https://www.tagesschau.de/ausland/asien/rafah-offensive-israel-usa-100.html", "thumbnailUrl": null, "date": "2024-04-10T09:06:02Z", "lat": 31.3347, "lon": 34.2694, "intensity": 0.8, "source": "WDR"}, {"title": "Die wichtigsten Fakten \u00fcber den Gazastreifen", "url": "https://www1.wdr.de/nachrichten/gaza-gazastreifen-israel-hintergrund-100.html", "thumbnailUrl": null, "date": "2023-10-11T15:33:25Z", "lat": 31.5107, "lon": 34.3445, "intensity": 0.8, "source": "WDR"},