[{"title": "Unwetter mit Starkregen und \u00dcberflutungen in RLP", "url": "https://www.tagesschau.de/inland/regional/rheinlandpfalz/swr-unwetter-mit-starkregen-in-rlp-moeglich-100.html", "thumbnailUrl": "https://images.tagesschau.de/image/2fdb071b-5e9c-4178-82dd-f503ac0ba7b7/AAABjzvWQLA/AAABjwnlKNc/16x9-512.jpg", "date": "2024-05-03T03:04:00.000+02:00", "lat": 50.1183, "lon": 7.3727, "intensity": 0.8, "source": "Tagesschau"}, {"title": "++ Weitere Geisel f\u00fcr tot erkl\u00e4rt ++", "url": "https://www.tagesschau.de/newsticker/liveblog-nahost-freitag-132.html", "thumbnailUrl": "https://images.tagesschau.de/image/e365725b-db56-4c07-9bf6-67c7b59cc4a7/AAABhnRDex8/AAABjwnlKNc/16x9-512.jpg", "date": "2024-05-03T02:59:43.175+02:00", "lat": 31.7683, "lon": 35.2137, "intensity": 0.8, "source": "Tagesschau"}, {"title": "T\u00fcrkei setzt Handel mit Israel aus", "url": "https://www.tagesschau.de/ausland/asien/turkei-israel-handel-100.html", "thumbnailUrl": "https://images.tagesschau.de/image/087ac6d8-9a1d-4f52-8812-a28ead7515af/AAABjzsRxwk/AAABjwnlKNc/16x9-512.jpg", "date": "2024-05-03T01:36:33.147+02:00", "lat": 31.9522, "lon": 35.2433, "intensity": 0.8, "source": "Tagesschau"}, {"title": "Schwere Gewitter ziehen \u00fcber BW: Keine Vermissten nach \u00dcberflutungen in Bisingen", "url": "https://www.tagesschau.de/inland/regional/badenwuerttemberg/swr-starkregen-und-boeen-unwettergefahr-in-teilen-von-bw-100.html", "thumbnailUrl": "https://images.tagesschau.de/image/308dc77a-a8be-432e-895f-a96efe99ac36/AAABjzvSk0w/AAABjwnlKNc/16x9-512.jpg", "date": "2024-05-03T01:27:00.000+02:00", "lat": 48.3106, "lon": 9.0734, "intensity": 0.8, "source": "Tagesschau"}, {"title": "++ T\u00fcrkei best\u00e4tigt Handelsstopp mit Israel ++", "url": "https://www.tagesschau.de/newsticker/liveblog-nahost-donnerstag-132.html", "thumbnailUrl": "https://images.tagesschau.de/image/087ac6d8-9a1d-4f52-8812-a28ead7515af/AAABjzsRxwk/AAABjwnlKNc/16x9-512.jpg", "date": "2024-05-02T23:42:46.812+02:00", "lat": 31.9522, "lon": 35.2433, "intensity": 0.8, "source": "Tagesschau"}, {"title": "++ Ukraine best\u00e4tigt russischen Durchbruch bei Otscheretyne ++", "url": "https://www.tagesschau.de/newsticker/liveblog-ukraine-donnerstag-338.html", "thumbnailUrl": "https://images.tagesschau.de/image/5b073b67-29bf-4703-b6b1-71469e4c25bb/AAABizMn-kk/AAABjwnlKNc/16x9-512.jpg", "date": "2024-05-02T23:42:06.256+02:00", "lat": 50.4501, "lon": 30.5234, "intensity": 0.8, "source": "Tagesschau"}, {"title": "Unwetter zieht \u00fcber Hessen - Frankfurt stark betroffen", "url": "https://www.tagesschau.de/inland/regional/hessen/hr-unwetter-zieht-ueber-hessen-frankfurt-stark-betroffen-100.html", "thumbnailUrl": "https://images.tagesschau.de/image/7aa1a232-a522-466b-97b1-7d9ea0d202e1/AAABjzs8Zjo/AAABjwnlKNc/16x9-512.jpg", "date": "2024-05-02T23:34:47.852+02:00", "lat": 50.1109, "lon": 8.6821, "intensity": 0.8, "source": "Tagesschau"}, {"title": "Unwetter zieht \u00fcber NRW hinweg - Kreis Ahrweiler stark betroffen", "url": "https://www.tagesschau.de/inland/regional/nordrheinwestfalen/wdr-wetter-in-nrw-am-wochenende-wird-es-deutlich-waermer-100.html", "thumbnailUrl": "https://images.tagesschau.de/image/fa823022-b30e-4f9f-bfe8-e91b2b3e2da4/AAABjzsQZFw/AAABjwnlKNc/16x9-512.jpg", "date": "2024-05-02T22:46:00.000+02:00", "lat": 51.0504, "lon": 7.335, "intensity": 0.7, "source": "Tagesschau"}, {"title": "Ver\u00e4nderungen bei Volleyball-Meister: Volleys verk\u00fcnden drei Zug\u00e4nge", "url": "https://www.tagesschau.de/inland/regional/berlin/rbb-veraenderungen-bei-volleyball-meister-volleys-verkuenden-drei-zugaenge-102.html", "thumbnailUrl": "https://images.tagesschau.de/image/33e4e6bd-f5de-41b4-98b5-cd4382704a2e/AAABjzsK8pc/AAABjwnlKNc/16x9-512.jpg", "date": "2024-05-02T22:39:45.000+02:00", "lat": 52.520008, "lon": 13.404954, "intensity": 0.6, "source": "Tagesschau"}, {"title": "Champions League: THW Kiel schafft das Wunder und steht im Final Four", "url": "https://www.tagesschau.de/inland/regional/schleswigholstein/ndr-champions-league-thw-kiel-schafft-das-wunder-und-steht-im-final-four-102.html", "thumbnailUrl": "https://images.tagesschau.de/image/ccd67aa4-3ac6-49a8-8bb1-14018b7ae56a/AAABjzqxSEQ/AAABjwnlKNc/16x9-512.jpg", "date": "2024-05-02T22:16:00.000+02:00", "lat": 54.3233, "lon": 10.1228, "intensity": 0.8, "source": "Tagesschau"}, {"title": "Sicherheit f\u00fcr Zugpersonal: Gewerkschaft droht mit Stillstand bei EM", "url": "https://www.tagesschau.de/inland/regional/niedersachsen/ndr-sicherheit-fuer-zugpersonal-gewerkschaft-droht-mit-stillstand-bei-em-100.html", "thumbnailUrl": "https://images.tagesschau.de/image/86781266-ee00-4e11-ab81-902faaafc820/AAABjzr-T-E/AAABjwnlKNc/16x9-512.jpg", "date": "2024-05-02T22:15:00.000+02:00", "lat": 52.4735, "lon": 10.4515, "intensity": 0.7, "source": "Tagesschau"}, {"title": "Frankfurter Kino sagt Veranstaltung zu Golda-Meir-Film ab: \"Ernsthafte Sicherheitsbedenken\"", "url": "https://www.tagesschau.de/inland/regional/hessen/hr-frankfurter-kino-sagt-veranstaltung-zu-golda-meir-film-ab-ernsthafte-sicherheitsbedenken-100.html", "thumbnailUrl": "https://images.tagesschau.de/image/93c2815c-9edc-40a2-888d-ba8eb1eafeb3/AAABjzrvge4/AAABjwnlKNc/16x9-512.jpg", "date": "2024-05-02T22:11:45.691+02:00", "lat": 50.1109, "lon": 8.6821, "intensity": 0.6, "source": "Tagesschau"}, {"title": "Unwetter zieht \u00fcber Westdeutschland", "url": "https://www.tagesschau.de/inland/deutschland-unwetter-starkregen-100.html", "thumbnailUrl": "https://images.tagesschau.de/image/5da5a227-039d-4059-8571-099202b86946/AAABjzpSwqk/AAABjwnlKNc/16x9-512.jpg", "date": "2024-05-02T22:06:56.455+02:00", "lat": 51.9607, "lon": 7.6261, "intensity": 0.8, "source": "Tagesschau"}, {"title": "VfL Osnabr\u00fcck: Schalke-Spiel am Dienstagabend im Millerntorstadion", "url": "https://www.tagesschau.de/inland/regional/hamburg/ndr-vfl-osnabrueck-schaeden-am-stadiondach-schalke-spiel-am-7-mai-am-millerntor-102.html", "thumbnailUrl": "https://images.tagesschau.de/image/eb124ca5-f17b-4cfb-90f0-293d50672eac/AAABjzpmJ-E/AAABjwnlKNc/16x9-512.jpg", "date": "2024-05-02T22:06:00.000+02:00", "lat": 53.5511, "lon": 9.9808, "intensity": 0.6, "source": "Tagesschau"}, {"title": "Verfolgung auf der A7: Mann flieht unter Drogen vor der Polizei", "url": "https://www.tagesschau.de/inland/regional/niedersachsen/ndr-verfolgung-auf-der-a7-mann-flieht-unter-drogen-vor-der-polizei-100.html", "thumbnailUrl": "https://images.tagesschau.de/image/bb3ec6df-5d6c-478b-9193-e61ee0de2be2/AAABjzmriy8/AAABjwnlKNc/16x9-512.jpg", "date": "2024-05-02T22:04:00.000+02:00", "lat": 52.3759, "lon": 9.732, "intensity": 0.8, "source": "Tagesschau"}, {"title": "Von Auto angefahren: Pedelec-Fahrerin stirbt", "url": "https://www.tagesschau.de/inland/regional/niedersachsen/ndr-von-auto-angefahren-pedelec-fahrerin-stirbt-100.html", "thumbnailUrl": "https://images.tagesschau.de/image/05719d6e-7849-4e53-8af1-ef477700c82a/AAABjzrg3cA/AAABjwnlKNc/16x9-512.jpg", "date": "2024-05-02T21:46:00.000+02:00", "lat": 53.3935, "lon": 8.1326, "intensity": 0.8, "source": "Tagesschau"}, {"title": "Vom Smartphone abgelenkt - Frau st\u00fcrzt ins S-Bahngleis und verletzt sich", "url": "https://www.tagesschau.de/inland/regional/berlin/rbb-vom-smartphone-abgelenkt-frau-stuerzt-ins-s-bahngleis-und-verletzt-sich-100.html", "thumbnailUrl": "https://images.tagesschau.de/image/b0472a14-e5a8-4dd2-adc3-40c98bcdb7b6/AAABjzrZi1c/AAABjwnlKNc/16x9-512.jpg", "date": "2024-05-02T21:44:23.000+02:00", "lat": 52.52, "lon": 13.4069, "intensity": 0.7, "source": "Tagesschau"}, {"title": "Fu\u00dfball-Regionalliga Nordost: Der BFC und die Frage, wie die Saison noch zu retten ist", "url": "https://www.tagesschau.de/inland/regional/berlin/rbb-fussball-regionalliga-nordost-der-bfc-und-die-frage-wie-die-saison-noch-zu-retten-ist-102.html", "thumbnailUrl": "https://images.tagesschau.de/image/8131fe64-d40a-4601-9c33-761b986a8732/AAABjzrOqJY/AAABjwnlKNc/16x9-512.jpg", "date": "2024-05-02T21:31:23.000+02:00", "lat": 52.52, "lon": 13.4061, "intensity": 0.8, "source": "Tagesschau"}, {"title": "Mein lieber Herr Gesangsverein: 17-J\u00e4hriger rettet M\u00e4nnerchor", "url": "https://www.tagesschau.de/inland/regional/niedersachsen/ndr-mein-lieber-herr-gesangsverein-17-jaehriger-rettet-maennerchor-100.html", "thumbnailUrl": "https://images.tagesschau.de/image/7a0430fb-40c4-44c2-acc5-c5fed146d083/AAABjzrLAWY/AAABjwnlKNc/16x9-512.jpg", "date": "2024-05-02T21:30:00.000+02:00", "lat": 53.1664, "lon": 10.5861, "intensity": 0.8, "source": "Tagesschau"}, {"title": "Polizei r\u00e4umt Protestcamp auf UCLA-Campus", "url": "https://www.tagesschau.de/ausland/amerika/los-angeles-protestcamp-raeumung-100.html", "thumbnailUrl": "https://images.tagesschau.de/image/518406a3-cf17-4a97-bfdf-221e0203d42d/AAABjzmdRks/AAABjwnlKNc/16x9-512.jpg", "date": "2024-05-02T21:18:13.609+02:00", "lat": 34.068921, "lon": -118.443961, "intensity": 0.8, "source": "Tagesschau"}, {"title": "Abfallentsorger in Verzug - Glascontainer \u00fcberf\u00fcllt", "url": "https://www.tagesschau.de/inland/regional/niedersachsen/ndr-abfallentsorger-in-verzug-glascontainer-ueberfuellt-100.html", "thumbnailUrl": "https://images.tagesschau.de/image/cca4bb12-772c-4051-88d4-24f14add167d/AAABjzq8PZE/AAABjwnlKNc/16x9-512.jpg", "date": "2024-05-02T21:14:00.000+02:00", "lat": 52.9733, "lon": 10.5472, "intensity": 0.7, "source": "Tagesschau"}, {"title": "Sexuelle Bel\u00e4stigung: Mann entbl\u00f6\u00dft sich vor Polizistinnen", "url": "https://www.tagesschau.de/inland/regional/niedersachsen/ndr-sexuelle-belaestigung-mann-entbloesst-sich-vor-polizistinnen-100.html", "thumbnailUrl": "https://images.tagesschau.de/image/d1c6d972-c9ee-4144-9a6c-5ea613d92de5/AAABjzkXL2s/AAABjwnlKNc/16x9-512.jpg", "date": "2024-05-02T21:08:00.000+02:00", "lat": 52.374, "lon": 10.4515, "intensity": 0.8, "source": "Tagesschau"}, {"title": "Abschlusspr\u00fcfungen f\u00fcr Haupt- und Realsch\u00fcler haben begonnen", "url": "https://www.tagesschau.de/inland/regional/niedersachsen/ndr-abschlusspruefungen-fuer-haupt-und-realschueler-beginnen-heute-100.html", "thumbnailUrl": "https://images.tagesschau.de/image/9c23e699-5526-4e7d-9b8b-dec83a74925f/AAABjzpkchA/AAABjwnlKNc/16x9-512.jpg", "date": "2024-05-02T21:02:00.000+02:00", "lat": 52.6367, "lon": 10.4515, "intensity": 0.8, "source": "Tagesschau"}, {"title": "Live: Leverkusen gegen AS Rom", "url": "https://www.sportschau.de/live-und-ergebnisse/fussball/uefa-europa-league/ma10158815/as-rom_bayer-leverkusen/liveticker/", "thumbnailUrl": "https://images.tagesschau.de/image/157ced03-085c-445e-a360-2a672a4d2fad/AAABjajiQ8g/AAABjwnlKNc/16x9-512.jpg", "date": "2024-05-02T21:01:47.929+02:00", "lat": 51.0451, "lon": 7.0724, "intensity": 0.7, "source": "Tagesschau"}, {"title": "Verwaltungsgericht verh\u00e4ngt Baustopp f\u00fcr Surfpark Stade", "url": "https://www.tagesschau.de/inland/regional/niedersachsen/ndr-verwaltungsgericht-verhaengt-baustopp-fuer-surfpark-stade-100.html", "thumbnailUrl": "https://images.tagesschau.de/image/9b07d0d7-563d-42ec-8c8a-25d4913216e3/AAABjzq8SxI/AAABjwnlKNc/16x9-512.jpg", "date": "2024-05-02T20:54:00.000+02:00", "lat": 53.5973, "lon": 9.4717, "intensity": 0.8, "source": "Tagesschau"}, {"title": "Solarpark Tiste: Gericht stoppt vorl\u00e4ufig Baupl\u00e4ne", "url": "https://www.tagesschau.de/inland/regional/niedersachsen/ndr-solarpark-tiste-gericht-stoppt-vorlaeufig-bauplaene-100.html", "thumbnailUrl": "https://images.tagesschau.de/image/12d01e3c-59c0-4421-8eb3-82c87ba96036/AAABjzqp9q0/AAABjwnlKNc/16x9-512.jpg", "date": "2024-05-02T20:53:00.000+02:00", "lat": 53.3114, "lon": 9.1014, "intensity": 0.6, "source": "Tagesschau"}, {"title": "Studie: Negative Berichterstattung dominiert \u2013 alle Parteien betroffen", "url": "https://www.tagesschau.de/inland/regional/sachsenanhalt/mdr-studie-negative-berichterstattung-dominiert--alle-parteien-betroffen-100.html", "thumbnailUrl": "https://images.tagesschau.de/image/126ce628-8425-487b-abcf-46471f005b07/AAABjzr3NvY/AAABjwnlKNc/16x9-512.jpg", "date": "2024-05-02T20:46:30.000+02:00", "lat": 52.1205, "lon": 11.6276, "intensity": 0.7, "source": "Tagesschau"}, {"title": "Sp\u00e4tere Sperrstunde in Hannover? Parteien fordern Verl\u00e4ngerung", "url": "https://www.tagesschau.de/inland/regional/niedersachsen/ndr-spaetere-sperrstunde-in-hannover-parteien-fordern-verlaengerung-100.html", "thumbnailUrl": "https://images.tagesschau.de/image/cf7e1a16-263a-4e23-be85-a9153942c652/AAABjzmI3Cw/AAABjwnlKNc/16x9-512.jpg", "date": "2024-05-02T20:42:00.000+02:00", "lat": 52.37589, "lon": 9.73322, "intensity": 0.6, "source": "Tagesschau"}, {"title": "Melle: Motorradfahrer bei Kollision mit Traktor t\u00f6dlich verletzt", "url": "https://www.tagesschau.de/inland/regional/niedersachsen/ndr-melle-motorradfahrer-bei-kollision-mit-traktor-toedlich-verletzt-100.html", "thumbnailUrl": "https://images.tagesschau.de/image/22d00e2d-a5bc-496a-a8ca-59185248c115/AAABjzq0_GI/AAABjwnlKNc/16x9-512.jpg", "date": "2024-05-02T20:40:00.000+02:00", "lat": 52.1999, "lon": 8.3816, "intensity": 0.8, "source": "Tagesschau"}, {"title": "Kein \"Turbokrebs\"-Notstand in Japan", "url": "https://www.tagesschau.de/faktenfinder/turbokrebs-impfung-japan-100.html", "thumbnailUrl": "https://images.tagesschau.de/image/55a63aba-c485-4c70-b1f3-65c71f78ce7d/AAABiuX7DYM/AAABjwnlKNc/16x9-512.jpg", "date": "2024-05-02T20:38:41.189+02:00", "lat": 35.6895, "lon": 139.6917, "intensity": 0.4, "source": "Tagesschau"}, {"title": "Bezirks- und Europawahlen: Wie die Hamburger Linken punkten wollen", "url": "https://www.tagesschau.de/inland/regional/hamburg/ndr-bezirks-und-europawahlen-wie-die-hamburger-linken-punkten-wollen-100.html", "thumbnailUrl": "https://images.tagesschau.de/image/c879fdf8-87c2-4849-b8a2-228aed84c7b6/AAABjzqVwfA/AAABjwnlKNc/16x9-512.jpg", "date": "2024-05-02T20:31:00.000+02:00", "lat": 53.5511, "lon": 9.9378, "intensity": 0.7, "source": "Tagesschau"}, {"title": "\"Wir machen hier keine Bundespolitik\"", "url": "https://www.tagesschau.de/inland/innenpolitik/kommunalwahlen-114.html", "thumbnailUrl": "https://images.tagesschau.de/image/d6fcf982-87c4-4b94-9180-8cb1dc42d036/AAABjy8LbP4/AAABjwnlKNc/16x9-512.jpg", "date": "2024-05-02T20:28:28.365+02:00", "lat": 51.5625, "lon": 14.372222, "intensity": 0.6, "source": "Tagesschau"}, {"title": "Thuine: 18-J\u00e4hriger nach Motorradunfall in Lebensgefahr", "url": "https://www.tagesschau.de/inland/regional/niedersachsen/ndr-thuine-18-jaehriger-nach-motorradunfall-in-lebensgefahr-100.html", "thumbnailUrl": "https://images.tagesschau.de/image/7cc04b17-e1a6-4cf0-bd2f-0c2be192027a/AAABjzktIDg/AAABjwnlKNc/16x9-512.jpg", "date": "2024-05-02T20:19:00.000+02:00", "lat": 52.3305, "lon": 7.3982, "intensity": 0.8, "source": "Tagesschau"}, {"title": "Barkassenfahrten starten wieder am Deutschen Marine Museum", "url": "https://www.tagesschau.de/inland/regional/niedersachsen/ndr-barkassenfahrten-starten-wieder-am-deutschen-marine-museum-100.html", "thumbnailUrl": "https://images.tagesschau.de/image/fc051a36-d80a-4c2d-b523-f3a274db9735/AAABjzqHHXw/AAABjwnlKNc/16x9-512.jpg", "date": "2024-05-02T20:16:00.000+02:00", "lat": 53.5227, "lon": 8.1428, "intensity": 0.6, "source": "Tagesschau"}, {"title": "Gehalt von B\u00fcroleiterin: Zeugenbefragung startet im Streit", "url": "https://www.tagesschau.de/inland/regional/niedersachsen/ndr-gehalt-von-bueroleiterin-untersuchungsausschuss-befragt-zeuginnen-100.html", "thumbnailUrl": "https://images.tagesschau.de/image/7c44e9f5-68f7-4305-a374-85977b4c1ba5/AAABjzoc9N4/AAABjwnlKNc/16x9-512.jpg", "date": "2024-05-02T20:06:00.000+02:00", "lat": 52.3759, "lon": 10.4515, "intensity": 0.8, "source": "Tagesschau"}, {"title": "B\u00fcro-Leerstand in Saarbr\u00fccken: Welche Ideen es gibt", "url": "https://www.tagesschau.de/inland/regional/saarland/sr-buero-leerstand-in-saarbruecken-welche-ideen-es-gibt-100.html", "thumbnailUrl": "https://images.tagesschau.de/image/46c9b624-93ba-4faf-bd3b-4a429e506081/AAABjzqmLlg/AAABjwnlKNc/16x9-512.jpg", "date": "2024-05-02T20:00:00.000+02:00", "lat": 49.2402, "lon": 6.9797, "intensity": 0.5, "source": "Tagesschau"}, {"title": "Evangelische Kirchen verlieren Mitglieder - auch im Norden", "url": "https://www.tagesschau.de/inland/regional/niedersachsen/ndr-evangelische-kirchen-verlieren-mitglieder-auch-im-norden-100.html", "thumbnailUrl": "https://images.tagesschau.de/image/0ae7cb60-ed1e-49ed-8ae8-99cebf6c91a0/AAABjzrDrqc/AAABjwnlKNc/16x9-512.jpg", "date": "2024-05-02T19:57:00.000+02:00", "lat": 52.52001, "lon": 9.38523, "intensity": 0.8, "source": "Tagesschau"}, {"title": "Brennelementefabrik: Sind russische Ingenieure schon in Lingen?", "url": "https://www.tagesschau.de/inland/regional/niedersachsen/ndr-brennelementefabrik-sind-russische-ingenieure-schon-in-lingen-100.html", "thumbnailUrl": "https://images.tagesschau.de/image/93ae40d1-377d-4e54-a1f6-1d21dea0f51c/AAABjzn0oY8/AAABjwnlKNc/16x9-512.jpg", "date": "2024-05-02T19:39:00.000+02:00", "lat": 52.210833, "lon": 7.326426, "intensity": 0.8, "source": "Tagesschau"}, {"title": "Mehr Geschlechtergerechtigkeit: Frankfurt erlaubt Oben-ohne-Schwimmen ", "url": "https://www.tagesschau.de/inland/regional/hessen/hr-mehr-geschlechtergerechtigkeit-frankfurt-erlaubt-oben-ohne-schwimmen-100.html", "thumbnailUrl": "https://images.tagesschau.de/image/f0576311-7f7c-4023-9a3f-db832878be22/AAABjzpgsEk/AAABjwnlKNc/16x9-512.jpg", "date": "2024-05-02T19:35:20.722+02:00", "lat": 50.1109, "lon": 8.6821, "intensity": 0.7, "source": "Tagesschau"}, {"title": "Auto \u00fcberschl\u00e4gt sich bei Ausweichman\u00f6ver - zwei Tote bei Walsrode", "url": "https://www.tagesschau.de/inland/regional/niedersachsen/ndr-auto-ueberschlaegt-sich-bei-ausweichmanoever-zwei-tote-bei-walsrode-100.html", "thumbnailUrl": "https://images.tagesschau.de/image/c3b33c93-1cac-41df-8bdb-542e881f16a6/AAABjzff1Q8/AAABjwnlKNc/16x9-512.jpg", "date": "2024-05-02T19:35:00.000+02:00", "lat": 52.8716, "lon": 9.5859, "intensity": 0.8, "source": "Tagesschau"}, {"title": "Messerangriff in Verden: Frau auf offener Stra\u00dfe niedergestochen", "url": "https://www.tagesschau.de/inland/regional/niedersachsen/ndr-auf-offener-strasse-mit-messer-angegriffen-frau-rettet-sich-in-auto-100.html", "thumbnailUrl": "https://images.tagesschau.de/image/970a1b2b-e442-44cb-8b39-3973fb047c17/AAABjzpoBug/AAABjwnlKNc/16x9-512.jpg", "date": "2024-05-02T19:32:00.000+02:00", "lat": 52.9242, "lon": 9.2317, "intensity": 0.8, "source": "Tagesschau"}, {"title": "Segelflugzeug abgest\u00fcrzt - zwei Menschen verletzt", "url": "https://www.tagesschau.de/inland/regional/niedersachsen/ndr-segelflugzeug-abgestuerzt-zwei-menschen-verletzt-100.html", "thumbnailUrl": "https://images.tagesschau.de/image/9399bbf7-8c25-4a92-9511-224e40a38b4d/AAABjzQgXiQ/AAABjwnlKNc/16x9-512.jpg", "date": "2024-05-02T19:29:00.000+02:00", "lat": 52.8229, "lon": 6.6354, "intensity": 0.8, "source": "Tagesschau"}, {"title": "Auto f\u00e4hrt r\u00fcckw\u00e4rts auf Landstra\u00dfe: Fahrer stirbt nach Kollision", "url": "https://www.tagesschau.de/inland/regional/niedersachsen/ndr-63-jaehriger-schwebt-nach-schwerem-unfall-in-lebensgefahr-100.html", "thumbnailUrl": "https://images.tagesschau.de/image/8ffc5c5d-94d8-4fb7-8d01-5f972ae52787/AAABjzhafKk/AAABjwnlKNc/16x9-512.jpg", "date": "2024-05-02T19:28:00.000+02:00", "lat": 52.3351, "lon": 7.3509, "intensity": 0.8, "source": "Tagesschau"}, {"title": "Wetterlage und Temperaturen", "url": "https://www.tagesschau.de/wetter/europa-welt", "thumbnailUrl": "https://images.tagesschau.de/image/6e7d3b16-79c8-4308-822b-20c3035236b5/AAABjzpOqMA/AAABjwnlKNc/16x9-512.jpg", "date": "2024-05-02T19:17:04.228+02:00", "lat": 51.1657, "lon": 10.4515, "intensity": 0.3, "source": "Tagesschau"}, {"title": "Tiefer Frust \u00fcber Russlands Vormarsch", "url": "https://www.tagesschau.de/ausland/europa/ukraine-russland-front-102.html", "thumbnailUrl": "https://images.tagesschau.de/image/edf6b5e4-45a1-4fbe-ab01-98e8c49078c9/AAABjzi8DpY/AAABjwnlKNc/16x9-512.jpg", "date": "2024-05-02T19:11:59.209+02:00", "lat": 50.4501, "lon": 30.5234, "intensity": 0.8, "source": "Tagesschau"}, {"title": "News-Blog 2. Liga: Osnabr\u00fcck - Schalke am 7. Mai - Stadtderby im Fokus", "url": "https://www.tagesschau.de/inland/regional/hamburg/ndr-live-blog-2-liga-hsv-oder-st-pauli-wer-gewinnt-das-stadtderby-102.html", "thumbnailUrl": "https://images.tagesschau.de/image/cd547fef-659e-432a-9fbb-4de879bea110/AAABjzpdJYg/AAABjwnlKNc/16x9-512.jpg", "date": "2024-05-02T18:47:00.000+02:00", "lat": 52.2799, "lon": 10.8754, "intensity": 0.8, "source": "Tagesschau"}, {"title": "Hamburger Stadtderby: Wie sich Polizei und Fans vorbereiten", "url": "https://www.tagesschau.de/inland/regional/hamburg/ndr-hamburger-stadtderby-wie-sich-polizei-und-fans-vorbereiten-100.html", "thumbnailUrl": "https://images.tagesschau.de/image/d29df4ad-b991-4afb-8c25-a7efc8571eca/AAABjzpdIc8/AAABjwnlKNc/16x9-512.jpg", "date": "2024-05-02T18:37:00.000+02:00", "lat": 53.5511, "lon": 9.9937, "intensity": 0.8, "source": "Tagesschau"}, {"title": "Jubil\u00e4um der EU-Osterweiterung: \"Br\u00fccken sollen verbinden und nicht trennen\"", "url": "https://www.tagesschau.de/inland/regional/brandenburg/rbb-jubilaeum-der-eu-osterweiterung-bruecken-sollen-verbinden-und-nicht-trennen-100.html", "thumbnailUrl": "https://images.tagesschau.de/image/6bce9415-910f-42c8-af64-fdb3fc15e956/AAABjzoe5to/AAABjwnlKNc/16x9-512.jpg", "date": "2024-05-02T18:22:11.000+02:00", "lat": 52.3474, "lon": 14.3563, "intensity": 0.8, "source": "Tagesschau"}, {"title": "Urteil im Doppelmord-Prozess: Ehepaar aus Altenstadt muss ins Gef\u00e4ngnis", "url": "https://www.tagesschau.de/inland/regional/badenwuerttemberg/swr-urteil-im-doppelmord-prozess-ehepaar-aus-altenstadt-muss-ins-gefaengnis-100.html", "thumbnailUrl": "https://images.tagesschau.de/image/f0e27684-86d8-4f01-a428-e3b188db0702/AAABjzl0aT4/AAABjwnlKNc/16x9-512.jpg", "date": "2024-05-02T18:21:00.000+02:00", "lat": 47.9889, "lon": 10.2383, "intensity": 0.8, "source": "Tagesschau"}, {"title": "Gespr\u00e4che \u00fcber Bildungsallianz in BW zwischen Regierung und Opposition gescheitert", "url": "https://www.tagesschau.de/inland/regional/badenwuerttemberg/swr-gespraeche-zur-bildungsreform-gescheitert-kretschmann-laut-opposition-nicht-verhandlungsbereit-100.html", "thumbnailUrl": "https://images.tagesschau.de/image/465244a1-35a4-4806-979b-564e2eb2214b/AAABjznOH7M/AAABjwnlKNc/16x9-512.jpg", "date": "2024-05-02T18:13:00.000+02:00", "lat": 48.6616, "lon": 9.9937, "intensity": 0.7, "source": "Tagesschau"}, {"title": "Fritzlar: Frau verletzt Mann mit Messer schwer", "url": "https://www.tagesschau.de/inland/regional/hessen/hr-fritzlar-frau-verletzt-mann-mit-messer-schwer-100.html", "thumbnailUrl": "https://images.tagesschau.de/image/db45d00d-7ee8-4d17-9543-15c85aab7da6/AAABjzoVnGg/AAABjwnlKNc/16x9-512.jpg", "date": "2024-05-02T18:12:57.392+02:00", "lat": 51.1222, "lon": 9.2752, "intensity": 0.8, "source": "Tagesschau"}, {"title": "Nach Einbruch ins Gr\u00fcne Gew\u00f6lbe will Sachsen Schadenersatz von Juwelendieben", "url": "https://www.tagesschau.de/inland/regional/berlin/rbb-nach-einbruch-ins-gruene-gewoelbe-will-sachsen-schadenersatz-von-juwelendieben-100.html", "thumbnailUrl": "https://images.tagesschau.de/image/a492eb3a-8299-40b4-bc33-ed7d6c507bc7/AAABjzoXnhQ/AAABjwnlKNc/16x9-512.jpg", "date": "2024-05-02T18:10:51.000+02:00", "lat": 52.520008, "lon": 13.404954, "intensity": 0.8, "source": "Tagesschau"}, {"title": "Brokstedt-Prozess: Anklage fordert lebenslange Haft", "url": "https://www.tagesschau.de/inland/regional/schleswigholstein/ndr-plaedoyers-im-brokstedt-prozess-erwartet-100.html", "thumbnailUrl": "https://images.tagesschau.de/image/d6728858-fd36-4a01-8fab-f8d36c02e933/AAABjzoXtjg/AAABjwnlKNc/16x9-512.jpg", "date": "2024-05-02T18:09:00.000+02:00", "lat": 53.9342, "lon": 9.6467, "intensity": 0.8, "source": "Tagesschau"}, {"title": "Passee: Dokumentation \u00fcber Dorf feiert Premiere im Capitol Schwerin", "url": "https://www.tagesschau.de/inland/regional/mecklenburgvorpommern/ndr-passee-dokumentation-ueber-dorf-feiert-premiere-im-capitol-schwerin-100.html", "thumbnailUrl": "https://images.tagesschau.de/image/a24261b0-4945-41c0-8694-19b6214f312f/AAABjzpSB_E/AAABjwnlKNc/16x9-512.jpg", "date": "2024-05-02T18:04:00.000+02:00", "lat": 53.6336, "lon": 11.4024, "intensity": 0.3, "source": "Tagesschau"}, {"title": "L\u00f6schflugzeug erschreckt Pferde: Vier Verletzte in Pullman City", "url": "https://www.tagesschau.de/inland/regional/sachsenanhalt/mdr-loeschflugzeug-erschreckt-pferde-vier-verletzte-in-pullman-city-100.html", "thumbnailUrl": "https://images.tagesschau.de/image/2c031e78-59d2-4cd6-94a6-7764c55f7426/AAABjzr3CVI/AAABjwnlKNc/16x9-512.jpg", "date": "2024-05-02T18:03:56.000+02:00", "lat": 51.6981, "lon": 11.0724, "intensity": 0.7, "source": "Tagesschau"}, {"title": "Asylpolitik wichtigstes Thema bei Europawahl", "url": "https://www.tagesschau.de/inland/deutschlandtrend/deutschlandtrend-3422.html", "thumbnailUrl": "https://images.tagesschau.de/image/cc3708c1-f48c-43a9-ad65-499b2ce07d74/AAABhzI07lE/AAABjwnlKNc/16x9-512.jpg", "date": "2024-05-02T18:00:03.486+02:00", "lat": 51.17, "lon": 9.69, "intensity": 0.8, "source": "Tagesschau"}, {"title": "Fu\u00dfball-Bundesliga: Was die Trainer-Ger\u00fcchte bei Union \u00fcber den Zustand des Vereins aussagen", "url": "https://www.tagesschau.de/inland/regional/berlin/rbb-fussball-bundesliga-was-die-trainer-geruechte-bei-union-ueber-den-zustand-des-vereins-aussagen-102.html", "thumbnailUrl": "https://images.tagesschau.de/image/ed86e417-9f47-4692-b748-1ee8669bd550/AAABjzoG9Lc/AAABjwnlKNc/16x9-512.jpg", "date": "2024-05-02T17:53:38.000+02:00", "lat": 52.52, "lon": 13.4073, "intensity": 0.7, "source": "Tagesschau"}, {"title": "Versuchtes T\u00f6tungsdelikt? 39-J\u00e4hriger soll Anwalt in Karlsruhe gew\u00fcrgt haben", "url": "https://www.tagesschau.de/inland/regional/badenwuerttemberg/swr-versuchtes-toetungsdelikt-39-jaehriger-soll-anwalt-in-karlsruhe-gewuergt-haben-100.html", "thumbnailUrl": "https://images.tagesschau.de/image/01060b4e-ed31-4873-a7b9-74891baa01da/AAABjzoQDGk/AAABjwnlKNc/16x9-512.jpg", "date": "2024-05-02T17:47:14.000+02:00", "lat": 49.0069, "lon": 8.4044, "intensity": 0.8, "source": "Tagesschau"}, {"title": "Polizei verhaftet Tatverd\u00e4chtigen nach Leichenfund am Hauptbahnhof Leipzig", "url": "https://www.tagesschau.de/inland/regional/sachsen/mdr-polizei-verhaftet-tatverdaechtigen-nach-leichenfund-am-hauptbahnhof-leipzig-100.html", "thumbnailUrl": "https://images.tagesschau.de/image/dbcc503e-166d-452a-aeb2-fee6526389cf/AAABjzrzJrs/AAABjwnlKNc/16x9-512.jpg", "date": "2024-05-02T17:46:27.000+02:00", "lat": 51.3401, "lon": 12.3874, "intensity": 0.7, "source": "Tagesschau"}, {"title": "W\u00f6bbelin: 79. Gedenktag der KZ-Befreiung", "url": "https://www.tagesschau.de/inland/regional/mecklenburgvorpommern/ndr-woebbelin-79-gedenktag-der-kz-befreiung-100.html", "thumbnailUrl": "https://images.tagesschau.de/image/733ba8f4-1a9e-4e58-ad03-a23e44a8b4ba/AAABjzmvE04/AAABjwnlKNc/16x9-512.jpg", "date": "2024-05-02T17:45:00.000+02:00", "lat": 53.3245, "lon": 11.4249, "intensity": 0.8, "source": "Tagesschau"}, {"title": "Bezirks- und Europawahl 2024: Hamburger bekommen jetzt Benachrichtigungen", "url": "https://www.tagesschau.de/inland/regional/hamburg/ndr-bezirks-und-europawahl-2024-hamburger-bekommen-jetzt-benachrichtigungen-100.html", "thumbnailUrl": "https://images.tagesschau.de/image/56c063b5-93f6-412d-be10-ce96e90c55c9/AAABjzn_oME/AAABjwnlKNc/16x9-512.jpg", "date": "2024-05-02T17:44:00.000+02:00", "lat": 53.551086, "lon": 9.993682, "intensity": 0.6, "source": "Tagesschau"}, {"title": "\"Sehr bedrohlich\": Rheinland-Pfalz wird zum Land der Nichtschwimmer", "url": "https://www.tagesschau.de/inland/regional/rheinlandpfalz/swr-sehr-bedrohlich-rheinland-pfalz-wird-zum-land-der-nichtschwimmer-100.html", "thumbnailUrl": "https://images.tagesschau.de/image/7d6e600e-70c6-4952-aaeb-426b3462f483/AAABjzkRnJ8/AAABjwnlKNc/16x9-512.jpg", "date": "2024-05-02T17:41:00.000+02:00", "lat": 50.42872, "lon": 7.27421, "intensity": 0.8, "source": "Tagesschau"}, {"title": "Der Deutsche Filmpreis wird morgen verliehen - und das sollten Kino-Fans wissen", "url": "https://www.tagesschau.de/inland/regional/berlin/rbb-der-deutsche-filmpreis-wird-morgen-verliehen-und-das-sollten-kino-fans-wissen-100.html", "thumbnailUrl": "https://images.tagesschau.de/image/f5e3b6b6-1676-47a6-8367-be66d85ad983/AAABjzn2c5I/AAABjwnlKNc/16x9-512.jpg", "date": "2024-05-02T17:36:04.000+02:00", "lat": 52.5145, "lon": 13.3736, "intensity": 0.8, "source": "Tagesschau"}, {"title": "Sachsen hat neues Gesetz zur Migration von Menschen aus dem Ausland", "url": "https://www.tagesschau.de/inland/regional/sachsen/mdr-sachsen-hat-neues-gesetz-zur-migration-von-menschen-aus-dem-ausland-100.html", "thumbnailUrl": "https://images.tagesschau.de/image/2ce2e3a8-59e0-43e7-bdb6-57c58eb3f585/AAABjzrzN40/AAABjwnlKNc/16x9-512.jpg", "date": "2024-05-02T17:27:48.000+02:00", "lat": 52.1354, "lon": 13.4086, "intensity": 0.6, "source": "Tagesschau"}, {"title": "Ein Becken, das die Seine sauber halten soll", "url": "https://www.tagesschau.de/ausland/europa/paris-seine-olympische-spiele-100.html", "thumbnailUrl": "https://images.tagesschau.de/image/54f07a7a-fa07-4baa-9f5c-b18f269258ef/AAABjznpMyM/AAABjwnlKNc/16x9-512.jpg", "date": "2024-05-02T17:25:35.718+02:00", "lat": 48.8566, "lon": 2.3522, "intensity": 0.8, "source": "Tagesschau"}, {"title": "Kommunalwahl in der Neubrandenburger Oststadt: Neubau ohne Gastronomie", "url": "https://www.tagesschau.de/inland/regional/mecklenburgvorpommern/ndr-kommunalwahl-in-der-neubrandenburger-oststadt-neubau-ohne-gastronomie-100.html", "thumbnailUrl": "https://images.tagesschau.de/image/66c0a00f-44d1-4f8b-85c5-6131e2ec1ad3/AAABjzo2gY0/AAABjwnlKNc/16x9-512.jpg", "date": "2024-05-02T17:25:00.000+02:00", "lat": 53.5667, "lon": 13.2667, "intensity": 0.6, "source": "Tagesschau"}, {"title": "Wildfra\u00df auf Friedhof in Fulda: Tierschutzbeauftragte h\u00e4lt Reh-Abschuss f\u00fcr angebracht", "url": "https://www.tagesschau.de/inland/regional/hessen/hr-wildfrass-auf-friedhof-in-fulda-tierschutzbeauftragte-haelt-reh-abschuss-fuer-angebracht-100.html", "thumbnailUrl": "https://images.tagesschau.de/image/14da4de3-b8a7-49d5-bbb8-f472123187f8/AAABjzoZOy0/AAABjwnlKNc/16x9-512.jpg", "date": "2024-05-02T17:24:25.201+02:00", "lat": 50.5633, "lon": 9.676, "intensity": 0.6, "source": "Tagesschau"}, {"title": "Kleist-Preis geht in diesem Jahr an Sasha Salzmann - Ehrung im November in Berlin", "url": "https://www.tagesschau.de/inland/regional/berlin/rbb-kleist-preis-geht-in-diesem-jahr-an-sasha-salzmann-ehrung-im-november-in-berlin-100.html", "thumbnailUrl": "https://images.tagesschau.de/image/34023286-0713-438f-b78f-a9ac327838c1/AAABjznrey4/AAABjwnlKNc/16x9-512.jpg", "date": "2024-05-02T17:23:56.000+02:00", "lat": 52.520008, "lon": 13.404954, "intensity": 0.8, "source": "Tagesschau"}, {"title": "Eisbrecher mit Tradition: Die \"Stephan Jantzen\" vor der General\u00fcberholung", "url": "https://www.tagesschau.de/inland/regional/mecklenburgvorpommern/ndr-eisbrecher-mit-tradition-die-stephan-jantzen-vor-der-generalueberholung-100.html", "thumbnailUrl": "https://images.tagesschau.de/image/8b7fb675-028b-497f-a0e0-bfdf41b06d09/AAABjzoetU8/AAABjwnlKNc/16x9-512.jpg", "date": "2024-05-02T17:05:00.000+02:00", "lat": 54.0924, "lon": 12.1326, "intensity": 0.5, "source": "Tagesschau"}, {"title": "Wenn die Scharia wichtiger ist als deutsche Gesetze\u00a0", "url": "https://www.tagesschau.de/inland/regional/nordrheinwestfalen/wdr-wenn-die-scharia-wichtiger-als-deutsche-gesetze-ist-100.html", "thumbnailUrl": "https://images.tagesschau.de/image/c120cb5b-9773-4e16-9bdb-2d72c4493214/AAABjzp4aao/AAABjwnlKNc/16x9-512.jpg", "date": "2024-05-02T16:55:00.000+02:00", "lat": 51.45008, "lon": 7.59343, "intensity": 0.8, "source": "Tagesschau"}, {"title": "7 Ideen f\u00fcr die Nacht der Museen in Frankfurt, Offenbach und Eschborn", "url": "https://www.tagesschau.de/inland/regional/hessen/hr-7-ideen-fuer-die-museumsnacht-in-frankfurt-offenbach-und-eschborn-100.html", "thumbnailUrl": "https://images.tagesschau.de/image/66c56f27-a0a5-4708-b185-011718b3ceef/AAABjznOS9I/AAABjwnlKNc/16x9-512.jpg", "date": "2024-05-02T16:54:52.071+02:00", "lat": 50.1109, "lon": 8.6815, "intensity": 0.6, "source": "Tagesschau"}, {"title": "\u00dcbertrittszeugnisse: Gleiche Chancen f\u00fcr Bayerns Viertkl\u00e4ssler?", "url": "https://www.tagesschau.de/inland/regional/bayern/br-uebertrittszeugnisse-gleiche-chancen-fuer-bayerns-viertklaessler-102.html", "thumbnailUrl": "https://images.tagesschau.de/image/5fa51ad8-d554-4ff7-ba61-8b1664e34dde/AAABjznOM1E/AAABjwnlKNc/16x9-512.jpg", "date": "2024-05-02T16:54:38.852+02:00", "lat": 48.135125, "lon": 11.581981, "intensity": 0.6, "source": "Tagesschau"}, {"title": "1. Mai-Bilanz: Knapp 40 Ermittlungsverfahren durch Berliner Polizei  eingeleitet - 34 Personen vor\u00fcbergehend festgenommen", "url": "https://www.tagesschau.de/inland/regional/berlin/rbb-bilanz-nach-1-mai-demonstrationen-wegner-zurueckhaltend-bei-forderung-nach-weniger-polizeipraesenz-100.html", "thumbnailUrl": "https://images.tagesschau.de/image/30bb217d-270e-42ce-82a5-4b81b285bb99/AAABjzigGYU/AAABjwnlKNc/16x9-512.jpg", "date": "2024-05-02T16:50:44.000+02:00", "lat": 52.520008, "lon": 13.404954, "intensity": 0.6, "source": "Tagesschau"}, {"title": "Alba-Profi Henriette H\u00f6fermann: \"Die Verantwortung liegt bei uns auf vielen Schultern\"", "url": "https://www.tagesschau.de/inland/regional/berlin/rbb-alba-profi-henriette-hoefermann-die-verantwortung-liegt-bei-uns-auf-vielen-schultern-102.html", "thumbnailUrl": "https://images.tagesschau.de/image/91a4796c-c20a-4da2-af93-2a7771efd9ea/AAABjznOmMo/AAABjwnlKNc/16x9-512.jpg", "date": "2024-05-02T16:49:45.000+02:00", "lat": 52.520008, "lon": 13.404954, "intensity": 0.8, "source": "Tagesschau"}, {"title": "Baden-W\u00fcrttemberg will verurteilten Wollhaus-Raser in die T\u00fcrkei abschieben", "url": "https://www.tagesschau.de/inland/regional/badenwuerttemberg/swr-baden-wuerttemberg-will-verurteilten-wollhaus-raser-in-die-tuerkei-abschieben-100.html", "thumbnailUrl": "https://images.tagesschau.de/image/c9c8db67-7790-46e3-8614-d91b4f837749/AAABjzoxCQ4/AAABjwnlKNc/16x9-512.jpg", "date": "2024-05-02T16:49:34.000+02:00", "lat": 48.7919, "lon": 9.2223, "intensity": 0.8, "source": "Tagesschau"}, {"title": "Die Gefahr kommt vom Meer", "url": "https://www.tagesschau.de/ausland/asien/suedkorea-yeongpyeong-nordkorea-100.html", "thumbnailUrl": "https://images.tagesschau.de/image/f0347b2d-7a43-41ff-829b-3029a36773a1/AAABjziIsUs/AAABjwnlKNc/16x9-512.jpg", "date": "2024-05-02T16:47:42.233+02:00", "lat": 37.533333, "lon": 126.306667, "intensity": 0.7, "source": "Tagesschau"}, {"title": "Historisches Areal in Wandlitz: Berlins Finanzsenator will Goebbels-Villa am Bogensee verschenken", "url": "https://www.tagesschau.de/inland/regional/berlin/rbb-historisches-areal-in-wandlitz-berlins-finanzsenator-will-goebbels-villa-am-bogensee-verschenken-100.html", "thumbnailUrl": "https://images.tagesschau.de/image/ec920410-fe68-4bf6-8712-b25fd3fdb662/AAABjzm9wNE/AAABjwnlKNc/16x9-512.jpg", "date": "2024-05-02T16:34:27.000+02:00", "lat": 52.6432, "lon": 13.4318, "intensity": 0.7, "source": "Tagesschau"}, {"title": "Wohlhabendere Menschen leben l\u00e4nger", "url": "https://www.tagesschau.de/inland/gesellschaft/lebenserwartung-studie-sozial-benachteiligte-100.html", "thumbnailUrl": "https://images.tagesschau.de/image/3c8b959b-1c7c-4d59-84f8-c770baa4e971/AAABjzmz_b4/AAABjwnlKNc/16x9-512.jpg", "date": "2024-05-02T16:28:47.388+02:00", "lat": 52.51704, "lon": 13.38886, "intensity": 0.7, "source": "Tagesschau"}, {"title": "Wo Camping in Deutschland am g\u00fcnstigsten ist", "url": "https://www.tagesschau.de/wirtschaft/verbraucher/wo-am-guenstigsten-campen-100.html", "thumbnailUrl": "https://images.tagesschau.de/image/83ffae63-555b-43e1-abca-922aa2e09fb2/AAABjzmTA5w/AAABjwnlKNc/16x9-512.jpg", "date": "2024-05-02T16:22:35.588+02:00", "lat": 53.5511, "lon": 9.9937, "intensity": 0.8, "source": "Tagesschau"}, {"title": "Studie zu Anstieg von Gewaltopfern unter Kindern", "url": "https://www.tagesschau.de/inland/regional/nordrheinwestfalen/wdr-studie-zu-anstieg-von-gewaltopfern-unter-kindern-100.html", "thumbnailUrl": "https://images.tagesschau.de/image/b330f47f-7ac1-4bbf-b6d3-73242174ee89/AAABjzpc8l4/AAABjwnlKNc/16x9-512.jpg", "date": "2024-05-02T16:22:00.000+02:00", "lat": 51.4332, "lon": 7.6261, "intensity": 0.8, "source": "Tagesschau"}, {"title": "Kommt \"Sarotti-Mohr\" auf Bunker in Ludwigshafen weg? Ortsbeirat entscheidet  ", "url": "https://www.tagesschau.de/inland/regional/rheinlandpfalz/swr-kommt-sarotti-mohr-auf-bunker-in-ludwigshafen-weg-ortsbeirat-entscheidet-102.html", "thumbnailUrl": "https://images.tagesschau.de/image/40a30d9d-f5cf-4b27-9b1d-cca4c8a1bb4a/AAABjzjgJU8/AAABjwnlKNc/16x9-512.jpg", "date": "2024-05-02T16:16:00.000+02:00", "lat": 49.4775, "lon": 8.4344, "intensity": 0.6, "source": "Tagesschau"}, {"title": "Camping-Urlaub ist in Berlin mit am teuersten - Brandenburg im Mittelfeld", "url": "https://www.tagesschau.de/inland/regional/brandenburg/rbb-camping-urlaub-ist-in-berlin-mit-am-teuersten-brandenburg-im-mittelfeld-100.html", "thumbnailUrl": "https://images.tagesschau.de/image/80584568-925f-4c29-af6f-cd940a36d770/AAABjzmtY_U/AAABjwnlKNc/16x9-512.jpg", "date": "2024-05-02T16:15:41.000+02:00", "lat": 52.520008, "lon": 13.404954, "intensity": 0.7, "source": "Tagesschau"}, {"title": "Nach Wolfsangriff im Westerwald: Esel \"Florie\" geht es besser", "url": "https://www.tagesschau.de/inland/regional/rheinlandpfalz/swr-nach-wolfsangriff-im-westerwald-esel-florie-geht-es-besser-100.html", "thumbnailUrl": "https://images.tagesschau.de/image/857c79ea-2209-40c6-b82a-111993673c67/AAABjzoXgI4/AAABjwnlKNc/16x9-512.jpg", "date": "2024-05-02T16:09:10.000+02:00", "lat": 50.4761, "lon": 7.4926, "intensity": 0.7, "source": "Tagesschau"}, {"title": "15.000 Bl\u00e4ser spielen gemeinsam beim Posaunentag in Hamburg", "url": "https://www.tagesschau.de/inland/regional/hamburg/ndr-15-000-blaeser-spielen-gemeinsam-beim-posaunentag-in-hamburg-100.html", "thumbnailUrl": "https://images.tagesschau.de/image/1d30b7a6-dd59-4a8f-9773-88830aa26422/AAABjzq4jLo/AAABjwnlKNc/16x9-512.jpg", "date": "2024-05-02T16:07:00.000+02:00", "lat": 53.551086, "lon": 9.993682, "intensity": 0.8, "source": "Tagesschau"}, {"title": "21-J\u00e4hrige in Hannover erstochen: Angeklagter Ex-Freund schweigt", "url": "https://www.tagesschau.de/inland/regional/niedersachsen/ndr-femizid-in-hannover-21-jaehrige-frau-erstochen-prozess-beginnt-100.html", "thumbnailUrl": "https://images.tagesschau.de/image/cfb83bc6-a84b-4b6b-bd85-857004c31fcb/AAABjzm0jPQ/AAABjwnlKNc/16x9-512.jpg", "date": "2024-05-02T16:00:00.000+02:00", "lat": 52.37589, "lon": 9.73322, "intensity": 0.8, "source": "Tagesschau"}, {"title": "Kommunalwahl: SPD Filderstadt distanziert sich von drei verd\u00e4chtigten Kandidaten", "url": "https://www.tagesschau.de/inland/regional/badenwuerttemberg/swr-kommunalwahl-spd-filderstadt-distanziert-sich-von-drei-verdaechtigten-kandidaten-100.html", "thumbnailUrl": "https://images.tagesschau.de/image/5ba65ad1-8ab2-426f-8156-071ed80e88d4/AAABjzoxIHA/AAABjwnlKNc/16x9-512.jpg", "date": "2024-05-02T15:59:00.000+02:00", "lat": 48.6666, "lon": 9.2207, "intensity": 0.4, "source": "Tagesschau"}, {"title": "Estland wirft Russland gezielte GPS-St\u00f6rungen vor", "url": "https://www.tagesschau.de/ausland/europa/estland-gps-stoerung-russland-verdacht-100.html", "thumbnailUrl": "https://images.tagesschau.de/image/00d22b1f-0915-4454-812b-06c0f97bcf73/AAABjzlTYDc/AAABjwnlKNc/16x9-512.jpg", "date": "2024-05-02T15:52:52.467+02:00", "lat": 59.4369, "lon": 24.7536, "intensity": 0.8, "source": "Tagesschau"}, {"title": "Handwerk im Saarland behauptet sich in schwierigem Umfeld", "url": "https://www.tagesschau.de/inland/regional/saarland/sr-handwerk-im-saarland-behauptet-sich-in-schwierigem-umfeld-100.html", "thumbnailUrl": "https://images.tagesschau.de/image/facb08bc-b209-4bf6-87c1-1b92c7aef5d0/AAABjzmRsnM/AAABjwnlKNc/16x9-512.jpg", "date": "2024-05-02T15:44:00.000+02:00", "lat": 49.3964, "lon": 6.9603, "intensity": 0.6, "source": "Tagesschau"}, {"title": "Kommunalwahl: Als Neonazi bekannter Kandidat darf nicht antreten", "url": "https://www.tagesschau.de/inland/regional/mecklenburgvorpommern/ndr-kommunalwahl-als-neonazi-bekannter-kandidat-darf-nicht-antreten-100.html", "thumbnailUrl": "https://images.tagesschau.de/image/8baaf67b-d978-4765-87e9-75cc4f6e247a/AAABjzm9q8U/AAABjwnlKNc/16x9-512.jpg", "date": "2024-05-02T15:38:00.000+02:00", "lat": 54.1243, "lon": 13.3935, "intensity": 0.6, "source": "Tagesschau"}, {"title": "Hamburger Hafengeburtstag 2024 startet in einer Woche", "url": "https://www.tagesschau.de/inland/regional/hamburg/ndr-hamburger-hafengeburtstag-2024-startet-in-einer-woche-100.html", "thumbnailUrl": "https://images.tagesschau.de/image/14b9b934-a606-437f-aec9-2ab31f16442c/AAABjzmVaes/AAABjwnlKNc/16x9-512.jpg", "date": "2024-05-02T15:31:00.000+02:00", "lat": 53.5511, "lon": 9.9937, "intensity": 0.8, "source": "Tagesschau"}, {"title": "Kultur: +++ Frankfurter Kino stoppt wohl Vorpremiere von Golda Meir-Film +++ Bund unterst\u00fctzt hessische Festivals  +++", "url": "https://www.tagesschau.de/inland/regional/hessen/hr--schauspiel-frankfurt-bringt-putin-und-macbeth-zusammen--die-filmfestival-saison-2023-startet--lichter-filmfest-zum-thema-liebe-startet-am-dienstag-100.html", "thumbnailUrl": "https://images.tagesschau.de/image/150e3c6f-3946-4b58-924a-e89545eed487/AAABjzrvhGw/AAABjwnlKNc/16x9-512.jpg", "date": "2024-05-02T15:25:55.116+02:00", "lat": 50.1109, "lon": 8.5683, "intensity": 0.4, "source": "Tagesschau"}, {"title": "Tarifabschluss: Postbank-Besch\u00e4ftigte bekommen in zwei Stufen mehr Geld", "url": "https://www.tagesschau.de/inland/regional/berlin/rbb-tarifabschluss-postbank-beschaeftigte-bekommen-in-zwei-stufen-mehr-geld-100.html", "thumbnailUrl": "https://images.tagesschau.de/image/f160451b-785f-429b-b858-d5a4f1a34d04/AAABjzl7zOM/AAABjwnlKNc/16x9-512.jpg", "date": "2024-05-02T15:21:29.000+02:00", "lat": 52.520008, "lon": 13.404954, "intensity": 0.6, "source": "Tagesschau"}, {"title": "Amok-Fahrt Trier: Staatsanwalt fordert erneut lebenslange Haft", "url": "https://www.tagesschau.de/inland/regional/rheinlandpfalz/swr-plaedoyers-amok-prozess-staatsanwalt-fordert-erneut-lebenslange-haft-100.html", "thumbnailUrl": "https://images.tagesschau.de/image/348ea149-880a-4c3a-973e-c2e0e8a61180/AAABjzi_PO8/AAABjwnlKNc/16x9-512.jpg", "date": "2024-05-02T15:19:00.000+02:00", "lat": 49.7513, "lon": 6.6417, "intensity": 0.8, "source": "Tagesschau"}, {"title": "Queerfeindliche Straftaten: Saar-Polizei plant neue Anlaufstelle", "url": "https://www.tagesschau.de/inland/regional/saarland/sr-queerfeindliche-straftaten-saar-polizei-plant-neue-anlaufstelle-100.html", "thumbnailUrl": "https://images.tagesschau.de/image/07a83b4c-a325-481b-a3e1-6f0776fea75b/AAABjznRyH0/AAABjwnlKNc/16x9-512.jpg", "date": "2024-05-02T15:12:00.000+02:00", "lat": 49.3964, "lon": 6.9538, "intensity": 0.8, "source": "Tagesschau"}, {"title": "Einzelne Saar-Winzer bef\u00fcrchten bis zu 70 Prozent Ernte-Ausfall", "url": "https://www.tagesschau.de/inland/regional/saarland/sr-einzelne-saar-winzer-befuerchten-bis-zu-70-prozent-ernteausfall-100.html", "thumbnailUrl": "https://images.tagesschau.de/image/aedf37d5-10ec-4243-9a93-55f2e32d6c34/AAABjzlrPlw/AAABjwnlKNc/16x9-512.jpg", "date": "2024-05-02T15:06:00.000+02:00", "lat": 49.3964, "lon": 7.0, "intensity": 0.7, "source": "Tagesschau"}, {"title": "Fu\u00dfball-Regionalliga Nordost: Andr\u00e9 Meyer \u00fcbernimmt zur kommenden Saison Trainerposten bei Babelsberg 03", "url": "https://www.tagesschau.de/inland/regional/brandenburg/rbb-fussball-regionalliga-nordost-102.html", "thumbnailUrl": "https://images.tagesschau.de/image/676bd498-c4b3-4e70-aff1-c00c4c3f53e4/AAABjzlrUP8/AAABjwnlKNc/16x9-512.jpg", "date": "2024-05-02T15:04:55.000+02:00", "lat": 52.3933, "lon": 13.0872, "intensity": 0.2, "source": "Tagesschau"}, {"title": "Darmstadt 98 plant in Wolfsburg ein zweites K\u00f6ln", "url": "https://www.tagesschau.de/inland/regional/hessen/hr-darmstadt-98-plant-in-wolfsburg-ein-zweites-koeln-102.html", "thumbnailUrl": "https://images.tagesschau.de/image/f39f935e-3f7c-44f8-9722-ad404a414ecd/AAABjznG9Kw/AAABjwnlKNc/16x9-512.jpg", "date": "2024-05-02T15:02:41.089+02:00", "lat": 52.4226, "lon": 11.6119, "intensity": 0.8, "source": "Tagesschau"}, {"title": "M\u00e4dchen nach TikTok-Challenge an Schule in Kaiserslautern bewusstlos", "url": "https://www.tagesschau.de/inland/regional/rheinlandpfalz/swr-maedchen-nach-tiktok-challenge-an-schule-in-kaiserslautern-bewusstlos-100.html", "thumbnailUrl": "https://images.tagesschau.de/image/41d15b4a-a1ee-4b7e-81b3-78229b20cf33/AAABjznrcDI/AAABjwnlKNc/16x9-512.jpg", "date": "2024-05-02T14:55:00.000+02:00", "lat": 49.4435, "lon": 7.7551, "intensity": 0.8, "source": "Tagesschau"}, {"title": "Brandanschlag? Feuer zerst\u00f6rt Kampfsportschule in Prinzh\u00f6fte", "url": "https://www.tagesschau.de/inland/regional/niedersachsen/ndr-brandanschlag-feuer-zerstoert-kampfsportschule-in-prinzhoefte-100.html", "thumbnailUrl": "https://images.tagesschau.de/image/3749e67c-678a-4fff-b51a-4650ce093891/AAABjzDM4R4/AAABjwnlKNc/16x9-512.jpg", "date": "2024-05-02T14:54:00.000+02:00", "lat": 52.8144, "lon": 8.4963, "intensity": 0.7, "source": "Tagesschau"}, {"title": "EU schlie\u00dft Fl\u00fcchtlingsabkommen mit dem Libanon", "url": "https://www.tagesschau.de/ausland/europa/libanon-fluechtlingsdeal-von-der-leyen-100.html", "thumbnailUrl": "https://images.tagesschau.de/image/569a0437-a8a6-46dd-8404-86c265729a01/AAABjzoFY5w/AAABjwnlKNc/16x9-512.jpg", "date": "2024-05-02T14:51:32.952+02:00", "lat": 33.8547, "lon": 35.8623, "intensity": 0.8, "source": "Tagesschau"}, {"title": "Hohe Kosten: Zukunft des Gradierwerks Bad D\u00fcrrenberg unklar", "url": "https://www.tagesschau.de/inland/regional/sachsenanhalt/mdr-hohe-kosten-zukunft-des-gradierwerks-bad-duerrenberg-unklar-100.html", "thumbnailUrl": "https://images.tagesschau.de/image/d836e211-e8e7-4d42-b5f5-9624387b2a81/AAABjzr23XE/AAABjwnlKNc/16x9-512.jpg", "date": "2024-05-02T14:50:16.000+02:00", "lat": 51.3238, "lon": 11.8862, "intensity": 0.6, "source": "Tagesschau"}, {"title": "Markt statt Mathestunde: Bochumer Sch\u00fcler schmei\u00dfen eigenen Gem\u00fcsestand", "url": "https://www.tagesschau.de/inland/regional/nordrheinwestfalen/wdr-markt-statt-mathestunde-bochumer-schueler-schmeissen-eigenen-gemuesestand-102.html", "thumbnailUrl": "https://images.tagesschau.de/image/e055a0ca-c607-45ae-906f-adc4703f5076/AAABjzm4JP4/AAABjwnlKNc/16x9-512.jpg", "date": "2024-05-02T14:45:00.000+02:00", "lat": 51.481845, "lon": 7.216236, "intensity": 0.6, "source": "Tagesschau"}, {"title": "Nachbarn in Gomaringen emp\u00f6rt: 82-J\u00e4hriger m\u00f6chte Solaranlage in Betrieb nehmen", "url": "https://www.tagesschau.de/inland/regional/badenwuerttemberg/swr-nachbarn-in-gomaringen-empoert-82-jaehriger-moechte-solaranlage-in-betrieb-nehmen-100.html", "thumbnailUrl": "https://images.tagesschau.de/image/cdabd611-97b3-4a4f-960e-30be52d569b8/AAABjzpVtfY/AAABjwnlKNc/16x9-512.jpg", "date": "2024-05-02T14:36:54.000+02:00", "lat": 48.4768, "lon": 9.0966, "intensity": 0.6, "source": "Tagesschau"}, {"title": "Saar-Polizei setzte 2023 31 Mal Taser ein", "url": "https://www.tagesschau.de/inland/regional/saarland/sr-saar-polizei-setzte-2023-31-mal-taser-ein-100.html", "thumbnailUrl": "https://images.tagesschau.de/image/a6e17dc0-1a15-4b96-a0a7-2106dee84ba4/AAABjzoViFs/AAABjwnlKNc/16x9-512.jpg", "date": "2024-05-02T14:36:00.000+02:00", "lat": 49.2463, "lon": 6.9108, "intensity": 0.4, "source": "Tagesschau"}, {"title": "Nach Taser-Einsatz in Landstuhl: 38-J\u00e4hriger wird obduziert", "url": "https://www.tagesschau.de/inland/regional/rheinlandpfalz/swr-38-jaehriger-stirbt-nach-polizeieinsatz-mit-elektroschocker-staatsanwaltschaft-ermittelt-100.html", "thumbnailUrl": "https://images.tagesschau.de/image/ba021b1c-21dc-4164-830b-62d7fe22db09/AAABjzkebrA/AAABjwnlKNc/16x9-512.jpg", "date": "2024-05-02T14:36:00.000+02:00", "lat": 49.4131, "lon": 7.5714, "intensity": 0.8, "source": "Tagesschau"}, {"title": "Lieferungen aus Deutschland an russische Milit\u00e4rfirma?", "url": "https://www.tagesschau.de/investigativ/swr/uran-brennelemente-deutschland-russland-100.html", "thumbnailUrl": "https://images.tagesschau.de/image/22564a76-90a7-42c3-af8f-87e48ae6fb38/AAABjzjHMQ8/AAABjwnlKNc/16x9-512.jpg", "date": "2024-05-02T14:33:02.115+02:00", "lat": 52.3738, "lon": 9.7361, "intensity": 0.8, "source": "Tagesschau"}, {"title": "Evangelische Kirche Berlin-Brandenburg schlesische Oberlausitz verliert abermals Mitglieder", "url": "https://www.tagesschau.de/inland/regional/brandenburg/rbb-evangelische-kirche-berlin-brandenburg-schlesische-oberlausitz-verliert-abermals-mitglieder-100.html", "thumbnailUrl": "https://images.tagesschau.de/image/06be930d-f1d4-42fe-a90c-ac5b593f1ab3/AAABjzlMQ4M/AAABjwnlKNc/16x9-512.jpg", "date": "2024-05-02T14:29:47.000+02:00", "lat": 52.52, "lon": 13.405, "intensity": 0.8, "source": "Tagesschau"}, {"title": "Waldbrand im Harz: Feuer unterhalb des Brockens ist gel\u00f6scht", "url": "https://www.tagesschau.de/inland/regional/niedersachsen/ndr-wieder-waldbrand-im-harz-loeschflugzeug-im-einsatz-100.html", "thumbnailUrl": "https://images.tagesschau.de/image/2f2921a2-f3c0-46cd-9bec-c66a4e94d748/AAABjzlGtpw/AAABjwnlKNc/16x9-512.jpg", "date": "2024-05-02T14:25:00.000+02:00", "lat": 51.7976, "lon": 10.6122, "intensity": 0.6, "source": "Tagesschau"}, {"title": "Darmstadt 98: +++ Lieberknecht erneuert Treuebekenntnis +++ Lilien wollen Saison professionell beenden +++ Mehlem eine Option f\u00fcr VfL-Partie +++ ", "url": "https://www.tagesschau.de/inland/regional/hessen/hr--tietz-vermisst-fehlende-gier--lilien-fans-liefern-sich-raststaetten-pruegelei--die-niederlage-der-lilien-in-der-video-zusammenfassung-102.html", "thumbnailUrl": "https://images.tagesschau.de/image/f44c69c1-265a-4532-9f59-51b605055776/AAABjzkTbNU/AAABjwnlKNc/16x9-512.jpg", "date": "2024-05-02T14:18:30.159+02:00", "lat": 49.8717, "lon": 8.6553, "intensity": 0.5, "source": "Tagesschau"}, {"title": "Schweiz l\u00e4dt offiziell zur Ukraine-Konferenz ein", "url": "https://www.tagesschau.de/ausland/europa/schweiz-ukraine-konferenz-100.html", "thumbnailUrl": "https://images.tagesschau.de/image/b8c58eee-2353-45f5-9530-31399d8679ab/AAABjzkSQ5Y/AAABjwnlKNc/16x9-512.jpg", "date": "2024-05-02T14:14:18.435+02:00", "lat": 46.8182, "lon": 8.2319, "intensity": 0.5, "source": "Tagesschau"}, {"title": "GPS \u00fcber der Ostsee gest\u00f6rt: Flugzeuge mussten umkehren", "url": "https://www.tagesschau.de/inland/regional/mecklenburgvorpommern/ndr-wachsende-besorgnis-ueber-gps-stoerungen-im-ostseeraum-100.html", "thumbnailUrl": "https://images.tagesschau.de/image/04c78784-bcff-4f43-8d61-b175c3b3093b/AAABjzqilxU/AAABjwnlKNc/16x9-512.jpg", "date": "2024-05-02T14:13:00.000+02:00", "lat": 54.1406, "lon": 13.4, "intensity": 0.7, "source": "Tagesschau"}, {"title": "Erneut lebenslange Haft f\u00fcr Trierer Amokfahrer gefordert", "url": "https://www.tagesschau.de/inland/regional/saarland/sr-neuer-trierer-amokprozess-kurz-vor-dem-abschluss-100.html", "thumbnailUrl": "https://images.tagesschau.de/image/d5c3b684-7aa5-421e-be2c-0dd1f16c688b/AAABjzigAQE/AAABjwnlKNc/16x9-512.jpg", "date": "2024-05-02T14:06:00.000+02:00", "lat": 49.75, "lon": 6.6431, "intensity": 0.8, "source": "Tagesschau"}, {"title": "Potsdam-Mittelmark: Mann stirbt bei Badeunfall im Gro\u00dfen Seddiner See", "url": "https://www.tagesschau.de/inland/regional/brandenburg/rbb-potsdam-mittelmark-mann-stirbt-bei-badeunfall-im-grossen-seddiner-see-100.html", "thumbnailUrl": "https://images.tagesschau.de/image/f7a291c6-0442-4c8e-abf2-ec882c336a4d/AAABjzktByU/AAABjwnlKNc/16x9-512.jpg", "date": "2024-05-02T13:56:24.000+02:00", "lat": 52.3407, "lon": 12.9606, "intensity": 0.8, "source": "Tagesschau"}, {"title": "Eintracht: +++ Nkounkou bekennt sich zur Eintracht +++ K\u00f6rbel: Beide Toppm\u00f6ller sind sich \u00e4hnlich +++ Bundesliga hat f\u00fcnften CL-Platz sicher +++ ", "url": "https://www.tagesschau.de/inland/regional/hessen/hr--eintracht-wohl-mit-chaibi-einig--glasner-fast-nur-kolo-muani-der-tore-erzielt--bericht-eintracht-sagt-aouar-ab-100.html", "thumbnailUrl": "https://images.tagesschau.de/image/5580c17d-00fb-427f-8e06-b488b0836a34/AAABjzkrOYE/AAABjwnlKNc/16x9-512.jpg", "date": "2024-05-02T13:56:19.882+02:00", "lat": 50.110922, "lon": 8.682127, "intensity": 0.6, "source": "Tagesschau"}, {"title": "67-J\u00e4hriger in Leese get\u00f6tet: Tatverd\u00e4chtiger festgenommen", "url": "https://www.tagesschau.de/inland/regional/niedersachsen/ndr-67-jaehriger-in-leese-getoetet-tatverdaechtiger-festgenommen-100.html", "thumbnailUrl": "https://images.tagesschau.de/image/40a6dbc7-389e-4d46-800e-378c33a13349/AAABjzktFSI/AAABjwnlKNc/16x9-512.jpg", "date": "2024-05-02T13:56:00.000+02:00", "lat": 52.4554, "lon": 8.8541, "intensity": 0.8, "source": "Tagesschau"}, {"title": "Mehr Vorsorge soll Zahl der Suizide senken", "url": "https://www.tagesschau.de/inland/gesellschaft/lauterbach-suizidprogramm-100.html", "thumbnailUrl": "https://images.tagesschau.de/image/7712c4e3-153a-4460-86ad-e454f5f5a2a3/AAABjznzZaI/AAABjwnlKNc/16x9-512.jpg", "date": "2024-05-02T13:55:29.938+02:00", "lat": 51.1657, "lon": 10.4515, "intensity": 0.8, "source": "Tagesschau"}, {"title": "Kontrollen in Satteldorf: Zahlreiche Transporte versto\u00dfen gegen den Tierschutz", "url": "https://www.tagesschau.de/inland/regional/badenwuerttemberg/swr-satteldorf-zahlreiche-transporte-verstossen-gegen-den-tierschutz-100.html", "thumbnailUrl": "https://images.tagesschau.de/image/04f24f55-e701-42c0-af75-b5b21ed2ece7/AAABjzkpXfE/AAABjwnlKNc/16x9-512.jpg", "date": "2024-05-02T13:52:41.000+02:00", "lat": 49.1676, "lon": 9.8355, "intensity": 0.7, "source": "Tagesschau"}, {"title": "A23: Vollsperrung bei Hohenfelde aufgehoben", "url": "https://www.tagesschau.de/inland/regional/schleswigholstein/ndr-a23-vollsperrung-bei-hohenfelde-aufgehoben-100.html", "thumbnailUrl": "https://images.tagesschau.de/image/c3b4925d-6eb8-4174-92f2-9be2b684fa66/AAABjzlVXFs/AAABjwnlKNc/16x9-512.jpg", "date": "2024-05-02T13:46:00.000+02:00", "lat": 54.1026, "lon": 9.8873, "intensity": 0.6, "source": "Tagesschau"}, {"title": "So kann Verpackung helfen, die Lebensmittelverschwendung zu reduzieren", "url": "https://www.tagesschau.de/inland/regional/nordrheinwestfalen/wdr-so-kann-verpackung-helfen-die-lebensmittelverschwendung-zu-reduzieren-100.html", "thumbnailUrl": "https://images.tagesschau.de/image/7da24da9-e8d6-4c79-9fb0-ef53756989fe/AAABjzprmhg/AAABjwnlKNc/16x9-512.jpg", "date": "2024-05-02T13:38:00.000+02:00", "lat": 51.1657, "lon": 7.6261, "intensity": 0.5, "source": "Tagesschau"}, {"title": "Zahl der gewaltorientierten Islamisten steigt in Hamburg", "url": "https://www.tagesschau.de/inland/regional/hamburg/ndr-zahl-der-gewaltorientierten-islamisten-steigt-in-hamburg-100.html", "thumbnailUrl": "https://images.tagesschau.de/image/7f69e4df-7b0c-4913-b9ad-72134dca058f/AAABjzoMewc/AAABjwnlKNc/16x9-512.jpg", "date": "2024-05-02T13:17:00.000+02:00", "lat": 53.551086, "lon": 9.993681, "intensity": 0.8, "source": "Tagesschau"}, {"title": "Vier G\u00e4nge f\u00fcr 25 Euro: Uni-Mensa in Essen l\u00e4dt zum Dinner ein", "url": "https://www.tagesschau.de/inland/regional/nordrheinwestfalen/wdr-vier-gaenge-fuer-25-euro-uni-mensa-in-essen-laedt-zum-dinner-ein-100.html", "thumbnailUrl": "https://images.tagesschau.de/image/921fc8f9-763d-48c3-b816-a0f6b164e336/AAABjzkXDgk/AAABjwnlKNc/16x9-512.jpg", "date": "2024-05-02T13:14:00.000+02:00", "lat": 51.4556, "lon": 7.0056, "intensity": 0.2, "source": "Tagesschau"}, {"title": "Hohe Netzauslastung: TransnetBW rief zum Stromsparen auf", "url": "https://www.tagesschau.de/inland/regional/badenwuerttemberg/swr-hohe-netzauslastung-transnetbw-ruft-zum-stromsparen-auf-100.html", "thumbnailUrl": "https://images.tagesschau.de/image/a170612b-f4fb-4c78-bd62-ba6e587228e7/AAABjzilhbU/AAABjwnlKNc/16x9-512.jpg", "date": "2024-05-02T13:06:00.000+02:00", "lat": 48.6616, "lon": 9.9925, "intensity": 0.8, "source": "Tagesschau"}, {"title": "NRW-Wirtschaft wirbt f\u00fcr Europawahl", "url": "https://www.tagesschau.de/inland/regional/nordrheinwestfalen/wdr-nrw-wirtschaft-wirbt-fuer-europawahl-100.html", "thumbnailUrl": "https://images.tagesschau.de/image/4b0220b2-f5ec-4ab8-b475-76b809596a73/AAABjzlax04/AAABjwnlKNc/16x9-512.jpg", "date": "2024-05-02T13:00:00.000+02:00", "lat": 51.2277, "lon": 6.7735, "intensity": 0.4, "source": "Tagesschau"}, {"title": "Millionenf\u00f6rderung f\u00fcr Forschungsprojekte zum Thema Kreislaufwirtschaft", "url": "https://www.tagesschau.de/inland/regional/saarland/sr-millionenfoerderung-fuer-forschungsprojekte-zum-thema-kreislaufwirtschaft-100.html", "thumbnailUrl": "https://images.tagesschau.de/image/f378bd93-0fd4-4615-941c-2a95dfa3e7d6/AAABjzj51LQ/AAABjwnlKNc/16x9-512.jpg", "date": "2024-05-02T13:00:00.000+02:00", "lat": 49.3964, "lon": 7.0, "intensity": 0.8, "source": "Tagesschau"}, {"title": "Wegen Betrugs: Anklage gegen Betreiber von Corona-Testzentren erhoben", "url": "https://www.tagesschau.de/inland/regional/saarland/sr-wegen-betrugs-anklage-gegen-betreiber-von-corona-testzentren-erhoben-100.html", "thumbnailUrl": "https://images.tagesschau.de/image/f01e82ae-3f76-4a56-9fbb-7a56962f7487/AAABjzoKits/AAABjwnlKNc/16x9-512.jpg", "date": "2024-05-02T13:00:00.000+02:00", "lat": 49.25, "lon": 7.0, "intensity": 0.8, "source": "Tagesschau"}, {"title": "Cottbus-Trainer Wollitz: \"Es ist nicht verboten, an den Fu\u00dfballgott zu glauben\"", "url": "https://www.tagesschau.de/inland/regional/brandenburg/rbb-cottbus-trainer-wollitz-es-ist-nicht-verboten-an-den-fussballgott-zu-glauben-102.html", "thumbnailUrl": "https://images.tagesschau.de/image/152346c6-52bb-40a2-81ed-ca4c2ffeae44/AAABjzrOqyU/AAABjwnlKNc/16x9-512.jpg", "date": "2024-05-02T12:59:41.000+02:00", "lat": 51.756, "lon": 14.335, "intensity": 0.3, "source": "Tagesschau"}, {"title": "Sternbr\u00fccke: Vorbereitungen f\u00fcr Neubau k\u00f6nnen weitergehen", "url": "https://www.tagesschau.de/inland/regional/hamburg/ndr-sternbruecke-vorbereitungen-fuer-neubau-koennen-weitergehen-100.html", "thumbnailUrl": "https://images.tagesschau.de/image/5678fe49-66f9-4c7b-8bed-31402a87017c/AAABjzj4SSI/AAABjwnlKNc/16x9-512.jpg", "date": "2024-05-02T12:59:00.000+02:00", "lat": 53.5511, "lon": 9.9937, "intensity": 0.7, "source": "Tagesschau"}, {"title": "Tarifkompromiss bei der Postbank", "url": "https://www.tagesschau.de/wirtschaft/unternehmen/tarifvertrag-fuer-postbankbeschaeftigte-100.html", "thumbnailUrl": "https://images.tagesschau.de/image/dd80fded-cb1c-4d51-901e-279aeafa69dc/AAABjzis03g/AAABjwnlKNc/16x9-512.jpg", "date": "2024-05-02T12:49:07.433+02:00", "lat": 50.7374, "lon": 7.1123, "intensity": 0.6, "source": "Tagesschau"}, {"title": "Mehrere Motorradfahrer in Niedersachsen am 1. Mai verungl\u00fcckt", "url": "https://www.tagesschau.de/inland/regional/niedersachsen/ndr-mehrere-motorradfahrer-in-niedersachsen-am-1-mai-verunglueckt-100.html", "thumbnailUrl": "https://images.tagesschau.de/image/2ce8ad0c-a268-461c-a789-9d6026d70bc5/AAABjzjuzbI/AAABjwnlKNc/16x9-512.jpg", "date": "2024-05-02T12:47:00.000+02:00", "lat": 52.8336, "lon": 9.2277, "intensity": 0.8, "source": "Tagesschau"}, {"title": "Katholische Bonifatiusschule in Hamburg-Wilhelmsburg wird erweitert", "url": "https://www.tagesschau.de/inland/regional/hamburg/ndr-katholische-bonifatiusschule-in-hamburg-wilhelmsburg-wird-erweitert-100.html", "thumbnailUrl": "https://images.tagesschau.de/image/4afbba7b-e4de-4611-927b-792d80334886/AAABjzjltZY/AAABjwnlKNc/16x9-512.jpg", "date": "2024-05-02T12:29:00.000+02:00", "lat": 53.487404, "lon": 10.004843, "intensity": 0.4, "source": "Tagesschau"}, {"title": "Nach Explosion in M\u00fccheln: Der Staatsschutz ermittelt", "url": "https://www.tagesschau.de/inland/regional/sachsenanhalt/mdr-explosion-in-wohnhaus-mit-asylsuchenden-100.html", "thumbnailUrl": "https://images.tagesschau.de/image/5f37315a-d9e4-40cc-b14e-1a71db5b7219/AAABjzjapX8/AAABjwnlKNc/16x9-512.jpg", "date": "2024-05-02T12:28:45.000+02:00", "lat": 51.402, "lon": 11.785, "intensity": 0.8, "source": "Tagesschau"}, {"title": "Nach Eschborn-Frankfurt: Bergk\u00f6nig John Degenkolb hat jetzt noch ein gro\u00dfes Ziel", "url": "https://www.tagesschau.de/inland/regional/hessen/hr-nach-eschborn-frankfurt-bergkoenig-john-degenkolb-hat-jetzt-noch-ein-grosses-ziel-102.html", "thumbnailUrl": "https://images.tagesschau.de/image/bc0c6d90-2b66-4c23-a2e5-f2e7b12b2454/AAABjzjVMiI/AAABjwnlKNc/16x9-512.jpg", "date": "2024-05-02T12:23:07.083+02:00", "lat": 50.1607, "lon": 8.5917, "intensity": 0.7, "source": "Tagesschau"}, {"title": "Ph\u00e4nomen \"Underachievement\": Warum Hochbegabte in der Schule scheitern k\u00f6nnen ", "url": "https://www.tagesschau.de/inland/regional/hessen/hr-phaenomen-underachievement-warum-hochbegabte-in-der-schule-scheitern-koennen-100.html", "thumbnailUrl": "https://images.tagesschau.de/image/aa16e24a-8d09-448c-8e21-8a2ddea625f8/AAABjzjTUaU/AAABjwnlKNc/16x9-512.jpg", "date": "2024-05-02T12:21:14.348+02:00", "lat": 50.5866, "lon": 9.6921, "intensity": 0.7, "source": "Tagesschau"}, {"title": "167 vorl\u00e4ufige Festnahmen: Situation zwischen Demonstranten und Polizei eskaliert", "url": "https://www.tagesschau.de/inland/regional/badenwuerttemberg/swr-demo-zum-1-mai-in-stuttgart-polizisten-angegriffen-102.html", "thumbnailUrl": "https://images.tagesschau.de/image/9326e0e9-233b-42d8-9a2f-23513cc62b1f/AAABjzvLKeQ/AAABjwnlKNc/16x9-512.jpg", "date": "2024-05-02T12:21:00.000+02:00", "lat": 48.7758, "lon": 9.1829, "intensity": 0.8, "source": "Tagesschau"}, {"title": "OECD f\u00fcr Reform der Schuldenbremse", "url": "https://www.tagesschau.de/wirtschaft/konjunktur/oecd-geringeres-wirtschaftswachstum-deutschland-100.html", "thumbnailUrl": "https://images.tagesschau.de/image/09c177f8-a7ad-40a9-ab78-65bae01892c6/AAABjziTi4Y/AAABjwnlKNc/16x9-512.jpg", "date": "2024-05-02T12:13:25.074+02:00", "lat": 51.3397, "lon": 9.9976, "intensity": 0.8, "source": "Tagesschau"}, {"title": "Alles aufgebraucht f\u00fcr 2024", "url": "https://www.tagesschau.de/wissen/forschung/ueberlastungstag-2024-100.html", "thumbnailUrl": "https://images.tagesschau.de/image/5fd592e1-7019-46d1-80c8-65957ea9d52e/AAABjzmJSNc/AAABjwnlKNc/16x9-512.jpg", "date": "2024-05-02T12:09:16.139+02:00", "lat": 51.1657, "lon": 10.4515, "intensity": 0.8, "source": "Tagesschau"}, {"title": "Das sind die strittigsten Debatten in der Brandenburger Landwirtschaft", "url": "https://www.tagesschau.de/inland/regional/brandenburg/rbb-das-sind-die-wichtigsten-debatten-in-der-brandenburger-landwirtschaft-100.html", "thumbnailUrl": "https://images.tagesschau.de/image/87f378ce-d30d-41f1-afe1-e703e33fd555/AAABjzjGfto/AAABjwnlKNc/16x9-512.jpg", "date": "2024-05-02T12:04:58.000+02:00", "lat": 52.6194, "lon": 13.0759, "intensity": 0.6, "source": "Tagesschau"}, {"title": "Tarifverhandlungen bei Telekom: Arbeitgeber legen Angebot vor", "url": "https://www.tagesschau.de/inland/regional/saarland/sr-tarifverhandlungen-bei-telekom-arbeitgeber-legen-angebot-vor-100.html", "thumbnailUrl": "https://images.tagesschau.de/image/99c15162-ff2f-4dac-a8e3-de32d9313a5d/AAABjzjRb_Y/AAABjwnlKNc/16x9-512.jpg", "date": "2024-05-02T12:04:00.000+02:00", "lat": 49.3964, "lon": 6.9457, "intensity": 0.7, "source": "Tagesschau"}, {"title": "Treffen zur Bildungsreform in BW: Werden sich Landesregierung und Opposition einig?", "url": "https://www.tagesschau.de/inland/regional/badenwuerttemberg/swr-treffen-zur-bildungsreform-in-bw-werden-sich-landesregierung-und-opposition-einig-100.html", "thumbnailUrl": "https://images.tagesschau.de/image/3787b66f-a7f1-4ce4-8b61-42ba8b40c0c2/AAABjzmP-jE/AAABjwnlKNc/16x9-512.jpg", "date": "2024-05-02T11:57:00.000+02:00", "lat": 48.6616, "lon": 9.9937, "intensity": 0.7, "source": "Tagesschau"}, {"title": "Galloways in G\u00f6ttingen: Einfangen hat 355.000 Euro gekostet", "url": "https://www.tagesschau.de/inland/regional/niedersachsen/ndr-galloways-in-goettingen-einfangen-hat-355-000-euro-gekostet-100.html", "thumbnailUrl": "https://images.tagesschau.de/image/d66da297-e561-4b1a-8eb1-aa4c76295b16/AAABjzg0MKc/AAABjwnlKNc/16x9-512.jpg", "date": "2024-05-02T11:55:00.000+02:00", "lat": 51.5413, "lon": 9.9357, "intensity": 0.7, "source": "Tagesschau"}, {"title": "Juristische Aufarbeitung des AWO-Skandals zieht sich - neue Anklage gegen Eheleute Richter", "url": "https://www.tagesschau.de/inland/regional/hessen/hr-juristische-aufarbeitung-des-awo-skandals-zieht-sich-neue-anklage-gegen-eheleute-richter-100.html", "thumbnailUrl": "https://images.tagesschau.de/image/6ab99dfa-8af2-4a19-9be4-cf4b3f43671b/AAABjzlE2M0/AAABjwnlKNc/16x9-512.jpg", "date": "2024-05-02T11:51:12.774+02:00", "lat": 50.8017, "lon": 9.7999, "intensity": 0.6, "source": "Tagesschau"}, {"title": "BW-Beh\u00f6rden gelingt Schlag gegen europaweiten Ring von Telefonbetr\u00fcgern", "url": "https://www.tagesschau.de/inland/regional/badenwuerttemberg/swr-bw-behoerden-gelingt-schlag-gegen-europaweiten-ring-von-telefonbetruegern-100.html", "thumbnailUrl": "https://images.tagesschau.de/image/635d9415-f598-4479-bb36-71ed79dfed05/AAABjzjCz-k/AAABjwnlKNc/16x9-512.jpg", "date": "2024-05-02T11:47:45.000+02:00", "lat": 48.7758, "lon": 9.7356, "intensity": 0.8, "source": "Tagesschau"}, {"title": "Weniger Hochzeiten in Deutschland", "url": "https://www.tagesschau.de/inland/gesellschaft/ehen-geburten-statistik-100.html", "thumbnailUrl": "https://images.tagesschau.de/image/bb92774f-3c25-4087-831a-a5c1f83a3e66/AAABhn5HwUc/AAABjwnlKNc/16x9-512.jpg", "date": "2024-05-02T11:46:41.487+02:00", "lat": 51.1657, "lon": 10.4515, "intensity": 0.6, "source": "Tagesschau"}, {"title": "Kleinflugzeug in Mannheimer Industriegebiet notgelandet", "url": "https://www.tagesschau.de/inland/regional/badenwuerttemberg/swr-kleinflugzeug-in-mannheimer-industriegebiet-notgelandet-100.html", "thumbnailUrl": "https://images.tagesschau.de/image/731f9f71-536b-4c32-ac74-6950f1064f4f/AAABjzoKrew/AAABjwnlKNc/16x9-512.jpg", "date": "2024-05-02T11:38:00.000+02:00", "lat": 49.4729, "lon": 8.4433, "intensity": 0.7, "source": "Tagesschau"}, {"title": "Bedrohungen und Beschimpfungen: Herausforderungen einer Busfahrerin", "url": "https://www.tagesschau.de/inland/regional/niedersachsen/ndr-bedrohungen-und-beschimpfungen-herausforderungen-einer-busfahrerin-100.html", "thumbnailUrl": "https://images.tagesschau.de/image/02db1f59-f7f1-4aee-9a72-7a3d46183696/AAABjzr-Vog/AAABjwnlKNc/16x9-512.jpg", "date": "2024-05-02T11:31:00.000+02:00", "lat": 52.4125, "lon": 10.4515, "intensity": 0.7, "source": "Tagesschau"}, {"title": "T\u00f6dlicher Unfall am Bahnhof: Zug \u00fcberrollt Mann", "url": "https://www.tagesschau.de/inland/regional/niedersachsen/ndr-toedlicher-unfall-am-bahnhof-zug-ueberrollt-mann-100.html", "thumbnailUrl": "https://images.tagesschau.de/image/9cb03588-7b85-4ca0-a37f-9f56bbd4c147/AAABjzSp4wM/AAABjwnlKNc/16x9-512.jpg", "date": "2024-05-02T11:24:00.000+02:00", "lat": 52.3167, "lon": 10.2333, "intensity": 0.8, "source": "Tagesschau"}, {"title": "Tausende Schwarz-Gelbe feierten auf Weg zum BVB-Stadion", "url": "https://www.tagesschau.de/inland/regional/nordrheinwestfalen/wdr-tausende-schwarz-gelbe-feiern-auf-weg-zum-bvb-stadion-100.html", "thumbnailUrl": "https://images.tagesschau.de/image/1add071f-31f4-464a-91ef-b9eae190e0d1/AAABjzjrElg/AAABjwnlKNc/16x9-512.jpg", "date": "2024-05-02T11:15:00.000+02:00", "lat": 51.5155, "lon": 7.4624, "intensity": 0.8, "source": "Tagesschau"}, {"title": "Neue Cannabis-Clubs: Mit welchen H\u00fcrden Ulmer Gr\u00fcnder zu k\u00e4mpfen haben", "url": "https://www.tagesschau.de/inland/regional/badenwuerttemberg/swr-ulmer-gruender-eines-cannabis-clubs-es-ist-eine-herausforderung-100.html", "thumbnailUrl": "https://images.tagesschau.de/image/26a8244d-460b-4070-9027-54929bf86071/AAABjzkwq24/AAABjwnlKNc/16x9-512.jpg", "date": "2024-05-02T11:14:50.000+02:00", "lat": 48.4011, "lon": 9.9925, "intensity": 0.6, "source": "Tagesschau"}, {"title": "Interview | Berliner Theatertreffen: \"Ich glaube an die bereichernde \u00e4sthetische Erfahrung\"", "url": "https://www.tagesschau.de/inland/regional/berlin/rbb-interview--berliner-theatertreffen-ich-glaube-an-die-bereichernde-aesthetische-erfahrung-100.html", "thumbnailUrl": "https://images.tagesschau.de/image/2bb5f8f0-6909-464b-8116-f0055b4d186a/AAABjziYuQk/AAABjwnlKNc/16x9-512.jpg", "date": "2024-05-02T11:13:58.000+02:00", "lat": 52.520008, "lon": 13.404954, "intensity": 0.8, "source": "Tagesschau"}, {"title": "Frau stirbt bei Wohnungsbrand in Viernheim", "url": "https://www.tagesschau.de/inland/regional/hessen/hr-frau-stirbt-bei-wohnungsbrand-in-viernheim-100.html", "thumbnailUrl": "https://images.tagesschau.de/image/bb0d5e22-7830-40cb-9529-82913683302e/AAABjziVCK0/AAABjwnlKNc/16x9-512.jpg", "date": "2024-05-02T11:13:19.014+02:00", "lat": 49.5566, "lon": 8.5634, "intensity": 0.8, "source": "Tagesschau"}, {"title": "Outlet Center Soltau darf nicht erweitert werden", "url": "https://www.tagesschau.de/inland/regional/niedersachsen/ndr-outlet-center-soltau-darf-nicht-erweitert-werden-100.html", "thumbnailUrl": "https://images.tagesschau.de/image/55ee27b3-830c-43e4-92a9-a28c94b9592e/AAABjy96Ig8/AAABjwnlKNc/16x9-512.jpg", "date": "2024-05-02T11:11:00.000+02:00", "lat": 52.9746, "lon": 9.8319, "intensity": 0.3, "source": "Tagesschau"}, {"title": "15-J\u00e4hriger wegen Mordes an Sechsj\u00e4hrigem verurteilt", "url": "https://www.tagesschau.de/inland/regional/mecklenburgvorpommern/getoeteter-sechsjaehriger-aus-pragsdorf-urteil-erwartet-100.html", "thumbnailUrl": "https://images.tagesschau.de/image/a08b9570-37b5-4e99-b838-933e35a4d417/AAABjzn78Nw/AAABjwnlKNc/16x9-512.jpg", "date": "2024-05-02T11:09:53.096+02:00", "lat": 53.55707, "lon": 13.26007, "intensity": 0.9, "source": "Tagesschau"}, {"title": "Demonstranten bedr\u00e4ngen Bundestagsvizepr\u00e4sidentin ", "url": "https://www.tagesschau.de/inland/regional/brandenburg/brandenburg-demonstranten-bedraengen-bundestagsvizepraesidentin-goering-eckardt-100.html", "thumbnailUrl": "https://images.tagesschau.de/image/3413b576-31f3-4567-8c9e-c30259580769/AAABjVQ0_7Q/AAABjwnlKNc/16x9-512.jpg", "date": "2024-05-02T11:08:59.000+02:00", "lat": 52.614, "lon": 13.6859, "intensity": 0.8, "source": "Tagesschau"}, {"title": "Nordsee: Suche nach Schlauchbootfahrer und Segler eingestellt", "url": "https://www.tagesschau.de/inland/regional/niedersachsen/ndr-schlauchbootfahrer-in-der-deutschen-bucht-vermisst-100.html", "thumbnailUrl": "https://images.tagesschau.de/image/ebd32764-e7ee-446f-9d7d-717da7208a79/AAABjy-R73M/AAABjwnlKNc/16x9-512.jpg", "date": "2024-05-02T11:08:00.000+02:00", "lat": 53.8691, "lon": 8.6861, "intensity": 0.8, "source": "Tagesschau"}, {"title": "Wismar: Maritimes Erbe mit drei Traditionsschiffen", "url": "https://www.tagesschau.de/inland/regional/mecklenburgvorpommern/ndr-wismar-maritimes-erbe-mit-drei-traditionsschiffen-100.html", "thumbnailUrl": "https://images.tagesschau.de/image/dc7827a9-1fb4-4a9b-a7e7-5e51b5ee68cb/AAABjzoez8Q/AAABjwnlKNc/16x9-512.jpg", "date": "2024-05-02T11:00:00.000+02:00", "lat": 53.893, "lon": 11.462, "intensity": 0.7, "source": "Tagesschau"}, {"title": "Mindestens zehn Tote bei Unwettern in Brasilien", "url": "https://www.tagesschau.de/ausland/amerika/ueberflutung-brasilien-100.html", "thumbnailUrl": "https://images.tagesschau.de/image/ad139fa4-4ed2-47df-9d84-542bb9957d72/AAABjzh9Sk0/AAABjwnlKNc/16x9-512.jpg", "date": "2024-05-02T10:49:42.351+02:00", "lat": -15.7801, "lon": -47.9292, "intensity": 0.8, "source": "Tagesschau"}, {"title": "VfL Osnabr\u00fcck: Sch\u00e4den am Stadiondach - Was wird aus dem Schalke-Spiel?", "url": "https://www.tagesschau.de/inland/regional/niedersachsen/ndr-vfl-osnabrueck-nutzungsunterlassung-fuer-bremer-bruecke-102.html", "thumbnailUrl": "https://images.tagesschau.de/image/0fabfb61-5914-42cc-a4e7-5b0ba1b1d841/AAABjzpFQJk/AAABjwnlKNc/16x9-512.jpg", "date": "2024-05-02T10:44:00.000+02:00", "lat": 52.275604, "lon": 8.03741, "intensity": 0.7, "source": "Tagesschau"}, {"title": "Weniger ausl\u00e4ndische Investitionen in Deutschland", "url": "https://www.tagesschau.de/wirtschaft/konjunktur/weniger-investitionen-eu-deutschland-100.html", "thumbnailUrl": "https://images.tagesschau.de/image/179edf0c-15fc-4825-b557-065a9093ccb6/AAABjbEIhfY/AAABjwnlKNc/16x9-512.jpg", "date": "2024-05-02T10:35:38.884+02:00", "lat": 51.1657, "lon": 10.4515, "intensity": 0.6, "source": "Tagesschau"}, {"title": "Autozulieferer ZF: Tochterfirma er\u00f6ffnet Zentrale in Osnabr\u00fcck", "url": "https://www.tagesschau.de/inland/regional/niedersachsen/ndr-autozulieferer-zf-tochterfirma-eroeffnet-zentrale-in-osnabrueck-100.html", "thumbnailUrl": "https://images.tagesschau.de/image/039833b2-ea14-4ecc-b5fd-1075cb6c439b/AAABjzi35h4/AAABjwnlKNc/16x9-512.jpg", "date": "2024-05-02T10:35:00.000+02:00", "lat": 52.2799, "lon": 8.0467, "intensity": 0.5, "source": "Tagesschau"}, {"title": "Interview: Warum immer mehr junge Menschen AfD w\u00e4hlen wollen\u00a0", "url": "https://www.tagesschau.de/inland/regional/hessen/hr-interview-warum-immer-mehr-junge-menschen-afd-waehlen-wollen-100.html", "thumbnailUrl": "https://images.tagesschau.de/image/6a512f48-5915-42ec-99eb-43ecb6d51db8/AAABjzmKZqI/AAABjwnlKNc/16x9-512.jpg", "date": "2024-05-02T10:28:36.401+02:00", "lat": 49.8717, "lon": 9.9581, "intensity": 0.7, "source": "Tagesschau"}, {"title": "Mindestens 13 Verletzte nach Angriff auf Odessa", "url": "https://www.tagesschau.de/ausland/europa/ukraine-angriff-odessa-100.html", "thumbnailUrl": "https://images.tagesschau.de/image/86c8bbfc-564f-4f44-8674-1f6b221bea6b/AAABjzhpFIc/AAABjwnlKNc/16x9-512.jpg", "date": "2024-05-02T10:26:02.346+02:00", "lat": 46.4825, "lon": 30.7233, "intensity": 0.8, "source": "Tagesschau"}, {"title": "Frankfurt (Oder) - Slubice: Doppelstadt feiert 20. Jahrestag der EU-Osterweiterung", "url": "https://www.tagesschau.de/inland/regional/brandenburg/rbb-frankfurt-oder-slubice-doppelstadt-feiert-20-jahrestag-der-eu-osterweiterung-100.html", "thumbnailUrl": "https://images.tagesschau.de/image/5590a4c2-48f4-461f-8ebe-1c7f70a2c888/AAABjzhq71U/AAABjwnlKNc/16x9-512.jpg", "date": "2024-05-02T10:24:54.000+02:00", "lat": 52.3413, "lon": 14.5602, "intensity": 0.6, "source": "Tagesschau"}, {"title": "Stichwahl bei der SPD: Zwei Spitzenduos ringen um die Macht", "url": "https://www.tagesschau.de/inland/regional/berlin/rbb-stichwahl-in-berlin-zwei-duos-kaempfen-um-spd-landesvorsitz-100.html", "thumbnailUrl": "https://images.tagesschau.de/image/3882101b-b64f-4365-b5b0-8bdc9ee708d2/AAABjzgh0ko/AAABjwnlKNc/16x9-512.jpg", "date": "2024-05-02T10:19:55.000+02:00", "lat": 52.520008, "lon": 13.404954, "intensity": 0.8, "source": "Tagesschau"}, {"title": "Herzinfarkt und Kostendruck: Risiken der Krankenhaus-Privatisierung", "url": "https://www.tagesschau.de/inland/regional/mecklenburgvorpommern/ndr-herzinfarkt-und-kostendruck-risiken-der-krankenhaus-privatisierung-102.html", "thumbnailUrl": "https://images.tagesschau.de/image/ebeb0f50-db67-4836-b166-f9657faa0a50/AAABjzd5Px8/AAABjwnlKNc/16x9-512.jpg", "date": "2024-05-02T10:15:00.000+02:00", "lat": 52.52001, "lon": 13.37699, "intensity": 0.7, "source": "Tagesschau"}, {"title": "1. Mai in MV: Mehrere Tausend Menschen bei Kundgebungen", "url": "https://www.tagesschau.de/inland/regional/mecklenburgvorpommern/ndr-1-mai-in-mv-zahlreiche-aktionen-zum-tag-der-arbeit-100.html", "thumbnailUrl": "https://images.tagesschau.de/image/5262abb1-35e6-46ff-83a2-e971402baa40/AAABjzhf7Ac/AAABjwnlKNc/16x9-512.jpg", "date": "2024-05-02T10:10:00.000+02:00", "lat": 53.6127, "lon": 13.4284, "intensity": 0.7, "source": "Tagesschau"}, {"title": "Hessen am Morgen: +++ Wohnungsbrand in Viernheim +++ Bulle und Kuh in der Wetterau ausgeb\u00fcxt +++ Entenfamilie aus Gully gerettet +++", "url": "https://www.tagesschau.de/inland/regional/hessen/hr-hessen-am-morgen--wohnungsbrand-in-viernheim-100.html", "thumbnailUrl": "https://images.tagesschau.de/image/2191ee36-86ea-46b9-8424-8a7e1648d2be/AAABjziVCnI/AAABjwnlKNc/16x9-512.jpg", "date": "2024-05-02T10:01:24.921+02:00", "lat": 49.5411, "lon": 8.5709, "intensity": 0.7, "source": "Tagesschau"}, {"title": "BW-Newsticker am Morgen: Widerspr\u00fcche nach eskalierter Mai-Demo, Notlandung in Mannheim, Ermittlungen nach Maiwagen-Unfall", "url": "https://www.tagesschau.de/inland/regional/badenwuerttemberg/swr-bw-newsticker-am-morgen-ermittlungen-nach-maiwagen-unfall-pingpong-spiel-um-klimaziele-gewitter-erwartet-100.html", "thumbnailUrl": "https://images.tagesschau.de/image/f4895b0c-b622-4757-826a-021b0f08bf53/AAABjzgAxHM/AAABjwnlKNc/16x9-512.jpg", "date": "2024-05-02T10:00:00.000+02:00", "lat": 49.4875, "lon": 8.6761, "intensity": 0.7, "source": "Tagesschau"}, {"title": "Unwetter mit Starkregen m\u00f6glich, gef\u00e4hrliche Tik-Tok-Mutprobe, Fahrradfahrer \u00fcberf\u00e4hrt Hund", "url": "https://www.tagesschau.de/inland/regional/rheinlandpfalz/swr-plaedoyers-im-amokfahrer-prozess--dortmund-schlaegt-paris--welt-passworttag-100.html", "thumbnailUrl": "https://images.tagesschau.de/image/94545e58-38ad-4782-be2f-88a727dc6f92/AAABjzgpEm4/AAABjwnlKNc/16x9-512.jpg", "date": "2024-05-02T10:00:00.000+02:00", "lat": 50, "lon": 7.9, "intensity": 0.7, "source": "Tagesschau"}, {"title": "20 Jahre EU-Osterweiterung: \"Die polnischen Sch\u00fcler sichern unsere Klassen\"", "url": "https://www.tagesschau.de/inland/regional/brandenburg/rbb-20-jahre-eu-osterweiterung-die-polnischen-schueler-sichern-unsere-klassen-100.html", "thumbnailUrl": "https://images.tagesschau.de/image/7a53e2de-0d73-46e2-ab70-206cee49c272/AAABjzhKMsw/AAABjwnlKNc/16x9-512.jpg", "date": "2024-05-02T09:49:48.000+02:00", "lat": 52.9039, "lon": 14.2641, "intensity": 0.6, "source": "Tagesschau"}, {"title": "30 Verletzte bei Unfall mit Maiwagen in S\u00fcdbaden", "url": "https://www.tagesschau.de/inland/gesellschaft/unfall-maiwagen-100.html", "thumbnailUrl": "https://images.tagesschau.de/image/4c366d13-50e8-429a-88e2-f0c3aa50fcd6/AAABjzR34_U/AAABjwnlKNc/16x9-512.jpg", "date": "2024-05-02T09:47:00.000+02:00", "lat": 47.5596, "lon": 7.5886, "intensity": 0.8, "source": "Tagesschau"}, {"title": "Transat CIC: Riss im Gro\u00dfsegel, aber Herrmann mit Malizia gut im Rennen", "url": "https://www.tagesschau.de/inland/regional/hamburg/ndr-transat-cic-riss-im-grosssegel-aber-herrmann-mit-malizia-gut-im-rennen-102.html", "thumbnailUrl": "https://images.tagesschau.de/image/6260ac38-7f76-467a-ad5c-87610ec30ac9/AAABjzhtFjY/AAABjwnlKNc/16x9-512.jpg", "date": "2024-05-02T09:43:00.000+02:00", "lat": 53.5511, "lon": 9.9937, "intensity": 0.7, "source": "Tagesschau"}, {"title": "Insektenpirsch auf Amrum: Suche nach verschollener Deichhummel", "url": "https://www.tagesschau.de/inland/regional/schleswigholstein/ndr-insektenpirsch-auf-amrum-suche-nach-der-deichhummel-100.html", "thumbnailUrl": "https://images.tagesschau.de/image/5e72847f-472a-47e1-87ff-c0e0596d098e/AAABjzhcT3c/AAABjwnlKNc/16x9-512.jpg", "date": "2024-05-02T09:43:00.000+02:00", "lat": 54.6087, "lon": 8.324, "intensity": 0.5, "source": "Tagesschau"}, {"title": "EU will Fl\u00fcchtlingsdeal mit Libanon schmieden", "url": "https://www.tagesschau.de/ausland/europa/eu-libanon-fluechtlingsdeal-100.html", "thumbnailUrl": "https://images.tagesschau.de/image/b16baef2-7b48-4bfe-8f6c-990b0d908fc8/AAABjzbb-sA/AAABjwnlKNc/16x9-512.jpg", "date": "2024-05-02T09:36:25.861+02:00", "lat": 33.8547, "lon": 35.8623, "intensity": 0.7, "source": "Tagesschau"}, {"title": "Filmstart von \"Max und die Wilde 7 - Die Geister-Oma\" mit Uschi Glas", "url": "https://www.tagesschau.de/inland/regional/hessen/hr-filmstart-von-max-und-die-wilde-7-die-geister-oma-mit-uschi-glas-100.html", "thumbnailUrl": "https://images.tagesschau.de/image/a3ec3838-0a9d-4c15-b25d-c253911e1355/AAABjzgyMIw/AAABjwnlKNc/16x9-512.jpg", "date": "2024-05-02T09:24:18.322+02:00", "lat": 50.5904, "lon": 9.1625, "intensity": 0.8, "source": "Tagesschau"}, {"title": "Jubel in Stuttgart: Der VfB zieht in die Champions League ein", "url": "https://www.tagesschau.de/inland/regional/badenwuerttemberg/swr-jubel-in-stuttgart-der-vfb-zieht-in-die-champions-league-ein-102.html", "thumbnailUrl": "https://images.tagesschau.de/image/a515f8c1-0eed-4597-bece-ee262e20d1b1/AAABjzjnti8/AAABjwnlKNc/16x9-512.jpg", "date": "2024-05-02T09:20:00.000+02:00", "lat": 48.7758, "lon": 9.1805, "intensity": 0.9, "source": "Tagesschau"}, {"title": "Stimmungstest f\u00fcr Regierung - und Londons Verkehrspolitik", "url": "https://www.tagesschau.de/ausland/europa/wahlen-england-wales-100.html", "thumbnailUrl": "https://images.tagesschau.de/image/fac2867a-af50-4ea9-9b00-e981a040a870/AAABjzhGaa0/AAABjwnlKNc/16x9-512.jpg", "date": "2024-05-02T09:10:12.682+02:00", "lat": 51.5074, "lon": -0.1276, "intensity": 0.7, "source": "Tagesschau"}, {"title": "Diebe klauen Photovoltaik-Anlage von Rewe-Zentrallager", "url": "https://www.tagesschau.de/inland/regional/niedersachsen/ndr-diebe-klauen-photovoltaik-anlage-von-rewe-zentrallager-100.html", "thumbnailUrl": "https://images.tagesschau.de/image/1ecf2a83-a8bb-4d02-b43c-20bc1f20cd7c/AAABjzg3ws8/AAABjwnlKNc/16x9-512.jpg", "date": "2024-05-02T09:05:00.000+02:00", "lat": 52.5119, "lon": 9.5777, "intensity": 0.7, "source": "Tagesschau"}, {"title": "Sexualisierte Gewalt? Kirchenkreis stellt Mitarbeiter frei", "url": "https://www.tagesschau.de/inland/regional/niedersachsen/ndr-sexualisierte-gewalt-kirchenkreis-stellt-mitarbeiter-frei-100.html", "thumbnailUrl": "https://images.tagesschau.de/image/7a2dfc7a-fba7-44cf-8c13-61c6d7b02115/AAABjzgW0Fg/AAABjwnlKNc/16x9-512.jpg", "date": "2024-05-02T08:44:00.000+02:00", "lat": 51.8286, "lon": 9.9512, "intensity": 0.7, "source": "Tagesschau"}, {"title": "Fall eines Imams: Wie Muslime vorschnell verurteilt werden", "url": "https://www.tagesschau.de/inland/regional/bayern/br-fall-eines-imams-wie-muslime-vorschnell-verurteilt-werden-102.html", "thumbnailUrl": "https://images.tagesschau.de/image/132cd31e-3059-4dd3-bf79-3ca7d2ad7529/AAABjzf7RIE/AAABjwnlKNc/16x9-512.jpg", "date": "2024-05-02T08:24:02.894+02:00", "lat": 48.135125, "lon": 11.58198, "intensity": 0.5, "source": "Tagesschau"}, {"title": "Zwei Ratten pro Einwohner: Giftk\u00f6der soll Rattenplage vorbeugen", "url": "https://www.tagesschau.de/inland/regional/bayern/br-zwei-ratten-pro-einwohner-giftkoeder-soll-rattenplage-vorbeugen-102.html", "thumbnailUrl": "https://images.tagesschau.de/image/9d6e330d-661b-4392-8c79-b40991d073bc/AAABjzf5bc8/AAABjwnlKNc/16x9-512.jpg", "date": "2024-05-02T08:22:42.395+02:00", "lat": 49.945146, "lon": 11.576124, "intensity": 0.7, "source": "Tagesschau"}, {"title": "Unbekannter attackiert Transfrau in Bar mit Messer", "url": "https://www.tagesschau.de/inland/regional/niedersachsen/ndr-unbekannter-attackiert-transfrau-in-bar-mit-messer-100.html", "thumbnailUrl": "https://images.tagesschau.de/image/fc253ba3-419f-4c6c-82d7-f4daec0fa186/AAABjzf5gHQ/AAABjwnlKNc/16x9-512.jpg", "date": "2024-05-02T08:13:00.000+02:00", "lat": 53.079296, "lon": 8.801693, "intensity": 0.8, "source": "Tagesschau"}, {"title": "Arizona stoppt R\u00fcckkehr zum Abtreibungsrecht von 1864", "url": "https://www.tagesschau.de/ausland/amerika/usa-arizona-abtreibungsrecht-100.html", "thumbnailUrl": "https://images.tagesschau.de/image/b3f1e68f-f83f-47c4-b2c0-7ede6ce23f19/AAABjzmOj9w/AAABjwnlKNc/16x9-512.jpg", "date": "2024-05-02T08:08:16.708+02:00", "lat": 33.4483771, "lon": -112.0740373, "intensity": 0.8, "source": "Tagesschau"}, {"title": "Besonders w\u00fcrzig und vitaminreich: Jetzt wird violetter Spargel in Beelitz geerntet ", "url": "https://www.tagesschau.de/inland/regional/brandenburg/rbb-besonders-wuerzig-und-vitaminreich-jetzt-wird-violetter-spargel-in-beelitz-geerntet-100.html", "thumbnailUrl": "https://images.tagesschau.de/image/16627bc6-1d52-49b4-bea1-3d1f38bcb899/AAABjzfqyJM/AAABjwnlKNc/16x9-512.jpg", "date": "2024-05-02T08:05:47.000+02:00", "lat": 52.3315, "lon": 12.9958, "intensity": 0.2, "source": "Tagesschau"}, {"title": "Hamas-Anf\u00fchrer offenbar skeptisch ", "url": "https://www.tagesschau.de/ausland/asien/nahost-israel-gaza-hamas-102.html", "thumbnailUrl": "https://images.tagesschau.de/image/c9a7a7ca-075a-4923-b012-dde451148aa6/AAABjzmSp3A/AAABjwnlKNc/16x9-512.jpg", "date": "2024-05-02T07:39:13.947+02:00", "lat": 31.8994, "lon": 34.3446, "intensity": 0.6, "source": "Tagesschau"}, {"title": "200 Schweine sterben durch Feuer in Mastanlage in L\u00fcbars", "url": "https://www.tagesschau.de/inland/regional/sachsenanhalt/mdr-200-schweine-in-mastanlage-in-luebars-bei-brand-verendet-102.html", "thumbnailUrl": "https://images.tagesschau.de/image/3ec393b2-ca16-45dc-9f8d-fe3fec014295/AAABjzfH-OQ/AAABjwnlKNc/16x9-512.jpg", "date": "2024-05-02T07:29:57.000+02:00", "lat": 52.3272, "lon": 11.9962, "intensity": 0.8, "source": "Tagesschau"}, {"title": "SV Wehen Wiesbaden: Braunschweig ist der Schl\u00fcssel zum Klassenerhalt", "url": "https://www.tagesschau.de/inland/regional/hessen/hr-sv-wehen-wiesbaden-braunschweig-ist-der-schluessel-zum-klassenerhalt-102.html", "thumbnailUrl": "https://images.tagesschau.de/image/feaa3763-132c-4fc4-9881-0b1ce9627781/AAABjzhnTHw/AAABjwnlKNc/16x9-512.jpg", "date": "2024-05-02T07:23:49.227+02:00", "lat": 50.078218, "lon": 8.239963, "intensity": 0.8, "source": "Tagesschau"}, {"title": "Das arme Bad Schmiedeberg", "url": "https://www.tagesschau.de/inland/regional/sachsenanhalt/mdr-das-arme-bad-schmiedeberg-102.html", "thumbnailUrl": "https://images.tagesschau.de/image/23f51597-eeae-4462-a2c2-5b17a37ad966/AAABjzfCwTA/AAABjwnlKNc/16x9-512.jpg", "date": "2024-05-02T07:23:32.000+02:00", "lat": 51.6996, "lon": 12.7583, "intensity": 0.8, "source": "Tagesschau"}, {"title": "Bezirkswahlen 2024: Das sind die Themen in Altona", "url": "https://www.tagesschau.de/inland/regional/hamburg/ndr-bezirkswahlen-2024-das-sind-die-themen-in-altona-100.html", "thumbnailUrl": "https://images.tagesschau.de/image/223a32d7-925d-4927-98d6-42cf3183ed84/AAABjze-5Nc/AAABjwnlKNc/16x9-512.jpg", "date": "2024-05-02T07:16:00.000+02:00", "lat": 53.5511, "lon": 9.9239, "intensity": 0.5, "source": "Tagesschau"}, {"title": "Nach Ruhest\u00f6rung: Polizei setzt Taser gegen Lkw-Fahrer ein", "url": "https://www.tagesschau.de/inland/regional/saarland/sr-nach-ruhestoerung-polizei-sezt-taser-gegen-lkw-fahrer-ein-100.html", "thumbnailUrl": "https://images.tagesschau.de/image/d23a7e61-f4ae-4919-bd23-f4884f4e5847/AAABjzqp2F8/AAABjwnlKNc/16x9-512.jpg", "date": "2024-05-02T07:06:00.000+02:00", "lat": 49.278, "lon": 7.121, "intensity": 0.7, "source": "Tagesschau"}, {"title": "BraLa er\u00f6ffnet: Unternehmen aus der Region laden in Sch\u00f6nwalde-Glien zum Agrarmarkt ein", "url": "https://www.tagesschau.de/inland/regional/brandenburg/rbb-brala-eroeffnet-unternehmen-aus-der-region-laden-in-schoenwalde-glien-zum-agrarmarkt-ein-100.html", "thumbnailUrl": "https://images.tagesschau.de/image/2c0e2ead-9808-4cf3-9c15-67d2d298f5ce/AAABjzelQCw/AAABjwnlKNc/16x9-512.jpg", "date": "2024-05-02T06:50:49.000+02:00", "lat": 52.5948, "lon": 13.0645, "intensity": 0.7, "source": "Tagesschau"}, {"title": "Star Wars-Universum in der Stadtbibliothek Saarbr\u00fccken", "url": "https://www.tagesschau.de/inland/regional/saarland/sr-star-wars-universum-in-der-stadtbibliothek-saarbruecken-100.html", "thumbnailUrl": "https://images.tagesschau.de/image/0ee47519-21a7-45f1-aca8-6e3549d3cfb1/AAABjzefpwo/AAABjwnlKNc/16x9-512.jpg", "date": "2024-05-02T06:43:00.000+02:00", "lat": 49.2402, "lon": 6.9814, "intensity": 0.7, "source": "Tagesschau"}, {"title": "Radrennen Eschborn-Frankfurt 2024: Ticker zum Nachlesen: +++ Van Gils siegt im Sprint +++ Aranburu Zweiter, Sheehan Dritter +++ Degenkolb gewinnt Bergwertung +++", "url": "https://www.tagesschau.de/inland/regional/hessen/hr-radrennen-eschborn-frankfurt-2024--countdown-zu-eschborn-frankfurt-2024-laeuft--amateure-schon-unterwegs-100.html", "thumbnailUrl": "https://images.tagesschau.de/image/97347c98-da6c-48ce-afea-9d0a4721019c/AAABjzTIxns/AAABjwnlKNc/16x9-512.jpg", "date": "2024-05-02T06:39:44.611+02:00", "lat": 50.1155, "lon": 8.5648, "intensity": 0.7, "source": "Tagesschau"}, {"title": "Ein Toter nach Ungl\u00fcck auf dem Mittellandkanal in Minden", "url": "https://www.tagesschau.de/inland/regional/nordrheinwestfalen/wdr-ein-toter-nach-unglueck-auf-dem-mittellandkanal-in-minden-100.html", "thumbnailUrl": "https://images.tagesschau.de/image/e40c3d9a-706c-48d9-baed-20dc11aeb74d/AAABjzhNmUg/AAABjwnlKNc/16x9-512.jpg", "date": "2024-05-02T06:33:00.000+02:00", "lat": 52.2892, "lon": 8.9125, "intensity": 0.8, "source": "Tagesschau"}, {"title": "Der Mann, der Orban gef\u00e4hrlich werden k\u00f6nnte", "url": "https://www.tagesschau.de/multimedia/podcast/11km/11km-feed-100.html", "thumbnailUrl": "https://images.tagesschau.de/image/735dee69-57a6-4a63-9058-51d43f8ccbf1/AAABjzeB-4U/AAABjwnlKNc/16x9-512.jpg", "date": "2024-05-02T06:32:59.200+02:00", "lat": 47.4979, "lon": 19.0402, "intensity": 0.7, "source": "Tagesschau"}, {"title": "ZDF-Morgenmagazin sendet am Freitag live vom St. Johanner Markt", "url": "https://www.tagesschau.de/inland/regional/saarland/sr-zdf-morgenmagazin-sendet-live-vom-st-johanner-markt-100.html", "thumbnailUrl": "https://images.tagesschau.de/image/8a0de215-a5c4-4f3e-ae96-ffedc6738293/AAABjzeWgBA/AAABjwnlKNc/16x9-512.jpg", "date": "2024-05-02T06:31:00.000+02:00", "lat": 49.2331, "lon": 6.9644, "intensity": 0.5, "source": "Tagesschau"}, {"title": "Hamburger Polizei im Gro\u00dfeinsatz", "url": "https://www.tagesschau.de/inland/regional/hamburg/demonstration-hamburg-106.html", "thumbnailUrl": "https://images.tagesschau.de/image/0ec56ad9-0585-4889-aaa2-ecdec8dda397/AAABjzMyVIY/AAABjwnlKNc/16x9-512.jpg", "date": "2024-05-02T06:29:00.000+02:00", "lat": 53.5511, "lon": 9.9937, "intensity": 0.8, "source": "Tagesschau"}, {"title": "T\u00f6dlicher Unfall in Achim: Motorradfahrer prallt gegen Baum", "url": "https://www.tagesschau.de/inland/regional/niedersachsen/ndr-toedlicher-unfall-in-achim-motorradfahrer-prallt-gegen-baum-100.html", "thumbnailUrl": "https://images.tagesschau.de/image/13640ee7-8888-4ff3-8ae8-7ae4e019b4d9/AAABjzju0yI/AAABjwnlKNc/16x9-512.jpg", "date": "2024-05-02T06:21:00.000+02:00", "lat": 53.0222, "lon": 9.0589, "intensity": 0.8, "source": "Tagesschau"}, {"title": "Zum 1. Mai: Gro\u00dfe Demo des DGB in Hamburg", "url": "https://www.tagesschau.de/inland/regional/hamburg/ndr-zum-1-mai-grosse-dgb-demo-in-hamburg-100.html", "thumbnailUrl": "https://images.tagesschau.de/image/290c7ec8-d829-4dc3-9b5e-ae3c4ad0a5c4/AAABjzicdJs/AAABjwnlKNc/16x9-512.jpg", "date": "2024-05-02T06:18:00.000+02:00", "lat": 53.5511, "lon": 9.9357, "intensity": 0.8, "source": "Tagesschau"}, {"title": "Alle bestehen auf ihren roten Linien", "url": "https://www.tagesschau.de/inland/innenpolitik/haushalt-lindner-104.html", "thumbnailUrl": "https://images.tagesschau.de/image/38cffeef-e2ff-47aa-8cfc-f154b3d7d498/AAABjSKueHg/AAABjwnlKNc/16x9-512.jpg", "date": "2024-05-02T06:03:30.195+02:00", "lat": 53.5511, "lon": 9.9937, "intensity": 0.8, "source": "Tagesschau"}, {"title": "H\u00f6here Zulagen f\u00fcr Polizisten und Feuerwehrleute in Hamburg", "url": "https://www.tagesschau.de/inland/regional/hamburg/ndr-hoehere-zulagen-fuer-polizisten-und-feuerwehrleute-in-hamburg-100.html", "thumbnailUrl": "https://images.tagesschau.de/image/30795816-d5d4-45ea-bce4-2aba219286c4/AAABjzd7Ib8/AAABjwnlKNc/16x9-512.jpg", "date": "2024-05-02T06:02:00.000+02:00", "lat": 53.5511, "lon": 9.9937, "intensity": 0.8, "source": "Tagesschau"}, {"title": "Kretschmann macht R\u00fcckzieher bei Aufweichung von Klimazielen ", "url": "https://www.tagesschau.de/inland/regional/badenwuerttemberg/swr-kretschmann-macht-rueckzieher-bei-aufweichung-von-klimazielen-100.html", "thumbnailUrl": "https://images.tagesschau.de/image/79f9e628-d59e-419f-b7ca-3e5820c030f5/AAABjzjnuAY/AAABjwnlKNc/16x9-512.jpg", "date": "2024-05-02T05:18:21.000+02:00", "lat": 48.6616, "lon": 9.9937, "intensity": 0.7, "source": "Tagesschau"}, {"title": "Europawahl: Das ist Menschen in Schleswig-Holstein wichtig", "url": "https://www.tagesschau.de/inland/regional/schleswigholstein/ndr-europawahl-so-denken-die-menschen-in-schleswig-holstein-100.html", "thumbnailUrl": "https://images.tagesschau.de/image/ba089f35-486c-4669-940d-c79a40ed17b4/AAABjzhlhis/AAABjwnlKNc/16x9-512.jpg", "date": "2024-05-02T04:00:00.000+02:00", "lat": 54.42, "lon": 9.991, "intensity": 0.6, "source": "Tagesschau"}, {"title": "Proteste in Georgien weiten sich aus", "url": "https://www.tagesschau.de/ausland/europa/georgien-proteste-126.html", "thumbnailUrl": "https://images.tagesschau.de/image/9c0943a0-3d93-4540-a39e-bcadce2807f9/AAABjzaqdo4/AAABjwnlKNc/16x9-512.jpg", "date": "2024-05-02T02:28:47.930+02:00", "lat": 41.7151, "lon": 44.793, "intensity": 0.8, "source": "Tagesschau"}, {"title": "T\u00fcrkei stoppt wegen Gaza-Krieg den Handel mit Israel komplett", "url": "https://www.br.de/nachrichten/meldungen/index.html#n1", "thumbnailUrl": null, "date": "2024-05-03T02:59:13+02:00", "lat": 30.0444, "lon": 31.2357, "intensity": 0.8, "source": "Bayrischer Rundfunk"}, {"title": "Milliardendeal der EU mit Libanon soll Migration eind\u00e4mmen", "url": "https://www.br.de/nachrichten/meldungen/index.html#n2", "thumbnailUrl": null, "date": "2024-05-03T02:59:13+02:00", "lat": 33.5138, "lon": 36.2021, "intensity": 0.8, "source": "Bayrischer Rundfunk"}, {"title": "Baerbock beginnt Reise durch Indopazifik in Australien", "url": "https://www.br.de/nachrichten/meldungen/index.html#n3", "thumbnailUrl": null, "date": "2024-05-03T02:59:13+02:00", "lat": 39.9334, "lon": 32.8597, "intensity": 0.8, "source": "Bayrischer Rundfunk"}, {"title": "Deutsche sehen Asylpolitik als gr\u00f6\u00dftes Problem in Europa", "url": "https://www.br.de/nachrichten/meldungen/index.html#n4", "thumbnailUrl": null, "date": "2024-05-03T02:59:13+02:00", "lat": 52.520008, "lon": 13.404954, "intensity": 0.7, "source": "Bayrischer Rundfunk"}, {"title": "Interne Dokumente zeigen N\u00e4he der AfD-Fraktion zu China", "url": "https://www.br.de/nachrichten/meldungen/index.html#n5", "thumbnailUrl": null, "date": "2024-05-03T02:59:13+02:00", "lat": 52.520008, "lon": 13.404954, "intensity": 0.6, "source": "Bayrischer Rundfunk"}, {"title": "GdP verteidigt Polizeieinsatz bei St\u00f6raktion gegen G\u00f6ring-Eckhardt", "url": "https://www.br.de/nachrichten/meldungen/index.html#n6", "thumbnailUrl": null, "date": "2024-05-03T02:59:13+02:00", "lat": 48.135125, "lon": 11.581981, "intensity": 0.6, "source": "Bayrischer Rundfunk"}, {"title": "Lauterbach stellt Konzept zur Verhinderung von Suiziden vor", "url": "https://www.br.de/nachrichten/meldungen/index.html#n7", "thumbnailUrl": null, "date": "2024-05-03T02:59:13+02:00", "lat": 50.110922, "lon": 8.682127, "intensity": 0.8, "source": "Bayrischer Rundfunk"}, {"title": "Feuerwehr meldet hunderte Unwetter-Eins\u00e4tze in Deutschland", "url": "https://www.br.de/nachrichten/meldungen/index.html#n8", "thumbnailUrl": null, "date": "2024-05-03T02:59:13+02:00", "lat": 47.8684, "lon": 12.6394, "intensity": 0.8, "source": "Bayrischer Rundfunk"}, {"title": "Prozess gegen 14-j\u00e4hrigen nach Mord in Lohr am Main beginnt", "url": "https://www.br.de/nachrichten/meldungen/index.html#n9", "thumbnailUrl": null, "date": "2024-05-03T02:59:13+02:00", "lat": 48.5844, "lon": 13.6722, "intensity": 0.8, "source": "Bayrischer Rundfunk"}, {"title": "Fu\u00dfball-Meister Leverkusen gewinnt in Europa Leauge in Rom", "url": "https://www.br.de/nachrichten/meldungen/index.html#n10", "thumbnailUrl": null, "date": "2024-05-03T02:59:13+02:00", "lat": 53.5396, "lon": 8.5761, "intensity": 0.4, "source": "Bayrischer Rundfunk"}, {"title": "Das Wetter in Bayern: Schauer und Gewitter, 11 bis 6 Grad", "url": "https://www.br.de/nachrichten/meldungen/index.html#n11", "thumbnailUrl": null, "date": "2024-05-03T02:59:13+02:00", "lat": 48.1351, "lon": 11.582, "intensity": 0.3, "source": "Bayrischer Rundfunk"}, {"title": "Ver\u00e4nderungen bei Volleyball-Meister: Volleys verk\u00fcnden drei Zug\u00e4nge", "url": "https://www.rbb24.de/sport/beitrag/2024/05/volleyball-br-volleys-niroomand-zugaenge-abgaenge-kader.html", "thumbnailUrl": null, "date": "Thu, 02 May 2024 22:39:45 +0200", "lat": 52.520008, "lon": 13.37041, "intensity": 0.3, "source": "RBB"}, {"title": "Vom Smartphone abgelenkt - Frau st\u00fcrzt ins S-Bahngleis und verletzt sich", "url": "https://www.rbb24.de/panorama/beitrag/2024/05/berlin-friedrichshain-ostkreuz-frau-stuerzt-wegen-smartphone-ablenkung-in-gleis-ueberlebt.html", "thumbnailUrl": null, "date": "Thu, 02 May 2024 21:44:23 +0200", "lat": 48.1371, "lon": 11.5761, "intensity": 0.8, "source": "RBB"}, {"title": "Fu\u00dfball-Regionalliga Nordost: Der BFC und die Frage, wie die Saison noch zu retten ist", "url": "https://www.rbb24.de/sport/beitrag/2024/05/regionalliga-nordost-bfc-dynamo-energie-cottbus-dadashov.html", "thumbnailUrl": null, "date": "Thu, 02 May 2024 21:31:23 +0200", "lat": 52.5145, "lon": 13.4424, "intensity": 0.7, "source": "RBB"}, {"title": "Video: Fischsterben an der Wasserkraftanlage in M\u00e4rkisch Buchholz", "url": "https://www.rbb24.de/politik/beitrag/av7/video-fisch-sterben-maerkisch-buchholz-treppen-wehr.html", "thumbnailUrl": null, "date": "Thu, 02 May 2024 20:59:10 +0200", "lat": 52.2167, "lon": 13.7333, "intensity": 0.7, "source": "RBB"}, {"title": "Video | Projekttag gegen Mobbing: \"Pink Shirt Day\" an Schule in Barnim", "url": "https://www.rbb24.de/politik/beitrag/av7/video-projekt-tage-gegen-mobbing-schuele-kinder-schule.html", "thumbnailUrl": null, "date": "Thu, 02 May 2024 20:45:26 +0200", "lat": 52.8036, "lon": 13.7442, "intensity": 0.5, "source": "RBB"}, {"title": "Video | Festnahmen und verletzte Polizisten: Bilanz nach 1. Mai-Demonstrationen", "url": "https://www.rbb24.de/panorama/beitrag/av7/video-bilanz-1-mai-demonstrationen-polizei.html", "thumbnailUrl": null, "date": "Thu, 02 May 2024 20:33:42 +0200", "lat": 52.520008, "lon": 13.404954, "intensity": 0.6, "source": "RBB"}, {"title": "Veranstaltung im Barnim: Brandenburger Polizei r\u00e4umt Vers\u00e4umnisse wegen Blockade von G\u00f6ring-Eckardts Wagen ein", "url": "https://www.rbb24.de/politik/beitrag/2024/05/brandenburg-gruene-goering-eckardt-auto-blockade-faeser-staatsanwaltschaft-ermittlungen.html", "thumbnailUrl": null, "date": "Thu, 02 May 2024 18:37:00 +0200", "lat": 52.8747, "lon": 13.7833, "intensity": 0.6, "source": "RBB"}, {"title": "Jubil\u00e4um der EU-Osterweiterung: \"Br\u00fccken sollen verbinden und nicht trennen\"", "url": "https://www.rbb24.de/politik/beitrag/2024/05/annalena-baerbock-radoslaw-sikorski-treffen-feier-slubice-frankfurt-oder-kontrollen.html", "thumbnailUrl": null, "date": "Thu, 02 May 2024 18:22:00 +0200", "lat": 52.3434, "lon": 14.5527, "intensity": 0.7, "source": "RBB"}, {"title": "Nach Einbruch ins Gr\u00fcne Gew\u00f6lbe will Sachsen Schadenersatz von Juwelendieben", "url": "https://www.rbb24.de/panorama/beitrag/2024/04/einbruch-gruenes-gewoelbe-dresden-sachsen-fordert-schadenersatz.html", "thumbnailUrl": null, "date": "Thu, 02 May 2024 18:10:51 +0200", "lat": 51.0504, "lon": 13.7359, "intensity": 0.8, "source": "RBB"}, {"title": "Fu\u00dfball-Bundesliga: Was die Trainer-Ger\u00fcchte bei Union \u00fcber den Zustand des Vereins aussagen", "url": "https://www.rbb24.de/sport/beitrag/2024/05/union-berlin-nenad-bjelica-trennung-union-berlin-gruende.html", "thumbnailUrl": null, "date": "Thu, 02 May 2024 17:53:38 +0200", "lat": 52.453, "lon": 13.455, "intensity": 0.7, "source": "RBB"},