[{"title": "Ein Schwerverletzter bei Frontalzusammmensto\u00df in Gernsbach", "url": "https://www.tagesschau.de/inland/regional/badenwuerttemberg/swr-ein-schwerverletzter-bei-frontalzusammmenstoss-in-gernsbach-100.html", "thumbnailUrl": "https://images.tagesschau.de/image/7be4b31e-4c0d-4a1e-81e5-9939a5cd5470/AAABj45y1io/AAABjwnlKNc/16x9-512.jpg", "date": "2024-05-19T03:20:33.000+02:00", "lat": 48.7581, "lon": 8.3457, "intensity": 0.8, "source": "Tagesschau"}, {"title": "Erneut Tote bei \u00dcberschwemmungen in Afghanistan", "url": "https://www.tagesschau.de/ausland/asien/afghanistan-ueberschwemmungen-104.html", "thumbnailUrl": "https://images.tagesschau.de/image/968079be-d16b-44bd-a3c7-c52a78de1053/AAABj4sJDKc/AAABjwnlKNc/16x9-512.jpg", "date": "2024-05-19T03:18:20.114+02:00", "lat": 33.9391, "lon": 66.2385, "intensity": 0.9, "source": "Tagesschau"}, {"title": "++ Hochwasser in vielen Regionen ++ Wasser l\u00e4uft in Altstadt von Zell ++ Dreyer w\u00fcrdigt Zusammenhalt", "url": "https://www.tagesschau.de/inland/regional/rheinlandpfalz/swr-rlp-unwetter-ticker-experten-warnen-vor-ueberflutungen-100.html", "thumbnailUrl": "https://images.tagesschau.de/image/c2f09e9e-fb87-45e4-abde-dc7785d57a69/AAABj42cqxg/AAABjwnlKNc/16x9-512.jpg", "date": "2024-05-19T02:36:00.000+02:00", "lat": 49.6023, "lon": 7.4077, "intensity": 0.8, "source": "Tagesschau"}, {"title": "Hochwasser und \u00dcberflutungen mit schweren Sch\u00e4den in RLP - Keine Verletzten", "url": "https://www.tagesschau.de/inland/regional/rheinlandpfalz/swr-gefahr-von-unwettern-mit-starkregen-in-rheinland-pfalz-100.html", "thumbnailUrl": "https://images.tagesschau.de/image/48613917-18a4-44e4-be17-40ca7f1d76f6/AAABj40Epuw/AAABjwnlKNc/16x9-512.jpg", "date": "2024-05-19T00:00:00.000+02:00", "lat": 49.7933, "lon": 7.4474, "intensity": 0.8, "source": "Tagesschau"}, {"title": "Heute Internationaler Museumstag - Museen laden zum Mitmachen ein", "url": "https://www.tagesschau.de/inland/regional/niedersachsen/ndr-museen-laden-am-internationalen-museumstag-zum-mitmachen-ein-100.html", "thumbnailUrl": "https://images.tagesschau.de/image/4c30f09a-2db6-45f4-8402-3fcf16b5ceac/AAABj424XkQ/AAABjwnlKNc/16x9-512.jpg", "date": "2024-05-19T00:00:00.000+02:00", "lat": 52.3759, "lon": 9.732, "intensity": 0.6, "source": "Tagesschau"}, {"title": "Anlaufstellen f\u00fcr Hilfesuchende und freiwillige Helfer", "url": "https://www.tagesschau.de/inland/regional/saarland/sr-anlaufstellen-fuer-hilfesuchende-und-freiwillige-helfer-100.html", "thumbnailUrl": "https://images.tagesschau.de/image/af2de76e-558b-4134-bfda-c0f2699942a0/AAABj420faU/AAABjwnlKNc/16x9-512.jpg", "date": "2024-05-18T23:22:00.000+02:00", "lat": 49.3964, "lon": 6.9533, "intensity": 0.8, "source": "Tagesschau"}, {"title": "++ Polen will \u00f6stliche Grenze st\u00e4rker sichern  ++", "url": "https://www.tagesschau.de/newsticker/liveblog-ukraine-samstag-388.html", "thumbnailUrl": "https://images.tagesschau.de/image/5de55561-d001-4fa6-a8dc-0bb80898e755/AAABj4vDONg/AAABjwnlKNc/16x9-512.jpg", "date": "2024-05-18T23:04:00.733+02:00", "lat": 50.4501, "lon": 30.5234, "intensity": 0.7, "source": "Tagesschau"}, {"title": "++ Leiche weiterer Geisel geborgen ++", "url": "https://www.tagesschau.de/newsticker/liveblog-nahost-samstag-136.html", "thumbnailUrl": "https://images.tagesschau.de/image/46e09edd-da6f-491c-bf22-46fdbe3dfa28/AAABj4z0ENw/AAABjwnlKNc/16x9-512.jpg", "date": "2024-05-18T23:02:24.798+02:00", "lat": 31.7683, "lon": 35.2137, "intensity": 0.8, "source": "Tagesschau"}, {"title": "Pfingstwochenende: Das Wetter im Norden zeigt sich wechselhaft", "url": "https://www.tagesschau.de/inland/regional/niedersachsen/ndr-wetter-am-pfingstwochenende-im-norden-wird-es-wechselhaft-100.html", "thumbnailUrl": "https://images.tagesschau.de/image/b6136ecf-00f0-4245-abae-f0c0a4f5c909/AAABj4xpOFo/AAABjwnlKNc/16x9-512.jpg", "date": "2024-05-18T22:59:00.000+02:00", "lat": 52.3759, "lon": 9.8608, "intensity": 0.6, "source": "Tagesschau"}, {"title": "Fliegerbomben in Lebacher Kaserne werden Pfingstsonntag entsch\u00e4rft", "url": "https://www.tagesschau.de/inland/regional/saarland/sr-fliegerbomben-in-lebacher-kaserne-werden-pfingstsonntag-entschaerft-100.html", "thumbnailUrl": "https://images.tagesschau.de/image/393ad7a1-1aa8-4ccc-9cbc-4915ba856bba/AAABj41u0GQ/AAABjwnlKNc/16x9-512.jpg", "date": "2024-05-18T22:35:00.000+02:00", "lat": 49.4167, "lon": 6.9086, "intensity": 0.8, "source": "Tagesschau"}, {"title": "Gantz stellt Netanyahu Ultimatum bis zum 8. Juni", "url": "https://www.tagesschau.de/ausland/asien/israel-gantz-104.html", "thumbnailUrl": "https://images.tagesschau.de/image/3afd6424-534a-48e0-b3b9-c387e2994a1e/AAABjb_SYWI/AAABjwnlKNc/16x9-512.jpg", "date": "2024-05-18T22:13:56.039+02:00", "lat": 31.7683, "lon": 35.2137, "intensity": 0.7, "source": "Tagesschau"}, {"title": "German Football League: Knapper Sieg f\u00fcr die Berlin Rebels, Adler unterliegen Aufsteiger", "url": "https://www.tagesschau.de/inland/regional/berlin/rbb-german-football-league-knapper-sieg-fuer-die-berlin-rebels-adler-unterliegen-aufsteiger-102.html", "thumbnailUrl": "https://images.tagesschau.de/image/30bbc18e-b704-420b-a963-ac80090a3989/AAABj41XEyI/AAABjwnlKNc/16x9-512.jpg", "date": "2024-05-18T22:11:27.000+02:00", "lat": 52.52, "lon": 13.405, "intensity": 0.6, "source": "Tagesschau"}, {"title": "Tausende Teilnehmer bei pro-pal\u00e4stinensischer Demo", "url": "https://www.tagesschau.de/inland/regional/berlin/rbb-hunderte-teilnehmer-bei-start-von-pro-palaestinensischer-demo-in-berlin-kreuzberg-100.html", "thumbnailUrl": "https://images.tagesschau.de/image/6dd41ae3-8348-4b24-a089-1e08370d117f/AAABj4xpGoo/AAABjwnlKNc/16x9-512.jpg", "date": "2024-05-18T22:05:22.123+02:00", "lat": 52.520008, "lon": 13.404954, "intensity": 0.8, "source": "Tagesschau"}, {"title": "Spendenkonten f\u00fcr Hochwasser-Betroffene im Saarland eingerichtet", "url": "https://www.tagesschau.de/inland/regional/saarland/sr-spendenkonten-fuer-hochwasser-betroffene-im-saarland-eingerichtet-100.html", "thumbnailUrl": "https://images.tagesschau.de/image/8dcfecf5-a080-4925-8ca9-189b8b4634e3/AAABj420fpQ/AAABjwnlKNc/16x9-512.jpg", "date": "2024-05-18T21:45:00.000+02:00", "lat": 49.3964, "lon": 6.9538, "intensity": 0.8, "source": "Tagesschau"}, {"title": "Dauerregen in BW: Stellwerk in Baden-Baden \u00fcberflutet, Mauer in Mannheim eingest\u00fcrzt", "url": "https://www.tagesschau.de/inland/regional/badenwuerttemberg/swr-neue-unwetter-am-mittwoch-drohen-wieder-ueberschwemmungen-in-bw-100.html", "thumbnailUrl": "https://images.tagesschau.de/image/05074d92-54d1-404e-b06b-6fb13126ba19/AAABj41_buY/AAABjwnlKNc/16x9-512.jpg", "date": "2024-05-18T21:39:00.000+02:00", "lat": 48.8566, "lon": 9.0146, "intensity": 0.8, "source": "Tagesschau"}, {"title": "Polizei bringt Demonstranten aus Stuttgarter Flughafen", "url": "https://www.tagesschau.de/inland/regional/badenwuerttemberg/swr-polizei-bringt-demonstranten-aus-stuttgarter-flughafen-100.html", "thumbnailUrl": "https://images.tagesschau.de/image/4316d3d3-d962-4a27-a073-2888c9ffa051/AAABj40wkoc/AAABjwnlKNc/16x9-512.jpg", "date": "2024-05-18T21:28:15.000+02:00", "lat": 48.6896, "lon": 9.2064, "intensity": 0.7, "source": "Tagesschau"}, {"title": "Offene Zukunft von Trainer Dino Toppm\u00f6ller bei Eintracht Frankfurt", "url": "https://www.tagesschau.de/inland/regional/hessen/hr-offene-zukunft-von-trainer-dino-toppmoeller-bei-eintracht-frankfurt-102.html", "thumbnailUrl": "https://images.tagesschau.de/image/a4e4366c-f31f-431c-8042-db1966954a9e/AAABj402INQ/AAABjwnlKNc/16x9-512.jpg", "date": "2024-05-18T21:26:07.762+02:00", "lat": 50.1109, "lon": 8.6773, "intensity": 0.5, "source": "Tagesschau"}, {"title": "Elf Jahre nach letzter Teilnahme: F\u00fcchse Berlin qualifizieren sich wieder f\u00fcr Champions League", "url": "https://www.tagesschau.de/inland/regional/berlin/rbb-elf-jahre-nach-letzter-teilnahme-fuechse-berlin-qualifizieren-sich-wieder-fuer-champions-league-102.html", "thumbnailUrl": "https://images.tagesschau.de/image/d8382621-e65f-4a94-88f3-200e3f73e41d/AAABj40wxvo/AAABjwnlKNc/16x9-512.jpg", "date": "2024-05-18T21:26:02.000+02:00", "lat": 52.5192, "lon": 13.4073, "intensity": 0.7, "source": "Tagesschau"}, {"title": "Brand in Potsdam: Starke Rauchentwicklung durch Feuer auf DWD-Gel\u00e4nde", "url": "https://www.tagesschau.de/inland/regional/brandenburg/rbb-brand-in-potsdam-starke-rauchentwicklung-durch-feuer-auf-dwd-gelaende-100.html", "thumbnailUrl": "https://images.tagesschau.de/image/0d11c355-fe37-4620-809a-d1350dc88d7a/AAABj40wuAs/AAABjwnlKNc/16x9-512.jpg", "date": "2024-05-18T21:16:15.000+02:00", "lat": 52.3906, "lon": 13.0645, "intensity": 0.8, "source": "Tagesschau"}, {"title": "Schw\u00e4chelnder Jetstream: Darum gibt es gerade so oft Starkregen", "url": "https://www.tagesschau.de/inland/regional/nordrheinwestfalen/wdr-wetterumschwung-in-sicht-wieder-starkregen-und-gewitter-moeglich-100.html", "thumbnailUrl": "https://images.tagesschau.de/image/74b65af9-c758-49c1-97a5-c5cc8203c919/AAABj41C3xs/AAABjwnlKNc/16x9-512.jpg", "date": "2024-05-18T21:15:00.000+02:00", "lat": 51.4332, "lon": 7.6261, "intensity": 0.7, "source": "Tagesschau"}, {"title": "Fu\u00dfball-Bundesliga: Union Berlin rettet seine katastrophale Saison", "url": "https://www.tagesschau.de/inland/regional/berlin/rbb-fussball-bundesliga-union-berlin-rettet-seine-katastrophale-saison-102.html", "thumbnailUrl": "https://images.tagesschau.de/image/0e0033e4-9202-448c-aab6-8bac06e2388f/AAABj40MAr0/AAABjwnlKNc/16x9-512.jpg", "date": "2024-05-18T20:57:22.000+02:00", "lat": 52.52437, "lon": 13.41053, "intensity": 0.8, "source": "Tagesschau"}, {"title": "1. FC Union nach dem Klassenerhalt: \"Ich habe noch nie solche Gef\u00fchle gesp\u00fcrt\" ", "url": "https://www.tagesschau.de/inland/regional/berlin/rbb-1-fc-union-nach-dem-klassenerhalt-ich-habe-noch-nie-solche-gefuehle-gespuert-102.html", "thumbnailUrl": "https://images.tagesschau.de/image/06d69720-e155-487f-9d33-926ec41d2187/AAABj4z_OL8/AAABjwnlKNc/16x9-512.jpg", "date": "2024-05-18T20:35:04.000+02:00", "lat": 52.52, "lon": 13.4515, "intensity": 0.8, "source": "Tagesschau"}, {"title": "Mehrere Touristen in Afghanistan get\u00f6tet", "url": "https://www.tagesschau.de/ausland/asien/afghanistan-tote-100.html", "thumbnailUrl": "https://images.tagesschau.de/image/91b33303-6843-4bf1-a9bf-102d87f88ba5/AAABj4zV-x8/AAABjwnlKNc/16x9-512.jpg", "date": "2024-05-18T20:23:38.983+02:00", "lat": 33.9391, "lon": 66.2385, "intensity": 0.9, "source": "Tagesschau"}, {"title": "Russland beschlagnahmt Verm\u00f6gen deutscher Gro\u00dfbanken", "url": "https://www.tagesschau.de/wirtschaft/russland-beschlagnahmung-banken-vermoegen-100.html", "thumbnailUrl": "https://images.tagesschau.de/image/76e3b77f-1e65-447b-90c7-1f2523888dfc/AAABj4zk23c/AAABjwnlKNc/16x9-512.jpg", "date": "2024-05-18T20:09:20.014+02:00", "lat": 55.7558, "lon": 37.6176, "intensity": 0.8, "source": "Tagesschau"}, {"title": "CSD in Hannover findet mit neuem Sicherheitskonzept statt", "url": "https://www.tagesschau.de/inland/regional/niedersachsen/ndr-csd-in-hannover-beginnt-mit-neuem-sicherheitskonzept-100.html", "thumbnailUrl": "https://images.tagesschau.de/image/6f7079ab-1281-4311-85c1-4617f9e5015d/AAABj4zs51I/AAABjwnlKNc/16x9-512.jpg", "date": "2024-05-18T20:07:00.000+02:00", "lat": 52.37589, "lon": 9.73322, "intensity": 0.8, "source": "Tagesschau"}, {"title": "Hoch zu Steckenpferd: Andrang beim ersten Hobby Horsing Turnier in Hattingen", "url": "https://www.tagesschau.de/inland/regional/nordrheinwestfalen/wdr-hoch-zu-steckenpferd-andrang-beim-ersten-hobby-horsing-turnier-in-hattingen-100.html", "thumbnailUrl": "https://images.tagesschau.de/image/18717b14-9033-483a-8323-5190e66f6e28/AAABj4zRWrU/AAABjwnlKNc/16x9-512.jpg", "date": "2024-05-18T19:42:00.000+02:00", "lat": 51.3904, "lon": 7.1847, "intensity": 0.6, "source": "Tagesschau"}, {"title": "Eintracht Frankfurt: \"Am Ende ist es verdient, dass wir diesen Platz haben\"", "url": "https://www.tagesschau.de/inland/regional/hessen/hr-eintracht-frankfurt-am-ende-ist-es-verdient-dass-wir-diesen-platz-haben-102.html", "thumbnailUrl": "https://images.tagesschau.de/image/610504a2-9ada-43da-9cd5-31db33a87693/AAABj4zC00M/AAABjwnlKNc/16x9-512.jpg", "date": "2024-05-18T19:30:45.732+02:00", "lat": 50.1109, "lon": 8.6819, "intensity": 0.7, "source": "Tagesschau"}, {"title": "Verst\u00f6rende Videos eines FDP-Politikers: Tatverd\u00e4chtiger nach Erpressungsvorw\u00fcrfen ermittelt", "url": "https://www.tagesschau.de/inland/regional/badenwuerttemberg/swr-verstoerende-videos-fdp-politiker-aus-aalen-erstattet-anzeige-100.html", "thumbnailUrl": "https://images.tagesschau.de/image/db76ca4a-114d-47b3-89a2-efa534fb3e99/AAABj4YqgGo/AAABjwnlKNc/16x9-512.jpg", "date": "2024-05-18T19:17:00.000+02:00", "lat": 48.8376, "lon": 10.0982, "intensity": 0.8, "source": "Tagesschau"}, {"title": "Rechtsextremes \"Volksfest\" und Gegendemo in Wertheim", "url": "https://www.tagesschau.de/inland/regional/badenwuerttemberg/swr-wertheim-demo-gegen-rechtsextremismus-hat-begonnen-100.html", "thumbnailUrl": "https://images.tagesschau.de/image/c00c8944-0deb-49d6-8d69-a071b6700fd8/AAABj4xnPDE/AAABjwnlKNc/16x9-512.jpg", "date": "2024-05-18T19:12:00.000+02:00", "lat": 49.7586, "lon": 9.5187, "intensity": 0.7, "source": "Tagesschau"}, {"title": "So reagieren SC Freiburg-Fans auf die Niederlage beim letzten Saisonspiel", "url": "https://www.tagesschau.de/inland/regional/badenwuerttemberg/swr-fans-verfolgen-in-freiburger-kneipe-das-letzte-sc-saisonspiel-100.html", "thumbnailUrl": "https://images.tagesschau.de/image/4c6e29f9-6165-4a5b-bf6f-3aee43f4ab8c/AAABj4xJ4Lo/AAABjwnlKNc/16x9-512.jpg", "date": "2024-05-18T19:03:00.000+02:00", "lat": 47.9959, "lon": 7.8421, "intensity": 0.7, "source": "Tagesschau"}, {"title": "Kultur: +++ Isaak zahlte Musiker-Bu\u00dfgeld in Darmstadt +++ 15-j\u00e4hriger Jakob gewinnt \"The Voice Kids\" +++ Spliff-Musiker Reinhold Heil wird 70 +++", "url": "https://www.tagesschau.de/inland/regional/hessen/hr--schauspiel-frankfurt-bringt-putin-und-macbeth-zusammen--die-filmfestival-saison-2023-startet--lichter-filmfest-zum-thema-liebe-startet-am-dienstag-100.html", "thumbnailUrl": "https://images.tagesschau.de/image/0c194d52-bd9f-40d9-9631-57cd2b771532/AAABj4yh-q8/AAABjwnlKNc/16x9-512.jpg", "date": "2024-05-18T18:55:24.908+02:00", "lat": 50.1109, "lon": 8.5683, "intensity": 0.4, "source": "Tagesschau"}, {"title": "Darmstadt 98: +++ Lieberknecht sp\u00fcrt \"gro\u00dfe Motivation\" +++ Lilien auch in Dortmund chancenlos +++ Schuhen kehrt ins Tor zur\u00fcck +++", "url": "https://www.tagesschau.de/inland/regional/hessen/hr--tietz-vermisst-fehlende-gier--lilien-fans-liefern-sich-raststaetten-pruegelei--die-niederlage-der-lilien-in-der-video-zusammenfassung-102.html", "thumbnailUrl": "https://images.tagesschau.de/image/f6ef0d3a-5289-448e-84b3-3233b45c67dc/AAABj4yiQec/AAABjwnlKNc/16x9-512.jpg", "date": "2024-05-18T18:54:12.318+02:00", "lat": 49.8728, "lon": 8.6543, "intensity": 0.7, "source": "Tagesschau"}, {"title": "Tarifeinigung im Einzelhandel in RLP widerrufen - Streiks drohen", "url": "https://www.tagesschau.de/inland/regional/rheinlandpfalz/swr-einigung-im-tarifstreit-des-einzelhandels-in-rlp-102.html", "thumbnailUrl": "https://images.tagesschau.de/image/616d040b-1396-4fde-9e62-5f4428a49902/AAABj4csxZk/AAABjwnlKNc/16x9-512.jpg", "date": "2024-05-18T18:43:00.000+02:00", "lat": 50.2034, "lon": 7.2666, "intensity": 0.8, "source": "Tagesschau"}, {"title": "Ein Land in der Geiselhaft eines Oligarchen", "url": "https://www.tagesschau.de/ausland/europa/georgien-regierungspartei-bidsina-iwanischwili-100.html", "thumbnailUrl": "https://images.tagesschau.de/image/7dd62969-2b2e-41f4-a832-2e7a3f92d394/AAABj4Fy1eo/AAABjwnlKNc/16x9-512.jpg", "date": "2024-05-18T18:39:42.569+02:00", "lat": 41.7178, "lon": 44.793, "intensity": 0.8, "source": "Tagesschau"}, {"title": "Georgiens Pr\u00e4sidentin legt Veto ein ", "url": "https://www.tagesschau.de/ausland/europa/georgien-mediengesetz-veto-100.html", "thumbnailUrl": "https://images.tagesschau.de/image/4dedee35-c24d-460d-82e6-66c6cd7bad54/AAABj4ySOyM/AAABjwnlKNc/16x9-512.jpg", "date": "2024-05-18T18:39:05.052+02:00", "lat": 44.8271, "lon": 41.7151, "intensity": 0.8, "source": "Tagesschau"}, {"title": "Kirche in Pirna wehrt sich gegen NS-Vergleich von AfD-nahem B\u00fcrgermeister", "url": "https://www.tagesschau.de/inland/regional/sachsen/mdr-kirche-in-pirna-wehrt-sich-gegen-ns-vergleich-von-afd-nahem-buergermeister-100.html", "thumbnailUrl": "https://images.tagesschau.de/image/ee3ea78f-a622-4afe-80d9-6f913d3c79c1/AAABj43iSaY/AAABjwnlKNc/16x9-512.jpg", "date": "2024-05-18T18:31:07.000+02:00", "lat": 50.9616, "lon": 13.9394, "intensity": 0.8, "source": "Tagesschau"}, {"title": "Pegelst\u00e4nde sinken - Ausma\u00df der Sch\u00e4den noch unklar", "url": "https://www.tagesschau.de/inland/hochwasser-saarland-104.html", "thumbnailUrl": "https://images.tagesschau.de/image/ed6265fb-51ba-4939-af28-071497328417/AAABj4yKSvk/AAABjwnlKNc/16x9-512.jpg", "date": "2024-05-18T18:30:24.808+02:00", "lat": 49.3964, "lon": 6.9684, "intensity": 0.7, "source": "Tagesschau"}, {"title": "Unfall in Seelze: Kind von Auto erfasst und t\u00f6dlich verletzt", "url": "https://www.tagesschau.de/inland/regional/niedersachsen/ndr-unfall-in-seelze-kind-von-auto-erfasst-und-toedlich-verletzt-100.html", "thumbnailUrl": "https://images.tagesschau.de/image/66bd5140-3031-420d-a221-8c8e2d366da1/AAABj4yL3jQ/AAABjwnlKNc/16x9-512.jpg", "date": "2024-05-18T18:29:00.000+02:00", "lat": 52.3847, "lon": 9.5969, "intensity": 0.8, "source": "Tagesschau"}, {"title": "Philip Holzer h\u00f6rt als Aufsichtsratschef von Eintracht Frankfurt auf", "url": "https://www.tagesschau.de/inland/regional/hessen/hr-philip-holzer-hoert-als-aufsichtsratschef-von-eintracht-frankfurt-auf-100.html", "thumbnailUrl": "https://images.tagesschau.de/image/6a2caaca-600b-4bd9-9d6b-a55cd663da7d/AAABj4yLzKY/AAABjwnlKNc/16x9-512.jpg", "date": "2024-05-18T18:28:10.548+02:00", "lat": 50.1109, "lon": 8.6821, "intensity": 0.4, "source": "Tagesschau"}, {"title": "1. FC Union bejubelt nach spektakul\u00e4rer Schlussphase den Klassenerhalt", "url": "https://www.tagesschau.de/inland/regional/berlin/rbb-jetzt-live-hoeren-und-im-ticker-1-fc-union-kaempft-gegen-den-sc-freiburg-um-den-ligaverbleib-102.html", "thumbnailUrl": "https://images.tagesschau.de/image/a5c11d5d-dd01-4975-ab3d-846c51cf810e/AAABj40MC5g/AAABjwnlKNc/16x9-512.jpg", "date": "2024-05-18T18:22:02.000+02:00", "lat": 52.5109, "lon": 13.455, "intensity": 0.8, "source": "Tagesschau"}, {"title": "Eine Verhaftung, eine Drohung und ein Besuch", "url": "https://www.tagesschau.de/europawahl/wahl/griechenland-wahlliste-albanien-100.html", "thumbnailUrl": "https://images.tagesschau.de/image/b5d7890f-d0d0-4cfc-ac4a-7631025d8cde/AAABj4yBACE/AAABjwnlKNc/16x9-512.jpg", "date": "2024-05-18T18:20:15.823+02:00", "lat": 37.9838, "lon": 23.7275, "intensity": 0.8, "source": "Tagesschau"}, {"title": "Verletzte bei russischen Angriffen in Charkiw", "url": "https://www.tagesschau.de/ausland/europa/ukraine-russland-beschuss-charkiw-wowtschansk-100.html", "thumbnailUrl": "https://images.tagesschau.de/image/f6e5f171-9188-4ad2-bf74-500283393c2e/AAABj4x3N2Q/AAABjwnlKNc/16x9-512.jpg", "date": "2024-05-18T18:09:34.934+02:00", "lat": 49.9935, "lon": 36.24001, "intensity": 0.8, "source": "Tagesschau"}, {"title": "Wetterlage und Temperaturen", "url": "https://www.tagesschau.de/wetter/europa-welt", "thumbnailUrl": "https://images.tagesschau.de/image/6e7d3b16-79c8-4308-822b-20c3035236b5/AAABj4xojkU/AAABjwnlKNc/16x9-512.jpg", "date": "2024-05-18T17:53:33.708+02:00", "lat": 51.1657, "lon": 10.4515, "intensity": 0.3, "source": "Tagesschau"}, {"title": "Hochwasser und \u00dcberschwemmung am Samstag: Lage um Zweibr\u00fccken entspannt sich", "url": "https://www.tagesschau.de/inland/regional/rheinlandpfalz/swr-ueberschwemmte-strassen-in-der-suedwestpfalz-viele-einsaetze-in-zweibruecken-102.html", "thumbnailUrl": "https://images.tagesschau.de/image/71fbfb1b-b5c6-4538-8ef9-d71aeaa05d17/AAABj4y1-44/AAABjwnlKNc/16x9-512.jpg", "date": "2024-05-18T17:44:00.000+02:00", "lat": 49.25, "lon": 7.36611, "intensity": 0.8, "source": "Tagesschau"}, {"title": "K\u00f6ln steigt ab - Bochum in der Relegation", "url": "https://www.tagesschau.de/eilmeldung/bundesliga-2334.html", "thumbnailUrl": "https://images.tagesschau.de/image/fda438e7-9d11-4099-9709-523f82c6a973/AAABj4xeyKY/AAABjwnlKNc/16x9-512.jpg", "date": "2024-05-18T17:42:53.408+02:00", "lat": 50.9375, "lon": 7.0069, "intensity": 0.8, "source": "Tagesschau"}, {"title": "Danish Dynamite: Bo Henriksen l\u00e4sst ganz Mainz den Klassenerhalt bejubeln", "url": "https://www.tagesschau.de/inland/regional/rheinlandpfalz/swr-danish-dynamite-bo-henriksen-laesst-ganz-mainz-den-klassenerhalt-bejubeln-102.html", "thumbnailUrl": "https://images.tagesschau.de/image/b63914d8-e4b0-431c-a634-e6cc87174266/AAABj4xwTfQ/AAABjwnlKNc/16x9-512.jpg", "date": "2024-05-18T17:35:22.000+02:00", "lat": 49.992862, "lon": 8.239772, "intensity": 0.8, "source": "Tagesschau"}, {"title": "Eintracht Frankfurt kommt nach 0:2 zur\u00fcck und sichert Platz sechs", "url": "https://www.tagesschau.de/inland/regional/hessen/hr-eintracht-frankfurt-kommt-nach-02-zurueck-und-sichert-platz-sechs-102.html", "thumbnailUrl": "https://images.tagesschau.de/image/1627eff5-8002-405e-a442-7adf1dbbda65/AAABj4xYnv8/AAABjwnlKNc/16x9-512.jpg", "date": "2024-05-18T17:33:14.347+02:00", "lat": 50.1109, "lon": 8.6821, "intensity": 0.8, "source": "Tagesschau"}, {"title": "Hamburg-Harburg: Wieder ein Autobrand im Ph\u00f6nix-Viertel", "url": "https://www.tagesschau.de/inland/regional/hamburg/ndr-hamburg-harburg-wieder-ein-autobrand-im-phoenix-viertel-100.html", "thumbnailUrl": "https://images.tagesschau.de/image/19c7209b-95eb-49b2-a999-c307a76b61ac/AAABj4xWzEo/AAABjwnlKNc/16x9-512.jpg", "date": "2024-05-18T17:29:00.000+02:00", "lat": 53.4921, "lon": 9.9646, "intensity": 0.7, "source": "Tagesschau"}, {"title": "Eine Pleite zum Abschluss: VfL Wolfsburg verliert gegen Mainz 05", "url": "https://www.tagesschau.de/inland/regional/niedersachsen/ndr-eine-pleite-zum-abschluss-102.html", "thumbnailUrl": "https://images.tagesschau.de/image/971d0f26-5556-45c7-9931-08761bf99466/AAABj4zNwZY/AAABjwnlKNc/16x9-512.jpg", "date": "2024-05-18T17:26:00.000+02:00", "lat": 52.4226, "lon": 10.7613, "intensity": 0.6, "source": "Tagesschau"}, {"title": "Darmstadt 98 nur Beiwerk bei Abschied von Marco Reus", "url": "https://www.tagesschau.de/inland/regional/hessen/hr-darmstadt-98-nur-beiwerk-bei-abschied-von-marco-reus-100.html", "thumbnailUrl": "https://images.tagesschau.de/image/f7f628d6-81f5-4730-b93f-95254223b529/AAABj4xPfXc/AAABjwnlKNc/16x9-512.jpg", "date": "2024-05-18T17:19:49.502+02:00", "lat": 49.8728, "lon": 8.6547, "intensity": 0.7, "source": "Tagesschau"}, {"title": "Polizei am Helios-Klinikum: Halle-Attent\u00e4ter vom Gef\u00e4ngnis ins Krankenhaus gebracht ", "url": "https://www.tagesschau.de/inland/regional/thueringen/mdr-polizei-am-helios-klinikum-halle-attentaeter-vom-gefaengnis-ins-krankenhaus-gebracht-100.html", "thumbnailUrl": "https://images.tagesschau.de/image/a46d5f78-d434-46f4-a2eb-6d378494b366/AAABj43p6KY/AAABjwnlKNc/16x9-512.jpg", "date": "2024-05-18T17:15:00.000+02:00", "lat": 50.9848, "lon": 11.0423, "intensity": 0.8, "source": "Tagesschau"}, {"title": "Regionalliga S\u00fcdwest: FSV Frankfurt und Steinbach gewinnen hessische Duelle", "url": "https://www.tagesschau.de/inland/regional/hessen/hr-regionalliga-suedwest-fsv-frankfurt-schlaegt-fulda-deutlich-102.html", "thumbnailUrl": "https://images.tagesschau.de/image/d0f42e88-d9b3-41e7-b962-591aa7000b1b/AAABj4w_EGA/AAABjwnlKNc/16x9-512.jpg", "date": "2024-05-18T17:07:08.996+02:00", "lat": 50.1109, "lon": 8.6821, "intensity": 0.5, "source": "Tagesschau"}, {"title": "Dritte Trainer-Amtszeit endet: Dardai bleibt Hertha BSC in anderer Funktion erhalten", "url": "https://www.tagesschau.de/inland/regional/berlin/rbb-dritte-trainer-amtszeit-endet-dardai-bleibt-hertha-bsc-in-anderer-funktion-erhalten-102.html", "thumbnailUrl": "https://images.tagesschau.de/image/6a947b98-cc2e-4958-8415-8c1609a60709/AAABj4xq7DE/AAABjwnlKNc/16x9-512.jpg", "date": "2024-05-18T16:56:00.000+02:00", "lat": 52.520008, "lon": 13.404954, "intensity": 0.7, "source": "Tagesschau"}, {"title": "Museums Smartphone-Spiel \"St\u00e4del Universe\": Hilferuf aus der Zukunft", "url": "https://www.tagesschau.de/inland/regional/hessen/hr-museums-smartphone-spiel-staedel-universe-hilferuf-aus-der-zukunft-100.html", "thumbnailUrl": "https://images.tagesschau.de/image/41e35a3b-f73d-4de6-8df1-42c160b1e1fd/AAABj4w0A0I/AAABjwnlKNc/16x9-512.jpg", "date": "2024-05-18T16:55:21.607+02:00", "lat": 50.110924, "lon": 8.675277, "intensity": 0.6, "source": "Tagesschau"}, {"title": "\"Sie haben Angst, der Ersatz zu sein\"", "url": "https://www.tagesschau.de/ausland/europa/ukraine-mobilisierungsgesetz-100.html", "thumbnailUrl": "https://images.tagesschau.de/image/8f177997-95ab-451d-9f0f-cea98bca7c28/AAABj4wvuH8/AAABjwnlKNc/16x9-512.jpg", "date": "2024-05-18T16:51:29.822+02:00", "lat": 50.4501, "lon": 30.5234, "intensity": 0.8, "source": "Tagesschau"}, {"title": "FC Homburg feiert Sieg im letzten Saisonspiel", "url": "https://www.tagesschau.de/inland/regional/saarland/sr-fc-homburg-feiert-sieg-im-letzten-saisonspiel-102.html", "thumbnailUrl": "https://images.tagesschau.de/image/ef849660-eb4c-461b-8e0f-e98a9fd86556/AAABj4w7MWQ/AAABjwnlKNc/16x9-512.jpg", "date": "2024-05-18T16:43:00.000+02:00", "lat": 49.3087, "lon": 7.3403, "intensity": 0.7, "source": "Tagesschau"}, {"title": "Pfingsten: Stockender Verkehr auf Autobahnen im Norden", "url": "https://www.tagesschau.de/inland/regional/niedersachsen/ndr-pfingsten-und-schulferien-viel-staus-im-norden-erwartet-100.html", "thumbnailUrl": "https://images.tagesschau.de/image/c112146c-d26e-4f58-b935-d9f90c026265/AAABj4xpPCw/AAABjwnlKNc/16x9-512.jpg", "date": "2024-05-18T16:29:00.000+02:00", "lat": 52.3759, "lon": 9.732, "intensity": 0.8, "source": "Tagesschau"}, {"title": "Regionalliga S\u00fcdwest: FSV Frankfurt trennt sich von Sportdirektor Brendel", "url": "https://www.tagesschau.de/inland/regional/hessen/hr-regionalliga-suedwest-fsv-frankfurt-trennt-sich-von-sportdirektor-brendel-102.html", "thumbnailUrl": "https://images.tagesschau.de/image/f4e6b455-92a7-49d7-b933-9a55ea597d8c/AAABj4waeqU/AAABjwnlKNc/16x9-512.jpg", "date": "2024-05-18T16:22:09.147+02:00", "lat": 50.1109, "lon": 8.6817, "intensity": 0.3, "source": "Tagesschau"}, {"title": "Lohnt sich ein Dienstfahrrad?", "url": "https://www.tagesschau.de/wirtschaft/dienstfahrrad-trend-lohnenswert-arbeitgeber-100.html", "thumbnailUrl": "https://images.tagesschau.de/image/3e087b7d-dfd8-4ea7-a0c7-c0abada63570/AAABj2I0qYE/AAABjwnlKNc/16x9-512.jpg", "date": "2024-05-18T16:22:00.652+02:00", "lat": 53.551085, "lon": 9.993682, "intensity": 0.4, "source": "Tagesschau"}, {"title": "Wassermassen \u00fcberfluten Riveris bei Trier", "url": "https://www.tagesschau.de/inland/regional/rheinlandpfalz/swr-wassermassen-ueberfluten-riveris-bei-trier-102.html", "thumbnailUrl": "https://images.tagesschau.de/image/79357715-b0e3-4189-891d-f2087d51e4b7/AAABj43P4Vc/AAABjwnlKNc/16x9-512.jpg", "date": "2024-05-18T16:13:00.000+02:00", "lat": 49.7695, "lon": 6.8044, "intensity": 0.8, "source": "Tagesschau"}, {"title": "Hamburgs Alsterschl\u00f6sschen soll verkauft werden", "url": "https://www.tagesschau.de/inland/regional/hamburg/ndr-hamburgs-alsterschloesschen-soll-verkauft-werden-100.html", "thumbnailUrl": "https://images.tagesschau.de/image/e5d09627-57f7-49fa-a769-cf8649a20691/AAABj4w9JUg/AAABjwnlKNc/16x9-512.jpg", "date": "2024-05-18T16:07:00.000+02:00", "lat": 53.5511, "lon": 10.077, "intensity": 0.7, "source": "Tagesschau"}, {"title": "Aufstieg r\u00fcckt n\u00e4her: Turbine Potsdam gewinnt letztes Heimspiel der Saison", "url": "https://www.tagesschau.de/inland/regional/brandenburg/rbb-aufstieg-rueckt-naeher-turbine-potsdam-gewinnt-letztes-heimspiel-der-saison-102.html", "thumbnailUrl": "https://images.tagesschau.de/image/f1248ea8-70e5-49d4-8998-35a75f2391cc/AAABj4z_QEc/AAABjwnlKNc/16x9-512.jpg", "date": "2024-05-18T16:04:00.000+02:00", "lat": 52.3989, "lon": 13.0645, "intensity": 0.7, "source": "Tagesschau"}, {"title": "\"Die Meinungsfreiheit des anderen muss man aushalten\"", "url": "https://www.tagesschau.de/inland/regional/niedersachsen/ndr-die-meinungsfreiheit-des-anderen-muss-man-aushalten-100.html", "thumbnailUrl": "https://images.tagesschau.de/image/4708e0da-140f-4317-9d85-2bf7f82e1774/AAABj4wGKOA/AAABjwnlKNc/16x9-512.jpg", "date": "2024-05-18T16:03:00.000+02:00", "lat": 51.1657, "lon": 10.4515, "intensity": 0.4, "source": "Tagesschau"}, {"title": "L\u00f6st sich die neurechte Denkfabrik wirklich auf?", "url": "https://www.tagesschau.de/inland/gesellschaft/kubitschek-verein-unternehmen-100.html", "thumbnailUrl": "https://images.tagesschau.de/image/1ca5e0bd-bdac-4c9c-9801-5dd6b05af03d/AAABj4EIB6w/AAABjwnlKNc/16x9-512.jpg", "date": "2024-05-18T16:02:50.881+02:00", "lat": 51.3199, "lon": 11.8543, "intensity": 0.8, "source": "Tagesschau"}, {"title": "Feuer in Gefl\u00fcchteten-Unterkunft - Bewohner springt aus Fenster", "url": "https://www.tagesschau.de/inland/regional/niedersachsen/ndr-feuer-in-gefluechteten-unterkunft-bewohner-springt-aus-fenster-100.html", "thumbnailUrl": "https://images.tagesschau.de/image/5594f345-3b2d-4214-9c39-29c9ab62ce1e/AAABj4v-090/AAABjwnlKNc/16x9-512.jpg", "date": "2024-05-18T15:55:00.000+02:00", "lat": 51.541, "lon": 9.935, "intensity": 0.8, "source": "Tagesschau"}, {"title": "1. FC Saarbr\u00fccken beendet Saison mit 1:0-Sieg gegen Regensburg", "url": "https://www.tagesschau.de/inland/regional/saarland/sr-fcs-will-auswaerts-gegen-regensburg-punkten-102.html", "thumbnailUrl": "https://images.tagesschau.de/image/a9749a76-d458-49a5-b664-ccc6dc294a79/AAABj40TUxI/AAABjwnlKNc/16x9-512.jpg", "date": "2024-05-18T15:55:00.000+02:00", "lat": 49.2402, "lon": 6.9717, "intensity": 0.5, "source": "Tagesschau"}, {"title": "\u00c4nderung beim Kabelfernsehen: Was muss ich als Mieter jetzt f\u00fcr den TV-Empfang tun?", "url": "https://www.tagesschau.de/inland/regional/hessen/hr-aenderung-beim-kabelfernsehen-was-muss-ich-als-mieter-jetzt-fuer-den-tv-empfang-tun-100.html", "thumbnailUrl": "https://images.tagesschau.de/image/15082cc9-abf7-4651-9623-872d6b8617dd/AAABj4v3kc0/AAABjwnlKNc/16x9-512.jpg", "date": "2024-05-18T15:49:31.257+02:00", "lat": 50.6521, "lon": 9.1625, "intensity": 0.8, "source": "Tagesschau"}, {"title": "M\u00e4dchen st\u00fcrzt durch Rathausdach in Iserlohn", "url": "https://www.tagesschau.de/inland/regional/nordrheinwestfalen/wdr-maedchen-stuerzt-durch-rathausdach-in-iserlohn-100.html", "thumbnailUrl": "https://images.tagesschau.de/image/435664be-2150-4445-a480-2e5b79808190/AAABj40IR10/AAABjwnlKNc/16x9-512.jpg", "date": "2024-05-18T15:48:00.000+02:00", "lat": 51.3762, "lon": 7.6952, "intensity": 0.8, "source": "Tagesschau"}, {"title": "Wassergl\u00e4tte auf A45 bei Wetzlar: Autobahn wieder freigegeben", "url": "https://www.tagesschau.de/inland/regional/hessen/hr-autobahn-gesperrt-wasserglaette-auf-a45-bei-wetzlar-100.html", "thumbnailUrl": "https://images.tagesschau.de/image/b6200764-af1d-4228-8665-06c9a74638c6/AAABj4v1rzQ/AAABjwnlKNc/16x9-512.jpg", "date": "2024-05-18T15:46:06.241+02:00", "lat": 50.5523, "lon": 8.5011, "intensity": 0.7, "source": "Tagesschau"}, {"title": "MV bietet medizinisch-psychologische Hilfe in der Ukraine an", "url": "https://www.tagesschau.de/inland/regional/mecklenburgvorpommern/ndr-mv-bietet-medizinisch-psychologische-hilfe-in-der-ukraine-an-100.html", "thumbnailUrl": "https://images.tagesschau.de/image/bb945408-b947-4ce2-b4d9-226c8b25fc56/AAABj4wyETA/AAABjwnlKNc/16x9-512.jpg", "date": "2024-05-18T15:37:00.000+02:00", "lat": 54.0834, "lon": 12.1345, "intensity": 0.7, "source": "Tagesschau"}, {"title": "Fu\u00dfball-Zweitligist: Hertha-Ultras \u00fcben heftige Kritik an 777 Partners und beklagen Egoismus im Klub", "url": "https://www.tagesschau.de/inland/regional/berlin/rbb-fussball-zweitligist-hertha-ultras-ueben-heftige-kritik-an-777-partners-und-beklagen-egoismus-im-klub-102.html", "thumbnailUrl": "https://images.tagesschau.de/image/f5f8a040-1a8d-47b4-b64f-4c50b9539513/AAABj4vhg5o/AAABjwnlKNc/16x9-512.jpg", "date": "2024-05-18T15:29:30.000+02:00", "lat": 52.52, "lon": 13.4073, "intensity": 0.8, "source": "Tagesschau"}, {"title": "Flugbeschr\u00e4nkungsgebiet: Drohne flog mit russischer\u00a0Fahne\u00a0neben Reichstagsgeb\u00e4ude\u00a0", "url": "https://www.tagesschau.de/inland/regional/berlin/rbb-flugbeschraenkungsgebiet-drohne-flog-mit-russischer-fahne-neben-reichstagsgebaeude-100.html", "thumbnailUrl": "https://images.tagesschau.de/image/89efd886-9181-4cf5-a759-5be7e46e18d0/AAABj4vjYw8/AAABjwnlKNc/16x9-512.jpg", "date": "2024-05-18T15:24:46.000+02:00", "lat": 52.51861, "lon": 13.37594, "intensity": 0.6, "source": "Tagesschau"}, {"title": "Gesundheitszustand Ficos hat sich stabilisiert", "url": "https://www.tagesschau.de/ausland/fico-slowakei-zustand-100.html", "thumbnailUrl": "https://images.tagesschau.de/image/b41edac1-1152-45b4-af94-f290512e055c/AAABj4v5_LU/AAABjwnlKNc/16x9-512.jpg", "date": "2024-05-18T15:19:42.066+02:00", "lat": 48.1486, "lon": 19.5033, "intensity": 0.6, "source": "Tagesschau"}, {"title": "Hochwasserlage im Bliesgau auch am Samstagabend noch angespannt", "url": "https://www.tagesschau.de/inland/regional/saarland/sr-strassen-in-kleinblittersdorf-ueberflutet-102.html", "thumbnailUrl": "https://images.tagesschau.de/image/33cff071-c771-4092-8c80-f53578d127aa/AAABj4257ZU/AAABjwnlKNc/16x9-512.jpg", "date": "2024-05-18T15:15:00.000+02:00", "lat": 49.3964, "lon": 7.0, "intensity": 0.6, "source": "Tagesschau"}, {"title": "Mit Gaskartusche gespielt: Zehnj\u00e4hriger schwer verletzt", "url": "https://www.tagesschau.de/inland/regional/niedersachsen/ndr-mit-gaskartusche-gespielt-zehnjaehriger-schwer-verletzt-100.html", "thumbnailUrl": "https://images.tagesschau.de/image/16a84410-b5e7-461e-b024-f606bc484052/AAABj4vYlUU/AAABjwnlKNc/16x9-512.jpg", "date": "2024-05-18T15:13:00.000+02:00", "lat": 53.8789, "lon": 11.4043, "intensity": 0.8, "source": "Tagesschau"}, {"title": "Am Ende gewinnt Saudi-Arabien", "url": "https://www.tagesschau.de/ausland/asien/saudi-arabien-sportswashing-100.html", "thumbnailUrl": "https://images.tagesschau.de/image/c7d9e026-f044-4e4c-8271-53c5ef47ca60/AAABj4vLQMM/AAABjwnlKNc/16x9-512.jpg", "date": "2024-05-18T15:01:44.831+02:00", "lat": 46.7152, "lon": 24.6647, "intensity": 0.8, "source": "Tagesschau"}, {"title": "Isabell Werth gewinnt ersten Grand Prix in Wiesbaden", "url": "https://www.tagesschau.de/inland/regional/hessen/hr-isabell-werth-gewinnt-ersten-grand-prix-in-wiesbaden-102.html", "thumbnailUrl": "https://images.tagesschau.de/image/c30fe190-28fe-4a9e-b403-98fe4fbf6aa2/AAABj4u7JT4/AAABjwnlKNc/16x9-512.jpg", "date": "2024-05-18T14:38:06.099+02:00", "lat": 50.078218, "lon": 8.239759, "intensity": 0.7, "source": "Tagesschau"}, {"title": "Rechte Veranstaltung und Demo gegen Rechtsextremismus in Wertheim", "url": "https://www.tagesschau.de/inland/regional/badenwuerttemberg/swr-polizei-mit-grossaufgebot-in-wertheim-100.html", "thumbnailUrl": "https://images.tagesschau.de/image/548c9754-48b4-4409-b6eb-57e434a8a712/AAABj4w--ic/AAABjwnlKNc/16x9-512.jpg", "date": "2024-05-18T14:35:00.000+02:00", "lat": 49.7586, "lon": 9.5167, "intensity": 0.8, "source": "Tagesschau"}, {"title": "Dornum: Autofahrer nach Unfall mit Traktor schwer verletzt", "url": "https://www.tagesschau.de/inland/regional/niedersachsen/ndr-dornum-autofahrer-nach-unfall-mit-traktor-schwer-verletzt-100.html", "thumbnailUrl": "https://images.tagesschau.de/image/aaa5e786-174e-4430-bae5-c8c4a7a2bb5b/AAABj4u7NHc/AAABjwnlKNc/16x9-512.jpg", "date": "2024-05-18T14:30:00.000+02:00", "lat": 53.6435, "lon": 7.3555, "intensity": 0.8, "source": "Tagesschau"}, {"title": "Aufarbeitung von Missbrauch: Pfarrer kritisiert Bistum Hildesheim", "url": "https://www.tagesschau.de/inland/regional/niedersachsen/ndr-aufarbeitung-von-missbrauch-pfarrer-kritisiert-bistum-hildesheim-100.html", "thumbnailUrl": "https://images.tagesschau.de/image/697285ec-0ae1-4312-913e-bfdb63139d3a/AAABj4vYbGA/AAABjwnlKNc/16x9-512.jpg", "date": "2024-05-18T14:25:00.000+02:00", "lat": 52.161603, "lon": 10.536019, "intensity": 0.7, "source": "Tagesschau"}, {"title": "TuS Krempe wird 150: Ein Sportverein als Dorfmittelpunkt", "url": "https://www.tagesschau.de/inland/regional/schleswigholstein/ndr-tus-krempe-wird-150-ein-sportverein-als-dorfmittelpunkt-100.html", "thumbnailUrl": "https://images.tagesschau.de/image/49c493bf-6bcb-49db-83b4-5e66f029707e/AAABj4mkcUQ/AAABjwnlKNc/16x9-512.jpg", "date": "2024-05-18T14:21:00.000+02:00", "lat": 53.9043, "lon": 9.4983, "intensity": 0.7, "source": "Tagesschau"}, {"title": "Kommunalwahl BW: Fehlerhafte Briefwahlunterlagen in Karlsruhe verschickt", "url": "https://www.tagesschau.de/inland/regional/badenwuerttemberg/swr-kommunalwahl-bw-fehlerhafte-briefwahlunterlagen-in-karlsruhe-verschickt-100.html", "thumbnailUrl": "https://images.tagesschau.de/image/77c70e5b-7289-4776-af76-467d98a00cca/AAABj4ulEKw/AAABjwnlKNc/16x9-512.jpg", "date": "2024-05-18T14:16:00.000+02:00", "lat": 49.0069, "lon": 8.4037, "intensity": 0.7, "source": "Tagesschau"}, {"title": "Hikel und B\u00f6cker-Giannini sollen Berliner SPD-Vorsitzende werden", "url": "https://www.tagesschau.de/inland/regional/berlin/rbb-hikel-und-boecker-giannini-sollen-berliner-spd-vorsitzende-werden-100.html", "thumbnailUrl": "https://images.tagesschau.de/image/3d8bd9f7-66f4-43ac-9946-23896869109c/AAABj4uWmBs/AAABjwnlKNc/16x9-512.jpg", "date": "2024-05-18T13:59:00.000+02:00", "lat": 52.520008, "lon": 13.404954, "intensity": 0.6, "source": "Tagesschau"}, {"title": "Berlin-Spandau: 28-J\u00e4hriger greift nach Hausverbot Polizisten an", "url": "https://www.tagesschau.de/inland/regional/berlin/rbb-berlin-spandau-28-jaehriger-greift-nach-hausverbot-polizisten-an-100.html", "thumbnailUrl": "https://images.tagesschau.de/image/9705a44f-a9fc-4671-8180-fad9159001dc/AAABj4uGFuc/AAABjwnlKNc/16x9-512.jpg", "date": "2024-05-18T13:44:12.000+02:00", "lat": 52.5357, "lon": 13.2028, "intensity": 0.7, "source": "Tagesschau"}, {"title": "Hochwasserlage in der Region Trier entspannt sich leicht", "url": "https://www.tagesschau.de/inland/regional/rheinlandpfalz/swr-hochwasser-mosel-koennte-am-pegel-trier-die-acht-meter-erreichen-100.html", "thumbnailUrl": "https://images.tagesschau.de/image/8d23ddc4-36bc-48d8-988b-7170bfd0e2e1/AAABj4zpL9M/AAABjwnlKNc/16x9-512.jpg", "date": "2024-05-18T13:29:00.000+02:00", "lat": 49.8127, "lon": 6.7548, "intensity": 0.8, "source": "Tagesschau"}, {"title": "Polizei Berlin: Grundsch\u00fcler verletzt Siebenj\u00e4hrigen mit Spitzer-Klinge", "url": "https://www.tagesschau.de/inland/regional/berlin/rbb-polizei-berlin-grundschueler-verletzt-siebenjaehrigen-mit-spitzer-klinge-100.html", "thumbnailUrl": "https://images.tagesschau.de/image/7a467a2d-7304-48f8-a0ab-dbeeffe60a56/AAABj4uGGTk/AAABjwnlKNc/16x9-512.jpg", "date": "2024-05-18T13:27:22.000+02:00", "lat": 52.520008, "lon": 13.404954, "intensity": 0.6, "source": "Tagesschau"}, {"title": "Hansa Rostock: Paderborn besiegen und auf St. Paulis Sch\u00fctzenhilfe hoffen", "url": "https://www.tagesschau.de/inland/regional/mecklenburgvorpommern/ndr-hansa-rostock-paderborn-besiegen-und-auf-st-paulis-schuetzenhilfe-hoffen-104.html", "thumbnailUrl": "https://images.tagesschau.de/image/02160e44-06e2-4caf-9046-d15314651662/AAABj4bo5-A/AAABjwnlKNc/16x9-512.jpg", "date": "2024-05-18T13:21:00.000+02:00", "lat": 54.1142, "lon": 12.1147, "intensity": 0.7, "source": "Tagesschau"}, {"title": "Scholz sichert Betroffenen Unterst\u00fctzung zu", "url": "https://www.tagesschau.de/inland/hochwasser-saarland-regen-102.html", "thumbnailUrl": "https://images.tagesschau.de/image/25d847ca-3712-4453-ab45-5e1ca30102bb/AAABj4tQXm8/AAABjwnlKNc/16x9-512.jpg", "date": "2024-05-18T13:13:35.240+02:00", "lat": 49.3964, "lon": 6.9108, "intensity": 0.8, "source": "Tagesschau"}, {"title": "Seit vielen Jahren Wahlvorstand: \"Die Wahl ist irgendwie das Hochamt der Demokratie\"", "url": "https://www.tagesschau.de/inland/regional/thueringen/mdr-seit-vielen-jahren-wahlvorstand-die-wahl-ist-irgendwie-das-hochamt-der-demokratie-100.html", "thumbnailUrl": "https://images.tagesschau.de/image/672d50a7-dd10-4d2e-b5e7-b8401f98dc9a/AAABj43pih8/AAABjwnlKNc/16x9-512.jpg", "date": "2024-05-18T13:12:27.000+02:00", "lat": 50.98408, "lon": 11.06667, "intensity": 0.6, "source": "Tagesschau"}, {"title": "Lebacher Eibe wird zum Nationalerbe", "url": "https://www.tagesschau.de/inland/regional/saarland/sr-lebacher-eibe-wird-zum-nationalerbe-100.html", "thumbnailUrl": "https://images.tagesschau.de/image/480dbc73-9a0b-4405-a31e-fdbe482aac23/AAABj4tjIjc/AAABjwnlKNc/16x9-512.jpg", "date": "2024-05-18T13:05:00.000+02:00", "lat": 49.4094, "lon": 6.9101, "intensity": 0.7, "source": "Tagesschau"}, {"title": "\"Guardian\"-Bericht: Berlinale-Gewinner Rasoulof nach Deutschland geflohen", "url": "https://www.tagesschau.de/inland/regional/berlin/rbb-guardian-bericht-berlinale-gewinner-rasoulof-nach-deutschland-geflohen-100.html", "thumbnailUrl": "https://images.tagesschau.de/image/e4adc612-9dcc-416e-b307-f15f7e4d7c24/AAABj4td2JA/AAABjwnlKNc/16x9-512.jpg", "date": "2024-05-18T12:59:42.000+02:00", "lat": 52.520008, "lon": 13.404954, "intensity": 0.8, "source": "Tagesschau"}, {"title": "18 Verletzte bei illegaler Techno-Party in K\u00f6ln", "url": "https://www.tagesschau.de/inland/regional/nordrheinwestfalen/wdr-18-verletzte-bei-illegaler-techno-party-in-koeln-100.html", "thumbnailUrl": "https://images.tagesschau.de/image/6aaac188-b858-4e81-923d-aca0161adcf7/AAABj40Pm8w/AAABjwnlKNc/16x9-512.jpg", "date": "2024-05-18T12:37:00.000+02:00", "lat": 50.9375, "lon": 6.9603, "intensity": 0.8, "source": "Tagesschau"}, {"title": "Bundeskanzler Scholz hat vom Hochwasser betroffene Gebiete besucht", "url": "https://www.tagesschau.de/inland/regional/saarland/sr-bundeskanzler-scholz-besucht-vom-hochwasser-betroffene-gebiete-100.html", "thumbnailUrl": "https://images.tagesschau.de/image/68a7a532-2f95-4b5a-9acf-65e6f373e8a8/AAABj4zKEVY/AAABjwnlKNc/16x9-512.jpg", "date": "2024-05-18T12:31:00.000+02:00", "lat": 49.3964, "lon": 6.9904, "intensity": 0.8, "source": "Tagesschau"}, {"title": "Gesundheit: F\u00fcnf Typen, die nicht aus Fitnessstudios wegzudenken sind", "url": "https://www.tagesschau.de/inland/regional/berlin/rbb-gesundheit-fuenf-typen-die-nicht-aus-fitnessstudios-wegzudenken-sind-102.html", "thumbnailUrl": "https://images.tagesschau.de/image/26ada7a8-53ef-4dad-88d3-188a83ee36bb/AAABj4tAak4/AAABjwnlKNc/16x9-512.jpg", "date": "2024-05-18T12:25:36.000+02:00", "lat": 52.520008, "lon": 13.404954, "intensity": 0.6, "source": "Tagesschau"}, {"title": "Interview | Kollektiv Calaca: \"Remigration\"-Performance beim Karneval der Kulturen ", "url": "https://www.tagesschau.de/inland/regional/berlin/rbb-interview--kollektiv-calaca-remigration-performance-beim-karneval-der-kulturen-100.html", "thumbnailUrl": "https://images.tagesschau.de/image/8c51d125-e9d4-4315-b36a-b093ffd2fcee/AAABj4sx0jU/AAABjwnlKNc/16x9-512.jpg", "date": "2024-05-18T12:12:06.000+02:00", "lat": 52.520008, "lon": 13.404954, "intensity": 0.8, "source": "Tagesschau"}, {"title": "Vorhergesagte Unwetter bleiben in Hessen aus: Weniger Regen als erwartet", "url": "https://www.tagesschau.de/inland/regional/hessen/hr-unwetterwarnung-vor-hagel-und-starkregen-in-suedhessen-droht-land-unter-100.html", "thumbnailUrl": "https://images.tagesschau.de/image/74a585ba-bc18-4dc3-9f4d-39c2f8034202/AAABj4ssSSs/AAABjwnlKNc/16x9-512.jpg", "date": "2024-05-18T12:07:32.796+02:00", "lat": 50.1216, "lon": 8.6753, "intensity": 0.8, "source": "Tagesschau"}, {"title": "Mercedes-Arbeiter stimmen gegen Gewerkschaft", "url": "https://www.tagesschau.de/ausland/mercedes-werk-alabama-gewerkschaft-100.html", "thumbnailUrl": "https://images.tagesschau.de/image/a9d70364-55d7-4965-8efb-889763f056a7/AAABj4qoI38/AAABjwnlKNc/16x9-512.jpg", "date": "2024-05-18T11:57:01.156+02:00", "lat": 52.520008, "lon": 13.404954, "intensity": 0.7, "source": "Tagesschau"}, {"title": "Politiker reagieren emp\u00f6rt auf Flughafen-Blockade", "url": "https://www.tagesschau.de/inland/kritik-reaktion-flughafen-muenchen-100.html", "thumbnailUrl": "https://images.tagesschau.de/image/6e549a62-4cc1-489f-bd28-9ddaf8758240/AAABj4r99YA/AAABjwnlKNc/16x9-512.jpg", "date": "2024-05-18T11:55:44.907+02:00", "lat": 48.353662, "lon": 11.790697, "intensity": 0.8, "source": "Tagesschau"}, {"title": "Was ein Hotel f\u00fcr ein Klima-Zertifikat \u00e4ndern muss - und was nicht", "url": "https://www.tagesschau.de/inland/regional/hamburg/ndr-was-ein-hotel-fuer-ein-klima-zertifikat-aendern-muss-und-was-nicht-100.html", "thumbnailUrl": "https://images.tagesschau.de/image/a15fab11-3b3c-4dae-9475-bf73e7d64dc0/AAABj4slEX4/AAABjwnlKNc/16x9-512.jpg", "date": "2024-05-18T11:36:00.000+02:00", "lat": 53.5511, "lon": 9.9937, "intensity": 0.7, "source": "Tagesschau"}, {"title": "Kreativ-Tage in Fulda: Vom Pleite-Kaufhaus zum Kultur-Hotspot", "url": "https://www.tagesschau.de/inland/regional/hessen/hr-kreativ-tage-in-fulda-vom-pleite-kaufhaus-zum-kultur-hotspot-100.html", "thumbnailUrl": "https://images.tagesschau.de/image/2f2242a8-69f3-4c0b-ba79-8763f895c1e4/AAABj4sPDlQ/AAABjwnlKNc/16x9-512.jpg", "date": "2024-05-18T11:35:09.247+02:00", "lat": 50.5547, "lon": 9.6773, "intensity": 0.7, "source": "Tagesschau"}, {"title": "Atomm\u00fclllager Asse: Mehr Wasser - und es nimmt neue Wege", "url": "https://www.tagesschau.de/inland/regional/niedersachsen/ndr-atommuelllager-asse-mehr-wasser-und-es-nimmt-neue-wege-100.html", "thumbnailUrl": "https://images.tagesschau.de/image/fd350b6d-c892-4cd2-9a57-b376ad48933b/AAABj4sWUn4/AAABjwnlKNc/16x9-512.jpg", "date": "2024-05-18T11:33:00.000+02:00", "lat": 52.1564, "lon": 10.3933, "intensity": 0.6, "source": "Tagesschau"}, {"title": "Europa- und Kommunalwahlen: Bislang sechs Attacken auf Wahlk\u00e4mpfer in Berlin und Brandenburg ", "url": "https://www.tagesschau.de/inland/regional/brandenburg/rbb-europa-und-kommunalwahlen-bislang-sechs-attacken-auf-wahlkaempfer-in-berlin-und-brandenburg-100.html", "thumbnailUrl": "https://images.tagesschau.de/image/b96db73b-a608-4720-87b0-f5d27c3cc51c/AAABj4sPcD0/AAABjwnlKNc/16x9-512.jpg", "date": "2024-05-18T11:31:31.000+02:00", "lat": 52.520008, "lon": 13.404954, "intensity": 0.8, "source": "Tagesschau"}, {"title": "Basketball: Statement-Sieg der Skyliners Frankfurt endet im Chaos", "url": "https://www.tagesschau.de/inland/regional/hessen/hr-basketball-statement-sieg-der-skyliners-frankfurt-endet-im-chaos-102.html", "thumbnailUrl": "https://images.tagesschau.de/image/f292bdce-f038-4880-b8f6-647791c88825/AAABj4sPYnQ/AAABjwnlKNc/16x9-512.jpg", "date": "2024-05-18T11:27:27.896+02:00", "lat": 50.1109, "lon": 8.6821, "intensity": 0.8, "source": "Tagesschau"}, {"title": "Stra\u00dfenfest in Berlin: Karneval der Kulturen steht am Samstag im Zeichen der Kinder", "url": "https://www.tagesschau.de/inland/regional/berlin/rbb-karneval-der-kulturen-2024-an-pfingsten-steigt-das-strassenfest-in-kreuzberg-100.html", "thumbnailUrl": "https://images.tagesschau.de/image/e988d6d1-d06d-431e-81f4-d37edd239359/AAABj4sx1Ac/AAABjwnlKNc/16x9-512.jpg", "date": "2024-05-18T11:18:15.000+02:00", "lat": 52.4966, "lon": 13.3903, "intensity": 0.8, "source": "Tagesschau"}, {"title": "Restaurant ausgeraubt - 18-j\u00e4hriger Mitarbeiter unter Schock", "url": "https://www.tagesschau.de/inland/regional/niedersachsen/ndr-restaurant-ausgeraubt-18-jaehriger-mitarbeiter-unter-schock-100.html", "thumbnailUrl": "https://images.tagesschau.de/image/06b11a8f-22ff-4e4e-9cf8-4bd3be40f86f/AAABj4rsL2w/AAABjwnlKNc/16x9-512.jpg", "date": "2024-05-18T11:07:00.000+02:00", "lat": 52.8144, "lon": 7.4285, "intensity": 0.7, "source": "Tagesschau"}, {"title": "Hochwasserhilfe statt Olympiastart", "url": "https://www.tagesschau.de/ausland/amerika/ueberschwemmungen-brasilien-102.html", "thumbnailUrl": "https://images.tagesschau.de/image/6bee323f-872c-4c1e-aa00-5b65ee9aa895/AAABj4pmkns/AAABjwnlKNc/16x9-512.jpg", "date": "2024-05-18T10:53:45.032+02:00", "lat": -15.7801, "lon": -47.9297, "intensity": 0.8, "source": "Tagesschau"}, {"title": "Rettungseinsatz bei Tuttlingen behindert: 91-J\u00e4hriger durfte danach weiterfahren", "url": "https://www.tagesschau.de/inland/regional/badenwuerttemberg/swr-rettungseinsatz-bei-tuttlingen-behindert-91-jaehriger-durfte-danach-weiterfahren-100.html", "thumbnailUrl": "https://images.tagesschau.de/image/2b0608e9-cda5-4c3d-9d6c-383614ad14ec/AAABj4rqUlg/AAABjwnlKNc/16x9-512.jpg", "date": "2024-05-18T10:53:00.000+02:00", "lat": 47.9886, "lon": 8.8151, "intensity": 0.6, "source": "Tagesschau"}, {"title": "M\u00fcnchner Flughafen vor\u00fcbergehend lahmgelegt", "url": "https://www.tagesschau.de/inland/flughafen-muenchen-aktivisten-100.html", "thumbnailUrl": "https://images.tagesschau.de/image/53ed5016-6805-4f74-8313-10a5ccab4a63/AAABj4ok3-g/AAABjwnlKNc/16x9-512.jpg", "date": "2024-05-18T10:52:45.768+02:00", "lat": 48.3537, "lon": 11.7861, "intensity": 0.8, "source": "Tagesschau"}, {"title": "Kommunalwahlen: Trennung von Arm und Reich in Schwerin", "url": "https://www.tagesschau.de/inland/regional/mecklenburgvorpommern/ndr-kommunalwahlen-trennung-von-arm-und-reich-in-schwerin-104.html", "thumbnailUrl": "https://images.tagesschau.de/image/275a2f70-598f-4146-99f6-313cd6799c1f/AAABj4sO6qM/AAABjwnlKNc/16x9-512.jpg", "date": "2024-05-18T10:52:00.000+02:00", "lat": 53.635502, "lon": 11.404102, "intensity": 0.4, "source": "Tagesschau"}, {"title": "Rechtsextremismus an Schulen: Werden Hass und Hetze zur neuen Normalit\u00e4t? ", "url": "https://www.tagesschau.de/inland/regional/thueringen/mdr-rechtsextremismus-an-schulen-werden-hass-und-hetze-zur-neuen-normalitaet-100.html", "thumbnailUrl": "https://images.tagesschau.de/image/3cc989e3-5145-4b05-a03a-18903d75cf6e/AAABj43qIaA/AAABjwnlKNc/16x9-512.jpg", "date": "2024-05-18T10:51:44.000+02:00", "lat": 51.0109, "lon": 11.3215, "intensity": 0.8, "source": "Tagesschau"}, {"title": "Hitze und Extremwetter-Ereignisse: Der Klimawandel wird zum Gesundheitsrisiko f\u00fcr Hobbysportler", "url": "https://www.tagesschau.de/inland/regional/berlin/rbb-hitze-und-extremwetter-ereignisse-der-klimawandel-wird-zum-gesundheitsrisiko-fuer-hobbysportler-102.html", "thumbnailUrl": "https://images.tagesschau.de/image/feb12868-875b-4f76-97c1-96d8277916d1/AAABj4rD-UY/AAABjwnlKNc/16x9-512.jpg", "date": "2024-05-18T10:35:37.000+02:00", "lat": 52.520008, "lon": 13.404954, "intensity": 0.8, "source": "Tagesschau"}, {"title": "EM 2024: Diese St\u00e4dte in BW verzichten auf Public Viewing", "url": "https://www.tagesschau.de/inland/regional/badenwuerttemberg/swr-em-2024-diese-staedte-in-bw-verzichten-auf-public-viewing-100.html", "thumbnailUrl": "https://images.tagesschau.de/image/65f88dc8-ca8d-42db-a90f-8a4f539f81b7/AAABj4rYAUc/AAABjwnlKNc/16x9-512.jpg", "date": "2024-05-18T10:33:40.000+02:00", "lat": 48.7899, "lon": 9.9937, "intensity": 0.3, "source": "Tagesschau"}, {"title": "Vermisster 67-J\u00e4hriger aus G\u00f6ttingen ist wieder da", "url": "https://www.tagesschau.de/inland/regional/niedersachsen/ndr-vermisst-wer-hat-detlef-e-aus-goettingen-gesehen-100.html", "thumbnailUrl": "https://images.tagesschau.de/image/f9927396-7cda-456f-9f87-aa73601c8622/AAABj4rO-AU/AAABjwnlKNc/16x9-512.jpg", "date": "2024-05-18T10:22:00.000+02:00", "lat": 51.5413, "lon": 9.9357, "intensity": 0.7, "source": "Tagesschau"}, {"title": "Motorrad st\u00f6\u00dft mit Reh zusammen - 31-j\u00e4hriger Fahrer stirbt", "url": "https://www.tagesschau.de/inland/regional/niedersachsen/ndr-motorrad-stoesst-mit-reh-zusammen-31-jaehriger-fahrer-stirbt-100.html", "thumbnailUrl": "https://images.tagesschau.de/image/c3b33c93-1cac-41df-8bdb-542e881f16a6/AAABj4rHjuw/AAABjwnlKNc/16x9-512.jpg", "date": "2024-05-18T10:13:00.000+02:00", "lat": 52.6367, "lon": 10.4515, "intensity": 0.8, "source": "Tagesschau"}, {"title": "Mittlere Gefahrenstufe: Waldbrandgefahr in Brandenburg leicht gesunken", "url": "https://www.tagesschau.de/inland/regional/brandenburg/rbb-mittlere-gefahrenstufe-waldbrandgefahr-in-brandenburg-leicht-gesunken-100.html", "thumbnailUrl": "https://images.tagesschau.de/image/05da39f7-25de-4631-88a7-498ea5a05ebd/AAABj4qt_7Y/AAABjwnlKNc/16x9-512.jpg", "date": "2024-05-18T09:45:09.000+02:00", "lat": 52.4226, "lon": 13.1936, "intensity": 0.4, "source": "Tagesschau"}, {"title": "Hamburger Rathausmarkt: Rainbowflash gegen Homophobie", "url": "https://www.tagesschau.de/inland/regional/hamburg/ndr-hamburger-rathausmarkt-rainbowflash-gegen-homophobie-100.html", "thumbnailUrl": "https://images.tagesschau.de/image/03bed118-5ec1-4e74-8d42-277df635a947/AAABj4rzfok/AAABjwnlKNc/16x9-512.jpg", "date": "2024-05-18T09:43:00.000+02:00", "lat": 53.5503, "lon": 9.9937, "intensity": 0.7, "source": "Tagesschau"}, {"title": "Alles Wichtige zu Eintracht-RB: Frankfurt will Leipzig-Effekt nutzen", "url": "https://www.tagesschau.de/inland/regional/hessen/hr-alles-wichtige-zu-eintracht-rb-frankfurt-will-leipzig-effekt-nutzen-102.html", "thumbnailUrl": "https://images.tagesschau.de/image/6db00996-c6a4-44a8-9222-fc6bfff21714/AAABj4qk0JE/AAABjwnlKNc/16x9-512.jpg", "date": "2024-05-18T09:28:00.165+02:00", "lat": 50.1109, "lon": 8.6818, "intensity": 0.7, "source": "Tagesschau"}, {"title": "Saar-Bauern gegen h\u00f6heren Mindestlohn", "url": "https://www.tagesschau.de/inland/regional/saarland/sr-saar-bauern-gegen-hoeheren-mindestlohn-100.html", "thumbnailUrl": "https://images.tagesschau.de/image/6da1d84a-b10c-40e7-b9cb-c9560a914372/AAABj4qt5fw/AAABjwnlKNc/16x9-512.jpg", "date": "2024-05-18T09:22:00.000+02:00", "lat": 49.3964, "lon": 6.8751, "intensity": 0.6, "source": "Tagesschau"}, {"title": "\"Bezahl doch beim n\u00e4chsten Mal\": Kaffeeverk\u00e4ufer setzt auf Vertrauen", "url": "https://www.tagesschau.de/inland/regional/niedersachsen/ndr-bezahl-doch-beim-naechsten-mal-kaffeeverkaeufer-setzt-auf-vertrauen-100.html", "thumbnailUrl": "https://images.tagesschau.de/image/8104179b-e1fa-446d-9420-6f28027be072/AAABj4qfUgM/AAABjwnlKNc/16x9-512.jpg", "date": "2024-05-18T09:14:00.000+02:00", "lat": 52.2841, "lon": 10.4515, "intensity": 0.3, "source": "Tagesschau"}, {"title": "Ausnahmezustand im Saarland", "url": "https://www.tagesschau.de/inland/hochwasser-saarland-regen-100.html", "thumbnailUrl": "https://images.tagesschau.de/image/41c4184c-98dd-4d05-9bfd-b9a0f724bb5c/AAABj4nFN7w/AAABjwnlKNc/16x9-512.jpg", "date": "2024-05-18T09:12:43.247+02:00", "lat": 49.3964, "lon": 7.0, "intensity": 0.8, "source": "Tagesschau"}, {"title": "Mitgliederbefragung \u00fcber Landesvorsitz: Die Berliner SPD sortiert sich neu", "url": "https://www.tagesschau.de/inland/regional/berlin/rbb-mitgliederbefragung-ueber-landesvorsitz-die-berliner-spd-sortiert-sich-neu-100.html", "thumbnailUrl": "https://images.tagesschau.de/image/027c16c0-8f78-4049-8699-316044a43c33/AAABj4uWmko/AAABjwnlKNc/16x9-512.jpg", "date": "2024-05-18T09:05:15.000+02:00", "lat": 52.52, "lon": 13.405, "intensity": 0.8, "source": "Tagesschau"}, {"title": "S\u00e4chsische Papageienz\u00fcchterin: \"Einige haben wir schon nach Dubai oder in den Oman verkauft\" ", "url": "https://www.tagesschau.de/inland/regional/sachsen/mdr-saechsische-papageienzuechterin-einige-haben-wir-schon-nach-dubai-oder-in-den-oman-verkauft-100.html", "thumbnailUrl": "https://images.tagesschau.de/image/56db59c8-00aa-4380-94b6-6b645225e5cd/AAABj43iaKY/AAABjwnlKNc/16x9-512.jpg", "date": "2024-05-18T09:00:00.000+02:00", "lat": 51.049328, "lon": 13.737262, "intensity": 0.4, "source": "Tagesschau"}, {"title": "Mobilfunkl\u00f6chern auf der Spur", "url": "https://www.tagesschau.de/inland/regional/nordrheinwestfalen/wdr-mobilfunkloechern-auf-der-spur-102.html", "thumbnailUrl": "https://images.tagesschau.de/image/f0c8335d-d5d4-4739-b87d-2ee50a8cc696/AAABj4rCANE/AAABjwnlKNc/16x9-512.jpg", "date": "2024-05-18T08:50:00.000+02:00", "lat": 51.4332, "lon": 7.6028, "intensity": 0.6, "source": "Tagesschau"}, {"title": "Kommentar: Politik muss im Fall Brokstedt aus Fehlern lernen", "url": "https://www.tagesschau.de/inland/regional/hamburg/ndr-kommentar-politik-muss-im-fall-brokstedt-aus-fehlern-lernen-100.html", "thumbnailUrl": "https://images.tagesschau.de/image/dba76557-a91e-4c8a-b22c-4dc7c2289869/AAABj4pxgl0/AAABjwnlKNc/16x9-512.jpg", "date": "2024-05-18T08:40:00.000+02:00", "lat": 53.8035, "lon": 9.8847, "intensity": 0.7, "source": "Tagesschau"}, {"title": "\"Kein Disneyland\": Sternenpark Rh\u00f6n beklagt zu viele Touristen", "url": "https://www.tagesschau.de/inland/regional/hessen/hr-kein-disneyland-sternenpark-rhoen-beklagt-zu-viele-touristen-100.html", "thumbnailUrl": "https://images.tagesschau.de/image/503caffd-0b78-4604-af47-3f1fcdec653b/AAABj4poUTU/AAABjwnlKNc/16x9-512.jpg", "date": "2024-05-18T08:30:56.420+02:00", "lat": 50.474941, "lon": 9.896265, "intensity": 0.7, "source": "Tagesschau"}, {"title": "Rettungsschwimmer wachen wieder \u00fcber die Badeg\u00e4ste", "url": "https://www.tagesschau.de/inland/regional/mecklenburgvorpommern/ndr-rettungsschwimmer-wachen-wieder-ueber-die-badegaeste-100.html", "thumbnailUrl": "https://images.tagesschau.de/image/86dd5c45-cbbc-4758-a376-cdc85c6be094/AAABj4qAGcA/AAABjwnlKNc/16x9-512.jpg", "date": "2024-05-18T08:24:00.000+02:00", "lat": 53.61265, "lon": 12.568337, "intensity": 0.7, "source": "Tagesschau"}, {"title": "Kommunalwahlen 2024: In Oder-Spree kann die gr\u00f6\u00dfte Fraktion im Kreistag keine Politik gestalten", "url": "https://www.tagesschau.de/inland/regional/brandenburg/rbb-kommunalwahlen-2024-in-oder-spree-kann-die-groesste-fraktion-im-kreistag-keine-politik-gestalten-100.html", "thumbnailUrl": "https://images.tagesschau.de/image/7aba1933-09b2-4d40-a86e-674f138bb381/AAABj4phAr8/AAABjwnlKNc/16x9-512.jpg", "date": "2024-05-18T08:20:13.000+02:00", "lat": 14.429006, "lon": 52.358541, "intensity": 0.7, "source": "Tagesschau"}, {"title": "Ermittlungen gegen Koch-Wagner wegen Doktortitel eingestellt", "url": "https://www.tagesschau.de/inland/regional/saarland/sr-ermittlungen-gegen-koch-wagner-wegen-doktortitel-eingestellt-100.html", "thumbnailUrl": "https://images.tagesschau.de/image/55f49b29-6ab6-4414-ab57-a5648d47e9fd/AAABj4pV9sg/AAABjwnlKNc/16x9-512.jpg", "date": "2024-05-18T08:11:00.000+02:00", "lat": 49.25, "lon": 7.0, "intensity": 0.5, "source": "Tagesschau"}, {"title": "Erste kinky \"Fetish\"-Party in der Saarbr\u00fccker Garage", "url": "https://www.tagesschau.de/inland/regional/saarland/sr-erste-kinky-fetish-party-in-der-saarbruecker-garage-100.html", "thumbnailUrl": "https://images.tagesschau.de/image/f274875a-4091-4a13-ad7b-daca99c24b65/AAABj4pWBZ8/AAABjwnlKNc/16x9-512.jpg", "date": "2024-05-18T08:09:00.000+02:00", "lat": 49.2334, "lon": 6.9715, "intensity": 0.7, "source": "Tagesschau"}, {"title": "Guten Morgen, NRW!", "url": "https://www.tagesschau.de/inland/regional/nordrheinwestfalen/wdr-guten-morgen-nrw-486.html", "thumbnailUrl": "https://images.tagesschau.de/image/a81f106a-bb29-497b-a1fc-62be3c68be16/AAABj4qHaH4/AAABjwnlKNc/16x9-512.jpg", "date": "2024-05-18T08:00:00.000+02:00", "lat": 49.3964, "lon": 7.0, "intensity": 0.8, "source": "Tagesschau"}, {"title": "Hochwasser in der S\u00fcdwestpfalz: So war die Lage am Freitag", "url": "https://www.tagesschau.de/inland/regional/rheinlandpfalz/swr-wetter-im-westen-der-pfalz-hier-gibt-es-hochwasser-und-ueberschwemmungen-102.html", "thumbnailUrl": "https://images.tagesschau.de/image/69de48de-7b21-46db-b885-4139d16bf200/AAABj4rdpr0/AAABjwnlKNc/16x9-512.jpg", "date": "2024-05-18T07:55:00.000+02:00", "lat": 49.375404, "lon": 7.594535, "intensity": 0.8, "source": "Tagesschau"}, {"title": "Was bringt der Klinik-Atlas f\u00fcr Patienten in Hamburg?", "url": "https://www.tagesschau.de/inland/regional/hamburg/ndr-was-bringt-der-klinik-atlas-fuer-patienten-in-hamburg-100.html", "thumbnailUrl": "https://images.tagesschau.de/image/a9525fb8-e33b-4a6b-86aa-33749d2b29d6/AAABj4oSQ6o/AAABjwnlKNc/16x9-512.jpg", "date": "2024-05-18T06:55:00.000+02:00", "lat": 53.55, "lon": 10.0, "intensity": 0.4, "source": "Tagesschau"}, {"title": "Z\u00e4hlaktionen starten: Wie es um die Igel in der Region Bremen steht", "url": "https://www.tagesschau.de/inland/regional/bremen/rb-zaehlaktionen-starten-wie-es-um-die-igel-in-der-region-bremen-steht-100.html", "thumbnailUrl": "https://images.tagesschau.de/image/d23c9016-804e-4ecf-8989-551083791888/AAABj4n09ck/AAABjwnlKNc/16x9-512.jpg", "date": "2024-05-18T06:26:00.000+02:00", "lat": 53.079296, "lon": 8.801693, "intensity": 0.7, "source": "Tagesschau"}, {"title": "Landkreis Rostock: Leitstelle zieht in Bad Doberaner Fitnessstudio ", "url": "https://www.tagesschau.de/inland/regional/mecklenburgvorpommern/ndr-landkreis-rostock-leitstelle-zieht-in-bad-doberaner-fitnessstudio-100.html", "thumbnailUrl": "https://images.tagesschau.de/image/05f03707-c4bd-4fa6-acc0-9f5ad563bc13/AAABj4oFdUM/AAABjwnlKNc/16x9-512.jpg", "date": "2024-05-18T06:09:00.000+02:00", "lat": 37.9375, "lon": 12.0516, "intensity": 0.5, "source": "Tagesschau"}, {"title": "S-Bahn: Sperrungen in den Hamburger Maiferien", "url": "https://www.tagesschau.de/inland/regional/hamburg/ndr-s-bahn-sperrungen-in-den-hamburger-maiferien-104.html", "thumbnailUrl": "https://images.tagesschau.de/image/6936ae17-58c5-452b-83d2-ea78b8cddd8b/AAABj4rJcMc/AAABjwnlKNc/16x9-512.jpg", "date": "2024-05-18T06:07:00.000+02:00", "lat": 53.5511, "lon": 10.0003, "intensity": 0.8, "source": "Tagesschau"}, {"title": "Als der Bodensee an Pfingsten \u00fcber seine Ufer trat", "url": "https://www.tagesschau.de/inland/regional/badenwuerttemberg/swr-als-der-bodensee-an-pfingsten-ueber-seine-ufer-trat-104.html", "thumbnailUrl": "https://images.tagesschau.de/image/850205cb-c77c-4d90-9de5-277b31e75938/AAABj4p4yWk/AAABjwnlKNc/16x9-512.jpg", "date": "2024-05-18T06:00:13.000+02:00", "lat": 47.6965, "lon": 9.3833, "intensity": 0.8, "source": "Tagesschau"}, {"title": "Stadt Stuttgart: Ausl\u00e4nderbeh\u00f6rde steht weiter in der Kritik", "url": "https://www.tagesschau.de/inland/regional/badenwuerttemberg/swr-stadt-stuttgart-auslaenderbehoerde-steht-weiter-in-der-kritik-100.html", "thumbnailUrl": "https://images.tagesschau.de/image/d8a86637-091a-44e3-b86a-660f06c19997/AAABj4nBqeo/AAABjwnlKNc/16x9-512.jpg", "date": "2024-05-18T05:30:00.000+02:00", "lat": 48.7758, "lon": 9.1829, "intensity": 0.6, "source": "Tagesschau"}, {"title": "Hochwasser \u00fcberschwemmt das Saarland", "url": "https://www.tagesschau.de/inland/regional/saarland/sr-hochwasser-ueberschwemmt-das-saarland-100.html", "thumbnailUrl": "https://images.tagesschau.de/image/9db897ec-fc79-41d7-b6ec-700adc725e01/AAABj4mOYd0/AAABjwnlKNc/16x9-512.jpg", "date": "2024-05-18T04:34:00.000+02:00", "lat": 49.3964, "lon": 6.9694, "intensity": 0.8, "source": "Tagesschau"}, {"title": "Scholz pocht auf Erh\u00f6hung des Mindestlohns", "url": "https://www.tagesschau.de/inland/innenpolitik/scholz-mindestlohn-aufschlag-forderung-100.html", "thumbnailUrl": "https://images.tagesschau.de/image/5dd04004-c50c-4ff0-8625-92de7a753f8f/AAABjtgksbY/AAABjwnlKNc/16x9-512.jpg", "date": "2024-05-18T04:02:54.033+02:00", "lat": 53.5511, "lon": 9.9937, "intensity": 0.75, "source": "Tagesschau"}, {"title": "Extreme Gefahr durch Hochwasser im Saarland", "url": "https://www.tagesschau.de/inland/unwetter-deutschland-160.html", "thumbnailUrl": "https://images.tagesschau.de/image/7f8e5191-5678-4d29-824e-be79dbac680a/AAABj4ePJoI/AAABjwnlKNc/16x9-512.jpg", "date": "2024-05-18T02:38:38.776+02:00", "lat": 49.3964, "lon": 6.9533, "intensity": 0.8, "source": "Tagesschau"}, {"title": "Kroatiens Parlament billigt neues Kabinett", "url": "https://www.tagesschau.de/ausland/europa/kroatien-parlament-vertrauen-koalition-100.html", "thumbnailUrl": "https://images.tagesschau.de/image/5fb6f6d4-2611-4bf7-be12-6bf747d89354/AAABj4iOzQ4/AAABjwnlKNc/16x9-512.jpg", "date": "2024-05-18T00:12:30.460+02:00", "lat": 45.815, "lon": 15.9789, "intensity": 0.8, "source": "Tagesschau"}, {"title": "Justus Frantz: \"Kunst ist Br\u00fccke, nie Waffe\"", "url": "https://www.tagesschau.de/inland/regional/hamburg/ndr-justus-frantz-kunst-ist-bruecke-nie-waffe-100.html", "thumbnailUrl": "https://images.tagesschau.de/image/fec653c1-8f22-499f-a9fd-acb9eb4834e5/AAABj4sk7sU/AAABjwnlKNc/16x9-512.jpg", "date": "2024-05-18T00:00:00.000+02:00", "lat": 53.5511, "lon": 9.9937, "intensity": 0.3, "source": "Tagesschau"}, {"title": "Hochwasserlage im Saarland entspannt sich leicht", "url": "https://www.br.de/nachrichten/meldungen/index.html#n1", "thumbnailUrl": null, "date": "2024-05-19T02:05:30+02:00", "lat": 30.0444, "lon": 31.2357, "intensity": 0.8, "source": "Bayrischer Rundfunk"}, {"title": "Pistorius will mehr Geld f\u00fcr Ukrainehilfe", "url": "https://www.br.de/nachrichten/meldungen/index.html#n2", "thumbnailUrl": null, "date": "2024-05-19T02:05:30+02:00", "lat": 33.5138, "lon": 36.2021, "intensity": 0.8, "source": "Bayrischer Rundfunk"}, {"title": "Druck auf Netanjahu wird gr\u00f6\u00dfer", "url": "https://www.br.de/nachrichten/meldungen/index.html#n3", "thumbnailUrl": null, "date": "2024-05-19T02:05:30+02:00", "lat": 39.9334, "lon": 32.8597, "intensity": 0.8, "source": "Bayrischer Rundfunk"}, {"title": "Fast 10.000 Menschen demonstrieren zum Nakba-Tag in Berlin und M\u00fcnchen", "url": "https://www.br.de/nachrichten/meldungen/index.html#n4", "thumbnailUrl": null, "date": "2024-05-19T02:05:30+02:00", "lat": 52.520008, "lon": 13.404954, "intensity": 0.7, "source": "Bayrischer Rundfunk"}, {"title": "Klimaaktivisten st\u00f6ren Verkehr am Frankenschnellweg und am M\u00fcnchner Flughafen", "url": "https://www.br.de/nachrichten/meldungen/index.html#n5", "thumbnailUrl": null, "date": "2024-05-19T02:05:30+02:00", "lat": 52.520008, "lon": 13.404954, "intensity": 0.6, "source": "Bayrischer Rundfunk"}, {"title": "Angreifer Ficos kommt in Untersuchungshaft", "url": "https://www.br.de/nachrichten/meldungen/index.html#n6", "thumbnailUrl": null, "date": "2024-05-19T02:05:30+02:00", "lat": 48.135125, "lon": 11.581981, "intensity": 0.6, "source": "Bayrischer Rundfunk"}, {"title": "Regensburger Pilger erreichen nach 111 Kilometern Alt\u00f6tting", "url": "https://www.br.de/nachrichten/meldungen/index.html#n7", "thumbnailUrl": null, "date": "2024-05-19T02:05:30+02:00", "lat": 50.110922, "lon": 8.682127, "intensity": 0.8, "source": "Bayrischer Rundfunk"}, {"title": "Deutsche zahlen gut 5 Milliarden Euro zu viel f\u00fcr Strom", "url": "https://www.br.de/nachrichten/meldungen/index.html#n8", "thumbnailUrl": null, "date": "2024-05-19T02:05:30+02:00", "lat": 47.8684, "lon": 12.6394, "intensity": 0.8, "source": "Bayrischer Rundfunk"}, {"title": "K\u00f6ln ist zweiter Absteiger aus der Bundesliga", "url": "https://www.br.de/nachrichten/meldungen/index.html#n9", "thumbnailUrl": null, "date": "2024-05-19T02:05:30+02:00", "lat": 48.5844, "lon": 13.6722, "intensity": 0.8, "source": "Bayrischer Rundfunk"}, {"title": "Deutschland feiert dritten Sieg in Folge bei der Eishockey-WM", "url": "https://www.br.de/nachrichten/meldungen/index.html#n10", "thumbnailUrl": null, "date": "2024-05-19T02:05:30+02:00", "lat": 53.5396, "lon": 8.5761, "intensity": 0.4, "source": "Bayrischer Rundfunk"}, {"title": "Das Wetter in Bayern: Nachts einzelne Schauer und Gewitter", "url": "https://www.br.de/nachrichten/meldungen/index.html#n11", "thumbnailUrl": null, "date": "2024-05-19T02:05:30+02:00", "lat": 48.1351, "lon": 11.582, "intensity": 0.3, "source": "Bayrischer Rundfunk"}, {"title": "Video | Berlin Marzahn-Hellersdorf: Schule ohne Schulhof", "url": "https://www.rbb24.de/panorama/beitrag/av7/video-berlin-marzahn-hellersdorf-schule-ohne-schulhof.html", "thumbnailUrl": null, "date": "Sat, 18 May 2024 22:32:01 +0200", "lat": 52.5334, "lon": 13.5584, "intensity": 0.7, "source": "RBB"}, {"title": "Video | Kommunalwahl: Wie die Uckermark von erneuerbaren Energien profitieren will", "url": "https://www.rbb24.de/politik/wahl/av7/video-brandenburg-kommunalwahlen-ortsvorsteher-erneuerbare-energien.html", "thumbnailUrl": null, "date": "Sat, 18 May 2024 22:29:28 +0200", "lat": 53.1667, "lon": 13.8667, "intensity": 0.7, "source": "RBB"}, {"title": "Video | Zwangsenteignung von Juden in der NS-Zeit: Wandlitzer Familie soll Haus verlassen", "url": "https://www.rbb24.de/panorama/beitrag/av7/video-brandenburg-wandlitz-enteignete-haeuser-ns-zeit-restitutionsanpruch.html", "thumbnailUrl": null, "date": "Sat, 18 May 2024 22:17:07 +0200", "lat": 52.6542, "lon": 13.4075, "intensity": 0.8, "source": "RBB"}, {"title": "German Football League: Knapper Sieg f\u00fcr die Berlin Rebels, Adler unterliegen Aufsteiger", "url": "https://www.rbb24.de/sport/beitrag/2024/05/football-gfl-berlin-rebels-saarland-hurricanes-adler-hildesheim-invaders.html", "thumbnailUrl": null, "date": "Sat, 18 May 2024 22:11:27 +0200", "lat": 52.517, "lon": 13.3863, "intensity": 0.7, "source": "RBB"}, {"title": "Video | Verein erinnert an die Opfer des Kampfes um K\u00fcstrin im Zweiten Weltkrieg", "url": "https://www.rbb24.de/wirtschaft/beitrag/av7/video-polen-kuestrin-gedenken-soldatenfriedhof.html", "thumbnailUrl": null, "date": "Sat, 18 May 2024 21:49:48 +0200", "lat": 52.6021, "lon": 14.6333, "intensity": 0.6, "source": "RBB"}, {"title": "Video | Berlin und Brandenburg: Hektischer Reiseverkehr zum Beginn der Pfingstferien", "url": "https://www.rbb24.de/wirtschaft/beitrag/av7/video-berlin-brandenburg-pfingsten-reiseverkehr.html", "thumbnailUrl": null, "date": "Sat, 18 May 2024 21:44:18 +0200", "lat": 52.520008, "lon": 13.404954, "intensity": 0.7, "source": "RBB"}, {"title": "Elf Jahre nach letzter Teilnahme: F\u00fcchse Berlin qualifizieren sich wieder f\u00fcr Champions League", "url": "https://www.rbb24.de/sport/beitrag/2024/05/handball-bundesliga-fuechse-berlin-hannover-burgdorf-sieg-qualifikation-champions-league.html", "thumbnailUrl": null, "date": "Sat, 18 May 2024 21:26:02 +0200", "lat": 52.520008, "lon": 13.404954, "intensity": 0.7, "source": "RBB"}, {"title": "Brand in Potsdam: Starke Rauchentwicklung durch Feuer auf DWD-Gel\u00e4nde", "url": "https://www.rbb24.de/panorama/beitrag/2024/05/brand-potsdam-gelaende-dwd-starker-rauch.html", "thumbnailUrl": null, "date": "Sat, 18 May 2024 21:16:15 +0200", "lat": 52.4, "lon": 13.07, "intensity": 0.8, "source": "RBB"}, {"title": "Fu\u00dfball: Babelsberg-St\u00fcrmer Frahn mit \"Tor des Monats\" ausgezeichnet", "url": "https://www.rbb24.de/sport/beitrag/2024/05/tor-des-monats-sportschau-daniel-frahn-babelsberg.html", "thumbnailUrl": null, "date": "Sat, 18 May 2024 21:08:18 +0200", "lat": 52.3928, "lon": 13.0803, "intensity": 0.6, "source": "RBB"}, {"title": "Eishockey-WM: Viertelfinal-Einzug f\u00fcr Deutschland nach Zittersieg gegen Polen nur noch Formsache", "url": "https://www.rbb24.de/sport/beitrag/2024/05/eishockey-weltmeisterschaft-deutschland-polen-zittersieg-spielbe.html", "thumbnailUrl": null, "date": "Sat, 18 May 2024 21:05:58 +0200", "lat": 48.135125, "lon": 11.581981, "intensity": 0.7, "source": "RBB"}, {"title": "Fu\u00dfball-Bundesliga: Union Berlin rettet seine katastrophale Saison", "url": "https://www.rbb24.de/sport/beitrag/2024/05/fussball-bundesliga-union-berlin-sc-freiburg-relegation-streich.html", "thumbnailUrl": null, "date": "Sat, 18 May 2024 20:57:00 +0200", "lat": 52.520008, "lon": 13.457888, "intensity": 0.8, "source": "RBB"}, {"title": "1. FC Union nach dem Klassenerhalt: \"Ich habe noch nie solche Gef\u00fchle gesp\u00fcrt\"", "url": "https://www.rbb24.de/sport/beitrag/2024/05/fussball-bundesliga-reaktionen-union-berlin-klassenerhalt-sc-freiburg.html", "thumbnailUrl": null, "date": "Sat, 18 May 2024 20:35:04 +0200", "lat": 52.51546, "lon": 13.45741, "intensity": 0.8, "source": "RBB"}, {"title": "Tausende Teilnehmer bei pro-pal\u00e4stinensischer Demo in Berlin-Kreuzberg", "url": "https://www.rbb24.de/panorama/beitrag/2024/05/pro-palaestinensische-demonstration-berlin-kreuzberg-bradenburger-tor.html", "thumbnailUrl": null, "date": "Sat, 18 May 2024 19:27:00 +0200", "lat": 52.498, "lon": 13.403, "intensity": 0.8, "source": "RBB"}, {"title": "1. FC Union bejubelt nach spektakul\u00e4rer Schlussphase den Klassenerhalt", "url": "https://www.rbb24.de/sport/beitrag/2024/05/fussball-bundesliga-union-berlin-sc-freiburg-abstiegskampf-spielbericht-liveticker-audiostream.html", "thumbnailUrl": null, "date": "Sat, 18 May 2024 18:22:00 +0200", "lat": 52.5045, "lon": 13.4633, "intensity": 0.8, "source": "RBB"}, {"title": "Dritte Trainer-Amtszeit endet: Dardai bleibt Hertha BSC in anderer Funktion erhalten", "url": "https://www.rbb24.de/sport/beitrag/2024/05/hertha-bsc-zweite-liga-fussball-pal-dardai-trainer-trennung.html", "thumbnailUrl": null, "date": "Sat, 18 May 2024 16:56:00 +0200", "lat": 52.4511, "lon": 13.2185, "intensity": 0.6, "source": "RBB"}, {"title": "Aufstieg r\u00fcckt n\u00e4her: Turbine Potsdam gewinnt letztes Heimspiel der Saison", "url": "https://www.rbb24.de/sport/beitrag/2024/05/frauenfussball-zweite-liga-turbine-potsdam-moenchengladbach.html", "thumbnailUrl": null, "date": "Sat, 18 May 2024 16:04:00 +0200", "lat": 52.400877, "lon": 13.064472, "intensity": 0.6, "source": "RBB"}, {"title": "Fu\u00dfball-Zweitligist: Hertha-Ultras \u00fcben heftige Kritik an 777 Partners und beklagen Egoismus im Klub", "url": "https://www.rbb24.de/sport/beitrag/2024/05/fussball-bundesliga-hertha-bsc-ultras-kritik-777-partners-berliner-weg.html", "thumbnailUrl": null, "date": "Sat, 18 May 2024 15:29:30 +0200", "lat": 52.52, "lon": 13.2701, "intensity": 0.8, "source": "RBB"}, {"title": "Flugbeschr\u00e4nkungsgebiet: Drohne flog mit russischer\u00a0Fahne\u00a0neben Reichstagsgeb\u00e4ude", "url": "https://www.rbb24.de/panorama/beitrag/2024/05/berlin-drohne-russische-flagge-neben-reichstagsgebaeude.html", "thumbnailUrl": null, "date": "Sat, 18 May 2024 15:24:46 +0200", "lat": 52.5163, "lon": 13.3769, "intensity": 0.8, "source": "RBB"}, {"title": "Mitgliederbefragung: Hikel und B\u00f6cker-Giannini sollen Berliner SPD-Vorsitzende werden", "url": "https://www.rbb24.de/politik/beitrag/2024/05/berlin-entsteidung-mitglieder-vorsitz-spd.html", "thumbnailUrl": null, "date": "Sat, 18 May 2024 14:06:00 +0200", "lat": 52.52, "lon": 13.405, "intensity": 0.8, "source": "RBB"}, {"title": "Berlin-Spandau: 28-J\u00e4hriger greift nach Hausverbot Polizisten an", "url": "https://www.rbb24.de/panorama/beitrag/2024/05/berlin-spandau-28-jaehriger-greift-nach-hausverbot-polizisten-an.html", "thumbnailUrl": null, "date": "Sat, 18 May 2024 13:44:12 +0200", "lat": 52.54, "lon": 13.201, "intensity": 0.7, "source": "RBB"}, {"title": "Polizei Berlin: Grundsch\u00fcler verletzt Siebenj\u00e4hrigen mit Spitzer-Klinge", "url": "https://www.rbb24.de/panorama/beitrag/2024/05/berlin-grundschueler-verletzung-spitzerklinge.html", "thumbnailUrl": null, "date": "Sat, 18 May 2024 13:27:22 +0200", "lat": 52.520008, "lon": 13.404954, "intensity": 0.7, "source": "RBB"}, {"title": "\"Guardian\"-Bericht: Berlinale-Gewinner Rasoulof nach Deutschland geflohen", "url": "https://www.rbb24.de/kultur/beitrag/2024/05/berlin-cannes-iran-regisseur-rasoulof-flucht-deutschland.html", "thumbnailUrl": null, "date": "Sat, 18 May 2024 12:59:00 +0200", "lat": 52.5246, "lon": 13.3889, "intensity": 0.7, "source": "RBB"}, {"title": "Interview | Kollektiv Calaca: \"Remigration\"-Performance beim Karneval der Kulturen", "url": "https://www.rbb24.de/panorama/beitrag/2024/05/berlin-karneval-der-kulturen-calaca-remigration.html", "thumbnailUrl": null, "date": "Sat, 18 May 2024 12:12:06 +0200", "lat": 52.517, "lon": 13.3817, "intensity": 0.7, "source": "RBB"}, {"title": "Europa- und Kommunalwahlen: Bislang sechs Attacken auf Wahlk\u00e4mpfer in Berlin und Brandenburg", "url": "https://www.rbb24.de/politik/wahl/Europawahl/2024/berlin-brandenburg-wahlkampf-uebergriffe-auf-politiker.html", "thumbnailUrl": null, "date": "Sat, 18 May 2024 11:31:31 +0200", "lat": 52.520008, "lon": 13.404954, "intensity": 0.8, "source": "RBB"}, {"title": "Stra\u00dfenfest in Berlin: Karneval der Kulturen steht am Samstag im Zeichen der Kinder", "url": "https://www.rbb24.de/panorama/beitrag/2024/05/berlin-kreuzberg-karneval-der-kulturen-strassenfest-2024.html", "thumbnailUrl": null, "date": "Sat, 18 May 2024 11:18:15 +0200", "lat": 52.499, "lon": 13.397, "intensity": 0.8, "source": "RBB"}, {"title": "Mittlere Gefahrenstufe: Waldbrandgefahr in Brandenburg leicht gesunken", "url": "https://www.rbb24.de/panorama/beitrag/2024/05/brandenburg-waldbrandgefahr-leicht-gesunken-gefahrenstufe-drei.html", "thumbnailUrl": null, "date": "Sat, 18 May 2024 09:45:09 +0200", "lat": 52.521918, "lon": 13.331588, "intensity": 0.4, "source": "RBB"}, {"title": "Mitgliederbefragung \u00fcber Landesvorsitz: Die Berliner SPD sortiert sich neu", "url": "https://www.rbb24.de/politik/beitrag/2024/05/berlin-spd-landesvorsitz-mitgliederbefragung.html", "thumbnailUrl": null, "date": "Sat, 18 May 2024 09:05:15 +0200", "lat": 52.52, "lon": 13.405, "intensity": 0.7, "source": "RBB"}, {"title": "Kommunalwahlen 2024: In Oder-Spree kann die gr\u00f6\u00dfte Fraktion im Kreistag keine Politik gestalten", "url": "https://www.rbb24.de/politik/wahl/kommunalwahlen/2024/brandenburg-oder-spree-kreistag-afd-groesste-fraktion.html", "thumbnailUrl": null, "date": "Sat, 18 May 2024 08:20:13 +0200", "lat": 52.1657, "lon": 14.1601, "intensity": 0.7, "source": "RBB"}, {"title": "Erneut giftige Goldalgen in der Oder entdeckt", "url": "https://www.rbb24.de/panorama/beitrag/2024/05/goldalgen-in-oder-polnische-behoerden-gleiwitzer-kanal.html", "thumbnailUrl": null, "date": "Fri, 17 May 2024 22:34:00 +0200", "lat": 52.675, "lon": 14.495, "intensity": 0.7, "source": "RBB"}, {"title": "Psychiatrie f\u00fcr Straft\u00e4ter: Todesfall in Berliner Ma\u00dfregelvollzug - Hintergr\u00fcnde unklar", "url": "https://www.rbb24.de/panorama/beitrag/2024/05/toter-berliner-massregelvollzug-hintergrund-unklar.html", "thumbnailUrl": null, "date": "Fri, 17 May 2024 21:46:00 +0200", "lat": 52.52001, "lon": 13.38886, "intensity": 0.7, "source": "RBB"}, {"title": "Bundes-Klinik-Atlas: Patienten erhalten Unterst\u00fctzung bei der Krankenhaus-Suche", "url": "https://www.rbb24.de/panorama/beitrag/av7/video-berlin-brandenburg-klinik-atlas-behandlung-unterstuetzung-suche.html", "thumbnailUrl": null, "date": "Fri, 17 May 2024 21:06:17 +0200", "lat": 53.550344, "lon": 9.986287, "intensity": 0.6, "source": "RBB"}, {"title": "\"Das Stadtschloss empfinden die Menschen aus Ost-Berlin nicht als ihre Architektur\"", "url": "https://www.rbb24.de/kultur/beitrag/2024/05/berlin-potsdam-humboldtforum-berliner-schloss-palast-der-republik-abriss-neubau-restauration-rekonstruktion.html", "thumbnailUrl": null, "date": "Fri, 17 May 2024 20:34:00 +0200", "lat": 52.51704, "lon": 13.39377, "intensity": 0.6, "source": "RBB"}, {"title": "Feuerwehr bringt Brand in Reifenlager in Frankfurt (Oder) unter Kontrolle", "url": "https://www.rbb24.de/panorama/beitrag/2024/05/reifen-brennen-frankfurt-oder.html", "thumbnailUrl": null, "date": "Fri, 17 May 2024 19:38:13 +0200", "lat": 52.3476, "lon": 14.5511, "intensity": 0.7, "source": "RBB"}, {"title": "\"Lift Off\" am TXL: Konzerte und DJs am fr\u00fcheren Flughafen Tegel", "url": "https://www.rbb24.de/kultur/beitrag/2024/05/berlin-ex-flughafen-tegel-turbulence-kollektiv-lift-off-konzerte.html", "thumbnailUrl": null, "date": "Fri, 17 May 2024 18:52:10 +0200", "lat": 52.5548, "lon": 13.2877, "intensity": 0.7, "source": "RBB"}, {"title": "Tarifverhandlungen: Telekom-Besch\u00e4ftigte sollen bis zu 13,6 Prozentmehr Gehalt bekommen", "url": "https://www.rbb24.de/wirtschaft/beitrag/2024/05/tarifverhandlungen-telekom-lohnerhoehung-verdi.html", "thumbnailUrl": null, "date": "Fri, 17 May 2024 18:23:00 +0200", "lat": 48.7736, "lon": 9.1734, "intensity": 0.8, "source": "RBB"}, {"title": "Potsdamer PIK-Forscher Rockstr\u00f6m mit hochdotiertem Umweltpreis geehrt", "url": "https://www.rbb24.de/panorama/beitrag/2024/05/brandenburg-potsdam-institut-klimafolgenforschung-tyler-preis.html", "thumbnailUrl": null, "date": "Fri, 17 May 2024 17:59:18 +0200", "lat": 52.3906, "lon": 13.0657, "intensity": 0.7, "source": "RBB"}, {"title": "Sportbecken im Berliner Sommerbad Neuk\u00f6lln weiterhin nicht nutzbar", "url": "https://www.rbb24.de/panorama/beitrag/2024/05/sommerbad-neukoelln-sportbecken-gesperrt-reparatur.html", "thumbnailUrl": null, "date": "Fri, 17 May 2024 17:56:32 +0200", "lat": 52.4812, "lon": 13.4296, "intensity": 0.7, "source": "RBB"}, {"title": "Vorerst nur f\u00fcr Verein: Gro\u00dfr\u00e4schener See vorzeitig f\u00fcr Boote freigegeben", "url": "https://www.rbb24.de/panorama/beitrag/2024/05/freigabe-see-grossraeschen-boote-sportverein.html", "thumbnailUrl": null, "date": "Fri, 17 May 2024 17:40:00 +0200", "lat": 51.4436, "lon": 13.8747, "intensity": 0.5, "source": "RBB"}, {"title": "Dachstuhl in der Torstra\u00dfe brennt - Rauchs\u00e4ule \u00fcber Berlin zu sehen", "url": "https://www.rbb24.de/panorama/beitrag/2024/05/berlin-feuerwehr-dachstuhlbrand-rauchsaeule-torstrasse.html", "thumbnailUrl": null, "date": "Fri, 17 May 2024 17:30:27 +0200", "lat": 52.530443, "lon": 13.387992, "intensity": 0.8, "source": "RBB"}, {"title": "Ehepaar feiert den 80. Hochzeitstag - in Deutschland am l\u00e4ngsten verheiratet", "url": "https://www.rbb24.de/panorama/beitrag/2024/05/ehepaar-80-hochzeitstag-heirat-in-berlin.html", "thumbnailUrl": null, "date": "Fri, 17 May 2024 16:56:54 +0200", "lat": 51.1657, "lon": 10.4515, "intensity": 0.4, "source": "RBB"}, {"title": "Potsdam: Radfahrer stirbt eine Woche nach Unfall mit Lkw im Krankenhaus", "url": "https://www.rbb24.de/panorama/beitrag/2024/05/brandenburg-potsdam-unfall-radfahrer-krankenhaus-tot-gestorben-babelsberg.html", "thumbnailUrl": null, "date": "Fri, 17 May 2024 15:39:10 +0200", "lat": 52.3906, "lon": 13.0645, "intensity": 0.8, "source": "RBB"}, {"title": "Gesetzentwurf im Abgeordnetenhaus: Schwarz-rote Koalition in Berlin will die F\u00f6rderung politischer Stiftungen regeln", "url": "https://www.rbb24.de/politik/beitrag/2024/05/berlin-schwarz-rote-koalition-foerderung-politische-stiftungen-regelung.html", "thumbnailUrl": null, "date": "Fri, 17 May 2024 14:20:36 +0200", "lat": 52.52, "lon": 13.405, "intensity": 0.7, "source": "RBB"}, {"title": "Kommunalwahlen 2024: Oberhavel - ein Landkreis mit Wachstumsschmerzen", "url": "https://www.rbb24.de/politik/wahl/kommunalwahlen/2024/brandenburg-oberhavel-kreistag-wachstum-einwohner-probleme.html", "thumbnailUrl": null, "date": "Fri, 17 May 2024 06:38:48 +0200", "lat": 52.7055, "lon": 13.1729, "intensity": 0.8, "source": "RBB"}, {"title": "\"Verst\u00e4rkende Freiwildkultur\" - Giffey \u00e4u\u00dfert sich zum Angriff auf sie", "url": "https://www.rbb24.de/politik/beitrag/2024/05/berlin-angriff-giffey-reaktionen-freiwildkultur-wegner-stuebgen.html", "thumbnailUrl": null, "date": "Wed, 08 May 2024 10:23:00 +0200", "lat": 52.52, "lon": 13.4073, "intensity": 0.8, "source": "RBB"}, {"title": "\"Die Meinungsfreiheit des anderen muss man aushalten\"", "url": "https://www.ndr.de/nachrichten/niedersachsen/Die-Meinungsfreiheit-des-anderen-muss-man-aushalten,grundgesetz272.html", "thumbnailUrl": "https://www.ndr.de/kirche/grundgesetz224_v-contentwidescreen.jpg", "date": "2024-05-18T16:03:29.777+02:00", "lat": 51.5413, "lon": 9.9977, "intensity": 0.6, "source": "NDR"}, {"title": "CSD in Hannover findet mit neuem Sicherheitskonzept statt", "url": "https://www.ndr.de/nachrichten/niedersachsen/hannover_weser-leinegebiet/CSD-in-Hannover-findet-mit-neuem-Sicherheitskonzept-statt,csd1292.html", "thumbnailUrl": "https://www.ndr.de/nachrichten/niedersachsen/hannover_weser-leinegebiet/csd1298_v-contentwidescreen.jpg", "date": "2024-05-18T21:37:28.043+02:00", "lat": 52.3759, "lon": 9.732, "intensity": 0.8, "source": "NDR"}, {"title": "Pfingsten: Stockender Verkehr auf Autobahnen im Norden", "url": "https://www.ndr.de/nachrichten/niedersachsen/Pfingsten-Stockender-Verkehr-auf-Autobahnen-im-Norden,verkehr1288.html", "thumbnailUrl": "https://www.ndr.de/nachrichten/schleswig-holstein/stau1656_v-contentwidescreen.jpg", "date": "2024-05-18T16:29:53.701+02:00", "lat": 53.5503, "lon": 10.4515, "intensity": 0.6, "source": "NDR"}, {"title": "Werder Bremen siegt und schickt den VfL Bochum in die Relegation", "url": "https://www.ndr.de/sport/fussball/Werder-Bremen-siegt-und-schickt-den-VfL-Bochum-in-die-Relegation,werder15908.html", "thumbnailUrl": "https://www.ndr.de/sport/fussball/bundesliga/werder15896_v-contentwidescreen.jpg", "date": "2024-05-18T21:16:12.941+02:00", "lat": 53.0749, "lon": 8.8276, "intensity": 0.7, "source": "NDR"}, {"title": "Eine Pleite zum Abschluss: VfL Wolfsburg verliert gegen Mainz 05", "url": "https://www.ndr.de/sport/fussball/Eine-Pleite-zum-Abschluss-VfL-Wolfsburg-verliert-gegen-Mainz-05,wolfsburg19764.html", "thumbnailUrl": "https://www.ndr.de/sport/fussball/bundesliga/wolfsburg19780_v-contentwidescreen.jpg", "date": "2024-05-18T19:43:26.789+02:00", "lat": 52.4226, "lon": 10.7517, "intensity": 0.8, "source": "NDR"}, {"title": "Pfingstwochenende: Das Wetter im Norden zeigt sich wechselhaft", "url": "https://www.ndr.de/nachrichten/niedersachsen/Pfingstwochenende-Das-Wetter-im-Norden-zeigt-sich-wechselhaft,pfingstwetter110.html", "thumbnailUrl": "https://www.ndr.de/nachrichten/niedersachsen/unwetter3832_v-contentwidescreen.jpg", "date": "2024-05-18T22:59:40.131+02:00", "lat": 52.52, "lon": 10.4515, "intensity": 0.6, "source": "NDR"}, {"title": "Hamburgs Alsterschl\u00f6sschen soll verkauft werden", "url": "https://www.ndr.de/nachrichten/hamburg/Hamburgs-Alsterschloesschen-soll-verkauft-werden,alsterschloesschen102.html", "thumbnailUrl": "https://www.ndr.de/fernsehen/screenshot1068780_v-contentwidescreen.jpg", "date": "2024-05-18T20:12:10.031+02:00", "lat": 53.6211, "lon": 10.0752, "intensity": 0.7, "source": "NDR"}, {"title": "Aufarbeitung von Missbrauch: Pfarrer kritisiert Bistum Hildesheim", "url": "https://www.ndr.de/nachrichten/niedersachsen/hannover_weser-leinegebiet/Aufarbeitung-von-Missbrauch-Pfarrer-kritisiert-Bistum-Hildesheim,kirche2292.html", "thumbnailUrl": "https://www.ndr.de/missbrauch2454_v-contentwidescreen.jpg", "date": "2024-05-18T15:14:18.124+02:00", "lat": 52.1508, "lon": 10.5333, "intensity": 0.8, "source": "NDR"}, {"title": "Unfall in Seelze: Kind von Auto erfasst und t\u00f6dlich verletzt", "url": "https://www.ndr.de/nachrichten/niedersachsen/hannover_weser-leinegebiet/Unfall-in-Seelze-Kind-von-Auto-erfasst-und-toedlich-verletzt,aktuellhannover16208.html", "thumbnailUrl": "https://www.ndr.de/fernsehen/seelze358_v-contentwidescreen.jpg", "date": "2024-05-18T18:32:03.111+02:00", "lat": 52.3811, "lon": 9.5981, "intensity": 0.9, "source": "NDR"}, {"title": "Waldbrandrisiko: H\u00f6chste Gefahrenstufe im Osten und S\u00fcden von MV", "url": "https://www.ndr.de/nachrichten/mecklenburg-vorpommern/Waldbrandrisiko-Hoechste-Gefahrenstufe-im-Osten-und-Sueden-von-MV,waldbrand1016.html", "thumbnailUrl": "https://www.ndr.de/nachrichten/mecklenburg-vorpommern/radiomv/waldbrandgefahr306_v-contentwidescreen.jpg", "date": "2024-05-18T13:54:12.144+02:00", "lat": 53.6127, "lon": 13.1005, "intensity": 0.8, "source": "NDR"}, {"title": "S-Bahn: Sperrungen in den Hamburger Maiferien", "url": "https://www.ndr.de/nachrichten/hamburg/S-Bahn-Sperrungen-in-Hamburger-Maiferien,sbahn986.html", "thumbnailUrl": "https://www.ndr.de/nachrichten/hamburg/sbahn692_v-contentwidescreen.jpg", "date": "2024-05-18T20:08:06.067+02:00", "lat": 53.551085, "lon": 9.979795, "intensity": 0.7, "source": "NDR"}, {"title": "Bauarbeiten an der Huntebr\u00fccke schreiten voran", "url": "https://www.ndr.de/fernsehen/sendungen/hallo_niedersachsen/Bauarbeiten-an-der-Huntebruecke-schreiten-voran,hallonds87618.html", "thumbnailUrl": "https://www.ndr.de/fernsehen/screenshot1751070_v-contentwidescreen.jpg", "date": "2024-05-18T21:04:57.663+02:00", "lat": 52.9999, "lon": 8.4651, "intensity": 0.7, "source": "NDR"}, {"title": "Rettungsschwimmer der DLRG starten in die Badesaison", "url": "https://www.ndr.de/fernsehen/sendungen/nordmagazin/Rettungsschwimmer-der-DLRG-starten-in-die-Badesaison,nordmagazin118294.html", "thumbnailUrl": "https://www.ndr.de/fernsehen/screenshot1750984_v-contentwidescreen.jpg", "date": "2024-05-18T20:47:13.264+02:00", "lat": 53.6127, "lon": 12.4393, "intensity": 0.6, "source": "NDR"}, {"title": "L\u00fcbecker Bahnhofsbr\u00fccke: Zweites Br\u00fcckenteil eingeschoben", "url": "https://www.ndr.de/fernsehen/sendungen/schleswig-holstein_magazin/Luebecker-Bahnhofsbruecke-Zweites-Brueckenteil-eingeschoben,shmag116674.html", "thumbnailUrl": "https://www.ndr.de/fernsehen/sendungen/schleswig-holstein_magazin/screenshot1750972_v-contentwidescreen.jpg", "date": "2024-05-18T20:36:18.019+02:00", "lat": 53.8659, "lon": 10.6806, "intensity": 0.8, "source": "NDR"}, {"title": "Wie ist die Stimmung am Christopher Street Day in Hannover?", "url": "https://www.ndr.de/fernsehen/sendungen/hallo_niedersachsen/Wie-ist-die-Stimmung-am-Christopher-Street-Day-in-Hannover,hallonds87620.html", "thumbnailUrl": "https://www.ndr.de/fernsehen/screenshot1751038_v-contentwidescreen.jpg", "date": "2024-05-18T20:15:42.051+02:00", "lat": 52.37589, "lon": 9.73322, "intensity": 0.7, "source": "NDR"}, {"title": "Das Alsterschl\u00f6sschen sucht neue Besitzer", "url": "https://www.ndr.de/fernsehen/sendungen/hamburg_journal/Das-Alsterschloesschen-sucht-neue-Besitzer,hamj147336.html", "thumbnailUrl": "https://www.ndr.de/fernsehen/screenshot1751112_v-contentwidescreen.jpg", "date": "2024-05-18T20:33:41.289+02:00", "lat": 53.6476, "lon": 10.1085, "intensity": 0.6, "source": "NDR"}, {"title": "Drittkl\u00e4ssler suchen Rehkitze vor der Gr\u00fcnlandmahd", "url": "https://www.ndr.de/fernsehen/sendungen/nordmagazin/Drittklaessler-suchen-Rehkitze-vor-der-Gruenlandmahd,nordmagazin118298.html", "thumbnailUrl": "https://www.ndr.de/fernsehen/screenshot1751010_v-contentwidescreen.jpg", "date": "2024-05-18T20:50:28.094+02:00", "lat": 53.6127, "lon": 13.2324, "intensity": 0.7, "source": "NDR"}, {"title": "Woitendorf: Gute bis sehr gute Buchungslage zu Pfingsten in MV", "url": "https://www.ndr.de/nachrichten/info/Woitendorf-Gute-bis-sehr-gute-Buchungslage-zu-Pfingsten-in-MV,audio1637320.html", "thumbnailUrl": "https://www.ndr.de/talkimfunkhaus512_v-contentwidescreen.jpg", "date": "2024-05-18T11:32:28.504+02:00", "lat": 54.230902, "lon": 12.935227, "intensity": 0.7, "source": "NDR"}, {"title": "K\u00fche, Schweine und Schafe: Nutztier\u00e4rzte fehlen auf dem Land", "url": "https://www.ndr.de/nachrichten/info/Kuehe-Schweine-und-Schafe-Nutztieraerzte-fehlen-auf-dem-Land,audio1637352.html", "thumbnailUrl": "https://www.ndr.de/nachrichten/niedersachsen/oldenburg_ostfriesland/tieraerztinnen100_v-contentwidescreen.jpg", "date": "2024-05-18T11:31:05.537+02:00", "lat": 53.1961, "lon": 8.0499, "intensity": 0.5, "source": "NDR"}, {"title": "Kommunal- und Europawahl MV: Was wird am 9. Juni gew\u00e4hlt?", "url": "https://www.ndr.de/nachrichten/mecklenburg-vorpommern/wahlenmv2024/Kommunal-und-Europawahl-MV-Was-wird-am-9-Juni-gewaehlt,kommunalwahlmv134.html", "thumbnailUrl": "https://www.ndr.de/kommunalwahlmv142_v-contentwidescreen.jpg", "date": "2024-04-11T17:16:42.170+02:00", "lat": 53.6127, "lon": 12.1396, "intensity": 0.8, "source": "NDR"}, {"title": "Europawahl 2024: Alle Informationen f\u00fcr den Norden", "url": "https://www.ndr.de/nachrichten/info/Europawahl-2024-Alle-Informationen-fuer-Norden,europawahlindex104.html", "thumbnailUrl": "https://www.ndr.de/nachrichten/info/europawahl932_v-contentwidescreen.jpg", "date": "2024-05-17T13:48:44.726+02:00", "lat": 52.3759, "lon": 9.6869, "intensity": 0.5, "source": "NDR"}, {"title": "Unsere Demokratie: Gelebt. Gefordert. Geschenkt?", "url": "https://www.ndr.de/nachrichten/info/Unsere-Demokratie-Gelebt-Gefordert-Geschenkt,demokratie232.html", "thumbnailUrl": "https://www.ndr.de/grundgesetz258_v-contentwidescreen.jpg", "date": "2024-05-18T16:52:54.735+02:00", "lat": 51.329, "lon": 9.997, "intensity": 0.5, "source": "NDR"}, {"title": "Bezirksversammlungswahlen in Hamburg 2024", "url": "https://www.ndr.de/nachrichten/hamburg/wahl/bezirkswahlen/Bezirksversammlungswahlen-in-Hamburg,bezirkswahlen188.html", "thumbnailUrl": "https://www.ndr.de/nachrichten/hamburg/bezirkswahl128_v-contentwidescreen.jpg", "date": "2024-05-16T18:30:11.484+02:00", "lat": 53.5511, "lon": 9.9937, "intensity": 0.5, "source": "NDR"}, {"title": "Gaspreis Dashboard", "url": "https://www.ndr.de/home/gaspreis176.html", "thumbnailUrl": null, "date": "2023-04-06T14:49:06.409+02:00", "lat": 51.3426, "lon": 9.9976, "intensity": 0.7, "source": "NDR"}, {"title": "NDR Radioprogramme", "url": "https://www.ndr.de/radio/radiologobox100.html", "thumbnailUrl": null, "date": "2020-12-01T14:04:26.700+01:00", "lat": 53.5511, "lon": 9.9937, "intensity": 0.3, "source": "NDR"}, {"title": "Rammstein \u2013 Row Zero", "url": "https://www.ndr.de/podcast/podcast5930.html", "thumbnailUrl": "https://www.ndr.de/media/podcastbild538_v-contentwidescreen.jpg", "date": "2024-05-15T05:05:08.207+02:00", "lat": 52.52, "lon": 13.405, "intensity": 0.8, "source": "NDR"}, {"title": "Podcast: \"Wir Weltmeister\" - Auf der Suche nach 2014", "url": "https://www.ardaudiothek.de/sendung/wir-weltmeister-auf-der-suche-nach-2014/13360445/", "thumbnailUrl": "https://www.ndr.de/sport/fussball/fifawm2014/wirweltmeister108_v-contentwidescreen.jpg", "date": "2024-05-06T22:39:08.340+02:00", "lat": 53.5511, "lon": 9.9876, "intensity": 0.4, "source": "NDR"}, {"title": "Streitkr\u00e4fte und Strategien", "url": "https://www.ndr.de/nachrichten/info/podcast2998.html", "thumbnailUrl": "https://www.ndr.de/mediathek/mediathekbild652_v-contentwidescreen.jpg", "date": "2024-05-17T14:00:40.841+02:00", "lat": 53.5511, "lon": 9.9937, "intensity": 0.8, "source": "NDR"}, {"title": "Raus aus der Depression", "url": "https://www.ndr.de/nachrichten/info/podcast5110.html", "thumbnailUrl": "https://www.ndr.de/mediathek/podcast5112_v-contentwidescreen.jpg", "date": "2024-05-14T21:27:06.511+02:00", "lat": 53.5511, "lon": 9.9937, "intensity": 0.8, "source": "NDR"}, {"title": "Unsere Comedy \"Die Kur-Oase\"!", "url": "https://www.ndr.de/ndr2/podcasts/podcast5816.html", "thumbnailUrl": "https://www.ndr.de/ndr2/podcasts/podcast5812_v-contentwidescreen.jpg", "date": "2024-05-17T17:03:25.134+02:00", "lat": 54.9069, "lon": 8.7386, "intensity": 0.2, "source": "NDR"}, {"title": "Podcast: \"Gerichtssaal 237. True Crime aus dem Strafgericht\"", "url": "https://www.ndr.de/podcast/Podcast-Gerichtssaal-237-True-Crime-aus-dem-Strafgericht,gerichtssaalzweidreisieben104.html", "thumbnailUrl": "https://www.ndr.de/podcast/gerichtssaalzweidreisieben100_v-contentwidescreen.jpg", "date": "2024-05-08T08:30:02.362+02:00", "lat": 53.550341, "lon": 10.000348, "intensity": 0.3, "source": "NDR"}, {"title": "Krieg und Terror - Die Lage im Nahen Osten und in der Ukraine", "url": "https://www.ndr.de/nachrichten/info/podcast5342.html", "thumbnailUrl": "https://www.ndr.de/nachrichten/info/podcastbild412_v-contentwidescreen.jpg", "date": "2024-05-18T17:12:18.694+02:00", "lat": 46.79651, "lon": 30.739834, "intensity": 0.8, "source": "NDR"}, {"title": "Standpunkte", "url": "https://www.ndr.de/nachrichten/info/podcast4700.html", "thumbnailUrl": "https://www.ndr.de/mediathek/podcast5332_v-contentwidescreen.jpg", "date": "2024-05-18T00:02:29.046+02:00", "lat": 53.5511, "lon": 9.9937, "intensity": 0.5, "source": "NDR"}, {"title": "eat.READ.sleep. B\u00fccher f\u00fcr dich", "url": "https://www.ndr.de/kultur/sendungen/eat_read_sleep/index.html", "thumbnailUrl": "https://www.ndr.de/mediathek/podcastbild434_v-contentwidescreen.jpg", "date": "2024-05-17T06:00:19.370+02:00", "lat": 53.5511, "lon": 9.9937, "intensity": 0.2, "source": "NDR"}, {"title": "Die Ern\u00e4hrungs-Docs - Essen als Medizin", "url": "https://www.ndr.de/fernsehen/sendungen/die-ernaehrungsdocs/audio-podcast/index.html", "thumbnailUrl": "https://www.ndr.de/fernsehen/sendungen/die-ernaehrungsdocs/podcastbild338_v-contentwidescreen.jpg", "date": "2024-05-17T13:30:02.904+02:00", "lat": 53.5511, "lon": 9.9876, "intensity": 0.3, "source": "NDR"}, {"title": "Mein Einsatz - der Feuerwehr-Podcast von NDR Niedersachsen", "url": "https://www.ndr.de/ndr1niedersachsen/podcast5774.html", "thumbnailUrl": "https://www.ndr.de/ndr1niedersachsen/podcasts/podcastbild364_v-contentwidescreen.jpg", "date": "2024-05-09T04:00:08.209+02:00", "lat": 52.3759, "lon": 9.7345, "intensity": 0.7, "source": "NDR"}, {"title": "\"Feel Hamburg\" - alle Folgen", "url": "https://www.ndr.de/903/podcasts/podcast5108.html", "thumbnailUrl": "https://www.ndr.de/mediathek/mediathekbild514_v-contentwidescreen.jpg", "date": "2024-05-15T05:00:10.772+02:00", "lat": 53.55, "lon": 10.0, "intensity": 0.4, "source": "NDR"}, {"title": "Intensiv-Station - Satire von NDR Info", "url": "https://www.ndr.de/nachrichten/info/podcast4274.html", "thumbnailUrl": "https://www.ndr.de/nachrichten/info/programm/intensivstation3272_v-contentwidescreen.jpg", "date": "2024-04-29T21:03:04.134+02:00", "lat": 54.3706, "lon": 10.5038, "intensity": 0.8, "source": "NDR"}, {"title": "Amerika, wir m\u00fcssen reden!", "url": "https://www.ndr.de/nachrichten/info/podcast4932.html", "thumbnailUrl": "https://www.ndr.de/nachrichten/info/podcastbild488_v-contentwidescreen.jpg", "date": "2024-05-13T17:50:08.585+02:00", "lat": 39.78373, "lon": -100.445882, "intensity": 0.7, "source": "NDR"}, {"title": "Schw\u00e4chelnder Jetstream: Darum gibt es gerade so oft Starkregen", "url": "https://www1.wdr.de/nachrichten/wetter-wechsel-gewitter-potenzial-100.html", "thumbnailUrl": null, "date": "2024-05-18T20:07:51Z", "lat": 51.9607, "lon": 7.5955, "intensity": 0.6, "source": "WDR"}, {"title": "Bayer 04 bleibt unbesiegt: Bayer Leverkusen schl\u00e4gt Augsburg und feiert perfekte Bundesliga-Saison", "url": "https://www.sportschau.de/fussball/bundesliga/meister-leverkusen-feiert-makellose-bundesliga-saison,bundesliga-spielbericht-leverkusen-augsburg-106.html", "thumbnailUrl": null, "date": "2024-05-18T18:03:03Z", "lat": 51.0406, "lon": 7.0123, "intensity": 0.8, "source": "WDR"}, {"title": "Neues Mobilisierungsgesetz in der Ukraine tritt in Kraft - Was das f\u00fcr Ukrainer hierzulande bedeutet", "url": "https://www1.wdr.de/nachrichten/ukraine-mobilisierungsgesetz-100.html", "thumbnailUrl": null, "date": "2024-05-18T14:01:58Z", "lat": 50.4501, "lon": 30.5234, "intensity": 0.8, "source": "WDR"}, {"title": "Hoch zu Steckenpferd: Andrang beim ersten Hobby Horsing Turnier in Hattingen", "url": "https://www1.wdr.de/nachrichten/ruhrgebiet/hobby-horsing-turnier-hattingen-100.html", "thumbnailUrl": null, "date": "2024-05-18T17:48:38Z", "lat": 51.3973, "lon": 7.1843, "intensity": 0.4, "source": "WDR"}, {"title": "M\u00e4dchen st\u00fcrzt durch Rathausdach in Iserlohn", "url": "https://www1.wdr.de/nachrichten/maedchen-sturz-rathausdach-iserlohn-100.html", "thumbnailUrl": null, "date": "2024-05-18T18:47:20Z", "lat": 51.377, "lon": 7.696, "intensity": 0.8, "source": "WDR"}, {"title": "Austausch mit der Redaktion: Mitmischen! Im WDR-Newsroom", "url": "https://www1.wdr.de/nachrichten/aktion-mitmischen-wdr-newsroom-100.html", "thumbnailUrl": null, "date": "2024-05-14T17:25:39Z", "lat": 50.77664, "lon": 7.11392, "intensity": 0.1, "source": "WDR"}, {"title": "So sicher sind die NRW-Parteien vor Cyber-Angriffen", "url": "https://www1.wdr.de/nachrichten/landespolitik/cybersicherheit-nrw-parteien-100.html", "thumbnailUrl": null, "date": "2024-05-17T10:03:24Z", "lat": 51.9607, "lon": 7.6261, "intensity": 0.4, "source": "WDR"}, {"title": "Europawahl: Wir m\u00fcssen 16-J\u00e4hrige besser darauf vorbereiten! | MEINUNG", "url": "https://www1.wdr.de/nachrichten/impuls-europawahl-ab-16-100.html", "thumbnailUrl": null, "date": "2024-05-15T14:26:36Z", "lat": 51.4332, "lon": 9.9937, "intensity": 0.3, "source": "WDR"},