[{"title": "Vermisster 85-J\u00e4hriger aus Lehrte leblos aufgefunden", "url": "https://www.tagesschau.de/inland/regional/niedersachsen/ndr-polizei-sucht-den-85-jaehrigen-anatoli-r-aus-lehrte-100.html", "thumbnailUrl": "https://images.tagesschau.de/image/f9927396-7cda-456f-9f87-aa73601c8622/AAABjpqBXPk/AAABjcWesUg/16x9-512.jpg", "date": "2024-04-01T18:30:00.000+02:00", "lat": 52.3886, "lon": 9.8406, "intensity": 0.7, "source": "Tagesschau"}, {"title": "Saisonstart in MV: Tourismusbranche zufrieden mit dem Ostergesch\u00e4ft", "url": "https://www.tagesschau.de/inland/regional/mecklenburgvorpommern/ndr-saisonstart-in-mv-tourismusbranche-zufrieden-mit-dem-ostergeschaeft-100.html", "thumbnailUrl": "https://images.tagesschau.de/image/cef98533-7c61-43f7-8fd8-763616c96cd6/AAABjppL1bs/AAABjcWesUg/16x9-512.jpg", "date": "2024-04-01T18:29:00.000+02:00", "lat": 53.6127, "lon": 12.5655, "intensity": 0.8, "source": "Tagesschau"}, {"title": "FC Saarbr\u00fccken TT verteidigt Champions League-Titel", "url": "https://www.tagesschau.de/inland/regional/saarland/sr-finale-dehemm-fuer-fcs-tischtennis-in-der-champions-league-102.html", "thumbnailUrl": "https://images.tagesschau.de/image/e7b7e693-a9e8-49f4-9204-aa23e8a9d765/AAABjppcRR0/AAABjcWesUg/16x9-512.jpg", "date": "2024-04-01T18:26:00.000+02:00", "lat": 49.2354, "lon": 6.9619, "intensity": 0.8, "source": "Tagesschau"}, {"title": "Handball-Bundesliga: Schl\u00e4frige MT Melsungen verliert in Hamburg", "url": "https://www.tagesschau.de/inland/regional/hessen/hr-handball-bundesliga-schlaefrige-mt-melsungen-verliert-in-hamburg-102.html", "thumbnailUrl": "https://images.tagesschau.de/image/77bc304e-475e-47b0-97ec-cb34ae323a17/AAABjppydpE/AAABjcWesUg/16x9-512.jpg", "date": "2024-04-01T18:10:54.797+02:00", "lat": 53.5511, "lon": 10.0003, "intensity": 0.6, "source": "Tagesschau"}, {"title": "++ Explosion in Damaskus nahe iranischer Botschaft ++", "url": "https://www.tagesschau.de/newsticker/liveblog-nahost-montag-124.html", "thumbnailUrl": "https://images.tagesschau.de/image/25c97d63-a482-4924-8b72-1ab2290664a9/AAABjppkK1w/AAABjcWesUg/16x9-512.jpg", "date": "2024-04-01T18:08:50.667+02:00", "lat": 31.7683, "lon": 35.2137, "intensity": 0.7, "source": "Tagesschau"}, {"title": "T\u00f6dliche Einsatzfahrt in Frankfurt: Frau stirbt nach Zusammensto\u00df von Rettungswagen mit Pkw ", "url": "https://www.tagesschau.de/inland/regional/hessen/hr-toedliche-einsatzfahrt-in-frankfurt-frau-stirbt-nach-zusammenstoss-von-rettungswagen-mit-pkw-100.html", "thumbnailUrl": "https://images.tagesschau.de/image/7f608da8-0a31-4c61-af1e-028dee107a60/AAABjppalm4/AAABjcWesUg/16x9-512.jpg", "date": "2024-04-01T17:48:40.666+02:00", "lat": 50.0686, "lon": 8.6375, "intensity": 0.8, "source": "Tagesschau"}, {"title": "Ein Denkzettel f\u00fcr Erdogan", "url": "https://www.tagesschau.de/kommentar/kommunalwahlen-tuerkei-erdogan-100.html", "thumbnailUrl": "https://images.tagesschau.de/image/5bcb1dd9-8324-4bc0-9759-01561b4b8dec/AAABjppPn8E/AAABjcWesUg/16x9-512.jpg", "date": "2024-04-01T17:40:20.817+02:00", "lat": 39.9612, "lon": 35.2433, "intensity": 0.6, "source": "Tagesschau"}, {"title": "Ticketpreise gestiegen: So teuer wird es im Nahverkehr in SH", "url": "https://www.tagesschau.de/inland/regional/schleswigholstein/ndr-ticketpreise-steigen-so-teuer-wird-es-im-nahverkehr-in-sh-100.html", "thumbnailUrl": "https://images.tagesschau.de/image/9fdeb354-0cc9-4034-8dfa-63097ea3cc4f/AAABjppKaJw/AAABjcWesUg/16x9-512.jpg", "date": "2024-04-01T17:30:00.000+02:00", "lat": 54.5519, "lon": 9.6966, "intensity": 0.4, "source": "Tagesschau"}, {"title": "Schleuse Banzkow: Schweriner Seen wieder f\u00fcr Boote erreichbar", "url": "https://www.tagesschau.de/inland/regional/mecklenburgvorpommern/ndr-schleuse-banzkow-schweriner-seen-wieder-fuer-boote-erreichbar-100.html", "thumbnailUrl": "https://images.tagesschau.de/image/b4c873b0-0514-4a72-8bc5-ac8a2c63806f/AAABjpf1Edo/AAABjcWesUg/16x9-512.jpg", "date": "2024-04-01T17:14:00.000+02:00", "lat": 53.6269, "lon": 11.4501, "intensity": 0.6, "source": "Tagesschau"}, {"title": "R\u00fcgener Wanderfr\u00fchling hat begonnen", "url": "https://www.tagesschau.de/inland/regional/mecklenburgvorpommern/ndr-ruegener-wanderfruehling-beginnt-100.html", "thumbnailUrl": "https://images.tagesschau.de/image/361d9002-3865-4318-96e2-a70a43120c75/AAABjph8kAg/AAABjcWesUg/16x9-512.jpg", "date": "2024-04-01T17:13:00.000+02:00", "lat": 54.3992, "lon": 13.4274, "intensity": 0.6, "source": "Tagesschau"}, {"title": "Autofahrer \u00fcberf\u00e4hrt bei Flucht Verkehrsschilder und Bauz\u00e4une", "url": "https://www.tagesschau.de/inland/regional/niedersachsen/ndr-autofahrer-ueberfaehrt-bei-flucht-verkehrsschilder-und-bauzaeune-100.html", "thumbnailUrl": "https://images.tagesschau.de/image/6d5f7b1f-2738-4bb8-8d04-f674f40add99/AAABjppOIvA/AAABjcWesUg/16x9-512.jpg", "date": "2024-04-01T17:06:00.000+02:00", "lat": 53.079296, "lon": 8.801694, "intensity": 0.7, "source": "Tagesschau"}, {"title": "Tr\u00fcbes Wetter an Ostermontag: Im Norden gab es Schauer und Sturm", "url": "https://www.tagesschau.de/inland/regional/hamburg/ndr-warm-und-sonnig-so-wird-das-oster-wetter-im-norden-100.html", "thumbnailUrl": "https://images.tagesschau.de/image/54060ae3-2294-49fe-8b3e-2fc5afb5b879/AAABjpocqwM/AAABjcWesUg/16x9-512.jpg", "date": "2024-04-01T16:49:00.000+02:00", "lat": 52.0, "lon": 10.0, "intensity": 0.7, "source": "Tagesschau"}, {"title": "Besucherrekord auf der S21-Baustelle", "url": "https://www.tagesschau.de/inland/regional/badenwuerttemberg/swr-baustellenbesichtigung-von-stuttgart-21-das-denken-die-besucher-100.html", "thumbnailUrl": "https://images.tagesschau.de/image/749e0fff-27a4-413a-9c04-decb4a991d15/AAABjpo5fzY/AAABjcWesUg/16x9-512.jpg", "date": "2024-04-01T16:43:00.000+02:00", "lat": 48.7758, "lon": 9.1829, "intensity": 0.8, "source": "Tagesschau"}, {"title": "Nach Ank\u00fcndigung: Boxt Stefan Raab wirklich nochmal gegen Regina Halmich?", "url": "https://www.tagesschau.de/inland/regional/nordrheinwestfalen/wdr-stefan-raab-comeback-oder-aprilscherz-100.html", "thumbnailUrl": "https://images.tagesschau.de/image/a1fbbb7d-490e-49e5-94d9-afd902211307/AAABjpoyI5c/AAABjcWesUg/16x9-512.jpg", "date": "2024-04-01T16:41:00.000+02:00", "lat": 51.4818, "lon": 7.6123, "intensity": 0.8, "source": "Tagesschau"}, {"title": "Erdogan will nach Niederlage \"Fehler korrigieren\"", "url": "https://www.tagesschau.de/ausland/kommunalwahlen-tuerkei-erdogan-verliert-100.html", "thumbnailUrl": "https://images.tagesschau.de/image/b0e98f01-f068-475c-98e7-2c0d402345c6/AAABjpn3h3U/AAABjcWesUg/16x9-512.jpg", "date": "2024-04-01T16:29:34.917+02:00", "lat": 38.9637, "lon": 35.2433, "intensity": 0.8, "source": "Tagesschau"}, {"title": "F\u00fcr Frieden und Abr\u00fcstung: Abschluss der Osterm\u00e4rsche mit Kundgebung in Frankfurt", "url": "https://www.tagesschau.de/inland/regional/hessen/hr-200-menschen-marschieren-in-bruchkoebel-fuer-den-frieden-100.html", "thumbnailUrl": "https://images.tagesschau.de/image/42c9eab6-76c9-4c93-a117-c163f746bf71/AAABjpoKD_g/AAABjcWesUg/16x9-512.jpg", "date": "2024-04-01T16:21:11.709+02:00", "lat": 50.1109, "lon": 8.6821, "intensity": 0.6, "source": "Tagesschau"}, {"title": "Modernisierung der Ampeln: Gro\u00dfer Stern ist ab Dienstag f\u00fcr vier Tage gesperrt", "url": "https://www.tagesschau.de/inland/regional/berlin/rbb-modernisierung-der-ampeln-grosser-stern-ist-ab-dienstag-fuer-vier-tage-gesperrt-100.html", "thumbnailUrl": "https://images.tagesschau.de/image/3c0f1e03-9370-4199-96d2-87a1194817c3/AAABjpn_Sy0/AAABjcWesUg/16x9-512.jpg", "date": "2024-04-01T16:06:46.000+02:00", "lat": 52.5147, "lon": 13.3428, "intensity": 0.6, "source": "Tagesschau"}, {"title": "Milder Winter: Kr\u00f6tenwanderung endet in diesem Jahr fr\u00fcher", "url": "https://www.tagesschau.de/inland/regional/niedersachsen/ndr-milder-winter-kroetenwanderung-endet-in-diesem-jahr-frueher-100.html", "thumbnailUrl": "https://images.tagesschau.de/image/e920d905-ce2a-4571-b2db-892bc9713701/AAABjpn9ie0/AAABjcWesUg/16x9-512.jpg", "date": "2024-04-01T16:05:00.000+02:00", "lat": 52.3759, "lon": 9.7392, "intensity": 0.4, "source": "Tagesschau"}, {"title": "Vor 80 Jahren: Als der Luftkrieg Saarbr\u00fccken komplett zerst\u00f6rte", "url": "https://www.tagesschau.de/inland/regional/saarland/sr-vor-80-jahren-als-der-luftkrieg-saarbruecken-komplett-zerstoerte-100.html", "thumbnailUrl": "https://images.tagesschau.de/image/b7dbb74b-db4c-4af5-aa64-fd47d53510c2/AAABjpn1xnc/AAABjcWesUg/16x9-512.jpg", "date": "2024-04-01T15:58:00.000+02:00", "lat": 49.2402, "lon": 6.9954, "intensity": 0.8, "source": "Tagesschau"}, {"title": "++ St\u00e4dtebund will \"Integrationsturbo\" f\u00fcr Ukrainer ++", "url": "https://www.tagesschau.de/newsticker/liveblog-ukraine-montag-352.html", "thumbnailUrl": "https://images.tagesschau.de/image/5b073b67-29bf-4703-b6b1-71469e4c25bb/AAABizMn-kk/AAABjcWesUg/16x9-512.jpg", "date": "2024-04-01T15:46:13.861+02:00", "lat": 53.551086, "lon": 9.993682, "intensity": 0.7, "source": "Tagesschau"}, {"title": "Bauprojekt in Potsdam-Mittelmark: Im Schatten der Beelitzer Heilst\u00e4tten", "url": "https://www.tagesschau.de/inland/regional/brandenburg/rbb-bauprojekt-in-potsdam-mittelmark-im-schatten-der-beelitzer-heilstaetten-100.html", "thumbnailUrl": "https://images.tagesschau.de/image/bea7a0de-d0fd-4684-9664-98a7dd0f3ee6/AAABjpnsxnU/AAABjcWesUg/16x9-512.jpg", "date": "2024-04-01T15:45:32.000+02:00", "lat": 52.3344, "lon": 13.1649, "intensity": 0.8, "source": "Tagesschau"}, {"title": "FSB meldet weitere Festnahmen nach Terroranschlag", "url": "https://www.tagesschau.de/ausland/europa/russland-festnahmen-nach-anschlag-100.html", "thumbnailUrl": "https://images.tagesschau.de/image/fd4dabec-8ff1-44f4-ab04-127b4d631cf5/AAABjpnY4-U/AAABjcWesUg/16x9-512.jpg", "date": "2024-04-01T15:30:12.836+02:00", "lat": 42.9836, "lon": 47.1167, "intensity": 0.8, "source": "Tagesschau"}, {"title": "Fr\u00fchling kommt nur langsam n\u00e4her: Das erwartet die Menschen in BW nach Ostern", "url": "https://www.tagesschau.de/inland/regional/badenwuerttemberg/swr-stau-sonne-sahara-staub-das-erwartet-die-menschen-in-bw-an-ostern-100.html", "thumbnailUrl": "https://images.tagesschau.de/image/e9ac3cba-39a1-4455-9d86-6cb45044ab73/AAABjpEVbu8/AAABjcWesUg/16x9-512.jpg", "date": "2024-04-01T15:29:00.000+02:00", "lat": 48.7904, "lon": 9.0238, "intensity": 0.5, "source": "Tagesschau"}, {"title": "Regionalliga Nordost: Energie Cottbus r\u00fcckt durch knappen Sieg gegen Eilenburg auf Platz zwei vor", "url": "https://www.tagesschau.de/inland/regional/brandenburg/rbb-regionalliga-nordost-energie-cottbus-rueckt-durch-knappen-sieg-gegen-eilenburg-auf-platz-zwei-vor-102.html", "thumbnailUrl": "https://images.tagesschau.de/image/ec395e47-e2cd-43bd-bf1b-10a12de6876b/AAABjpnWyrY/AAABjcWesUg/16x9-512.jpg", "date": "2024-04-01T15:20:00.000+02:00", "lat": 51.770186, "lon": 14.331427, "intensity": 0.8, "source": "Tagesschau"}, {"title": "Letzter Ostertag und Ferienende - dichter Verkehr, vereinzelt Staus", "url": "https://www.tagesschau.de/inland/regional/niedersachsen/ndr-osterverkehr-2024-hier-muessen-autofahrer-mit-staus-rechnen-100.html", "thumbnailUrl": "https://images.tagesschau.de/image/bfe54367-ce59-4a2e-8139-3361e7726b4c/AAABjpocsEM/AAABjcWesUg/16x9-512.jpg", "date": "2024-04-01T15:13:00.000+02:00", "lat": 52.3758916, "lon": 9.7320104, "intensity": 0.7, "source": "Tagesschau"}, {"title": "Teurer Kakao - reiche Bauern?", "url": "https://www.tagesschau.de/ausland/afrika/elfenbeinkueste-kakao-100.html", "thumbnailUrl": "https://images.tagesschau.de/image/df09df10-c2c0-4483-a57e-d3f7dfe9ee31/AAABjpnEUGg/AAABjcWesUg/16x9-512.jpg", "date": "2024-04-01T15:06:03.969+02:00", "lat": 7.54, "lon": -5.5471, "intensity": 0.7, "source": "Tagesschau"}, {"title": "Kirchheim/Teck: Feuer in Baumarkt ausgebrochen", "url": "https://www.tagesschau.de/inland/regional/badenwuerttemberg/swr-kirchheimteck-feuer-in-baumarkt-ausgebrochen-100.html", "thumbnailUrl": "https://images.tagesschau.de/image/4fee7d0f-5641-44a6-aebd-e193fe1e12f2/AAABjpUsyOo/AAABjcWesUg/16x9-512.jpg", "date": "2024-04-01T15:04:00.000+02:00", "lat": 48.6413, "lon": 9.40504, "intensity": 0.8, "source": "Tagesschau"}, {"title": "Cannabis-Legalisierung in Kraft getreten ", "url": "https://www.tagesschau.de/inland/regional/hessen/hr-cannabis-legalisierung-in-kraft-getreten-100.html", "thumbnailUrl": "https://images.tagesschau.de/image/5115125c-1dac-4dc1-9a5f-f38baeee462d/AAABjpnCwTg/AAABjcWesUg/16x9-512.jpg", "date": "2024-04-01T15:02:36.448+02:00", "lat": 50.5777, "lon": 9.6933, "intensity": 0.8, "source": "Tagesschau"}, {"title": "War's das mit Skifahren in Deutschland?", "url": "https://www.tagesschau.de/wissen/klima/skifahren-deutschland-zukunft-100.html", "thumbnailUrl": "https://images.tagesschau.de/image/b413be8d-48b7-486c-92eb-f45316c7cdc8/AAABjpnIJhs/AAABjcWesUg/16x9-512.jpg", "date": "2024-04-01T15:02:08.616+02:00", "lat": 47.6195, "lon": 9.7431, "intensity": 0.6, "source": "Tagesschau"}, {"title": "Landkreis Spree-Nei\u00dfe: Vier Menschen bei Verkehrsunfall in Kolkwitz schwer verletzt", "url": "https://www.tagesschau.de/inland/regional/brandenburg/rbb-landkreis-spree-neisse-vier-menschen-bei-verkehrsunfall-in-kolkwitz-zum-teil-schwer-verletzt-100.html", "thumbnailUrl": "https://images.tagesschau.de/image/8c58a97b-b87c-4db3-9b12-57b8a5069b03/AAABjpm7SwI/AAABjcWesUg/16x9-512.jpg", "date": "2024-04-01T14:53:24.000+02:00", "lat": 51.7181, "lon": 14.3246, "intensity": 0.8, "source": "Tagesschau"}, {"title": "Neue K\u00f6hlbrandbr\u00fccke soll bis zu 5,3 Milliarden Euro kosten", "url": "https://www.tagesschau.de/inland/regional/hamburg/ndr-koehlbrandbruecke-leonhard-will-neue-plaene-praesentieren-100.html", "thumbnailUrl": "https://images.tagesschau.de/image/acaf40ed-50c3-402c-b0e9-4304cfe7e813/AAABjpl17RM/AAABjcWesUg/16x9-512.jpg", "date": "2024-04-01T14:35:00.000+02:00", "lat": 53.5461, "lon": 9.9869, "intensity": 0.7, "source": "Tagesschau"}, {"title": "Cannabis-Legalisierung: Das gilt seit Ostermontag", "url": "https://www.tagesschau.de/inland/regional/badenwuerttemberg/swr-cannabis-legalisierung-ab-ostermontag-das-gilt-jetzt-100.html", "thumbnailUrl": "https://images.tagesschau.de/image/1708d2f9-2d21-45d3-ad18-01aad536feaf/AAABjonPQsA/AAABjcWesUg/16x9-512.jpg", "date": "2024-04-01T14:31:00.000+02:00", "lat": 48.8566, "lon": 9.35, "intensity": 0.6, "source": "Tagesschau"}, {"title": "Mann erschossen - Polizistin schwer verletzt", "url": "https://www.tagesschau.de/inland/regional/niedersachsen/grosseinsatz-der-polizei-nach-schuessen-in-nienburg-100.html", "thumbnailUrl": "https://images.tagesschau.de/image/fe871530-9d7b-4384-a451-80d7445cc255/AAABjpB4ZaM/AAABjcWesUg/16x9-512.jpg", "date": "2024-04-01T14:12:00.000+02:00", "lat": 52.636, "lon": 9.234, "intensity": 0.9, "source": "Tagesschau"}, {"title": "Darmstadt 98 gibt nicht auf: \"Relegation ist unsere Meisterschaft\"", "url": "https://www.tagesschau.de/inland/regional/hessen/hr-darmstadt-98-gibt-nicht-auf-relegation-ist-unsere-meisterschaft-102.html", "thumbnailUrl": "https://images.tagesschau.de/image/5c651791-037e-40f4-8c4f-8325b2a25721/AAABjpmq4Mo/AAABjcWesUg/16x9-512.jpg", "date": "2024-04-01T14:10:47.362+02:00", "lat": 49.8738, "lon": 8.6553, "intensity": 0.7, "source": "Tagesschau"}, {"title": "Alkoholverbot am Hamburger Hauptbahnhof wird am Dienstag wirksam", "url": "https://www.tagesschau.de/inland/regional/hamburg/ndr-alkoholverbot-am-hamburger-hauptbahnhof-tritt-am-dienstag-in-kraft-100.html", "thumbnailUrl": "https://images.tagesschau.de/image/1abf6620-cb89-4f2a-aca2-6511c86b5369/AAABjpmPjwE/AAABjcWesUg/16x9-512.jpg", "date": "2024-04-01T13:50:00.000+02:00", "lat": 53.5526, "lon": 9.9937, "intensity": 0.8, "source": "Tagesschau"}, {"title": "Berlin-Nikolassee: Zwei Schwerverletzte nach mutma\u00dflichem illegalem Rennen", "url": "https://www.tagesschau.de/inland/regional/berlin/rbb-berlin-nikolassee-zwei-schwerverletzte-nach-mutmasslichem-illegalem-rennen-100.html", "thumbnailUrl": "https://images.tagesschau.de/image/9aeb0f34-c945-49eb-9e86-2dde87cd5f65/AAABjpl_EME/AAABjcWesUg/16x9-512.jpg", "date": "2024-04-01T13:47:19.000+02:00", "lat": 52.4268, "lon": 13.2517, "intensity": 0.8, "source": "Tagesschau"}, {"title": "Reglose Person in Bankfiliale: Mann schl\u00e4ft beim Geldabheben ein", "url": "https://www.tagesschau.de/inland/regional/niedersachsen/ndr-reglose-person-in-bankfiliale-mann-schlaeft-beim-geldabheben-ein-100.html", "thumbnailUrl": "https://images.tagesschau.de/image/1940cecd-5be1-4549-9e56-6e5f4e5b7a80/AAABjpl7fw4/AAABjcWesUg/16x9-512.jpg", "date": "2024-04-01T13:42:00.000+02:00", "lat": 53.1839, "lon": 8.7975, "intensity": 0.4, "source": "Tagesschau"}, {"title": "Ex-Verkehrsminister Scheuer verl\u00e4sst Bundestag", "url": "https://www.tagesschau.de/inland/innenpolitik/andreas-scheuer-bundestag-100.html", "thumbnailUrl": "https://images.tagesschau.de/image/97ec30ad-32e4-4780-941e-27c6899af06c/AAABhnPuXOQ/AAABjcWesUg/16x9-512.jpg", "date": "2024-04-01T13:34:16.610+02:00", "lat": 51.1657, "lon": 10.4515, "intensity": 0.7, "source": "Tagesschau"}, {"title": "FCS-Trainer Ziehl ist optimistisch, dass DFB-Pokal-Spiel stattfinden kann", "url": "https://www.tagesschau.de/inland/regional/saarland/sr-fcs-trainer-ziehl-optimistisch-dass-dfb-pokal-spiel-stattfinden-kann-100.html", "thumbnailUrl": "https://images.tagesschau.de/image/dc926a93-1a8c-471d-91e1-0536b2e2c670/AAABjplNRsM/AAABjcWesUg/16x9-512.jpg", "date": "2024-04-01T12:55:00.000+02:00", "lat": 49.2264, "lon": 6.9928, "intensity": 0.8, "source": "Tagesschau"}, {"title": "Lagerhalle in Flammen: Rauchs\u00e4ule zieht \u00fcber Hannover", "url": "https://www.tagesschau.de/inland/regional/niedersachsen/ndr-lagerhalle-in-flammen-80-feuerwehrleute-bei-brand-im-einsatz-100.html", "thumbnailUrl": "https://images.tagesschau.de/image/0c164e77-d37a-457b-8de0-6c36ea09da48/AAABjplRbaE/AAABjcWesUg/16x9-512.jpg", "date": "2024-04-01T12:53:00.000+02:00", "lat": 52.3833, "lon": 9.7301, "intensity": 0.8, "source": "Tagesschau"}, {"title": "Kind mit Spielzeugwaffe auf A11 l\u00f6st Polizeieinsatz aus", "url": "https://www.tagesschau.de/inland/regional/brandenburg/rbb-kind-mit-spielzeugwaffe-auf-a11-loest-polizeieinsatz-aus-100.html", "thumbnailUrl": "https://images.tagesschau.de/image/42ac0869-d6f2-4943-9808-d897d3fbd232/AAABjpn_Tck/AAABjcWesUg/16x9-512.jpg", "date": "2024-04-01T12:39:31.000+02:00", "lat": 52.3989, "lon": 13.0167, "intensity": 0.3, "source": "Tagesschau"}, {"title": "Hunderte feiern Cannabis-Legalisierung in Berlin", "url": "https://www.tagesschau.de/inland/regional/berlin/rbb-hunderte-feiern-cannabis-legalisierung-in-berlin-100.html", "thumbnailUrl": "https://images.tagesschau.de/image/298a8c73-da6b-4d9a-957d-13f92e90a70f/AAABjpk3uS4/AAABjcWesUg/16x9-512.jpg", "date": "2024-04-01T12:31:57.000+02:00", "lat": 52.5166, "lon": 13.3777, "intensity": 0.8, "source": "Tagesschau"}, {"title": "Verpuffung beim Osterfeuer - Mann zieht sich Verbrennungen zu", "url": "https://www.tagesschau.de/inland/regional/niedersachsen/ndr-verpuffung-beim-osterfeuer-mann-zieht-sich-verbrennungen-zu-100.html", "thumbnailUrl": "https://images.tagesschau.de/image/83f5a2fa-a436-430e-834e-9ddd8765739c/AAABjpkpIwI/AAABjcWesUg/16x9-512.jpg", "date": "2024-04-01T12:13:00.000+02:00", "lat": 52.847747, "lon": 7.995538, "intensity": 0.7, "source": "Tagesschau"}, {"title": "Verwechslung: Wolf bei Speyer entpuppt sich als Husky", "url": "https://www.tagesschau.de/inland/regional/rheinlandpfalz/swr-verwechslung-wolf-bei-speyer-entpuppt-sich-als-husky-100.html", "thumbnailUrl": "https://images.tagesschau.de/image/551a1f50-8c5d-410c-a126-e0147e3bac29/AAABjpossTQ/AAABjcWesUg/16x9-512.jpg", "date": "2024-04-01T12:07:41.000+02:00", "lat": 49.3245, "lon": 8.4273, "intensity": 0.4, "source": "Tagesschau"}, {"title": "Stuttgarter Jugendzentrum Halev gewinnt \"Jewrovision\" ", "url": "https://www.tagesschau.de/inland/regional/badenwuerttemberg/swr-stuttgarter-jugendzentrum-halev-gewinnt-jewrovision-100.html", "thumbnailUrl": "https://images.tagesschau.de/image/f866b719-1c35-48a0-aa2b-17561bff5eae/AAABjpkm44s/AAABjcWesUg/16x9-512.jpg", "date": "2024-04-01T12:04:21.000+02:00", "lat": 48.7758, "lon": 9.1829, "intensity": 0.8, "source": "Tagesschau"}, {"title": "Mehr als 270 Migranten erreichen Zypern an einem Tag", "url": "https://www.tagesschau.de/ausland/europa/migranten-zypern-102.html", "thumbnailUrl": "https://images.tagesschau.de/image/73fdf936-745a-4c3b-a964-9835f1f47790/AAABjpkVPm4/AAABjcWesUg/16x9-512.jpg", "date": "2024-04-01T11:55:23.629+02:00", "lat": 35.1264, "lon": 33.4299, "intensity": 0.8, "source": "Tagesschau"}, {"title": "Niedersachsen: \u00d6ko-Ausbau stockt - bringen Anreize die Wende?", "url": "https://www.tagesschau.de/inland/regional/niedersachsen/ndr-niedersachsen-oeko-ausbau-stockt-bringen-anreize-die-wende-100.html", "thumbnailUrl": "https://images.tagesschau.de/image/8c5e649d-285a-4f68-8433-4fb4ab35c386/AAABjpkRVpc/AAABjcWesUg/16x9-512.jpg", "date": "2024-04-01T11:47:00.000+02:00", "lat": 52.4736, "lon": 10.4515, "intensity": 0.6, "source": "Tagesschau"}, {"title": "Mann in der N\u00e4he des Hamburger Hauptbahnhofs niedergeschossen", "url": "https://www.tagesschau.de/inland/regional/hamburg/ndr-mann-in-der-naehe-des-hamburger-hauptbahnhofs-niedergeschossen-100.html", "thumbnailUrl": "https://images.tagesschau.de/image/e706aec3-efa8-41ef-8e8d-955aad9cab6b/AAABjpOhoQY/AAABjcWesUg/16x9-512.jpg", "date": "2024-04-01T11:47:00.000+02:00", "lat": 53.553485, "lon": 9.991042, "intensity": 0.8, "source": "Tagesschau"}, {"title": "Die \"Flowlosen\": Der HSV ist der gro\u00dfe Verlierer im Aufstiegsrennen", "url": "https://www.tagesschau.de/inland/regional/niedersachsen/ndr-die-flowlosen-der-hsv-ist-der-grosse-verlierer-im-aufstiegsrennen-102.html", "thumbnailUrl": "https://images.tagesschau.de/image/3f532b89-44d5-40c6-8ff3-55ba76fb34e5/AAABjpmeLMY/AAABjcWesUg/16x9-512.jpg", "date": "2024-04-01T11:44:00.000+02:00", "lat": 53.5511, "lon": 9.9937, "intensity": 0.8, "source": "Tagesschau"}, {"title": "Mannheim-K\u00e4fertal: Unbekannte werfen Tannenbaum und Steine auf Stra\u00dfenbahn", "url": "https://www.tagesschau.de/inland/regional/badenwuerttemberg/swr-mannheim-kaefertal-unbekannte-werfen-tannenbaum-und-steine-auf-strassenbahn-100.html", "thumbnailUrl": "https://images.tagesschau.de/image/c0cee20a-748c-416a-bf23-80c2132eba6d/AAABjpkb6wk/AAABjcWesUg/16x9-512.jpg", "date": "2024-04-01T11:38:35.000+02:00", "lat": 49.4606, "lon": 8.5044, "intensity": 0.7, "source": "Tagesschau"}, {"title": "Neue pal\u00e4stinensische Regierung vereidigt", "url": "https://www.tagesschau.de/ausland/regierung-palaestina-vereidigt-100.html", "thumbnailUrl": "https://images.tagesschau.de/image/d9f68f99-67f2-47b9-aa9a-1de3dfe3389d/AAABjpjtDWU/AAABjcWesUg/16x9-512.jpg", "date": "2024-04-01T11:37:53.606+02:00", "lat": 31.7683, "lon": 35.2024, "intensity": 0.8, "source": "Tagesschau"}, {"title": "Eintracht Frankfurt Frauen: Elfmeter-Drama macht Mut f\u00fcr den Kampf um Europa", "url": "https://www.tagesschau.de/inland/regional/hessen/hr-eintracht-frankfurt-frauen-elfmeter-drama-macht-mut-fuer-den-kampf-um-europa-102.html", "thumbnailUrl": "https://images.tagesschau.de/image/fd24a17c-a890-49fe-ad99-727c229f478b/AAABjpkUq5I/AAABjcWesUg/16x9-512.jpg", "date": "2024-04-01T11:36:10.350+02:00", "lat": 50.1109, "lon": 8.6821, "intensity": 0.7, "source": "Tagesschau"}, {"title": "Studierende fahren g\u00fcnstiger - aber nicht \u00fcberall", "url": "https://www.tagesschau.de/inland/gesellschaft/deutschlandticket-studierende-102.html", "thumbnailUrl": "https://images.tagesschau.de/image/44fbc613-a3ff-4fb3-850b-aab4c94c2629/AAABhnRxuI4/AAABjcWesUg/16x9-512.jpg", "date": "2024-04-01T11:35:47.405+02:00", "lat": 51.5431, "lon": 9.9937, "intensity": 0.6, "source": "Tagesschau"}, {"title": "FC St. Pauli siegt gegen SC Paderborn - Bundesliga ist ganz nah", "url": "https://www.tagesschau.de/inland/regional/hamburg/ndr-fc-st-pauli-siegt-gegen-paderborn-bundesliga-ganz-nah-102.html", "thumbnailUrl": "https://images.tagesschau.de/image/f90c6f78-308e-4fc1-add3-85a83722b266/AAABjpVXNuE/AAABjcWesUg/16x9-512.jpg", "date": "2024-04-01T11:30:00.000+02:00", "lat": 53.551, "lon": 9.991, "intensity": 0.8, "source": "Tagesschau"}, {"title": "Tausende feiern Judentum bei \"Jewrovision\" 2024 in Hannover", "url": "https://www.tagesschau.de/inland/regional/niedersachsen/ndr-1-000-jugendliche-feiern-judentum-bei-jewrovision-2024-in-hannover-100.html", "thumbnailUrl": "https://images.tagesschau.de/image/25ba49ce-66c8-4559-b133-ab24f3456be6/AAABjpj-_ZY/AAABjcWesUg/16x9-512.jpg", "date": "2024-04-01T11:29:00.000+02:00", "lat": 52.37589, "lon": 9.73322, "intensity": 0.6, "source": "Tagesschau"}, {"title": "Nofretete-B\u00fcste vor 100 Jahren erstmals \u00f6ffentlich ausgestellt", "url": "https://www.tagesschau.de/inland/regional/berlin/rbb-nofretete-bueste-vor-100-jahren-erstmals-oeffentlich-ausgestellt-100.html", "thumbnailUrl": "https://images.tagesschau.de/image/ff9e9151-97f5-4ba1-bc37-7856a69d9338/AAABjpkCkZM/AAABjcWesUg/16x9-512.jpg", "date": "2024-04-01T11:28:17.000+02:00", "lat": 52.52, "lon": 13.397, "intensity": 0.8, "source": "Tagesschau"}, {"title": "Kultur: +++ Goldmaske des Tutanchamun in Frankfurt +++ Gro\u00dfes Glockengel\u00e4ute zu Ostern in Frankfurt +++ Filmdreh in Marburg mit Kinostar Tony Leung +++", "url": "https://www.tagesschau.de/inland/regional/hessen/hr--schauspiel-frankfurt-bringt-putin-und-macbeth-zusammen--die-filmfestival-saison-2023-startet--lichter-filmfest-zum-thema-liebe-startet-am-dienstag-100.html", "thumbnailUrl": "https://images.tagesschau.de/image/a7c56f39-bfd0-4c9e-9aba-df12eb240b46/AAABjpjsivA/AAABjcWesUg/16x9-512.jpg", "date": "2024-04-01T11:09:53.354+02:00", "lat": 50.1109, "lon": 8.6821, "intensity": 0.7, "source": "Tagesschau"}, {"title": "Wie die Polizei mit Super-Recognizern verd\u00e4chtige Fans findet", "url": "https://www.tagesschau.de/inland/regional/schleswigholstein/ndr-wie-super-recognizer-beim-fussball-tatverdaechtige-finden-100.html", "thumbnailUrl": "https://images.tagesschau.de/image/14523b5b-f9bc-4010-abf2-9f4d3eb9c1ab/AAABjpjsQaA/AAABjcWesUg/16x9-512.jpg", "date": "2024-04-01T11:08:00.000+02:00", "lat": 54.3183, "lon": 10.1374, "intensity": 0.8, "source": "Tagesschau"}, {"title": "Mehrgenerationen-Spielpl\u00e4tze in 16 Kommunen im Saarland geplant", "url": "https://www.tagesschau.de/inland/regional/saarland/sr-mehrgenerationen-spielplaetze-in-16-kommunen-im-saarland-geplant-100.html", "thumbnailUrl": "https://images.tagesschau.de/image/ed31d108-c252-4d18-9c9c-781be0d9c29f/AAABjpjfaXQ/AAABjcWesUg/16x9-512.jpg", "date": "2024-04-01T10:55:00.000+02:00", "lat": 49.3964, "lon": 6.9969, "intensity": 0.6, "source": "Tagesschau"}, {"title": "Grabow: Geldautomat aus Tankstelle gestohlen", "url": "https://www.tagesschau.de/inland/regional/mecklenburgvorpommern/ndr-grabow-geldautomat-aus-tankstelle-gestohlen-100.html", "thumbnailUrl": "https://images.tagesschau.de/image/622e7adb-bf50-4aeb-8832-ab20676a5b25/AAABjpn3lYk/AAABjcWesUg/16x9-512.jpg", "date": "2024-04-01T10:51:00.000+02:00", "lat": 53.2612, "lon": 11.7267, "intensity": 0.8, "source": "Tagesschau"}, {"title": "iRobot Factory: Wie Sch\u00fcler spielerisch programmieren lernen", "url": "https://www.tagesschau.de/inland/regional/niedersachsen/ndr-irobot-factory-wie-schueler-spielerisch-programmieren-lernen-100.html", "thumbnailUrl": "https://images.tagesschau.de/image/ec5ceb90-dd44-4f18-8eef-fb905f599082/AAABjpkusPk/AAABjcWesUg/16x9-512.jpg", "date": "2024-04-01T10:40:00.000+02:00", "lat": 52.3759, "lon": 10.4667, "intensity": 0.6, "source": "Tagesschau"}, {"title": "Cannabis-Freigabe: Wie die Hamburger Polizei vorgehen will", "url": "https://www.tagesschau.de/inland/regional/hamburg/ndr-cannabis-freigabe-wie-die-hamburger-polizei-vorgehen-will-100.html", "thumbnailUrl": "https://images.tagesschau.de/image/ed0bc724-86c4-4ef4-872b-49d92e6d0186/AAABjpjbzmE/AAABjcWesUg/16x9-512.jpg", "date": "2024-04-01T10:16:00.000+02:00", "lat": 53.55, "lon": 10.0, "intensity": 0.7, "source": "Tagesschau"}, {"title": "Gewitter am Ostersonntag \u00fcber NRW: Blitzeinschlag in Krefeld", "url": "https://www.tagesschau.de/inland/regional/nordrheinwestfalen/wdr-gewitter-am-ostersonntag-ueber-nrw-blitzeinschlag-in-krefeld-100.html", "thumbnailUrl": "https://images.tagesschau.de/image/eb7f94d1-52b9-4361-98cd-e1e26bce9395/AAABjpkAWf0/AAABjcWesUg/16x9-512.jpg", "date": "2024-04-01T10:11:55.000+02:00", "lat": 51.3389, "lon": 6.57, "intensity": 0.8, "source": "Tagesschau"}, {"title": "Kommt in weiteren St\u00e4dten in Baden-W\u00fcrttemberg die Verpackungssteuer?", "url": "https://www.tagesschau.de/inland/regional/badenwuerttemberg/swr-kommt-in-weiteren-staedten-in-baden-wuerttemberg-die-verpackungssteuer-100.html", "thumbnailUrl": "https://images.tagesschau.de/image/4a68666b-87a7-44e7-ae1a-1aaad2755252/AAABjpijB78/AAABjcWesUg/16x9-512.jpg", "date": "2024-04-01T09:49:01.000+02:00", "lat": 48.7274, "lon": 9.9937, "intensity": 0.7, "source": "Tagesschau"}, {"title": "Hohe Frauenquote: Hochschule Fulda setzt verst\u00e4rkt auf Professorinnen", "url": "https://www.tagesschau.de/inland/regional/hessen/hr-hohe-frauenquote-hochschule-fulda-setzt-verstaerkt-auf-professorinnen-100.html", "thumbnailUrl": "https://images.tagesschau.de/image/008c8a34-3aaf-433e-98a6-887896a8a951/AAABjpifeBg/AAABjcWesUg/16x9-512.jpg", "date": "2024-04-01T09:45:41.465+02:00", "lat": 50.5587, "lon": 9.6787, "intensity": 0.7, "source": "Tagesschau"}, {"title": "Israels Armee zieht Panzer von Al-Schifa-Klinik ab", "url": "https://www.tagesschau.de/ausland/asien/israel-gaza-al-schifa-100.html", "thumbnailUrl": "https://images.tagesschau.de/image/8cd640d8-e91b-4c27-a7fb-9211019ebc6a/AAABjph4EvU/AAABjcWesUg/16x9-512.jpg", "date": "2024-04-01T09:34:34.841+02:00", "lat": 31.512, "lon": 34.462, "intensity": 0.8, "source": "Tagesschau"}, {"title": "Darmstadt 98: +++ Das Highlight-Video vom Punktgewinn in Bochum +++ Lilien stolz auf Aufholjagd +++ Lilien punkten in Bochum +++ ", "url": "https://www.tagesschau.de/inland/regional/hessen/hr--tietz-vermisst-fehlende-gier--lilien-fans-liefern-sich-raststaetten-pruegelei--die-niederlage-der-lilien-in-der-video-zusammenfassung-102.html", "thumbnailUrl": "https://images.tagesschau.de/image/5a516e08-c2cd-45b1-bc36-39f707a8ffb4/AAABjpiWYrk/AAABjcWesUg/16x9-512.jpg", "date": "2024-04-01T09:34:16.430+02:00", "lat": 49.8748, "lon": 8.6526, "intensity": 0.7, "source": "Tagesschau"}, {"title": "Verfassungsschutz: Abteilung f\u00fcr Rechtsextremismus f\u00fchrungslos", "url": "https://www.tagesschau.de/inland/regional/niedersachsen/ndr-verfassungsschutz-abteilung-fuer-rechtsextremismus-fuehrungslos-100.html", "thumbnailUrl": "https://images.tagesschau.de/image/2f761ce1-e95e-400e-8d60-d7b79f9a2305/AAABjpiNbfU/AAABjcWesUg/16x9-512.jpg", "date": "2024-04-01T09:17:00.000+02:00", "lat": 51.1657, "lon": 10.4515, "intensity": 0.8, "source": "Tagesschau"}, {"title": "Invasive Art: Imkerverband will Ausbreitung der Asiatischen Hornisse in Berlin verhindern", "url": "https://www.tagesschau.de/inland/regional/berlin/rbb-invasive-art-imkerverband-will-ausbreitung-der-asiatischen-hornisse-in-berlin-verhindern-100.html", "thumbnailUrl": "https://images.tagesschau.de/image/0a3878a6-c2c1-45a5-887f-ac533f63b68d/AAABjpiGIJ4/AAABjcWesUg/16x9-512.jpg", "date": "2024-04-01T09:13:21.000+02:00", "lat": 52.520008, "lon": 13.404954, "intensity": 0.7, "source": "Tagesschau"}, {"title": "Cannabis-Liberalisierung tritt heute in Kraft ", "url": "https://www.tagesschau.de/inland/regional/saarland/sr-cannabis-liberalisierung-tritt-heute-in-kraft-100.html", "thumbnailUrl": "https://images.tagesschau.de/image/7e7322b5-6d6d-4393-9cd0-15ec7a662a85/AAABjpiFsb0/AAABjcWesUg/16x9-512.jpg", "date": "2024-04-01T09:02:00.000+02:00", "lat": 49.3964, "lon": 6.9815, "intensity": 0.9, "source": "Tagesschau"}, {"title": "Messerangriff auf Osterkirmes in Homburg", "url": "https://www.tagesschau.de/inland/regional/saarland/sr-messerangriff-auf-osterkirmes-in-homburg-100.html", "thumbnailUrl": "https://images.tagesschau.de/image/613410dd-375b-4a19-94dd-b56f1cbb0384/AAABjpiShVs/AAABjcWesUg/16x9-512.jpg", "date": "2024-04-01T08:38:00.000+02:00", "lat": 49.3147, "lon": 7.3356, "intensity": 0.8, "source": "Tagesschau"}, {"title": "Neues Cannabis-Gesetz tritt in Kraft: Woidke kritisiert Legalisierung - Hunderte Menschen bei \"Ankiffen\" am Brandenburger Tor", "url": "https://www.tagesschau.de/inland/regional/brandenburg/rbb-teil-legalisierung-von-cannabis-woidke-kritisiert-hanfverband-ruft-zu-smoke-in-am-brandenburger-tor-auf-100.html", "thumbnailUrl": "https://images.tagesschau.de/image/85a5e645-0483-4293-81db-7dda7369840f/AAABjpk3vAU/AAABjcWesUg/16x9-512.jpg", "date": "2024-04-01T08:31:03.000+02:00", "lat": 52.516275, "lon": 13.377704, "intensity": 0.8, "source": "Tagesschau"}, {"title": "Wissing glaubt an p\u00fcnktliche Z\u00fcge - zu Weihnachten", "url": "https://www.tagesschau.de/inland/gesellschaft/wissing-bahn-puenklich-100.html", "thumbnailUrl": "https://images.tagesschau.de/image/6a1f5da0-0e30-4548-949e-1fa64dcf9771/AAABjTs8-IA/AAABjcWesUg/16x9-512.jpg", "date": "2024-04-01T08:28:23.257+02:00", "lat": 51.9607, "lon": 9.7456, "intensity": 0.4, "source": "Tagesschau"}, {"title": "Die Hamburger Marktschreier in Saarbr\u00fccken zu Gast", "url": "https://www.tagesschau.de/inland/regional/saarland/sr-die-hamburger-marktschreier-kommen-nach-saarbruecken-100.html", "thumbnailUrl": "https://images.tagesschau.de/image/f171d8ae-bc90-4686-80bc-5d39c8d7784a/AAABjo5HnSE/AAABjcWesUg/16x9-512.jpg", "date": "2024-04-01T08:28:00.000+02:00", "lat": 49.2402, "lon": 6.9811, "intensity": 0.5, "source": "Tagesschau"}, {"title": "Saarbr\u00fccker Zoo feiert Artenschutztag am Ostermontag", "url": "https://www.tagesschau.de/inland/regional/saarland/sr-saarbruecker-zoo-feiert-artenschutztag-am-ostermontag-100.html", "thumbnailUrl": "https://images.tagesschau.de/image/40e457be-8773-4718-92a7-b5c4169fb8a7/AAABjpTuflM/AAABjcWesUg/16x9-512.jpg", "date": "2024-04-01T08:23:00.000+02:00", "lat": 49.2402, "lon": 6.988, "intensity": 0.5, "source": "Tagesschau"}, {"title": "Weniger Weinkonsum macht Winzern zu schaffen", "url": "https://www.tagesschau.de/wirtschaft/unternehmen/wein-winzer-konkurrenz-100.html", "thumbnailUrl": "https://images.tagesschau.de/image/32b98fb6-08a2-4925-9002-e39de775347a/AAABir0SB3M/AAABjcWesUg/16x9-512.jpg", "date": "2024-04-01T08:19:58.084+02:00", "lat": 51.9593, "lon": 7.6079, "intensity": 0.7, "source": "Tagesschau"}, {"title": "Brut- und Setzzeit: Hunde m\u00fcssen ab 1. April an die Leine", "url": "https://www.tagesschau.de/inland/regional/niedersachsen/ndr-brut-und-setzzeit-hunde-muessen-ab-1-april-an-die-leine-100.html", "thumbnailUrl": "https://images.tagesschau.de/image/63ca4395-86d0-4f6b-893a-e4071e44ab5e/AAABjpolys4/AAABjcWesUg/16x9-512.jpg", "date": "2024-04-01T08:18:00.000+02:00", "lat": 52.6367, "lon": 10.4515, "intensity": 0.6, "source": "Tagesschau"}, {"title": "Neue Proteste gegen Netanyahu", "url": "https://www.tagesschau.de/ausland/israel-lage-netanyahu-100.html", "thumbnailUrl": "https://images.tagesschau.de/image/872176fe-b255-4940-984e-d5b80307e571/AAABjphutXU/AAABjcWesUg/16x9-512.jpg", "date": "2024-04-01T08:01:25.869+02:00", "lat": 31.4611, "lon": 35.0004, "intensity": 0.8, "source": "Tagesschau"}, {"title": "FCK zwischen DFB-Pokal-Traum und Abstiegskampf", "url": "https://www.tagesschau.de/inland/regional/rheinlandpfalz/swr-fck-zwischen-dfb-pokal-traum-und-abstiegskampf-102.html", "thumbnailUrl": "https://images.tagesschau.de/image/8a74252b-dcd2-4fcb-bf39-cc04dbf10b5e/AAABjpioh24/AAABjcWesUg/16x9-512.jpg", "date": "2024-04-01T07:50:39.000+02:00", "lat": 49.4431, "lon": 7.5806, "intensity": 0.6, "source": "Tagesschau"}, {"title": "Cannabis ist legal: Doch was ist in Bremen erlaubt und was nicht?", "url": "https://www.tagesschau.de/inland/regional/bremen/rb-cannabis-ist-legal-doch-was-ist-in-bremen-erlaubt-und-was-nicht-100.html", "thumbnailUrl": "https://images.tagesschau.de/image/2f174585-76f2-4fbe-a403-4b32560799b7/AAABjpf8a4c/AAABjcWesUg/16x9-512.jpg", "date": "2024-04-01T06:44:00.000+02:00", "lat": 53.0793, "lon": 8.8017, "intensity": 0.75, "source": "Tagesschau"}, {"title": "Osterr\u00e4derlauf in L\u00fcgde: Uralter Brauch am Ostersonntag", "url": "https://www.tagesschau.de/inland/regional/nordrheinwestfalen/wdr-osterraederlauf-in-luegde-uralter-brauch-zum-ersten-mal-live-im-wdr-100.html", "thumbnailUrl": "https://images.tagesschau.de/image/87b34387-7332-4dc8-b310-fa4ac2f42d35/AAABjpgZpic/AAABjcWesUg/16x9-512.jpg", "date": "2024-04-01T06:26:00.000+02:00", "lat": 51.9833, "lon": 9.2547, "intensity": 0.8, "source": "Tagesschau"}, {"title": "Kiffen erlaubt: Polizei und Justiz in SH vor gro\u00dfen Herausforderungen", "url": "https://www.tagesschau.de/inland/regional/schleswigholstein/ndr-kiffen-erlaubt-polizei-und-justiz-in-sh-vor-grossen-herausforderungen-100.html", "thumbnailUrl": "https://images.tagesschau.de/image/3ccb1173-f4b4-4bfc-85f4-1b85b06d14ab/AAABjpn7S5s/AAABjcWesUg/16x9-512.jpg", "date": "2024-04-01T05:00:00.000+02:00", "lat": 54.3326, "lon": 9.6961, "intensity": 0.8, "source": "Tagesschau"}, {"title": "\"Ich habe ja keine Wahl\"", "url": "https://www.tagesschau.de/ausland/europa/ukraine-rekrutierung-soldaten-100.html", "thumbnailUrl": "https://images.tagesschau.de/image/44b77379-2860-43a7-a92d-883850735379/AAABjpdfCFk/AAABjcWesUg/16x9-512.jpg", "date": "2024-04-01T03:56:11.750+02:00", "lat": 50.4501, "lon": 30.5234, "intensity": 0.6, "source": "Tagesschau"}, {"title": "Ab heute ist der Joint legal", "url": "https://www.tagesschau.de/inland/cannabis-teillegalisierung-102.html", "thumbnailUrl": "https://images.tagesschau.de/image/43a91d95-16c4-4ba1-9599-e98ebfb95462/AAABif2RwV8/AAABjcWesUg/16x9-512.jpg", "date": "2024-04-01T03:51:55.756+02:00", "lat": 52.520008, "lon": 13.404954, "intensity": 0.8, "source": "Tagesschau"}, {"title": "Opposition gewinnt Kommunalwahlen in der T\u00fcrkei", "url": "https://www.tagesschau.de/ausland/asien/tuerkei-kommunalwahl-104.html", "thumbnailUrl": "https://images.tagesschau.de/image/7fcd22f0-819c-464e-a61a-23250e74e163/AAABjphtLE8/AAABjcWesUg/16x9-512.jpg", "date": "2024-04-01T01:56:16.676+02:00", "lat": 41.0082376, "lon": 28.9783589, "intensity": 0.8, "source": "Tagesschau"}, {"title": "Wehrpflicht-Ausnahme f\u00fcr Ultraorthodoxe l\u00e4uft aus", "url": "https://www.tagesschau.de/ausland/israel-wehrpflicht-ultraorthodoxe-102.html", "thumbnailUrl": "https://images.tagesschau.de/image/a30c9c59-a5b9-414e-af4d-c4288f0cf75e/AAABjfUb2g0/AAABjcWesUg/16x9-512.jpg", "date": "2024-04-01T00:15:50.921+02:00", "lat": 31.7683, "lon": 35.2137, "intensity": 0.8, "source": "Tagesschau"}, {"title": "Vor 45 Jahren: Protest mit dem Gorleben-Treck nach Hannover ", "url": "https://www.tagesschau.de/inland/regional/niedersachsen/ndr-vor-45-jahren-protest-mit-dem-gorleben-treck-nach-hannover-100.html", "thumbnailUrl": "https://images.tagesschau.de/image/bb62446a-0b59-4062-9743-c9c55dbdf198/AAABjpaMuTk/AAABjcWesUg/16x9-512.jpg", "date": "2024-04-01T00:04:00.000+02:00", "lat": 52.3759, "lon": 9.7332, "intensity": 0.5, "source": "Tagesschau"}, {"title": "Verhandlungen \u00fcber Gaza-Waffenruhe in Kairo machen offenbar keine Fortschritte", "url": "https://www.br.de/nachrichten/meldungen/index.html#n1", "thumbnailUrl": "", "date": "2024-04-01T18:36:31+02:00", "lat": 30.0444, "lon": 31.2357, "intensity": 0.8, "source": "Bayrischer Rundfunk"}, {"title": "Bei israelischem Luftangriff auf Damaskus kommt iranischer Offizier ums Leben", "url": "https://www.br.de/nachrichten/meldungen/index.html#n2", "thumbnailUrl": "", "date": "2024-04-01T18:36:31+02:00", "lat": 33.5138, "lon": 36.2021, "intensity": 0.8, "source": "Bayrischer Rundfunk"}, {"title": "Oppositionelle CHP wird bei Kommunalwahl in der T\u00fcrkei st\u00e4rkste Kraft", "url": "https://www.br.de/nachrichten/meldungen/index.html#n3", "thumbnailUrl": "", "date": "2024-04-01T18:36:31+02:00", "lat": 39.9334, "lon": 32.8597, "intensity": 0.8, "source": "Bayrischer Rundfunk"}, {"title": "Polizeigewerkschaft sieht Konfliktpotential durch Cannabisgesetz", "url": "https://www.br.de/nachrichten/meldungen/index.html#n4", "thumbnailUrl": "", "date": "2024-04-01T18:36:31+02:00", "lat": 52.520008, "lon": 13.404954, "intensity": 0.7, "source": "Bayrischer Rundfunk"}, {"title": "Ex-Verkehrsminister Scheuer legt Bundestagsmandat nieder", "url": "https://www.br.de/nachrichten/meldungen/index.html#n5", "thumbnailUrl": "", "date": "2024-04-01T18:36:31+02:00", "lat": 52.520008, "lon": 13.404954, "intensity": 0.6, "source": "Bayrischer Rundfunk"}, {"title": "F\u00fcracker glaubt nicht an Steuerentlastungs-Pl\u00e4ne von Lindner", "url": "https://www.br.de/nachrichten/meldungen/index.html#n6", "thumbnailUrl": "", "date": "2024-04-01T18:36:31+02:00", "lat": 48.135125, "lon": 11.581981, "intensity": 0.6, "source": "Bayrischer Rundfunk"}, {"title": "Mehrere tausend Menschen demonstrieren bei Osterm\u00e4rschen f\u00fcr Frieden", "url": "https://www.br.de/nachrichten/meldungen/index.html#n7", "thumbnailUrl": "", "date": "2024-04-01T18:36:31+02:00", "lat": 50.110922, "lon": 8.682127, "intensity": 0.8, "source": "Bayrischer Rundfunk"}, {"title": "Traunstein und Augsburg feiern Georgi-Ritt und Pl\u00e4rrer", "url": "https://www.br.de/nachrichten/meldungen/index.html#n8", "thumbnailUrl": "", "date": "2024-04-01T18:36:31+02:00", "lat": 47.8684, "lon": 12.6394, "intensity": 0.8, "source": "Bayrischer Rundfunk"}, {"title": "Mehrere H\u00e4user im Landkreis Passau nach Gro\u00dfbrand in Hofkirchen unbewohnbar", "url": "https://www.br.de/nachrichten/meldungen/index.html#n9", "thumbnailUrl": "", "date": "2024-04-01T18:36:31+02:00", "lat": 48.5844, "lon": 13.6722, "intensity": 0.8, "source": "Bayrischer Rundfunk"}, {"title": "DEL: M\u00fcnchen unterliegt Bremerhaven", "url": "https://www.br.de/nachrichten/meldungen/index.html#n10", "thumbnailUrl": "", "date": "2024-04-01T18:36:31+02:00", "lat": 53.5396, "lon": 8.5761, "intensity": 0.4, "source": "Bayrischer Rundfunk"}, {"title": "Das Wetter: Nachts einzelne Schauer bei 7 bis 2 Grad", "url": "https://www.br.de/nachrichten/meldungen/index.html#n11", "thumbnailUrl": "", "date": "2024-04-01T18:36:31+02:00", "lat": 48.1351, "lon": 11.582, "intensity": 0.3, "source": "Bayrischer Rundfunk"}]