[{"title": "Krimi in Hannover: HSV Hamburg baut die Serie auf f\u00fcnf Siege aus", "url": "https://www.tagesschau.de/inland/regional/niedersachsen/ndr-2625-in-hannover-hsv-hamburg-baut-die-siegesserie-auf-fuenf-aus-102.html", "thumbnailUrl": "https://images.tagesschau.de/image/da82daf0-42f1-48ec-a6ce-6e2ee09a1f80/AAABjrABc7U/AAABjcWesUg/16x9-512.jpg", "date": "2024-04-05T23:01:00.000+02:00", "lat": 52.3759, "lon": 9.732, "intensity": 0.8, "source": "Tagesschau"}, {"title": "++ Guterres: Kinder in Gaza verdursten und verhungern ++", "url": "https://www.tagesschau.de/newsticker/liveblog-nahost-freitag-124.html", "thumbnailUrl": "https://images.tagesschau.de/image/4c7e0070-3473-4037-8a0e-894445a6b2e8/AAABjq7g16w/AAABjcWesUg/16x9-512.jpg", "date": "2024-04-05T22:42:12.868+02:00", "lat": 30.0444, "lon": 31.2357, "intensity": 0.8, "source": "Tagesschau"}, {"title": "Eintracht Frankfurt mit Unentschieden gegen Werder Bremen", "url": "https://www.tagesschau.de/inland/regional/hessen/hr-eintracht-frankfurt-mit-unentschieden-gegen-werder-bremen-102.html", "thumbnailUrl": "https://images.tagesschau.de/image/2a021f77-0773-406a-bd1f-de00e9cada7c/AAABjrABYvU/AAABjcWesUg/16x9-512.jpg", "date": "2024-04-05T22:29:47.316+02:00", "lat": 50.092, "lon": 8.849, "intensity": 0.3, "source": "Tagesschau"}, {"title": "Eintracht: +++ Eintracht Frankfurt spielt 1:1 gegen Bremen +++ Skhiri f\u00e4llt aus, Collins feiert Deb\u00fct +++ Knauff verteidigt Toppm\u00f6ller +++", "url": "https://www.tagesschau.de/inland/regional/hessen/hr--eintracht-wohl-mit-chaibi-einig--glasner-fast-nur-kolo-muani-der-tore-erzielt--bericht-eintracht-sagt-aouar-ab-100.html", "thumbnailUrl": "https://images.tagesschau.de/image/d0dc77a3-8021-4f59-869d-5f0df18e0090/AAABjq_2SxU/AAABjcWesUg/16x9-512.jpg", "date": "2024-04-05T22:29:41.981+02:00", "lat": 50.1109, "lon": 8.6821, "intensity": 0.7, "source": "Tagesschau"}, {"title": "Nach 3:2 gegen Straubing: Eisb\u00e4ren stehen vor dem Finaleinzug", "url": "https://www.tagesschau.de/inland/regional/berlin/rbb-nach-32-gegen-straubing-eisbaeren-stehen-vor-dem-finaleinzug-102.html", "thumbnailUrl": "https://images.tagesschau.de/image/2a6917cd-e661-4dd8-af97-974a0b33f987/AAABjq_tNBA/AAABjcWesUg/16x9-512.jpg", "date": "2024-04-05T22:19:51.000+02:00", "lat": 52.52, "lon": 13.4062, "intensity": 0.8, "source": "Tagesschau"}, {"title": "Wall Street steckt Zinsschock weg", "url": "https://www.tagesschau.de/wirtschaft/finanzen/marktberichte/marktbericht-dax-kursrutsch-gold-oel-aktien-dow-kurssturz-boerse-100.html", "thumbnailUrl": "https://images.tagesschau.de/image/fa01ded6-f698-4896-a699-9ca005576deb/AAABjMokMLQ/AAABjcWesUg/16x9-512.jpg", "date": "2024-04-05T22:14:06.838+02:00", "lat": 51.9607, "lon": 7.5986, "intensity": 0.8, "source": "Tagesschau"}, {"title": "++ AKW Saporischschja meldet Drohnenangriffe ++", "url": "https://www.tagesschau.de/newsticker/liveblog-ukraine-freitag-374.html", "thumbnailUrl": "https://images.tagesschau.de/image/014eb88a-a79d-49ad-ba62-6742f6b1c25e/AAABiK2EKy8/AAABjcWesUg/16x9-512.jpg", "date": "2024-04-05T22:10:39.408+02:00", "lat": 47.235713, "lon": 39.701505, "intensity": 0.8, "source": "Tagesschau"}, {"title": "Hisbollah-Chef spricht von \"Wendepunkt\" - und droht", "url": "https://www.tagesschau.de/ausland/asien/botschaftsangriff-reaktion-nasrallah-100.html", "thumbnailUrl": "https://images.tagesschau.de/image/2dd862f3-13b6-49d8-8410-1d814b95fc84/AAABjq_f9y4/AAABjcWesUg/16x9-512.jpg", "date": "2024-04-05T22:07:54.656+02:00", "lat": 33.5138, "lon": 36.2021, "intensity": 0.8, "source": "Tagesschau"}, {"title": "Das Wetter im Norden: Es wird sommerlich und sonnig", "url": "https://www.tagesschau.de/inland/regional/hamburg/ndr-wetter-am-wochenende-temperatursprung-auf-ueber-20-grad-im-norden-100.html", "thumbnailUrl": "https://images.tagesschau.de/image/c3aeb071-02bd-494f-bba3-7c4a1a7239dc/AAABjq4hpog/AAABjcWesUg/16x9-512.jpg", "date": "2024-04-05T22:00:00.000+02:00", "lat": 53.5511, "lon": 9.9937, "intensity": 0.8, "source": "Tagesschau"}, {"title": "3:1 - Hansa Rostock erk\u00e4mpft Sieg gegen Wehen Wiesbaden", "url": "https://www.tagesschau.de/inland/regional/mecklenburgvorpommern/ndr-31-hansa-rostock-erkaempft-sieg-gegen-wehen-wiesbaden-102.html", "thumbnailUrl": "https://images.tagesschau.de/image/e18d7692-ebe1-4bee-ab9e-e13b2c0b0d6c/AAABjq-aiMg/AAABjcWesUg/16x9-512.jpg", "date": "2024-04-05T21:57:00.000+02:00", "lat": 54.1014, "lon": 12.115, "intensity": 0.6, "source": "Tagesschau"}, {"title": "\u00d6sterreichs Gletscher schwinden unaufhaltsam", "url": "https://www.tagesschau.de/wissen/klima/oesterreich-gletscher-schmelzen-100.html", "thumbnailUrl": "https://images.tagesschau.de/image/df96c8b5-7ba7-47c2-8c0e-35a26c7876b8/AAABjq_UEnM/AAABjcWesUg/16x9-512.jpg", "date": "2024-04-05T21:51:25.308+02:00", "lat": 47.516, "lon": 11.068, "intensity": 0.8, "source": "Tagesschau"}, {"title": "DEL2-Playoffs: Kassel Huskies machen Finaleinzug klar", "url": "https://www.tagesschau.de/inland/regional/hessen/hr-del2-playoffs-kassel-huskies-machen-finaleinzug-klar-102.html", "thumbnailUrl": "https://images.tagesschau.de/image/4ea1f84e-8b9e-4db7-bbd2-3e3af036f209/AAABjq_Tat4/AAABjcWesUg/16x9-512.jpg", "date": "2024-04-05T21:49:42.246+02:00", "lat": 51.3127, "lon": 9.4966, "intensity": 0.8, "source": "Tagesschau"}, {"title": "Gabelstapler f\u00e4llt in Hafenbecken von Bleckede", "url": "https://www.tagesschau.de/inland/regional/niedersachsen/ndr-gabelstapler-faellt-in-hafenbecken-von-bleckede-100.html", "thumbnailUrl": "https://images.tagesschau.de/image/7e3b9e18-da26-445e-92c9-8d589c81611a/AAABjq_P_7A/AAABjcWesUg/16x9-512.jpg", "date": "2024-04-05T21:46:00.000+02:00", "lat": 53.3016, "lon": 10.9879, "intensity": 0.6, "source": "Tagesschau"}, {"title": "Regionalligist Energie Cottbus spielt nur Remis in Jena und f\u00e4llt durch BFC-Sieg auf Rang drei zur\u00fcck", "url": "https://www.tagesschau.de/inland/regional/brandenburg/rbb-regionalligist-energie-cottbus-verpasst-nach-remis-in-jena-den-sprung-an-die-tabellenspitze-102.html", "thumbnailUrl": "https://images.tagesschau.de/image/cd45ea9a-92e2-4b8b-b2da-19b1e9335e09/AAABjq_C-Ic/AAABjcWesUg/16x9-512.jpg", "date": "2024-04-05T21:34:47.000+02:00", "lat": 50.92878, "lon": 11.58333, "intensity": 0.3, "source": "Tagesschau"}, {"title": "Brandsatz auf Synagoge in Oldenburg geworfen", "url": "https://www.tagesschau.de/inland/regional/niedersachsen/brandsatz-synagoge-oldenburg-100.html", "thumbnailUrl": "https://images.tagesschau.de/image/b0dc80f4-f9ca-49e3-88bf-50ad4a80a7f3/AAABjq8KP0s/AAABjcWesUg/16x9-512.jpg", "date": "2024-04-05T21:31:00.000+02:00", "lat": 53.1434, "lon": 8.2154, "intensity": 0.6, "source": "Tagesschau"}, {"title": "13-J\u00e4hriger soll M\u00e4dchen \u00fcberfallen und schwer verletzt haben", "url": "https://www.tagesschau.de/inland/regional/niedersachsen/ndr-13-jaehriger-soll-maedchen-ueberfallen-und-schwer-verletzt-haben-100.html", "thumbnailUrl": "https://images.tagesschau.de/image/719a85a4-cb48-45ff-b009-5667ceb9da81/AAABjq_FBnU/AAABjcWesUg/16x9-512.jpg", "date": "2024-04-05T21:27:00.000+02:00", "lat": 52.3906, "lon": 10.0014, "intensity": 0.8, "source": "Tagesschau"}, {"title": "98:58 gegen Halle: Albas Frauen starten mit Kantersieg in die Halbfinale-Serie", "url": "https://www.tagesschau.de/inland/regional/berlin/rbb-9858-gegen-halle-albas-frauen-starten-mit-kantersieg-in-die-halbfinale-serie-102.html", "thumbnailUrl": "https://images.tagesschau.de/image/03434776-0329-43fb-a27c-29eb9b38467c/AAABjq-9oSQ/AAABjcWesUg/16x9-512.jpg", "date": "2024-04-05T21:25:01.000+02:00", "lat": 52.520008, "lon": 13.404954, "intensity": 0.8, "source": "Tagesschau"}, {"title": "Nach t\u00f6dlichem Polizei-Schuss auf Obdachlosen: Demo in Dortmund", "url": "https://www.tagesschau.de/inland/regional/nordrheinwestfalen/wdr-nach-toedlichem-polizei-schuss-auf-obdachlosen-demo-in-dortmund-100.html", "thumbnailUrl": "https://images.tagesschau.de/image/7eba7fa7-dc89-432f-9587-d34eda996235/AAABjq_RbX0/AAABjcWesUg/16x9-512.jpg", "date": "2024-04-05T21:21:00.000+02:00", "lat": 51.5142, "lon": 7.4634, "intensity": 0.8, "source": "Tagesschau"}, {"title": "Hamburg-Rotherbaum: Mensa in Philosophenturm wieder er\u00f6ffnet", "url": "https://www.tagesschau.de/inland/regional/hamburg/ndr-hamburg-rotherbaum-mensa-in-philosophenturm-wieder-eroeffnet-100.html", "thumbnailUrl": "https://images.tagesschau.de/image/c86bd534-7e19-4b70-b8cf-4a7d1edf0c8e/AAABjq-XMtQ/AAABjcWesUg/16x9-512.jpg", "date": "2024-04-05T21:10:00.000+02:00", "lat": 53.5699, "lon": 9.9741, "intensity": 0.6, "source": "Tagesschau"}, {"title": "CDU will wieder st\u00e4rkste Kraft in Hamburg werden", "url": "https://www.tagesschau.de/inland/regional/hamburg/ndr-cdu-will-wieder-staerkste-kraft-in-hamburg-werden-100.html", "thumbnailUrl": "https://images.tagesschau.de/image/87c2cf20-205e-42a3-ad58-47870bf678ab/AAABjq-pgRk/AAABjcWesUg/16x9-512.jpg", "date": "2024-04-05T21:06:00.000+02:00", "lat": 53.5511, "lon": 9.9937, "intensity": 0.7, "source": "Tagesschau"}, {"title": "Hamburger Verfassungsschutz warnt vor Propaganda von Islamisten", "url": "https://www.tagesschau.de/inland/regional/hamburg/ndr-hamburger-verfassungsschutz-warnt-vor-propaganda-von-islamisten-100.html", "thumbnailUrl": "https://images.tagesschau.de/image/0c02729d-020f-41a9-80a5-30aaeda9769c/AAABjqzFuVk/AAABjcWesUg/16x9-512.jpg", "date": "2024-04-05T21:01:00.000+02:00", "lat": 53.5511, "lon": 9.9937, "intensity": 0.8, "source": "Tagesschau"}, {"title": "Nach Baltikum-Reise: Hamburger Wirtschaftssenatorin zieht Bilanz", "url": "https://www.tagesschau.de/inland/regional/hamburg/ndr-nach-baltikum-reise-hamburger-wirtschaftssenatorin-zieht-bilanz-100.html", "thumbnailUrl": "https://images.tagesschau.de/image/7f6e6747-c41e-4616-9971-4ac33cfd71cf/AAABjq8L_G0/AAABjcWesUg/16x9-512.jpg", "date": "2024-04-05T20:58:00.000+02:00", "lat": 53.5511, "lon": 9.9937, "intensity": 0.6, "source": "Tagesschau"}, {"title": "Werk in Afrika: Dreyer besucht BioNTech in Ruanda", "url": "https://www.tagesschau.de/inland/regional/rheinlandpfalz/swr-werk-in-afrika-dreyer-besucht-biontech-in-ruanda-102.html", "thumbnailUrl": "https://images.tagesschau.de/image/a6984a74-c5e5-496d-98d9-3b4352056b63/AAABjq-gCas/AAABjcWesUg/16x9-512.jpg", "date": "2024-04-05T20:55:35.000+02:00", "lat": -1.940278, "lon": 30.064933, "intensity": 0.8, "source": "Tagesschau"}, {"title": "Ben\u00f6tigt die Meyer Werft 550 Millionen Euro?", "url": "https://www.tagesschau.de/inland/regional/niedersachsen/ndr-benoetigt-die-meyer-werft-550-millionen-euro-100.html", "thumbnailUrl": "https://images.tagesschau.de/image/3b4a2003-a99f-4566-9359-ac5c1a2f8621/AAABjq_2hzY/AAABjcWesUg/16x9-512.jpg", "date": "2024-04-05T20:49:00.000+02:00", "lat": 52.3326, "lon": 7.2829, "intensity": 0.8, "source": "Tagesschau"}, {"title": "Mehr als 120 Rechtsextremisten und Reichsb\u00fcrger besitzen in Hessen legal Waffen", "url": "https://www.tagesschau.de/inland/regional/hessen/hr-mehr-als-120-rechtsextremisten-und-reichsbuerger-besitzen-in-hessen-legal-waffen-100.html", "thumbnailUrl": "https://images.tagesschau.de/image/d406ec4c-881f-40cf-9745-41485773795a/AAABjq-0Vjs/AAABjcWesUg/16x9-512.jpg", "date": "2024-04-05T20:47:15.700+02:00", "lat": 50.7827, "lon": 9.6933, "intensity": 0.8, "source": "Tagesschau"}, {"title": "Schockanruf: Seniorin um mindestens 100.000 Euro betrogen", "url": "https://www.tagesschau.de/inland/regional/niedersachsen/ndr-schockanruf-seniorin-um-mindestens-100-000-euro-betrogen-100.html", "thumbnailUrl": "https://images.tagesschau.de/image/2f1ba036-6fa6-4f45-9fd6-8cd13de34c71/AAABjq-OElE/AAABjcWesUg/16x9-512.jpg", "date": "2024-04-05T20:36:00.000+02:00", "lat": 51.9147, "lon": 10.4266, "intensity": 0.8, "source": "Tagesschau"}, {"title": "Motorradfahrer stirbt nach Flucht vor der Polizei bei Unfall", "url": "https://www.tagesschau.de/inland/regional/rheinlandpfalz/swr-motorradfahrer-stirbt-nach-flucht-vor-der-polizei-100.html", "thumbnailUrl": "https://images.tagesschau.de/image/4b99b619-b42c-4b49-92f4-d00516d01956/AAABjq7z7Yo/AAABjcWesUg/16x9-512.jpg", "date": "2024-04-05T20:32:00.000+02:00", "lat": 50.1867, "lon": 7.0551, "intensity": 0.8, "source": "Tagesschau"}, {"title": "Der Junta entgleitet die Kontrolle", "url": "https://www.tagesschau.de/ausland/asien/myanmar-junta-rebellen-100.html", "thumbnailUrl": "https://images.tagesschau.de/image/0f16551b-c2a4-435c-9484-6b186e482d50/AAABjq-FoTQ/AAABjcWesUg/16x9-512.jpg", "date": "2024-04-05T20:29:14.412+02:00", "lat": 21.9162, "lon": 95.9562, "intensity": 0.8, "source": "Tagesschau"}, {"title": "3:2 in Paderborn: Hertha BSC mit einem Sieg aus dem Nichts", "url": "https://www.tagesschau.de/inland/regional/berlin/rbb-jetzt-live-hoeren-und-im-ticker-gelingt-hertha-bsc-der-fuenfte-auswaertssieg-der-saison-102.html", "thumbnailUrl": "https://images.tagesschau.de/image/75be3340-a739-45ca-806d-f3b83393d4ee/AAABjq-E7PE/AAABjcWesUg/16x9-512.jpg", "date": "2024-04-05T20:26:44.000+02:00", "lat": 51.7158, "lon": 8.7644, "intensity": 0.6, "source": "Tagesschau"}, {"title": "Pleite in Rostock: SV Wehen Wiesbaden immer tiefer im Abstiegssumpf", "url": "https://www.tagesschau.de/inland/regional/hessen/hr-pleite-in-rostock-sv-wehen-wiesbaden-immer-tiefer-im-abstiegssumpf-102.html", "thumbnailUrl": "https://images.tagesschau.de/image/69b100a5-68f9-47af-b132-3aaf3ca9e372/AAABjq-GprI/AAABjcWesUg/16x9-512.jpg", "date": "2024-04-05T20:24:52.641+02:00", "lat": 54.0924, "lon": 12.1364, "intensity": 0.7, "source": "Tagesschau"}, {"title": "Tatverdacht versuchter Mord: 29-J\u00e4hriger soll Wohnungsbrand in Marburg gelegt haben", "url": "https://www.tagesschau.de/inland/regional/hessen/hr-tatverdacht-versuchter-mord-29-jaehriger-soll-wohnungsbrand-in-marburg-gelegt-haben-100.html", "thumbnailUrl": "https://images.tagesschau.de/image/4e0e066f-f3bc-4249-8603-00abb50f727e/AAABjq95ujA/AAABjcWesUg/16x9-512.jpg", "date": "2024-04-05T20:16:01.328+02:00", "lat": 50.802, "lon": 8.773, "intensity": 0.8, "source": "Tagesschau"}, {"title": "Leichtes Beben in der Metropolregion New York", "url": "https://www.tagesschau.de/ausland/amerika/new-yorker-erdbeben-100.html", "thumbnailUrl": "https://images.tagesschau.de/image/fb77114e-4150-4715-a012-48ae6d090b2d/AAABjq9cpPo/AAABjcWesUg/16x9-512.jpg", "date": "2024-04-05T20:11:20.864+02:00", "lat": 40.7128, "lon": -74.0059, "intensity": 0.3, "source": "Tagesschau"}, {"title": "Jetzt live: Frankfurt gegen Werder", "url": "https://www.sportschau.de/live-und-ergebnisse/fussball/deutschland-bundesliga/ma9686363/eintracht-frankfurt_werder-bremen/liveticker/", "thumbnailUrl": "https://images.tagesschau.de/image/9f8165ba-ca30-4328-b2f7-799fe3637a8c/AAABiNkNSio/AAABjcWesUg/16x9-512.jpg", "date": "2024-04-05T20:08:41.923+02:00", "lat": 50.1109, "lon": 8.6821, "intensity": 0.7, "source": "Tagesschau"}, {"title": "Gro\u00dfbrand in Lemgo: Geruchsbel\u00e4stigungen und Rauchentwicklung", "url": "https://www.tagesschau.de/inland/regional/nordrheinwestfalen/wdr-grossbrand-in-lemgo-geruchsbelaestigungen-und-rauchentwicklung-100.html", "thumbnailUrl": "https://images.tagesschau.de/image/5e158be9-6eb1-415e-899d-2cfe041f8a9c/AAABjq-jorE/AAABjcWesUg/16x9-512.jpg", "date": "2024-04-05T19:44:00.000+02:00", "lat": 52.0228, "lon": 8.9058, "intensity": 0.8, "source": "Tagesschau"}, {"title": "Verwaltungsgericht Oldenburg untersagt Abschuss von Wolf", "url": "https://www.tagesschau.de/inland/regional/niedersachsen/ndr-verwaltungsgericht-oldenburg-untersagt-abschuss-von-wolf-100.html", "thumbnailUrl": "https://images.tagesschau.de/image/0dfc4378-c029-492d-98ce-2bd64e32944f/AAABjq9ZBgY/AAABjcWesUg/16x9-512.jpg", "date": "2024-04-05T19:35:00.000+02:00", "lat": 53.1435, "lon": 8.2106, "intensity": 0.8, "source": "Tagesschau"}, {"title": "Gef\u00e4ngnisstrafe: Urteil nach t\u00f6dlichem Messerangriff in Harburg", "url": "https://www.tagesschau.de/inland/regional/hamburg/ndr-gefaengnisstrafe-urteil-nach-toedlichem-messerangriff-in-harburg-100.html", "thumbnailUrl": "https://images.tagesschau.de/image/05abe293-e6c5-440c-8ace-279bdb7eb26e/AAABjq9KRb0/AAABjcWesUg/16x9-512.jpg", "date": "2024-04-05T19:26:00.000+02:00", "lat": 53.463, "lon": 9.985, "intensity": 0.8, "source": "Tagesschau"}, {"title": "Saar-Bildungsministerium plant keine Genderverordnung", "url": "https://www.tagesschau.de/inland/regional/saarland/sr-saar-bildungsministerium-plant-keine-genderverordnung-100.html", "thumbnailUrl": "https://images.tagesschau.de/image/074cff65-e102-4126-94b4-74382f1b531a/AAABjq9NtC4/AAABjcWesUg/16x9-512.jpg", "date": "2024-04-05T19:25:00.000+02:00", "lat": 49.3964, "lon": 7.0232, "intensity": 0.6, "source": "Tagesschau"}, {"title": "\"Spiegel\": Eliteeinheit KSK in Calw soll neuen Kommandeur bekommen", "url": "https://www.tagesschau.de/inland/regional/badenwuerttemberg/swr-spiegel-eliteeinheit-ksk-in-calw-soll-neuen-kommandeur-bekommen-100.html", "thumbnailUrl": "https://images.tagesschau.de/image/1a739384-77ac-48ec-a640-89af4f8de68a/AAABjq9U96I/AAABjcWesUg/16x9-512.jpg", "date": "2024-04-05T19:21:10.000+02:00", "lat": 48.7122, "lon": 8.7395, "intensity": 0.8, "source": "Tagesschau"}, {"title": "Nach Messerangriff in Wangen im Allg\u00e4u: Vierj\u00e4hriger geht es besser", "url": "https://www.tagesschau.de/inland/regional/badenwuerttemberg/swr-wangen-im-allgaeu-mann-verletzt-kind-in-supermarkt-mit-messer-100.html", "thumbnailUrl": "https://images.tagesschau.de/image/865b49dc-7e9a-4093-bcc0-9b538df4791e/AAABjq7Ngkc/AAABjcWesUg/16x9-512.jpg", "date": "2024-04-05T19:16:00.000+02:00", "lat": 47.6866, "lon": 9.8373, "intensity": 0.8, "source": "Tagesschau"}, {"title": "Mann in Wohnung erstochen? 41-J\u00e4hriger stellt sich", "url": "https://www.tagesschau.de/inland/regional/niedersachsen/ndr-45-jaehrigen-in-wohnung-erstochen-verdaechtiger-stellt-sich-100.html", "thumbnailUrl": "https://images.tagesschau.de/image/1638c2e0-f114-49e5-91d1-15b9447c9efe/AAABjq_BU1A/AAABjcWesUg/16x9-512.jpg", "date": "2024-04-05T19:00:00.000+02:00", "lat": 53.4839, "lon": 9.5204, "intensity": 0.8, "source": "Tagesschau"}, {"title": "Mammut-Holzachterbahn in Tripsdrill bleibt stehen: Besucher evakuiert", "url": "https://www.tagesschau.de/inland/regional/badenwuerttemberg/swr-mammut-holzachterbahn-in-tripsdrill-bleibt-stehen-besucher-evakuiert-100.html", "thumbnailUrl": "https://images.tagesschau.de/image/8dbfa589-2faf-4f43-8ee0-e7099a82b434/AAABjq8z-5o/AAABjcWesUg/16x9-512.jpg", "date": "2024-04-05T18:57:29.000+02:00", "lat": 49.0331, "lon": 9.0652, "intensity": 0.7, "source": "Tagesschau"}, {"title": "Trotz Kontrollsystemen: Unfall in Frankenhainer Tunnel auf A49 blieb zwei Stunden unbemerkt", "url": "https://www.tagesschau.de/inland/regional/hessen/hr-trotz-kontrollsystemen-unfall-in-frankenhainer-tunnel-auf-a49-blieb-zwei-stunden-unbemerkt-100.html", "thumbnailUrl": "https://images.tagesschau.de/image/564a11c9-fa28-46d7-981d-087de5dc589a/AAABjq8yWB8/AAABjcWesUg/16x9-512.jpg", "date": "2024-04-05T18:57:16.040+02:00", "lat": 50.9031, "lon": 9.3111, "intensity": 0.8, "source": "Tagesschau"}, {"title": "Scharfmacher an der Spitze: AfD-Parteitag in J\u00fcterbog", "url": "https://www.tagesschau.de/inland/regional/brandenburg/rbb-scharfmacher-an-der-spitze-afd-parteitag-in-jueterbog-100.html", "thumbnailUrl": "https://images.tagesschau.de/image/c3d9d6e1-2158-4799-8222-91b32e29ea4f/AAABjq818IM/AAABjcWesUg/16x9-512.jpg", "date": "2024-04-05T18:55:59.000+02:00", "lat": 52.0011, "lon": 13.1938, "intensity": 0.7, "source": "Tagesschau"}, {"title": "Stockelsdorf: 800 Rentner \"spazieren\" f\u00fcr Inflationsausgleich", "url": "https://www.tagesschau.de/inland/regional/schleswigholstein/ndr-stockelsdorf-800-rentner-spazieren-fuer-inflationsausgleich-100.html", "thumbnailUrl": "https://images.tagesschau.de/image/d66b25cc-0d4e-4f6f-a986-689538c49c59/AAABjq8tAag/AAABjcWesUg/16x9-512.jpg", "date": "2024-04-05T18:51:00.000+02:00", "lat": 53.8933, "lon": 10.6891, "intensity": 0.8, "source": "Tagesschau"}, {"title": "Tornado-Verdacht in Korschenbroich - 20 H\u00e4user besch\u00e4digt", "url": "https://www.tagesschau.de/inland/regional/nordrheinwestfalen/wdr-tornado-verdacht-in-korschenbroich-20-haeuser-beschaedigt-100.html", "thumbnailUrl": "https://images.tagesschau.de/image/c1646936-f82d-4f46-afcf-93197a66bf5f/AAABjq-7dSM/AAABjcWesUg/16x9-512.jpg", "date": "2024-04-05T18:48:00.000+02:00", "lat": 51.1996, "lon": 6.5264, "intensity": 0.8, "source": "Tagesschau"}, {"title": "Angeln f\u00fcr die Wissenschaft: Fischbestand in der Oder hat sich erholt", "url": "https://www.tagesschau.de/inland/regional/brandenburg/rbb-angeln-fuer-die-wissenschaft-fischbestand-in-der-oder-hat-sich-erholt-100.html", "thumbnailUrl": "https://images.tagesschau.de/image/f4f69a86-d391-43d8-bbea-0021ab39d7f4/AAABjq8szqw/AAABjcWesUg/16x9-512.jpg", "date": "2024-04-05T18:47:22.000+02:00", "lat": 52.4125, "lon": 14.5534, "intensity": 0.6, "source": "Tagesschau"}, {"title": "Schienenverkehr: Bahn will Gleisanlagen auf Vordermann bringen und k\u00fcndigt zahlreiche Bauprojekte an ", "url": "https://www.tagesschau.de/inland/regional/brandenburg/rbb-schienenverkehr-bahn-will-gleisanlagen-auf-vordermann-bringen-und-kuendigt-zahlreiche-bauprojekte-an-100.html", "thumbnailUrl": "https://images.tagesschau.de/image/ea360773-cb79-42f6-b3ba-5fd0bfa7da86/AAABjq8ng5w/AAABjcWesUg/16x9-512.jpg", "date": "2024-04-05T18:40:33.000+02:00", "lat": 52.520008, "lon": 13.404954, "intensity": 0.7, "source": "Tagesschau"}, {"title": "SV Elversberg will Wiedergutmachung gegen Magdeburg", "url": "https://www.tagesschau.de/inland/regional/saarland/sr-sv-elversberg-will-wiedergutmachung-gegen-magdeburg-100.html", "thumbnailUrl": "https://images.tagesschau.de/image/9b1e2e89-1433-4eb0-a541-dbbab2d4993d/AAABjq8hpqM/AAABjcWesUg/16x9-512.jpg", "date": "2024-04-05T18:37:00.000+02:00", "lat": 49.3252, "lon": 7.0974, "intensity": 0.7, "source": "Tagesschau"}, {"title": "Was aus dem Karstadt-Geb\u00e4ude in Harburg werden soll", "url": "https://www.tagesschau.de/inland/regional/hamburg/ndr-was-aus-dem-karstadt-gebaeude-in-harburg-werden-soll-100.html", "thumbnailUrl": "https://images.tagesschau.de/image/6d826750-92b8-4534-b98b-383b35d7cda5/AAABjq8gJW4/AAABjcWesUg/16x9-512.jpg", "date": "2024-04-05T18:36:00.000+02:00", "lat": 53.459, "lon": 9.984, "intensity": 0.7, "source": "Tagesschau"}, {"title": "Streit am \"Drob Inn\" in Hamburg: Polizist gibt Warnschuss ab", "url": "https://www.tagesschau.de/inland/regional/hamburg/ndr-streit-am-drob-inn-in-hamburg-polizist-gibt-warnschuss-ab-100.html", "thumbnailUrl": "https://images.tagesschau.de/image/0221e102-0ea6-4893-9687-03144d7693cf/AAABjq4Ce3I/AAABjcWesUg/16x9-512.jpg", "date": "2024-04-05T18:30:00.000+02:00", "lat": 53.5511, "lon": 9.9937, "intensity": 0.7, "source": "Tagesschau"}, {"title": "K\u00fcnstliche Intelligenz: Hamburger Schulbeh\u00f6rde legt Leitlinien vor", "url": "https://www.tagesschau.de/inland/regional/hamburg/ndr-kuenstliche-intelligenz-hamburger-schulbehoerde-legt-leitlinien-vor-100.html", "thumbnailUrl": "https://images.tagesschau.de/image/08a089d8-6438-4b52-819d-9cb62bde1470/AAABjqzSjzA/AAABjcWesUg/16x9-512.jpg", "date": "2024-04-05T18:21:00.000+02:00", "lat": 53.551086, "lon": 9.993682, "intensity": 0.7, "source": "Tagesschau"}, {"title": "Pragsdorf-Prozess: Angeklagter nennt angeblichen Mitt\u00e4ter", "url": "https://www.tagesschau.de/inland/regional/mecklenburgvorpommern/ndr-pragsdorf-prozess-angeklagter-nennt-angeblichen-mittaeter-100.html", "thumbnailUrl": "https://images.tagesschau.de/image/1a53ea90-82dc-4363-8ce5-ed5259a489d4/AAABjq8--Ig/AAABjcWesUg/16x9-512.jpg", "date": "2024-04-05T18:20:00.000+02:00", "lat": 53.6127, "lon": 13.4411, "intensity": 0.8, "source": "Tagesschau"}, {"title": "52-J\u00e4hrige mit Messer angegriffen: Ehemann in U-Haft", "url": "https://www.tagesschau.de/inland/regional/niedersachsen/ndr-53-jaehrige-mit-messer-lebensgefaehrlich-verletzt-100.html", "thumbnailUrl": "https://images.tagesschau.de/image/092a9ed7-a606-4d26-9c37-ff72b02086ae/AAABjq8Pv-A/AAABjcWesUg/16x9-512.jpg", "date": "2024-04-05T18:19:00.000+02:00", "lat": 52.9548, "lon": 9.4113, "intensity": 0.8, "source": "Tagesschau"}, {"title": "Weiter strenge Haftbedingungen f\u00fcr Ex-RAF-Terroristin Klette", "url": "https://www.tagesschau.de/inland/regional/niedersachsen/ndr-weiter-strenge-haftbedingungen-fuer-ex-raf-terroristin-klette-100.html", "thumbnailUrl": "https://images.tagesschau.de/image/e484d3ec-24be-4274-9ddf-3c0c188f75c2/AAABjq7lnyI/AAABjcWesUg/16x9-512.jpg", "date": "2024-04-05T17:39:00.000+02:00", "lat": 52.9244, "lon": 9.2218, "intensity": 0.6, "source": "Tagesschau"}, {"title": "Parit\u00e4tischer Wohlfahrtsverband feiert 100-j\u00e4hriges Bestehen", "url": "https://www.tagesschau.de/inland/regional/hamburg/ndr-paritaetischer-wohlfahrtsverband-feiert-100-jaehriges-bestehen-100.html", "thumbnailUrl": "https://images.tagesschau.de/image/7553eb60-40ae-4421-9d9d-6d0fee572e20/AAABjq7s44M/AAABjcWesUg/16x9-512.jpg", "date": "2024-04-05T17:39:00.000+02:00", "lat": 53.5511, "lon": 9.9937, "intensity": 0.8, "source": "Tagesschau"}, {"title": "Wetter in Berlin und Brandenburg: Schlingernder Jetstream weht hei\u00dfen Wind in die Region", "url": "https://www.tagesschau.de/inland/regional/brandenburg/rbb-wetter-in-berlin-und-brandenburg-schlingernder-jetstream-weht-heissen-wind-in-die-region-100.html", "thumbnailUrl": "https://images.tagesschau.de/image/7620eac8-7f36-4575-917a-e74de94315c0/AAABjq7iA_0/AAABjcWesUg/16x9-512.jpg", "date": "2024-04-05T17:27:00.000+02:00", "lat": 52.520008, "lon": 13.404954, "intensity": 0.7, "source": "Tagesschau"}, {"title": "Im Visier von Kriminellen: Mehr als 3.700 Straftaten gegen \u00e4ltere Menschen", "url": "https://www.tagesschau.de/inland/regional/hessen/hr-im-visier-von-kriminellen-mehr-als-3-700-straftaten-gegen-aeltere-menschen-100.html", "thumbnailUrl": "https://images.tagesschau.de/image/bab45d8a-8d9f-4f36-8ebd-1577aea00807/AAABjq7f55Q/AAABjcWesUg/16x9-512.jpg", "date": "2024-04-05T17:26:34.192+02:00", "lat": 51.3, "lon": 9.7, "intensity": 0.8, "source": "Tagesschau"}, {"title": "E-Scooter-Verbot in Bussen in Schleswig-Holstein soll kommen", "url": "https://www.tagesschau.de/inland/regional/schleswigholstein/ndr-e-scooter-verbot-in-bussen-in-schleswig-holstein-soll-kommen-100.html", "thumbnailUrl": "https://images.tagesschau.de/image/43252ae0-83f2-4922-9f6b-9f68ffedf096/AAABjq7iFV8/AAABjcWesUg/16x9-512.jpg", "date": "2024-04-05T17:26:00.000+02:00", "lat": 54.52085, "lon": 9.99104, "intensity": 0.6, "source": "Tagesschau"}, {"title": "Bauernverband fordert Abschuss von \"Problemwolf\" bei Redderstorf", "url": "https://www.tagesschau.de/inland/regional/mecklenburgvorpommern/ndr-redderstorf-vermutlich-19-schafe-von-wolf-gerissen-100.html", "thumbnailUrl": "https://images.tagesschau.de/image/1365b2f8-85e8-4d88-85a3-5b6ff2954408/AAABjq7S8-4/AAABjcWesUg/16x9-512.jpg", "date": "2024-04-05T17:25:00.000+02:00", "lat": 53.8385, "lon": 11.1769, "intensity": 0.8, "source": "Tagesschau"}, {"title": "Berliner Polizei entdeckt offenbar Drogenlabor in Bohnsdorf", "url": "https://www.tagesschau.de/inland/regional/berlin/rbb-berlin-koepenick-polizei-stellt-chemikalien-in-bohnsdorf-sicher-100.html", "thumbnailUrl": "https://images.tagesschau.de/image/cb1fdff3-d7e3-437a-8e7f-4f43f565aa80/AAABjq7eSA4/AAABjcWesUg/16x9-512.jpg", "date": "2024-04-05T17:21:10.000+02:00", "lat": 52.409, "lon": 13.606, "intensity": 0.6, "source": "Tagesschau"}, {"title": "Wetter am Wochenende: Saharastaub und bis zu 30 Grad in BW ", "url": "https://www.tagesschau.de/inland/regional/badenwuerttemberg/swr-sommerwetter-am-wochenende-bis-zu-30-grad-in-bw-moeglich-100.html", "thumbnailUrl": "https://images.tagesschau.de/image/56a9fec1-328e-4a2e-b0b5-d1f400ab1c9a/AAABjq7UyvA/AAABjcWesUg/16x9-512.jpg", "date": "2024-04-05T17:18:00.000+02:00", "lat": 48.771508, "lon": 9.005963, "intensity": 0.8, "source": "Tagesschau"}, {"title": "13-J\u00e4hriger l\u00f6st mit Softair-Pistole Polizeieinsatz in Hemmersdorf aus", "url": "https://www.tagesschau.de/inland/regional/saarland/sr-13-jaehriger-loest-mit-softair-pistole-polizeieinsatz-in-hemmersdorf-aus-100.html", "thumbnailUrl": "https://images.tagesschau.de/image/81c91509-392a-4fe1-9752-ab855ca5d225/AAABjq7Na4A/AAABjcWesUg/16x9-512.jpg", "date": "2024-04-05T17:01:00.000+02:00", "lat": 49.2681, "lon": 6.8475, "intensity": 0.7, "source": "Tagesschau"}, {"title": "Bahn-Versp\u00e4tungen in SH: Land h\u00e4lt 1,7 Millionen Euro zur\u00fcck", "url": "https://www.tagesschau.de/inland/regional/schleswigholstein/ndr-bahn-verspaetungen-in-sh-bereits-17-millionen-euro-strafzahlungen-100.html", "thumbnailUrl": "https://images.tagesschau.de/image/537583ca-c59f-4ecd-94ea-c94c99d3cc9d/AAABjq7ReW4/AAABjcWesUg/16x9-512.jpg", "date": "2024-04-05T16:56:00.000+02:00", "lat": 54.4753, "lon": 10.4515, "intensity": 0.8, "source": "Tagesschau"}, {"title": "Darmstadt 98: +++ DFB-Sportgericht weist Lilien-Einspruch ab +++ Medien: Darmstadt an Heggem dran +++ Mainz-Trainer sieht \"ein Finale\" +++", "url": "https://www.tagesschau.de/inland/regional/hessen/hr--tietz-vermisst-fehlende-gier--lilien-fans-liefern-sich-raststaetten-pruegelei--die-niederlage-der-lilien-in-der-video-zusammenfassung-102.html", "thumbnailUrl": "https://images.tagesschau.de/image/99455cfb-4683-4b99-94b6-390c216d26b8/AAABjq7Cn2g/AAABjcWesUg/16x9-512.jpg", "date": "2024-04-05T16:55:11.562+02:00", "lat": 49.8717, "lon": 8.65, "intensity": 0.5, "source": "Tagesschau"}, {"title": "Nienburg: Staatsanwalt warnt vor vorschnellen R\u00fcckschl\u00fcssen", "url": "https://www.tagesschau.de/inland/regional/niedersachsen/ndr-toedliche-polizeischuesse-in-nienburg-staatsanwaltschaft-aeussert-sich-100.html", "thumbnailUrl": "https://images.tagesschau.de/image/9a8b6535-80fa-4651-8285-c5124743b7f2/AAABjq639JY/AAABjcWesUg/16x9-512.jpg", "date": "2024-04-05T16:44:00.000+02:00", "lat": 52.633, "lon": 9.157, "intensity": 0.7, "source": "Tagesschau"}, {"title": "Auf der Metzer Stra\u00dfe in Saarbr\u00fccken drohen Staus", "url": "https://www.tagesschau.de/inland/regional/saarland/sr-auf-der-saarbruecker-metzer-strasse-drohen-am-wochenende-staus-100.html", "thumbnailUrl": "https://images.tagesschau.de/image/99abfc86-af9a-4c6f-af24-4cada2d3debe/AAABjq1sBWU/AAABjcWesUg/16x9-512.jpg", "date": "2024-04-05T16:42:00.000+02:00", "lat": 49.2401, "lon": 6.9911, "intensity": 0.6, "source": "Tagesschau"}, {"title": "Wohnungen in Hamburg: F\u00f6rderung jetzt auch f\u00fcr mittlere Einkommen", "url": "https://www.tagesschau.de/inland/regional/hamburg/ndr-dritter-foerderungsweg-fuer-sozialwohnungen-in-hamburg-100.html", "thumbnailUrl": "https://images.tagesschau.de/image/ec3193c1-9e72-4821-8d33-c84d0e19b9a6/AAABjq6ySHw/AAABjcWesUg/16x9-512.jpg", "date": "2024-04-05T16:37:00.000+02:00", "lat": 53.5511, "lon": 9.9937, "intensity": 0.6, "source": "Tagesschau"}, {"title": "Kultur: +++ Tilman Michael \u00fcber Wechsel zur Met in New York +++ Dreharbeiten zu \"Silent Friend\" starten in Marburg +++ ", "url": "https://www.tagesschau.de/inland/regional/hessen/hr--schauspiel-frankfurt-bringt-putin-und-macbeth-zusammen--die-filmfestival-saison-2023-startet--lichter-filmfest-zum-thema-liebe-startet-am-dienstag-100.html", "thumbnailUrl": "https://images.tagesschau.de/image/25de1f2b-1b0b-44a8-a165-062e1fc91b1e/AAABjqqY7ms/AAABjcWesUg/16x9-512.jpg", "date": "2024-04-05T16:31:40.205+02:00", "lat": 50.807, "lon": 8.776, "intensity": 0.4, "source": "Tagesschau"}, {"title": "Schwerer Verkehrsunfall auf der A5 bei Hemsbach - Folgeunfall im Stau", "url": "https://www.tagesschau.de/inland/regional/badenwuerttemberg/swr-schwerer-verkehrsunfall-auf-der-a5-bei-hemsbach-folgeunfall-im-stau-100.html", "thumbnailUrl": "https://images.tagesschau.de/image/9de4ef84-78df-4f10-9dec-42ddfea47080/AAABjq63frc/AAABjcWesUg/16x9-512.jpg", "date": "2024-04-05T16:31:00.000+02:00", "lat": 49.5873, "lon": 8.6217, "intensity": 0.8, "source": "Tagesschau"}, {"title": "Israels Armee entl\u00e4sst zwei Offiziere", "url": "https://www.tagesschau.de/ausland/asien/israel-entlassung-offiziere-100.html", "thumbnailUrl": "https://images.tagesschau.de/image/0baa1636-6123-42f1-95ce-460598f38c46/AAABjq5_Fd0/AAABjcWesUg/16x9-512.jpg", "date": "2024-04-05T16:29:31.239+02:00", "lat": 31.9522, "lon": 34.9513, "intensity": 0.8, "source": "Tagesschau"}, {"title": "47 hessische Polizisten derzeit unter Rechtsextremismus-Verdacht ", "url": "https://www.tagesschau.de/inland/regional/hessen/hr-47-disziplinarverfahren-in-hessischer-polizei-wegen-rechter-verdachtsfaelle-100.html", "thumbnailUrl": "https://images.tagesschau.de/image/c79fef36-7598-462c-b615-02c85f6fed55/AAABjq6o-Ng/AAABjcWesUg/16x9-512.jpg", "date": "2024-04-05T16:27:40.969+02:00", "lat": 50.5831, "lon": 9.1625, "intensity": 0.8, "source": "Tagesschau"}, {"title": "US-Jobmarkt boomt st\u00e4rker als erwartet", "url": "https://www.tagesschau.de/wirtschaft/weltwirtschaft/usa-arbeitsmarkt-zinswende-100.html", "thumbnailUrl": "https://images.tagesschau.de/image/1528f671-98ed-45d4-b16a-e199d515390e/AAABjq4EhWc/AAABjcWesUg/16x9-512.jpg", "date": "2024-04-05T16:04:56.864+02:00", "lat": 37.0902, "lon": -95.7129, "intensity": 0.8, "source": "Tagesschau"}, {"title": "Amnestieregelung: H\u00e4ftling in Berlin nach Teil-Legalisierung von Cannabis entlassen ", "url": "https://www.tagesschau.de/inland/regional/berlin/rbb-amnestieregelung-haeftling-in-berlin-wegen-teillegalisierung-von-cannabis-entlassen-100.html", "thumbnailUrl": "https://images.tagesschau.de/image/127133e5-63d1-42f2-9287-5d3f59fa2f07/AAABjq6U-DM/AAABjcWesUg/16x9-512.jpg", "date": "2024-04-05T16:03:41.000+02:00", "lat": 52.520008, "lon": 13.404954, "intensity": 0.8, "source": "Tagesschau"}, {"title": "13-J\u00e4hriger soll Obdachlosen erstochen haben", "url": "https://www.tagesschau.de/inland/regional/nordrheinwestfalen/dortmund-toetung-obdachloser-100.html", "thumbnailUrl": "https://images.tagesschau.de/image/46a3358d-bcaa-4ee6-ad45-f9b44d780ad1/AAABjq6PjCM/AAABjcWesUg/16x9-512.jpg", "date": "2024-04-05T16:00:27.167+02:00", "lat": 51.5136, "lon": 7.4686, "intensity": 0.8, "source": "Tagesschau"}, {"title": "Unfall auf B207: Flucht vor Polizeikontrolle endet im Graben", "url": "https://www.tagesschau.de/inland/regional/schleswigholstein/ndr-unfall-auf-b207-flucht-vor-polizeikontrolle-endet-im-graben-100.html", "thumbnailUrl": "https://images.tagesschau.de/image/49b303b7-8162-4454-a198-1b7e5a3d7602/AAABjq25TnM/AAABjcWesUg/16x9-512.jpg", "date": "2024-04-05T16:00:00.000+02:00", "lat": 53.6789, "lon": 10.5295, "intensity": 0.7, "source": "Tagesschau"}, {"title": "So stark sind Arm und Reich in norddeutschen St\u00e4dten getrennt", "url": "https://www.tagesschau.de/inland/regional/hamburg/ndr-so-stark-sind-arm-und-reich-in-norddeutschen-staedten-getrennt-100.html", "thumbnailUrl": "https://images.tagesschau.de/image/caa18c85-1742-4370-b05f-29478a39cf60/AAABjq7Y37g/AAABjcWesUg/16x9-512.jpg", "date": "2024-04-05T15:58:00.000+02:00", "lat": 53.5511, "lon": 9.9937, "intensity": 0.8, "source": "Tagesschau"}, {"title": "Baden-W\u00fcrttemberg besonders stark betroffen: Arbeitslosigkeit wird wohl deutlich zunehmen", "url": "https://www.tagesschau.de/inland/regional/badenwuerttemberg/swr-baden-wuerttemberg-besonders-stark-betroffen-arbeitslosigkeit-wird-wohl-deutlich-zunehmen-100.html", "thumbnailUrl": "https://images.tagesschau.de/image/d83cbf19-f840-483d-810a-aa414544d6c1/AAABjq6PLcs/AAABjcWesUg/16x9-512.jpg", "date": "2024-04-05T15:55:50.000+02:00", "lat": 48.6617, "lon": 9.0, "intensity": 0.8, "source": "Tagesschau"}, {"title": "AfD-Veranstaltung in Schortens: Partei will Gegendemos verbieten", "url": "https://www.tagesschau.de/inland/regional/niedersachsen/ndr-afd-veranstaltung-in-schortens-partei-will-gegendemos-verbieten-100.html", "thumbnailUrl": "https://images.tagesschau.de/image/5101829a-ec9a-4811-b772-c3cf1a93c474/AAABjq6KDQA/AAABjcWesUg/16x9-512.jpg", "date": "2024-04-05T15:49:00.000+02:00", "lat": 53.5227, "lon": 7.9292, "intensity": 0.6, "source": "Tagesschau"}, {"title": "Kassel Huskies und MT Melsungen: Hessische Handball-Eishockey-Freundschaft", "url": "https://www.tagesschau.de/inland/regional/hessen/hr-kassel-huskies-und-mt-melsungen-hessische-handball-eishockey-freundschaft-102.html", "thumbnailUrl": "https://images.tagesschau.de/image/186f6812-7b6b-45cd-a13f-75f9a2291a77/AAABjq6Pfuc/AAABjcWesUg/16x9-512.jpg", "date": "2024-04-05T15:46:45.002+02:00", "lat": 51.3127, "lon": 9.4992, "intensity": 0.8, "source": "Tagesschau"}, {"title": "Immer mehr Lehrkr\u00e4fte in BW fallen krankheitsbedingt lange aus", "url": "https://www.tagesschau.de/inland/regional/badenwuerttemberg/swr-immer-mehr-lehrkraefte-in-bw-fallen-krankheitsbedingt-lange-aus-100.html", "thumbnailUrl": "https://images.tagesschau.de/image/9c7c3e62-ba27-4fb7-8d55-084cec35c2ef/AAABjq6H3sc/AAABjcWesUg/16x9-512.jpg", "date": "2024-04-05T15:46:29.000+02:00", "lat": 48.6616, "lon": 9.0556, "intensity": 0.8, "source": "Tagesschau"}, {"title": "U-Boot U 17 wird ab 30. Juni von Speyer nach Sinsheim transportiert", "url": "https://www.tagesschau.de/inland/regional/rheinlandpfalz/swr-u-boot-u-17-wird-ab-30-juni-von-speyer-nach-sinsheim-transportiert-100.html", "thumbnailUrl": "https://images.tagesschau.de/image/f0cff1d4-4e90-4fcd-af73-8ecc8052d8b6/AAABjq6qriM/AAABjcWesUg/16x9-512.jpg", "date": "2024-04-05T15:40:16.000+02:00", "lat": 49.3153, "lon": 8.4279, "intensity": 0.4, "source": "Tagesschau"}, {"title": "Startzeiten, Sperrungen und Co: Wo es durch den Berliner Halbmarathon am Sonntag voll wird", "url": "https://www.tagesschau.de/inland/regional/berlin/rbb-startzeiten-sperrungen-und-co-wo-es-durch-den-berliner-halbmarathon-am-sonntag-voll-wird-102.html", "thumbnailUrl": "https://images.tagesschau.de/image/26fcf358-81dc-44b9-9395-1e7317edcaac/AAABjq59KqY/AAABjcWesUg/16x9-512.jpg", "date": "2024-04-05T15:32:42.000+02:00", "lat": 52.52, "lon": 13.405, "intensity": 0.8, "source": "Tagesschau"}, {"title": "Berlin und Brandenburg stehen in den Startl\u00f6chern f\u00fcr Europawahl", "url": "https://www.tagesschau.de/inland/regional/brandenburg/rbb-berlin-und-brandenburg-stehen-in-den-startloechern-fuer-europawahl-100.html", "thumbnailUrl": "https://images.tagesschau.de/image/e5591ecf-2dcb-488d-ae72-2cc3389c9e63/AAABjq6A2QA/AAABjcWesUg/16x9-512.jpg", "date": "2024-03-30T17:46:13.000+01:00", "lat": 52.520008, "lon": 13.404954, "intensity": 0.5, "source": "Tagesschau"}, {"title": "Strukturwandel: Lausitz bekommt einen Forschungscampus f\u00fcr klimafreundliche Materialproduktion", "url": "https://www.tagesschau.de/inland/regional/brandenburg/rbb-strukturwandel-lausitz-bekommt-einen-forschungscampus-fuer-klimafreundliche-materialproduktion-100.html", "thumbnailUrl": "https://images.tagesschau.de/image/cc11baa8-cfd1-427c-9df4-8dfc27bd6975/AAABjq5z6LI/AAABjcWesUg/16x9-512.jpg", "date": "2024-04-05T15:26:21.000+02:00", "lat": 51.4189, "lon": 14.4511, "intensity": 0.8, "source": "Tagesschau"}, {"title": "Diskussion um Grenzwerte: Warum Hessens Luft offiziell sauber ist und trotzdem nicht gesund", "url": "https://www.tagesschau.de/inland/regional/hessen/hr-bericht-zur-luftqualitaet-warum-hessens-luft-offiziell-sauber-ist-und-trotzdem-nicht-gesund-100.html", "thumbnailUrl": "https://images.tagesschau.de/image/f479c4b6-8343-444d-b981-f9e7271c9cb4/AAABjq5uc9w/AAABjcWesUg/16x9-512.jpg", "date": "2024-04-05T15:23:38.445+02:00", "lat": 50.7827, "lon": 9.6752, "intensity": 0.7, "source": "Tagesschau"}, {"title": "Karlsberg-Mitarbeitende heute zum Streik aufgerufen", "url": "https://www.tagesschau.de/inland/regional/saarland/sr-karlsberg-mitarbeitende-zum-streik-aufgerufen-100.html", "thumbnailUrl": "https://images.tagesschau.de/image/f71ff4fb-6ad6-48c2-b11e-ff8f23ae2970/AAABjqjsSpo/AAABjcWesUg/16x9-512.jpg", "date": "2024-04-05T06:28:00.000+02:00", "lat": 49.3123, "lon": 7.3403, "intensity": 0.8, "source": "Tagesschau"}, {"title": "Bei Hotel von Schwarzenhof gefunden: Damhirsch mutma\u00dflich von Wolf gerissen", "url": "https://www.tagesschau.de/inland/regional/mecklenburgvorpommern/ndr-an-hotel-von-schwarzenhof-damhirsch-mutmasslich-von-wolf-gerissen-100.html", "thumbnailUrl": "https://images.tagesschau.de/image/9514a2d2-cadf-40d8-bde7-33656fa2af51/AAABjq6-2ew/AAABjcWesUg/16x9-512.jpg", "date": "2024-04-05T15:23:00.000+02:00", "lat": 53.4214, "lon": 12.6625, "intensity": 0.8, "source": "Tagesschau"}, {"title": "\"Ein bisschen wie bei Indiana Jones\"", "url": "https://www.tagesschau.de/inland/mittendrin/spreewald-fruehjahrsputz-100.html", "thumbnailUrl": "https://images.tagesschau.de/image/bfec9eec-4c34-4a01-b025-8ef02840f105/AAABjq3r_SA/AAABjcWesUg/16x9-512.jpg", "date": "2024-04-05T15:20:33.738+02:00", "lat": 51.4521, "lon": 13.9003, "intensity": 0.3, "source": "Tagesschau"}, {"title": "100.000 Euro Schmerzensgeld nach antisemitischer Attacke in Hamburg", "url": "https://www.tagesschau.de/inland/regional/hamburg/ndr-100-000-euro-schmerzensgeld-nach-antisemitischer-attacke-in-hamburg-100.html", "thumbnailUrl": "https://images.tagesschau.de/image/71d080a8-954d-4812-b3cf-e8bcf21a9cc7/AAABjq5eAHk/AAABjcWesUg/16x9-512.jpg", "date": "2024-04-05T15:17:00.000+02:00", "lat": 53.551085, "lon": 9.993682, "intensity": 0.8, "source": "Tagesschau"}, {"title": "\"Kitas brauchen mehr Personal, aber keine SPD-Schoko-Hasen\"", "url": "https://www.tagesschau.de/inland/regional/mecklenburgvorpommern/ndr-kitas-brauchen-mehr-personal-aber-keine-spd-schoko-hasen-100.html", "thumbnailUrl": "https://images.tagesschau.de/image/6c206d5b-d039-4195-9429-c76fc9f88b9e/AAABjq6z8k8/AAABjcWesUg/16x9-512.jpg", "date": "2024-04-05T15:16:00.000+02:00", "lat": 53.6355, "lon": 11.4136, "intensity": 0.6, "source": "Tagesschau"}, {"title": "H\u00f6here Cannabis-Grenzwerte im Verkehr? Bayern plant Widerstand", "url": "https://www.tagesschau.de/inland/regional/bayern/br-hoehere-cannabis-grenzwerte-im-verkehr-bayern-plant-widerstand-102.html", "thumbnailUrl": "https://images.tagesschau.de/image/1dc3a668-2ded-496a-962f-1fcef87b9899/AAABjq5nK8Q/AAABjcWesUg/16x9-512.jpg", "date": "2024-04-05T15:14:54.556+02:00", "lat": 48.1351, "lon": 11.582, "intensity": 0.7, "source": "Tagesschau"}, {"title": "Streit um Wasserkraft im Lech: Naturschutz oder gr\u00fcne Energie?", "url": "https://www.tagesschau.de/inland/regional/bayern/br-streit-um-wasserkraft-im-lech-naturschutz-oder-gruene-energie-102.html", "thumbnailUrl": "https://images.tagesschau.de/image/1bc235d2-c880-49a4-866b-c31ea381f826/AAABjq5lY2o/AAABjcWesUg/16x9-512.jpg", "date": "2024-04-05T15:13:52.260+02:00", "lat": 47.498333, "lon": 10.870351, "intensity": 0.7, "source": "Tagesschau"}, {"title": "Krankenhaus in Bitburg wird wegen Bombe am Sonntag evakuiert", "url": "https://www.tagesschau.de/inland/regional/rheinlandpfalz/swr-bombe-bei-bauarbeiten-an-grundschule-in-bitburg-gefunden-100.html", "thumbnailUrl": "https://images.tagesschau.de/image/1f7f714c-47ce-44ee-ae5e-347e0f4fad1d/AAABjq5lLcs/AAABjcWesUg/16x9-512.jpg", "date": "2024-04-05T15:11:00.000+02:00", "lat": 49.9714, "lon": 6.5319, "intensity": 0.8, "source": "Tagesschau"}, {"title": "Rekord-W\u00e4rme und Saharastaub erwartet", "url": "https://www.tagesschau.de/inland/regional/nordrheinwestfalen/wdr-aprilwetter-am-wochenende-gewitter-rekordverdaechtige-waerme-und-saharastaub-moeglich-100.html", "thumbnailUrl": "https://images.tagesschau.de/image/2f563cc9-84c6-4cdb-9716-6b42d329be0e/AAABjq8J1kM/AAABjcWesUg/16x9-512.jpg", "date": "2024-04-05T15:08:00.000+02:00", "lat": 51.8133, "lon": 7.6261, "intensity": 0.8, "source": "Tagesschau"}, {"title": "Pragsdorf-Prozess: Angeklagter Jugendlicher legt Teilgest\u00e4ndnis ab", "url": "https://www.tagesschau.de/inland/regional/mecklenburgvorpommern/ndr-prozess-um-getoeteten-sechsjaehrigen-aus-pragsdorf-urteil-verschoben-100.html", "thumbnailUrl": "https://images.tagesschau.de/image/1a53ea90-82dc-4363-8ce5-ed5259a489d4/AAABjq8--Ig/AAABjcWesUg/16x9-512.jpg", "date": "2024-04-05T15:07:00.000+02:00", "lat": 53.6176, "lon": 13.3221, "intensity": 0.8, "source": "Tagesschau"}, {"title": "Strandkorb gebraucht kaufen: Wo das geht und was es kostet", "url": "https://www.tagesschau.de/inland/regional/schleswigholstein/ndr-strandkorb-gebraucht-kaufen-wo-das-geht-und-was-es-kostet-100.html", "thumbnailUrl": "https://images.tagesschau.de/image/a3010f89-bc76-4cb6-91b9-6cc4e556e918/AAABjqcM_60/AAABjcWesUg/16x9-512.jpg", "date": "2024-04-05T15:00:00.000+02:00", "lat": 54.2194, "lon": 9.9706, "intensity": 0.5, "source": "Tagesschau"}, {"title": "Flutkatastrophe: Wie die Frage nach der Schuld die Menschen im Ahrtal besch\u00e4ftigt", "url": "https://www.tagesschau.de/inland/regional/rheinlandpfalz/swr-flutkatastrophe-wie-die-frage-nach-der-schuld-die-menschen-im-ahrtal-beschaeftigt-100.html", "thumbnailUrl": "https://images.tagesschau.de/image/c159a390-78f5-495c-a61c-c1d48483302a/AAABjq6frnE/AAABjcWesUg/16x9-512.jpg", "date": "2024-04-05T14:49:10.000+02:00", "lat": 50.5477, "lon": 7.1739, "intensity": 0.8, "source": "Tagesschau"}, {"title": "Uelzen: Museum erz\u00e4hlt Geschichte von verheerendem Stadtbrand", "url": "https://www.tagesschau.de/inland/regional/niedersachsen/ndr-uelzen-museum-erzaehlt-geschichte-von-verheerendem-stadtbrand-100.html", "thumbnailUrl": "https://images.tagesschau.de/image/75ecb9a3-ba01-410d-ade2-7c7542a55aaf/AAABjq5NvJI/AAABjcWesUg/16x9-512.jpg", "date": "2024-04-05T14:47:00.000+02:00", "lat": 52.9662, "lon": 10.5561, "intensity": 0.6, "source": "Tagesschau"}, {"title": "Wetter in Berlin und Brandenburg: Bis zu 27 Grad am Wochenende erwartet - vorher Sturm und Hagel m\u00f6glich", "url": "https://www.tagesschau.de/inland/regional/brandenburg/rbb-sommerliche-temperaturen-von-bis-zu-27-grad-am-wochenende-vorhergesagt-100.html", "thumbnailUrl": "https://images.tagesschau.de/image/54da31a6-ee65-4abe-bd08-ae8c5153ad28/AAABjq59Pno/AAABjcWesUg/16x9-512.jpg", "date": "2024-04-05T14:43:59.000+02:00", "lat": 52.520008, "lon": 13.404954, "intensity": 0.6, "source": "Tagesschau"}, {"title": "Was die erneute Insolvenz f\u00fcr Galeria Karstadt in Saarbr\u00fccken bedeutet", "url": "https://www.tagesschau.de/inland/regional/saarland/sr-was-die-erneute-insolvenz-fuer-galeria-karstadt-in-saarbruecken-bedeutet-100.html", "thumbnailUrl": "https://images.tagesschau.de/image/ff375481-eb70-49a8-9299-f993871ecc94/AAABjq5La2M/AAABjcWesUg/16x9-512.jpg", "date": "2024-04-05T14:40:00.000+02:00", "lat": 49.2354, "lon": 6.96514, "intensity": 0.7, "source": "Tagesschau"}, {"title": "Solarenergie: Oldenburg liegt laut Studie bundesweit vorn", "url": "https://www.tagesschau.de/inland/regional/niedersachsen/ndr-solarenergie-oldenburg-liegt-laut-studie-bundesweit-vorn-100.html", "thumbnailUrl": "https://images.tagesschau.de/image/21f76f87-f205-47df-9b17-e68a6c2fdd52/AAABjq5GVPU/AAABjcWesUg/16x9-512.jpg", "date": "2024-04-05T14:38:00.000+02:00", "lat": 53.1435, "lon": 8.2159, "intensity": 0.8, "source": "Tagesschau"}, {"title": "Mehr als 100 Millionen Dollar Falschgeld beschlagnahmt", "url": "https://www.tagesschau.de/inland/regional/schleswigholstein/100-millionen-falschgeld-100.html", "thumbnailUrl": "https://images.tagesschau.de/image/6ba84f07-4644-4fb0-840c-9856ec96106e/AAABjq44wsA/AAABjcWesUg/16x9-512.jpg", "date": "2024-04-05T14:35:35.738+02:00", "lat": 53.55, "lon": 10.0, "intensity": 0.8, "source": "Tagesschau"}, {"title": "Streit um Geld eskaliert: Mann will Frau in Auto zerren", "url": "https://www.tagesschau.de/inland/regional/niedersachsen/ndr-streit-um-geld-eskaliert-mann-will-frau-in-auto-zerren-100.html", "thumbnailUrl": "https://images.tagesschau.de/image/0d648368-4c75-4f3d-8853-3cec9d947d03/AAABjq5A0NI/AAABjcWesUg/16x9-512.jpg", "date": "2024-04-05T14:32:00.000+02:00", "lat": 51.8667, "lon": 9.9833, "intensity": 0.8, "source": "Tagesschau"}, {"title": "Ex-Eintracht-Spielerin Sjoeke N\u00fcsken will Stammkraft beim DFB-Team werden", "url": "https://www.tagesschau.de/inland/regional/hessen/hr-ex-eintracht-spielerin-sjoeke-nuesken-will-stammkraft-beim-dfb-team-werden-102.html", "thumbnailUrl": "https://images.tagesschau.de/image/0a5ab8f3-20ab-49d1-80e2-bec3d4562724/AAABjq67hDM/AAABjcWesUg/16x9-512.jpg", "date": "2024-04-05T14:26:53.444+02:00", "lat": 50.1109, "lon": 8.6821, "intensity": 0.7, "source": "Tagesschau"}, {"title": "Rekordstart in die Erdbeersaison: Fr\u00fche Ernte in Weinsberg", "url": "https://www.tagesschau.de/inland/regional/badenwuerttemberg/swr-rekordstart-in-die-erdbeersaison-fruehe-ernte-in-weinsberg-100.html", "thumbnailUrl": "https://images.tagesschau.de/image/c28ad8fb-252d-479b-9e8a-e980c0a685ef/AAABjq5NSqE/AAABjcWesUg/16x9-512.jpg", "date": "2024-04-05T14:24:01.000+02:00", "lat": 49.1477, "lon": 9.2696, "intensity": 0.6, "source": "Tagesschau"}, {"title": "Frankreich f\u00fchrt 49-Euro-Sommerticket f\u00fcr junge Leute ein", "url": "https://www.tagesschau.de/inland/regional/saarland/sr-frankreich-fuehrt-49-euro-sommerticket-fuer-junge-leute-ein-100.html", "thumbnailUrl": "https://images.tagesschau.de/image/cf611864-7659-4a15-91f5-109d201b462f/AAABjq48xNE/AAABjcWesUg/16x9-512.jpg", "date": "2024-04-05T14:08:00.000+02:00", "lat": 49.3964, "lon": 6.9108, "intensity": 0.6, "source": "Tagesschau"}, {"title": "Saison er\u00f6ffnet: Berliner Brunnen sprudeln wieder", "url": "https://www.tagesschau.de/inland/regional/berlin/rbb-saison-eroeffnet-berliner-brunnen-sprudeln-wieder-100.html", "thumbnailUrl": "https://images.tagesschau.de/image/cd3ff811-8cbd-41e3-baf1-d2847264bbd8/AAABjq4d9yU/AAABjcWesUg/16x9-512.jpg", "date": "2024-04-05T13:52:53.000+02:00", "lat": 52.520008, "lon": 13.404954, "intensity": 0.6, "source": "Tagesschau"}, {"title": "Justiz muss deutlich mehr Cannabis-Verfahren \u00fcberpr\u00fcfen als zun\u00e4chst erwartet", "url": "https://www.tagesschau.de/inland/regional/brandenburg/rbb-justiz-muss-deutlich-mehr-cannabis-verfahren-ueberpruefen-als-zunaechst-erwartet-102.html", "thumbnailUrl": "https://images.tagesschau.de/image/a07bc43c-4da7-4f57-9f6e-711548afeac4/AAABjq6U-0A/AAABjcWesUg/16x9-512.jpg", "date": "2024-04-05T13:51:49.000+02:00", "lat": 52.520008, "lon": 13.404954, "intensity": 0.8, "source": "Tagesschau"}, {"title": "Dabel stimmt gegen Fl\u00fcchtlingsunterkunft: Kreis wartet auf Begr\u00fcndung", "url": "https://www.tagesschau.de/inland/regional/mecklenburgvorpommern/ndr-dabel-gemeindevertreter-lehnen-geplante-fluechtlingsunterkunft-ab-100.html", "thumbnailUrl": "https://images.tagesschau.de/image/60f0cfd5-070a-470a-9c6c-3eda23d51ed9/AAABjq4b4Gc/AAABjcWesUg/16x9-512.jpg", "date": "2024-04-05T13:46:00.000+02:00", "lat": 53.4955, "lon": 13.4262, "intensity": 0.7, "source": "Tagesschau"}, {"title": "Wut bei Feuerwehr Burg Stargard: Einbrecher zerst\u00f6ren Einsatzfahrzeug", "url": "https://www.tagesschau.de/inland/regional/mecklenburgvorpommern/ndr-wut-bei-der-feuerwehr-kasse-geklaut-einsatzfahrzeug-demoliert-100.html", "thumbnailUrl": "https://images.tagesschau.de/image/3407d453-8d81-469b-a2f1-362a3e638c9f/AAABjq6Ama0/AAABjcWesUg/16x9-512.jpg", "date": "2024-04-05T13:43:00.000+02:00", "lat": 53.4885, "lon": 13.3213, "intensity": 0.8, "source": "Tagesschau"}, {"title": "Wetter in Hessen: Erst Sonnenbrand, dann W\u00fcstensand", "url": "https://www.tagesschau.de/inland/regional/hessen/hr-wetter-in-hessen-erst-sonnenbrand-dann-wuestensand-100.html", "thumbnailUrl": "https://images.tagesschau.de/image/cdc09279-cb71-4316-a597-590df1db2991/AAABjq4PMiU/AAABjcWesUg/16x9-512.jpg", "date": "2024-04-05T13:38:47.518+02:00", "lat": 50.6521, "lon": 8.56, "intensity": 0.7, "source": "Tagesschau"}, {"title": "D\u00e4nemark gibt Entwarnung", "url": "https://www.tagesschau.de/ausland/europa/raketenwerfer-militaerschiff-daenemark-100.html", "thumbnailUrl": "https://images.tagesschau.de/image/944e630d-e2eb-4be9-afc2-b30413e70059/AAABjq3qn5U/AAABjcWesUg/16x9-512.jpg", "date": "2024-04-05T13:37:42.656+02:00", "lat": 56.2639, "lon": 9.5018, "intensity": 0.3, "source": "Tagesschau"}, {"title": "\u00dcber 300.000 Menschen in Baden-W\u00fcrttemberg waren noch nie online", "url": "https://www.tagesschau.de/inland/regional/badenwuerttemberg/swr-ueber-300-000-menschen-in-baden-wuerttemberg-waren-noch-nie-online-100.html", "thumbnailUrl": "https://images.tagesschau.de/image/b0d04b70-1699-4b45-849e-ba0d6edc5665/AAABjq4PD9s/AAABjcWesUg/16x9-512.jpg", "date": "2024-04-05T13:31:00.000+02:00", "lat": 48.6616, "lon": 9.4936, "intensity": 0.7, "source": "Tagesschau"}, {"title": "Russischer Gouverneur bei Messerattacke verletzt", "url": "https://www.tagesschau.de/ausland/europa/russischer-gouverneur-messerattacke-102.html", "thumbnailUrl": "https://images.tagesschau.de/image/d4d8bc1a-633c-4934-9fa9-efc27009dd6b/AAABjqyU5IE/AAABjcWesUg/16x9-512.jpg", "date": "2024-04-05T13:29:27.057+02:00", "lat": 55.7512, "lon": 38.0364, "intensity": 0.8, "source": "Tagesschau"}, {"title": "Kirschbl\u00fcte in Bonn: Stra\u00dfen am Wochenende gesperrt", "url": "https://www.tagesschau.de/inland/regional/nordrheinwestfalen/wdr-kirschbluete-in-bonn-strassen-am-wochenende-gesperrt-100.html", "thumbnailUrl": "https://images.tagesschau.de/image/69de2549-4479-4fcc-9c2f-107a653d9c61/AAABjq5-roY/AAABjcWesUg/16x9-512.jpg", "date": "2024-04-05T13:12:00.000+02:00", "lat": 50.7374, "lon": 7.0982, "intensity": 0.6, "source": "Tagesschau"}, {"title": "Kaufhaus Galeries Lafayette in der Friedrichstra\u00dfe schlie\u00dft bereits Ende Juli", "url": "https://www.tagesschau.de/inland/regional/berlin/rbb-kaufhaus-galeries-lafayette-schliesst-bereits-ende-juli-filiale-in-der-berliner-friedrichstrasse-100.html", "thumbnailUrl": "https://images.tagesschau.de/image/c29f79ca-5aba-4d87-803c-815c8312e182/AAABjq3wKo4/AAABjcWesUg/16x9-512.jpg", "date": "2024-04-05T13:01:41.000+02:00", "lat": 52.51627, "lon": 13.38722, "intensity": 0.8, "source": "Tagesschau"}, {"title": "Fu\u00dfball-Bundesliga: Union Berlin muss gegen Tabellenf\u00fchrer Leverkusen \"Au\u00dferirdisches\" leisten", "url": "https://www.tagesschau.de/inland/regional/berlin/rbb-fussball-bundesliga-union-berlin-muss-gegen-tabellenfuehrer-leverkusen-ausserirdisches-leisten-102.html", "thumbnailUrl": "https://images.tagesschau.de/image/1cd665ff-daff-4944-a516-0d5ec6a22a8d/AAABjq3nCuU/AAABjcWesUg/16x9-512.jpg", "date": "2024-04-05T12:54:46.000+02:00", "lat": 52.4724, "lon": 13.4894, "intensity": 0.8, "source": "Tagesschau"}, {"title": "Geplante Nord-S\u00fcd-Verbindung: Berliner S21 geht erst Ende 2024 in Betrieb", "url": "https://www.tagesschau.de/inland/regional/berlin/rbb-geplante-nord-sued-verbindung-berliner-s21-geht-erst-ende-2024-in-betrieb-100.html", "thumbnailUrl": "https://images.tagesschau.de/image/82c350b7-5e62-49f1-992c-2ff0bc5d3ada/AAABjq3lLeg/AAABjcWesUg/16x9-512.jpg", "date": "2024-04-05T12:49:00.000+02:00", "lat": 52.523405, "lon": 13.38886, "intensity": 0.8, "source": "Tagesschau"}, {"title": "Schwertransport im Emsland: Bahnhof muss gesperrt werden", "url": "https://www.tagesschau.de/inland/regional/niedersachsen/ndr-schwertransport-im-emsland-bahnhof-leschede-gesperrt-100.html", "thumbnailUrl": "https://images.tagesschau.de/image/53600d54-d610-444e-b338-ab5cf1975524/AAABjq3hpYI/AAABjcWesUg/16x9-512.jpg", "date": "2024-04-05T12:48:00.000+02:00", "lat": 52.2811, "lon": 7.3296, "intensity": 0.7, "source": "Tagesschau"}, {"title": "Wilhelmshaven: Versorger \"Bonn\" aus NATO-Einsatz zur\u00fcckgekehrt", "url": "https://www.tagesschau.de/inland/regional/niedersachsen/ndr-wilhelmshaven-versorger-bonn-kehrt-aus-nordatlantik-zurueck-100.html", "thumbnailUrl": "https://images.tagesschau.de/image/988fc80f-7732-4744-9271-805e13b502ca/AAABjq3aVGM/AAABjcWesUg/16x9-512.jpg", "date": "2024-04-05T12:40:00.000+02:00", "lat": 53.5185, "lon": 8.1486, "intensity": 0.8, "source": "Tagesschau"}, {"title": "BW-Regierung einig \u00fcber zentrale Ausl\u00e4nderbeh\u00f6rde f\u00fcr Fachkr\u00e4fte", "url": "https://www.tagesschau.de/inland/regional/badenwuerttemberg/swr-bw-landesregierung-plant-zentrale-auslaenderbehoerde-fuer-fachkraefte-100.html", "thumbnailUrl": "https://images.tagesschau.de/image/a4c4af42-cc96-4b03-a006-d7047a42f38e/AAABjq5YPLU/AAABjcWesUg/16x9-512.jpg", "date": "2024-04-05T12:32:05.000+02:00", "lat": 48.6616, "lon": 9.9937, "intensity": 0.8, "source": "Tagesschau"}, {"title": "BSR-Gebrauchtwarenkaufhaus \"NochMall\" verzeichnet mehr Nachfrage", "url": "https://www.tagesschau.de/inland/regional/berlin/rbb-bsr-gebrauchtwarenkaufhaus-nochmall-verzeichnet-mehr-nachfrage-100.html", "thumbnailUrl": "https://images.tagesschau.de/image/1195cfc8-2825-438c-bdac-1f3ae0fa2b19/AAABjq3UykQ/AAABjcWesUg/16x9-512.jpg", "date": "2024-04-05T12:31:15.000+02:00", "lat": 52.520008, "lon": 13.404954, "intensity": 0.7, "source": "Tagesschau"}, {"title": "Solarausbau: Mehrere NRW-St\u00e4dte schneiden gut ab", "url": "https://www.tagesschau.de/inland/regional/nordrheinwestfalen/wdr-solarausbau-mehrere-nrw-staedte-schneiden-gut-ab-100.html", "thumbnailUrl": "https://images.tagesschau.de/image/77d25d12-3c57-406f-9cf6-0de04815a267/AAABjq7wM2Q/AAABjcWesUg/16x9-512.jpg", "date": "2024-04-05T12:30:00.000+02:00", "lat": 51.9607, "lon": 7.6261, "intensity": 0.7, "source": "Tagesschau"}, {"title": "74-J\u00e4hriger stirbt nach schwerem Unfall mit E-Bike in Speyer", "url": "https://www.tagesschau.de/inland/regional/rheinlandpfalz/swr-74-jaehriger-stirbt-nach-schwerem-unfall-mit-e-bike-in-speyer-100.html", "thumbnailUrl": "https://images.tagesschau.de/image/0cdcc3f9-d3a8-411a-8947-3cbc1486acea/AAABjq4NNJE/AAABjcWesUg/16x9-512.jpg", "date": "2024-04-05T12:26:55.000+02:00", "lat": 49.322, "lon": 8.4273, "intensity": 0.7, "source": "Tagesschau"}, {"title": "AKN: Einschr\u00e4nkungen zwischen Norderstedt und Neum\u00fcnster", "url": "https://www.tagesschau.de/inland/regional/schleswigholstein/ndr-akn-einschraenkungen-zwischen-norderstedt-und-neumuenster-100.html", "thumbnailUrl": "https://images.tagesschau.de/image/8f0385b9-84a2-4dc1-b30f-a51868c395e1/AAABjp-IfwM/AAABjcWesUg/16x9-512.jpg", "date": "2024-04-05T12:25:00.000+02:00", "lat": 54.0774, "lon": 9.9798, "intensity": 0.6, "source": "Tagesschau"}, {"title": "Schneidewind reicht Bewerbung f\u00fcr Homburger OB-Wahl ein", "url": "https://www.tagesschau.de/inland/regional/saarland/sr-schneidewind-reicht-bewerbung-fuer-homburger-ob-wahl-ein-100.html", "thumbnailUrl": "https://images.tagesschau.de/image/63f45853-d21f-4167-a6c9-dff5318410a8/AAABjqhSiDc/AAABjcWesUg/16x9-512.jpg", "date": "2024-04-04T10:41:00.000+02:00", "lat": 49.2378, "lon": 7.3365, "intensity": 0.8, "source": "Tagesschau"}, {"title": "Mann aus Barsinghausen soll Kriegswaffen an Mafia verkauft haben", "url": "https://www.tagesschau.de/inland/regional/niedersachsen/ndr-mann-aus-barsinghausen-soll-maschinengewehre-an-mafia-verkauft-haben-100.html", "thumbnailUrl": "https://images.tagesschau.de/image/90924687-d8f0-483a-8a06-cdc1fc1cdd9b/AAABjq2yARI/AAABjcWesUg/16x9-512.jpg", "date": "2024-04-05T12:14:00.000+02:00", "lat": 52.3072, "lon": 9.4475, "intensity": 0.8, "source": "Tagesschau"}, {"title": "Diebe erbeuten Millionen aus Geldspeicher", "url": "https://www.tagesschau.de/ausland/amerika/los-angeles-raub-100.html", "thumbnailUrl": "https://images.tagesschau.de/image/53edc2dd-2332-45da-902a-1f78a2c754f1/AAABjq2Xc2U/AAABjcWesUg/16x9-512.jpg", "date": "2024-04-05T12:13:32.408+02:00", "lat": 34.0522, "lon": -118.2437, "intensity": 0.9, "source": "Tagesschau"}, {"title": "A7-Sperrungen in Hamburg am Wochenende: Elbtunnel betroffen", "url": "https://www.tagesschau.de/inland/regional/hamburg/ndr-a7-in-hamburg-vollsperrung-des-elbtunnels-am-wochenende-100.html", "thumbnailUrl": "https://images.tagesschau.de/image/da172dbc-31d7-48ae-b1dd-aa2899a7f638/AAABjq2fpHs/AAABjcWesUg/16x9-512.jpg", "date": "2024-04-05T12:09:00.000+02:00", "lat": 53.5511, "lon": 9.9526, "intensity": 0.7, "source": "Tagesschau"}, {"title": "Ex-Unioner Robert Andrich im Interview: \"Union Berlin geh\u00f6rt in die Bundesliga\"", "url": "https://www.tagesschau.de/inland/regional/brandenburg/rbb-ex-unioner-robert-andrich-im-interview-union-berlin-gehoert-in-die-bundesliga-102.html", "thumbnailUrl": "https://images.tagesschau.de/image/5fc72e08-4af8-4f83-ab6c-b7597b7f61b0/AAABjq23dLE/AAABjcWesUg/16x9-512.jpg", "date": "2024-04-05T12:01:01.000+02:00", "lat": 52.520008, "lon": 13.413215, "intensity": 0.6, "source": "Tagesschau"}, {"title": "Israel k\u00fcndigt \"sofortige\" Aufstockung von Hilfen an", "url": "https://www.tagesschau.de/ausland/asien/biden-netanyahu-zivilisten-104.html", "thumbnailUrl": "https://images.tagesschau.de/image/96f169b0-65d8-4a54-97d4-deff6a47116c/AAABjq2PZNw/AAABjcWesUg/16x9-512.jpg", "date": "2024-04-05T11:57:00.924+02:00", "lat": 31.9522, "lon": 34.9513, "intensity": 0.7, "source": "Tagesschau"}, {"title": "Urteil aufgehoben: Ravensburger Klimaaktivist kommt frei", "url": "https://www.tagesschau.de/inland/regional/badenwuerttemberg/swr-urteil-aufgehoben-ravensburger-klimaaktivist-kommt-frei-100.html", "thumbnailUrl": "https://images.tagesschau.de/image/06df5add-3b9b-4239-8671-ab0af263fbc3/AAABjq4jKzQ/AAABjcWesUg/16x9-512.jpg", "date": "2024-04-05T11:52:46.000+02:00", "lat": 47.7814, "lon": 9.7283, "intensity": 0.5, "source": "Tagesschau"}, {"title": "Wo die Arbeitslosigkeit am st\u00e4rksten steigt ", "url": "https://www.tagesschau.de/wirtschaft/arbeitsmarkt/arbeitslosigkeit-110.html", "thumbnailUrl": "https://images.tagesschau.de/image/fe07b647-8fbf-48f3-b1d5-d52ecf842f0f/AAABjq14G2M/AAABjcWesUg/16x9-512.jpg", "date": "2024-04-05T11:49:51.857+02:00", "lat": 51.2093, "lon": 9.9937, "intensity": 0.7, "source": "Tagesschau"}, {"title": "Hessen stellt bei Verkehrz\u00e4hlung auf K\u00fcnstliche Intelligenz um", "url": "https://www.tagesschau.de/inland/regional/hessen/hr-hessen-stellt-bei-verkehrzaehlung-auf-kuenstliche-intelligenz-um-100.html", "thumbnailUrl": "https://images.tagesschau.de/image/83f36f9f-5ca9-4839-b8a8-435934af85e1/AAABjq2otW4/AAABjcWesUg/16x9-512.jpg", "date": "2024-04-05T11:47:43.483+02:00", "lat": 50.585, "lon": 9.692, "intensity": 0.6, "source": "Tagesschau"}, {"title": "Zu fr\u00fch plakatiert: Erfurter OB Bausewein verst\u00f6\u00dft gegen Wahlkampf-Regeln", "url": "https://www.tagesschau.de/inland/regional/thueringen/mdr-zu-frueh-plakatiert-erfurter-ob-bausewein-verstoesst-gegen-wahlkampf-regeln-100.html", "thumbnailUrl": "https://images.tagesschau.de/image/107ea0e7-4222-45f6-94c7-2997cafe1546/AAABjqvBhRs/AAABjcWesUg/16x9-512.jpg", "date": "2024-04-05T11:47:25.000+02:00", "lat": 50.9787, "lon": 11.0328, "intensity": 0.6, "source": "Tagesschau"}, {"title": "Plant die AfD ein Schulungszentrum bei F\u00fcrth? Gegner alarmiert", "url": "https://www.tagesschau.de/inland/regional/bayern/br-plant-die-afd-ein-schulungszentrum-bei-fuerth-gegner-alarmiert-102.html", "thumbnailUrl": "https://images.tagesschau.de/image/f5a5753c-cb0a-401e-872f-e729092d1849/AAABjq2fk9Y/AAABjcWesUg/16x9-512.jpg", "date": "2024-04-05T11:37:29.155+02:00", "lat": 49.4774, "lon": 10.9935, "intensity": 0.6, "source": "Tagesschau"}, {"title": "Wie eine Seniorenresidenz gegen Lebensmittelverschwendung k\u00e4mpft", "url": "https://www.tagesschau.de/inland/regional/bayern/br-wie-eine-seniorenresidenz-gegen-lebensmittelverschwendung-kaempft-100.html", "thumbnailUrl": "https://images.tagesschau.de/image/d339b931-9b7b-43a3-8a12-8a3516bd1b8d/AAABjq2dzY8/AAABjcWesUg/16x9-512.jpg", "date": "2024-04-05T11:35:47.515+02:00", "lat": 51.1657, "lon": 10.4515, "intensity": 0.6, "source": "Tagesschau"}, {"title": "Feuer in Asylbewerberunterkunft in Forchtenberg gel\u00f6scht", "url": "https://www.tagesschau.de/inland/regional/badenwuerttemberg/swr-feuer-in-asylbewerberunterkunft-in-forchtenberg-ausgebrochen-102.html", "thumbnailUrl": "https://images.tagesschau.de/image/44bf779d-e1ba-49c0-9a97-e62928f54139/AAABjq2dfv8/AAABjcWesUg/16x9-512.jpg", "date": "2024-04-05T11:31:00.000+02:00", "lat": 49.2925, "lon": 9.5188, "intensity": 0.8, "source": "Tagesschau"}, {"title": "Berlin-Tiergarten: Stra\u00dfensperrungen durch Berliner Halbmarathon", "url": "https://www.tagesschau.de/inland/regional/berlin/rbb-berlin-tiergarten-alle-strassensperrungen-durch-berliner-halbmarathon-100.html", "thumbnailUrl": "https://images.tagesschau.de/image/01571134-07b8-4cd1-bd93-8048faa04385/AAABjqzSnPQ/AAABjcWesUg/16x9-512.jpg", "date": "2024-04-05T11:28:46.000+02:00", "lat": 52.5145, "lon": 13.3655, "intensity": 0.7, "source": "Tagesschau"}, {"title": "\"Weniger, daf\u00fcr bewusster\"", "url": "https://www.tagesschau.de/inland/gesellschaft/sinkender-fleischkonsum-deutschland-100.html", "thumbnailUrl": "https://images.tagesschau.de/image/7a414591-816c-4eb2-8c03-f31bb099804a/AAABjqj6byY/AAABjcWesUg/16x9-512.jpg", "date": "2024-04-05T11:18:24.365+02:00", "lat": 51.1657, "lon": 10.4515, "intensity": 0.7, "source": "Tagesschau"}, {"title": "\"Schwammdach\" aus Oberfranken st\u00f6\u00dft weltweit auf Interesse", "url": "https://www.tagesschau.de/inland/regional/bayern/br-schwammdach-aus-oberfranken-stoesst-weltweit-auf-interesse-102.html", "thumbnailUrl": "https://images.tagesschau.de/image/81c2bfe4-9bc9-4e8e-9eb8-4c5f8f1eb695/AAABjq2F-0U/AAABjcWesUg/16x9-512.jpg", "date": "2024-04-05T11:09:06.581+02:00", "lat": 50.2179, "lon": 11.7627, "intensity": 0.7, "source": "Tagesschau"}, {"title": "Junge Menschen aus Ruanda machen Ausbildung in rheinhessischen Hotels", "url": "https://www.tagesschau.de/inland/regional/rheinlandpfalz/swr-junge-menschen-aus-ruanda-machen-ausbildung-in-rheinhessischen-hotels-100.html", "thumbnailUrl": "https://images.tagesschau.de/image/70566a64-43ab-4682-9769-21c3f527c59d/AAABjq3hPmE/AAABjcWesUg/16x9-512.jpg", "date": "2024-04-05T11:05:46.000+02:00", "lat": 49.992, "lon": 8.271, "intensity": 0.6, "source": "Tagesschau"}, {"title": "Streik am Flughafen Frankfurt? Entscheidende Gespr\u00e4che bei Lufthansa und Sicherheitspersonal", "url": "https://www.tagesschau.de/inland/regional/hessen/hr-streik-am-flughafen-frankfurt-tarifgespraeche-bei-lufthansa-kabinenpersonal-gehen-weiter-100.html", "thumbnailUrl": "https://images.tagesschau.de/image/3285bada-d10a-4c42-8495-bc4c9b0da26e/AAABjq2CL-c/AAABjcWesUg/16x9-512.jpg", "date": "2024-04-05T11:05:06.276+02:00", "lat": 50.033056, "lon": 8.570833, "intensity": 0.7, "source": "Tagesschau"}, {"title": "Nach Gro\u00dfeinsatz der Polizei in Greiz: Sechs Lkw-Ladungen voller Beweismittel", "url": "https://www.tagesschau.de/inland/regional/thueringen/mdr-stundenlanger-polizeieinsatz-in-greiz-sieben-personen-festgenommen-100.html", "thumbnailUrl": "https://images.tagesschau.de/image/de020323-ae4a-4cf5-8635-d46f62e4860d/AAABjq21frQ/AAABjcWesUg/16x9-512.jpg", "date": "2024-04-05T11:05:00.000+02:00", "lat": 50.6553, "lon": 12.2036, "intensity": 0.8, "source": "Tagesschau"}, {"title": "Weniger Stimmung? Toppm\u00f6ller appelliert an Fans von Eintracht Frankfurt", "url": "https://www.tagesschau.de/inland/regional/hessen/hr-weniger-stimmung-toppmoeller-appelliert-an-fans-von-eintracht-frankfurt-102.html", "thumbnailUrl": "https://images.tagesschau.de/image/7f8897a9-df3a-4e5c-8fd1-fb84786d5190/AAABjq2Ud5s/AAABjcWesUg/16x9-512.jpg", "date": "2024-04-05T11:01:09.697+02:00", "lat": 50.1109, "lon": 8.6626, "intensity": 0.6, "source": "Tagesschau"}, {"title": "Ulm: Zwei Schwerverletzte nach Unfall mit Stra\u00dfenbahn in B\u00f6fingen", "url": "https://www.tagesschau.de/inland/regional/badenwuerttemberg/swr-ulm-zwei-schwerverletzte-nach-unfall-mit-strassenbahn-in-boefingen-100.html", "thumbnailUrl": "https://images.tagesschau.de/image/6dcac3d2-c8ad-4021-b537-3af55dbb784a/AAABjq2dkYs/AAABjcWesUg/16x9-512.jpg", "date": "2024-04-05T11:01:00.000+02:00", "lat": 48.3984, "lon": 9.9707, "intensity": 0.8, "source": "Tagesschau"}, {"title": "Erste personelle Konsequenzen nach Korruptionsvorw\u00fcrfen in Namborn? ", "url": "https://www.tagesschau.de/inland/regional/saarland/sr-erste-personelle-konsequenzen-nach-korruptionsvorwuerfen-in-namborn-100.html", "thumbnailUrl": "https://images.tagesschau.de/image/b6f06b13-85fc-47a4-80f2-80b580929819/AAABjq2D1MQ/AAABjcWesUg/16x9-512.jpg", "date": "2024-04-05T11:00:00.000+02:00", "lat": 49.5139, "lon": 7.0394, "intensity": 0.8, "source": "Tagesschau"}, {"title": "Babboe-Lastenr\u00e4der: Zwei weitere Modelle von R\u00fcckruf betroffen", "url": "https://www.tagesschau.de/inland/regional/nordrheinwestfalen/wdr-babboe-lastenraeder-zwei-weitere-modelle-von-rueckruf-betroffen-100.html", "thumbnailUrl": "https://images.tagesschau.de/image/def987ca-e338-43b3-b7bd-6fd76fba0061/AAABjq4v8pg/AAABjcWesUg/16x9-512.jpg", "date": "2024-04-05T11:00:00.000+02:00", "lat": 51.1657, "lon": 7.6261, "intensity": 0.8, "source": "Tagesschau"}, {"title": "Stromtransport: Ultranet-Ausbau zwischen Mannheim und Philippsburg", "url": "https://www.tagesschau.de/inland/regional/badenwuerttemberg/swr-stromtransport-ultranet-ausbau-zwischen-mannheim-und-philippsburg-100.html", "thumbnailUrl": "https://images.tagesschau.de/image/f4a74f0a-ad44-4dcb-afcb-2e71ce0522b3/AAABjq2zgY4/AAABjcWesUg/16x9-512.jpg", "date": "2024-04-05T10:57:00.000+02:00", "lat": 49.48746, "lon": 8.45906, "intensity": 0.7, "source": "Tagesschau"}, {"title": "B\u00fcrgerinitiative k\u00e4mpft f\u00fcr mehr \u00c4rzte im Adenauer Land", "url": "https://www.tagesschau.de/inland/regional/rheinlandpfalz/swr-buergerinitiative-kaempft-fuer-mehr-aerzte-im-adenauer-land-100.html", "thumbnailUrl": "https://images.tagesschau.de/image/004271b7-8523-4019-a6c7-21308f7cbdaf/AAABjq2D9vo/AAABjcWesUg/16x9-512.jpg", "date": "2024-04-05T10:47:50.000+02:00", "lat": 50.5445, "lon": 7.1532, "intensity": 0.8, "source": "Tagesschau"}, {"title": "Klimaschutz und Weidehaltung vereinbaren: Ein Versuch", "url": "https://www.tagesschau.de/inland/regional/niedersachsen/ndr-klimaschutz-und-weidehaltung-vereinbaren-ein-versuch-100.html", "thumbnailUrl": "https://images.tagesschau.de/image/027d53df-bf6b-4c4b-bb62-24ea7cbcac62/AAABjqyLRKU/AAABjcWesUg/16x9-512.jpg", "date": "2024-04-05T10:38:00.000+02:00", "lat": 53.3007, "lon": 8.4596, "intensity": 0.7, "source": "Tagesschau"}, {"title": "Rekordverd\u00e4chtig: Fr\u00fche Obstbaum-Bl\u00fcte im Alten Land", "url": "https://www.tagesschau.de/inland/regional/niedersachsen/ndr-rekordverdaechtig-fruehe-obstbaum-bluete-im-alten-land-100.html", "thumbnailUrl": "https://images.tagesschau.de/image/b3a8aea3-0724-4660-a2b0-2dbc7db9bfbc/AAABjqzZ9Ek/AAABjcWesUg/16x9-512.jpg", "date": "2024-04-05T10:35:00.000+02:00", "lat": 53.529, "lon": 9.643, "intensity": 0.7, "source": "Tagesschau"}, {"title": "Verkehrschaos durch Extremregen in Sydney", "url": "https://www.tagesschau.de/ausland/ozeanien/sydney-regen-102.html", "thumbnailUrl": "https://images.tagesschau.de/image/7302ecaa-e859-4868-a757-f79330d05492/AAABjq1Dk7I/AAABjcWesUg/16x9-512.jpg", "date": "2024-04-05T10:32:51.460+02:00", "lat": -33.8688, "lon": 151.2093, "intensity": 0.8, "source": "Tagesschau"}, {"title": "Fliegerhorst: Korruption in Oldenburger Stadtverwaltung?", "url": "https://www.tagesschau.de/inland/regional/niedersachsen/ndr-fliegerhorst-korruption-in-oldenburger-stadtverwaltung-100.html", "thumbnailUrl": "https://images.tagesschau.de/image/de41e6be-1775-4cc0-9cc7-0b376377eb10/AAABjq1b_Ac/AAABjcWesUg/16x9-512.jpg", "date": "2024-04-05T10:21:00.000+02:00", "lat": 53.1435, "lon": 8.2107, "intensity": 0.8, "source": "Tagesschau"}, {"title": "Liam Gallagher und John Squire in der Columbiahalle: Eine Stunde professionelle Nostalgie ", "url": "https://www.tagesschau.de/inland/regional/berlin/rbb-liam-gallagher-und-john-squire-in-der-columbiahalle-eine-stunde-professionelle-nostalgie-100.html", "thumbnailUrl": "https://images.tagesschau.de/image/db01fcfc-bc68-4a82-89cf-8725d33e4770/AAABjq1b578/AAABjcWesUg/16x9-512.jpg", "date": "2024-04-05T10:20:51.000+02:00", "lat": 52.4966, "lon": 13.3913, "intensity": 0.6, "source": "Tagesschau"}, {"title": "30 Jahre Haft f\u00fcr Terror-Helfer vom Stra\u00dfburger Weihnachtsmarkt", "url": "https://www.tagesschau.de/inland/regional/saarland/sr-30-jahre-haft-fuer-terror-helfer-vom-strassburger-weihnachtsmarkt-100.html", "thumbnailUrl": "https://images.tagesschau.de/image/caa5e62c-9294-45c0-bb68-9ddc1209bdd2/AAABjq-nVWs/AAABjcWesUg/16x9-512.jpg", "date": "2024-04-05T10:20:00.000+02:00", "lat": 49.0259, "lon": 7.401, "intensity": 0.8, "source": "Tagesschau"}, {"title": "Neue Rader Hochbr\u00fccke: Auf der Gro\u00dfbaustelle geht es voran", "url": "https://www.tagesschau.de/inland/regional/schleswigholstein/ndr-neue-rader-hochbruecke-auf-der-grossbaustelle-geht-es-voran-100.html", "thumbnailUrl": "https://images.tagesschau.de/image/094944e1-5bf3-498c-9f97-56dc5337d2c7/AAABjq5U6yA/AAABjcWesUg/16x9-512.jpg", "date": "2024-04-05T10:10:00.000+02:00", "lat": 54.322, "lon": 9.836, "intensity": 0.5, "source": "Tagesschau"}, {"title": "Frankfurt hat so viele Einwohner wie noch nie", "url": "https://www.tagesschau.de/inland/regional/hessen/hr-frankfurt-hat-so-viele-einwohner-wie-noch-nie-100.html", "thumbnailUrl": "https://images.tagesschau.de/image/b2887721-81e3-4132-a07a-41108539fea4/AAABjq1Jgz8/AAABjcWesUg/16x9-512.jpg", "date": "2024-04-05T10:03:51.621+02:00", "lat": 50.1109, "lon": 8.6821, "intensity": 0.8, "source": "Tagesschau"}, {"title": "Mutma\u00dflicher Messer-Angreifer von Wangen in U-Haft, Neue Regeln f\u00fcr Motorradfahrer im Schwarzwald", "url": "https://www.tagesschau.de/inland/regional/badenwuerttemberg/swr-bw-newsticker-am-morgen-ermittlungen-nach-messerangriff-auf-vierjaehrige-bw-landwirtschaftsminister-will-problemwoelfe-schneller-abschiessen-lassen-100.html", "thumbnailUrl": "https://images.tagesschau.de/image/ab29b9d5-dce4-4dab-b01f-7787eef79575/AAABjq0oS0U/AAABjcWesUg/16x9-512.jpg", "date": "2024-04-05T10:03:00.000+02:00", "lat": 49.2976, "lon": 9.4948, "intensity": 0.8, "source": "Tagesschau"}, {"title": "Hessen am Morgen: +++ Vater schl\u00e4gt Kind beim Fu\u00dfballspielen +++ Frankfurt: So viele Einwohner wie noch nie +++ Meterhohe Nirvana-Skulptur auf Kreisel in Hanau +++", "url": "https://www.tagesschau.de/inland/regional/hessen/hr-hessen-am-morgen--vater-schlaegt-kind-beim-fussballspielen--polizei-warnt-motorradfahrer-zum-saisonstart-100.html", "thumbnailUrl": "https://images.tagesschau.de/image/b16b3028-681c-4e78-9585-1e544b98194b/AAABjq1jGqE/AAABjcWesUg/16x9-512.jpg", "date": "2024-04-05T10:02:01.887+02:00", "lat": 50.110922, "lon": 8.682127, "intensity": 0.7, "source": "Tagesschau"}, {"title": "Boeing-Maschine hatte Problem beim Bremsen", "url": "https://www.tagesschau.de/wirtschaft/unternehmen/boeing-panne-kosten-spirit-100.html", "thumbnailUrl": "https://images.tagesschau.de/image/d650f0d2-1f8b-4c76-a489-700fe0f7bd0d/AAABjq2cUYo/AAABjcWesUg/16x9-512.jpg", "date": "2024-04-05T10:01:55.197+02:00", "lat": 47.6417, "lon": -122.3095, "intensity": 0.8, "source": "Tagesschau"}, {"title": "Bodycams f\u00fcr Zugbegleiter: S-Bahn Hannover testet Einsatz", "url": "https://www.tagesschau.de/inland/regional/niedersachsen/ndr-bodycams-fuer-zugbegleiter-s-bahn-hannover-testet-einsatz-100.html", "thumbnailUrl": "https://images.tagesschau.de/image/a9417adb-015a-4997-bcd6-331c66b25fc6/AAABjq1CVEk/AAABjcWesUg/16x9-512.jpg", "date": "2024-04-05T09:51:00.000+02:00", "lat": 52.3759, "lon": 9.7332, "intensity": 0.7, "source": "Tagesschau"}, {"title": "Einsatz in Berliner Rhinstra\u00dfe: M\u00e4nner werfen in Lichtenberg Fahrrad und Fernseher aus achtem Stock", "url": "https://www.tagesschau.de/inland/regional/berlin/rbb-einsatz-in-berliner-rhinstrasse-maenner-werfen-in-lichtenberg-fahrrad-und-fernseher-aus-achtem-stock-100.html", "thumbnailUrl": "https://images.tagesschau.de/image/f768b076-8766-4053-bb69-46e26052020c/AAABjq0-jvk/AAABjcWesUg/16x9-512.jpg", "date": "2024-04-05T09:50:56.000+02:00", "lat": 52.4957, "lon": 13.5004, "intensity": 0.8, "source": "Tagesschau"}, {"title": "Handball-Bundesliga: F\u00fcchse Berlin nach Sieg in G\u00f6ppingen weiter Tabellenf\u00fchrer", "url": "https://www.tagesschau.de/inland/regional/berlin/rbb-handball-bundesliga-fuechse-berlin-nach-sieg-in-goeppingen-weiter-tabellenfuehrer-102.html", "thumbnailUrl": "https://images.tagesschau.de/image/c6478a91-f519-4009-a7b9-dd711ad3e2ac/AAABjqp5_O4/AAABjcWesUg/16x9-512.jpg", "date": "2024-04-05T09:38:02.000+02:00", "lat": 48.702, "lon": 9.6576, "intensity": 0.7, "source": "Tagesschau"}, {"title": "Mehrere Gro\u00dfprojekte: Was die Hamburger Hochbahn plant", "url": "https://www.tagesschau.de/inland/regional/hamburg/ndr-mehrere-grossprojekte-was-die-hamburger-hochbahn-plant-100.html", "thumbnailUrl": "https://images.tagesschau.de/image/4c9f56d9-3091-449c-8c73-bdd298a9f44f/AAABjq0v8jA/AAABjcWesUg/16x9-512.jpg", "date": "2024-04-05T09:29:00.000+02:00", "lat": 53.551086, "lon": 9.993682, "intensity": 0.8, "source": "Tagesschau"}, {"title": "Landesgartenschau Bad Gandersheim: Gesellschaft ist insolvent", "url": "https://www.tagesschau.de/inland/regional/niedersachsen/ndr-landesgartenschau-bad-gandersheim-gesellschaft-insolvent-100.html", "thumbnailUrl": "https://images.tagesschau.de/image/1a555128-5291-43c5-aa39-7dc8f0db2fc5/AAABjq0oyRY/AAABjcWesUg/16x9-512.jpg", "date": "2024-04-05T09:27:00.000+02:00", "lat": 51.8667, "lon": 10.0333, "intensity": 0.7, "source": "Tagesschau"}, {"title": "Geliebt, gew\u00e4hlt, gescholten - Altkanzler Gerhard Schr\u00f6der wird 80", "url": "https://www.tagesschau.de/inland/regional/niedersachsen/ndr-geliebt-100.html", "thumbnailUrl": "https://images.tagesschau.de/image/2d7b47bd-d2e4-4845-9820-be6836057270/AAABjq07Crc/AAABjcWesUg/16x9-512.jpg", "date": "2024-04-05T09:24:00.000+02:00", "lat": 52.3759, "lon": 9.7416, "intensity": 0.7, "source": "Tagesschau"}, {"title": "Meppen: Seniorin liegt wochenlang tot in ihrer Wohnung", "url": "https://www.tagesschau.de/inland/regional/niedersachsen/ndr-meppen-seniorin-liegt-wochenlang-tot-in-ihrer-wohnung-100.html", "thumbnailUrl": "https://images.tagesschau.de/image/97c72692-65b2-4228-816e-b2f9d56a4a57/AAABjq0m6RQ/AAABjcWesUg/16x9-512.jpg", "date": "2024-04-05T09:24:00.000+02:00", "lat": 52.6932, "lon": 7.2894, "intensity": 0.8, "source": "Tagesschau"}, {"title": "Vorfreude in Heidenheim: Wenn der gro\u00dfe FC Bayern auf die Ostalb reist", "url": "https://www.tagesschau.de/inland/regional/badenwuerttemberg/swr-vorfreude-in-heidenheim-wenn-der-grosse-fc-bayern-auf-die-ostalb-reist-100.html", "thumbnailUrl": "https://images.tagesschau.de/image/d2c78376-d771-4424-b1db-79f0c487dc76/AAABjqxtzCk/AAABjcWesUg/16x9-512.jpg", "date": "2024-04-05T09:16:00.000+02:00", "lat": 48.6766, "lon": 10.1521, "intensity": 0.8, "source": "Tagesschau"}, {"title": "Biden versch\u00e4rft Ton gegen\u00fcber Israel", "url": "https://www.tagesschau.de/ausland/amerika/biden-unter-druck-100.html", "thumbnailUrl": "https://images.tagesschau.de/image/e409908f-9e00-43fc-9c8c-d0ceb245cba8/AAABjq1qx6E/AAABjcWesUg/16x9-512.jpg", "date": "2024-04-05T09:15:23.590+02:00", "lat": 31.7683, "lon": 35.2137, "intensity": 0.7, "source": "Tagesschau"}, {"title": "B\u00fcrgerinitiative erwartet Verkehrschaos in Saarlouis-Fraulautern", "url": "https://www.tagesschau.de/inland/regional/saarland/sr-buergerinitiative-erwartet-verkehrschaos-in-saarlouis-fraulautern-100.html", "thumbnailUrl": "https://images.tagesschau.de/image/77f4cd99-bef0-4d0d-88f1-f81171f32dd7/AAABjq0Zohc/AAABjcWesUg/16x9-512.jpg", "date": "2024-04-05T09:09:00.000+02:00", "lat": 49.316, "lon": 6.801, "intensity": 0.8, "source": "Tagesschau"}, {"title": "\"Lebenswelten Wesermarsch\" zeigt Geschichten von Zugewanderten", "url": "https://www.tagesschau.de/inland/regional/niedersachsen/ndr-lebenswelten-wesermarsch-zeigt-geschichten-von-zugewanderten-100.html", "thumbnailUrl": "https://images.tagesschau.de/image/ee8a1ada-3e36-4134-8401-28a98b2b10b1/AAABjq0Q6-k/AAABjcWesUg/16x9-512.jpg", "date": "2024-04-05T08:56:00.000+02:00", "lat": 53.2023, "lon": 8.3913, "intensity": 0.5, "source": "Tagesschau"}, {"title": "Nach Schlie\u00dfung von Notfallpraxen: Mehr Patienten wegen Bagatellen in der Notaufnahme", "url": "https://www.tagesschau.de/inland/regional/badenwuerttemberg/swr-nach-schliessung-von-notfallpraxen-mehr-patienten-wegen-bagatellen-in-der-notaufnahme-100.html", "thumbnailUrl": "https://images.tagesschau.de/image/d2a1b224-a2ba-4b96-acc2-e59375506068/AAABjq0HbnA/AAABjcWesUg/16x9-512.jpg", "date": "2024-04-05T08:38:00.000+02:00", "lat": 48.6616, "lon": 9.7356, "intensity": 0.7, "source": "Tagesschau"}, {"title": "Hansa Rostock gegen Wehen Wiesbaden: Wer entfacht den Sturm?", "url": "https://www.tagesschau.de/inland/regional/mecklenburgvorpommern/ndr-hansa-rostock-gegen-wehen-wiesbaden-wer-entfacht-den-sturm-102.html", "thumbnailUrl": "https://images.tagesschau.de/image/9cbcfcce-324c-4039-b4bc-a8c0e5fc271d/AAABjqlsn7g/AAABjcWesUg/16x9-512.jpg", "date": "2024-04-05T08:34:00.000+02:00", "lat": 54.0834, "lon": 12.1141, "intensity": 0.7, "source": "Tagesschau"}, {"title": "Weniger Motorradl\u00e4rm im Schwarzwald? Zwei Gemeinden setzen auf neue Regeln", "url": "https://www.tagesschau.de/inland/regional/badenwuerttemberg/swr-weniger-motorradlaerm-im-schwarzwald-zwei-gemeinden-setzen-auf-neue-regeln-100.html", "thumbnailUrl": "https://images.tagesschau.de/image/affad5a3-8343-4fee-9400-4d88fcc910c1/AAABjqz4yGI/AAABjcWesUg/16x9-512.jpg", "date": "2024-04-05T08:30:00.000+02:00", "lat": 48.3953, "lon": 8.2319, "intensity": 0.6, "source": "Tagesschau"}, {"title": "Luxemburg-Pendler m\u00fcssen \u00dcberstunden nun doch in Deutschland versteuern", "url": "https://www.tagesschau.de/inland/regional/saarland/sr-luxemburg-pendler-muessen-ueberstunden-nun-doch-doppelt-versteuern-100.html", "thumbnailUrl": "https://images.tagesschau.de/image/681b7f70-511d-4338-80c0-ab3d6c8c8a06/AAABjqzxWIY/AAABjcWesUg/16x9-512.jpg", "date": "2024-04-05T08:25:00.000+02:00", "lat": 49.2323, "lon": 6.9969, "intensity": 0.7, "source": "Tagesschau"}, {"title": "\"Reichsb\u00fcrger\" besa\u00dfen illegale Waffen", "url": "https://www.tagesschau.de/inland/reichsbuerger-razzia-illegale-schusswaffen-101.html", "thumbnailUrl": "https://images.tagesschau.de/image/b6fcfbea-0a87-4dc9-933d-495af4962409/AAABhnSJB10/AAABjcWesUg/16x9-512.jpg", "date": "2024-04-05T08:17:52.520+02:00", "lat": 51.4, "lon": 9.9937, "intensity": 0.8, "source": "Tagesschau"}, {"title": "Feuer in Klein Bennebek: Ein Toter und drei Verletzte", "url": "https://www.tagesschau.de/inland/regional/schleswigholstein/ndr-feuer-in-klein-bennebek-ein-toter-und-drei-verletzte-100.html", "thumbnailUrl": "https://images.tagesschau.de/image/91e2b79b-48aa-4163-9ce6-fd7d4b65eaf9/AAABjq11nmc/AAABjcWesUg/16x9-512.jpg", "date": "2024-04-05T07:53:00.000+02:00", "lat": 54.6586, "lon": 9.4644, "intensity": 0.8, "source": "Tagesschau"}, {"title": "BW-St\u00e4dtetag: Ohne Ticket fahren sollte Straftatbestand bleiben", "url": "https://www.tagesschau.de/inland/regional/badenwuerttemberg/swr-ohne-ticket-bus-und-bahn-fahren-sollte-straftat-bleiben-100.html", "thumbnailUrl": "https://images.tagesschau.de/image/84ac892c-8419-4141-8792-2b9e848b4370/AAABjq0kqaQ/AAABjcWesUg/16x9-512.jpg", "date": "2024-04-05T07:37:58.000+02:00", "lat": 48.6616, "lon": 9.6605, "intensity": 0.5, "source": "Tagesschau"}, {"title": "Neues Buch: Was Nirvana-S\u00e4nger Kurt Cobain unsterblich macht ", "url": "https://www.tagesschau.de/inland/regional/hessen/hr-neues-buch-was-nirvana-saenger-kurt-cobain-unsterblich-macht-100.html", "thumbnailUrl": "https://images.tagesschau.de/image/6add6aae-32e4-4205-86c8-b0e8824a1fa6/AAABjq2Hv5c/AAABjcWesUg/16x9-512.jpg", "date": "2024-04-05T07:34:22.757+02:00", "lat": 50.1167, "lon": 8.6833, "intensity": 0.6, "source": "Tagesschau"}, {"title": "Dem Pf\u00e4lzerwald geht es so gut wie lange nicht", "url": "https://www.tagesschau.de/inland/regional/rheinlandpfalz/swr-dem-pfaelzerwald-geht-es-so-gut-wie-lange-nicht-100.html", "thumbnailUrl": "https://images.tagesschau.de/image/e4994e5c-2b28-46f1-88dc-6fc9a196c1ea/AAABjqy4nds/AAABjcWesUg/16x9-512.jpg", "date": "2024-04-05T07:20:24.000+02:00", "lat": 49.2621, "lon": 7.9838, "intensity": 0.5, "source": "Tagesschau"}, {"title": "Das Wichtigste zu Eintracht Frankfurt gegen Werder Bremen", "url": "https://www.tagesschau.de/inland/regional/hessen/hr-das-wichtigste-zu-eintracht-frankfurt-gegen-werder-bremen-102.html", "thumbnailUrl": "https://images.tagesschau.de/image/22d0c061-5ca0-4fa1-9a85-42215f8df2a5/AAABjq0ogQY/AAABjcWesUg/16x9-512.jpg", "date": "2024-04-05T07:06:01.204+02:00", "lat": 50.1109, "lon": 8.7036, "intensity": 0.7, "source": "Tagesschau"}, {"title": "Immer mehr Menschen im Westen der Pfalz haben einen kleinen Waffenschein", "url": "https://www.tagesschau.de/inland/regional/rheinlandpfalz/swr-immer-mehr-menschen-im-westen-der-pfalz-haben-einen-kleinen-waffenschein-100.html", "thumbnailUrl": "https://images.tagesschau.de/image/c48b7e66-e224-4989-89de-1fd60dddc4f4/AAABjq3HnYg/AAABjcWesUg/16x9-512.jpg", "date": "2024-04-05T06:48:32.000+02:00", "lat": 49.4466, "lon": 7.9959, "intensity": 0.6, "source": "Tagesschau"}, {"title": "A1: Lkw mit Bierkisten kippt um - Autobahn bei Stuhr wieder frei", "url": "https://www.tagesschau.de/inland/regional/niedersachsen/ndr-a1-lkw-mit-bierkisten-kippt-um-autobahn-bei-stuhr-gesperrt-100.html", "thumbnailUrl": "https://images.tagesschau.de/image/bbd36dfe-1ac8-46c8-897c-b12498bdf800/AAABjqyWLaA/AAABjcWesUg/16x9-512.jpg", "date": "2024-04-05T06:47:00.000+02:00", "lat": 53.0426, "lon": 8.7863, "intensity": 0.8, "source": "Tagesschau"}, {"title": "Ausbau von S\u00fcdschnellweg: B3 ab heute Abend l\u00e4nger dicht", "url": "https://www.tagesschau.de/inland/regional/niedersachsen/ndr-ausbau-von-suedschnellweg-b3-in-hannover-heute-abend-gesperrt-100.html", "thumbnailUrl": "https://images.tagesschau.de/image/e5008b51-bcb4-430d-9aea-17af970de027/AAABjqySjmw/AAABjcWesUg/16x9-512.jpg", "date": "2024-04-05T06:34:00.000+02:00", "lat": 52.3759, "lon": 9.7332, "intensity": 0.6, "source": "Tagesschau"}, {"title": "Deutlich mehr E-Lades\u00e4ulen im Saarland als vor einem Jahr", "url": "https://www.tagesschau.de/inland/regional/saarland/sr-deutlich-mehr-e-ladesaeulen-im-saarland-als-vor-einem-jahr-100.html", "thumbnailUrl": "https://images.tagesschau.de/image/8af08229-7ba7-4ce9-b6c4-7a46d085d6c9/AAABjq688cQ/AAABjcWesUg/16x9-512.jpg", "date": "2024-04-05T06:32:00.000+02:00", "lat": 49.3964, "lon": 6.9102, "intensity": 0.7, "source": "Tagesschau"}, {"title": "A8 bei Neunkirchen Richtung Pirmasens bis Montag voll gesperrt", "url": "https://www.tagesschau.de/inland/regional/saarland/sr-a8-bei-neunkirchen-richtung-pirmasens-bis-montag-voll-gesperrt-100.html", "thumbnailUrl": "https://images.tagesschau.de/image/0ccda861-3c7e-43e7-ba5f-61559e6a4a16/AAABjq1sEWQ/AAABjcWesUg/16x9-512.jpg", "date": "2024-04-05T06:31:00.000+02:00", "lat": 49.3436, "lon": 7.1814, "intensity": 0.8, "source": "Tagesschau"}, {"title": "Poppenb\u00fcttel: Starker Rauch nach Brand in Tiefgarage", "url": "https://www.tagesschau.de/inland/regional/hamburg/ndr-poppenbuettel-starker-rauch-nach-brand-in-tiefgarage-100.html", "thumbnailUrl": "https://images.tagesschau.de/image/e228c4fd-a911-4c0b-bc5a-6d8013af4bf9/AAABjqmh5Cs/AAABjcWesUg/16x9-512.jpg", "date": "2024-04-05T06:23:00.000+02:00", "lat": 53.6467, "lon": 10.0903, "intensity": 0.8, "source": "Tagesschau"}, {"title": "Ph\u00e4nomen der Feenkreise in Namibia entschl\u00fcsselt?", "url": "https://www.tagesschau.de/wissen/forschung/feenkreise-namibia-100.html", "thumbnailUrl": "https://images.tagesschau.de/image/55de1e36-10b6-4d83-865d-38c91f8c4e0f/AAABjqPIZjc/AAABjcWesUg/16x9-512.jpg", "date": "2024-04-05T06:13:25.533+02:00", "lat": -23.4213564, "lon": 15.9783487, "intensity": 0.8, "source": "Tagesschau"}, {"title": "Traditionssport Kegelbillard fehlt der Nachwuchs", "url": "https://www.tagesschau.de/inland/regional/brandenburg/rbb-traditionssport-kegelbillard-fehlt-der-nachwuchs-100.html", "thumbnailUrl": "https://images.tagesschau.de/image/095524f3-50e0-484a-80e5-01e6048bb041/AAABjqx4sdg/AAABjcWesUg/16x9-512.jpg", "date": "2024-04-05T06:09:22.000+02:00", "lat": 52.3007, "lon": 13.1619, "intensity": 0.6, "source": "Tagesschau"}, {"title": "A42: Vollsperrung bei Herne wegen Br\u00fcckenbauarbeiten", "url": "https://www.tagesschau.de/inland/regional/nordrheinwestfalen/wdr-a42-vollsperrung-bei-herne-wegen-brueckenbauarbeiten-102.html", "thumbnailUrl": "https://images.tagesschau.de/image/34e99850-d2ef-4ea0-aac5-3633a79dd91e/AAABjqzdL8I/AAABjcWesUg/16x9-512.jpg", "date": "2024-04-05T06:00:00.000+02:00", "lat": 51.5366, "lon": 7.2286, "intensity": 0.5, "source": "Tagesschau"}, {"title": "GEW verurteilt Schwesigs Schoko-Werbeaktion an Schweriner Kitas", "url": "https://www.tagesschau.de/inland/regional/mecklenburgvorpommern/ndr-gew-verurteilt-schwesigs-schoko-werbeaktion-an-schweriner-kitas-100.html", "thumbnailUrl": "https://images.tagesschau.de/image/ccb31d2d-8404-4e91-a40d-e8ca3339e8af/AAABjq6z9es/AAABjcWesUg/16x9-512.jpg", "date": "2024-04-05T05:25:00.000+02:00", "lat": 53.6297, "lon": 11.4036, "intensity": 0.7, "source": "Tagesschau"}, {"title": "Auftrag Naturschutz: Ranger an Schleswig-Holsteins Ostseek\u00fcste", "url": "https://www.tagesschau.de/inland/regional/schleswigholstein/ndr-auftrag-naturschutz-ranger-an-schleswig-holsteins-ostseekueste-100.html", "thumbnailUrl": "https://images.tagesschau.de/image/85c083e5-b511-45cc-b37c-4a2a63fa351e/AAABjqw1GgM/AAABjcWesUg/16x9-512.jpg", "date": "2024-04-05T05:00:00.000+02:00", "lat": 54.4701, "lon": 9.5491, "intensity": 0.5, "source": "Tagesschau"}, {"title": "Ein Zauberwort im Kampf gegen die Inflation", "url": "https://www.tagesschau.de/ausland/europa/inflation-tuerkei-urlaubssaison-100.html", "thumbnailUrl": "https://images.tagesschau.de/image/e6d31ce9-4441-4eb5-8389-b5957820b10d/AAABjquQ59U/AAABjcWesUg/16x9-512.jpg", "date": "2024-04-05T02:08:04.240+02:00", "lat": 38.9637, "lon": 35.2433, "intensity": 0.8, "source": "Tagesschau"}, {"title": "Koalitionsfraktionen einigen sich auf Bezahlkarte", "url": "https://www.br.de/nachrichten/meldungen/index.html#n1", "thumbnailUrl": null, "date": "2024-04-05T22:53:00+02:00", "lat": 30.0444, "lon": 31.2357, "intensity": 0.8, "source": "Bayrischer Rundfunk"}, {"title": "UN warnen vor Hungersnot im Gazastreifen", "url": "https://www.br.de/nachrichten/meldungen/index.html#n2", "thumbnailUrl": null, "date": "2024-04-05T22:53:00+02:00", "lat": 33.5138, "lon": 36.2021, "intensity": 0.8, "source": "Bayrischer Rundfunk"}, {"title": "Unbekannte ver\u00fcben Brandanschlag auf Oldenburger Synagoge", "url": "https://www.br.de/nachrichten/meldungen/index.html#n3", "thumbnailUrl": null, "date": "2024-04-05T22:53:00+02:00", "lat": 39.9334, "lon": 32.8597, "intensity": 0.8, "source": "Bayrischer Rundfunk"}, {"title": "Mindestens 14 AfD-Politiker sind verurteilte Gewaltt\u00e4ter", "url": "https://www.br.de/nachrichten/meldungen/index.html#n4", "thumbnailUrl": null, "date": "2024-04-05T22:53:00+02:00", "lat": 52.520008, "lon": 13.404954, "intensity": 0.7, "source": "Bayrischer Rundfunk"}, {"title": "Europol geht von mehr als 800 kriminellen Banden in Europa aus", "url": "https://www.br.de/nachrichten/meldungen/index.html#n5", "thumbnailUrl": null, "date": "2024-04-05T22:53:00+02:00", "lat": 52.520008, "lon": 13.404954, "intensity": 0.6, "source": "Bayrischer Rundfunk"}, {"title": "Br\u00fcssel genehmigt deutsche F\u00f6rderung f\u00fcr Wasserstoffprojekte", "url": "https://www.br.de/nachrichten/meldungen/index.html#n6", "thumbnailUrl": null, "date": "2024-04-05T22:53:00+02:00", "lat": 48.135125, "lon": 11.581981, "intensity": 0.6, "source": "Bayrischer Rundfunk"}, {"title": "Erdbeben \u00fcberrascht Bewohner von New York", "url": "https://www.br.de/nachrichten/meldungen/index.html#n7", "thumbnailUrl": null, "date": "2024-04-05T22:53:00+02:00", "lat": 50.110922, "lon": 8.682127, "intensity": 0.8, "source": "Bayrischer Rundfunk"}, {"title": "Gletscher in \u00d6sterreich schmelzen weiterhin schnell", "url": "https://www.br.de/nachrichten/meldungen/index.html#n8", "thumbnailUrl": null, "date": "2024-04-05T22:53:00+02:00", "lat": 47.8684, "lon": 12.6394, "intensity": 0.8, "source": "Bayrischer Rundfunk"}, {"title": "Deutsche Fu\u00dfballerinnen starten mit Sieg in die EM-Qualifikation", "url": "https://www.br.de/nachrichten/meldungen/index.html#n9", "thumbnailUrl": null, "date": "2024-04-05T22:53:00+02:00", "lat": 48.5844, "lon": 13.6722, "intensity": 0.8, "source": "Bayrischer Rundfunk"}, {"title": "Das Wetter: In der Nacht teils wolkig, teils klar", "url": "https://www.br.de/nachrichten/meldungen/index.html#n10", "thumbnailUrl": null, "date": "2024-04-05T22:53:00+02:00", "lat": 53.5396, "lon": 8.5761, "intensity": 0.4, "source": "Bayrischer Rundfunk"}, {"title": "Herthas Erfolg in Paderborn in der Analyse: Konzept Sieg", "url": "https://www.rbb24.de/sport/beitrag/2024/04/fussball-zweite-bundesliga-sc-paderborn-hertha-bsc-analyse.html", "thumbnailUrl": null, "date": "Fri, 05 Apr 2024 22:45:42 +0200", "lat": 51.7189, "lon": 8.7469, "intensity": 0.7, "source": "RBB"}, {"title": "Nach 3:2 gegen Straubing: Eisb\u00e4ren stehen vor dem Finaleinzug", "url": "https://www.rbb24.de/sport/beitrag/2024/04/eishockey-del-halbfinale-spiel-drei-eisbaeren-straubing.html", "thumbnailUrl": null, "date": "Fri, 05 Apr 2024 22:19:00 +0200", "lat": 52.52, "lon": 13.4386, "intensity": 0.8, "source": "RBB"}, {"title": "Video | Zus\u00e4tzliche medizinische Leistungen: Berliner FDP-Politiker verteidigt IGel-Selbstzahlerleistungen", "url": "https://www.rbb24.de/panorama/beitrag/av7/video-igeL-leistungen-politik-fdp-berlin-brandenburg.html", "thumbnailUrl": null, "date": "Fri, 05 Apr 2024 21:43:58 +0200", "lat": 52.520008, "lon": 13.404954, "intensity": 0.3, "source": "RBB"}, {"title": "98:58 gegen Halle: Albas Frauen starten mit Kantersieg in die Halbfinale-Serie", "url": "https://www.rbb24.de/sport/beitrag/2024/04/basketball-frauen-halbfinale-spiel-eins-alba-berlin-halle.html", "thumbnailUrl": null, "date": "Fri, 05 Apr 2024 21:25:00 +0200", "lat": 51.4792, "lon": 12.0017, "intensity": 0.7, "source": "RBB"}, {"title": "Video | W\u00fcnsdorf Neues vom Haus der Offiziere", "url": "https://www.rbb24.de/panorama/beitrag/av7/video-haus-offiziere-wuensdorf-geschichte-berlin-brandenburg.html", "thumbnailUrl": null, "date": "Fri, 05 Apr 2024 21:08:35 +0200", "lat": 52.1946, "lon": 13.2018, "intensity": 0.6, "source": "RBB"}, {"title": "3:2 in Paderborn: Hertha BSC mit drei Punkten aus dem Nichts", "url": "https://www.rbb24.de/sport/beitrag/2024/04/sport-fussball-zweite-bundesliga-paderborn-hertha-bsc-audio-ticker-spielbericht.html", "thumbnailUrl": null, "date": "Fri, 05 Apr 2024 20:26:00 +0200", "lat": 51.7566, "lon": 8.7566, "intensity": 0.3, "source": "RBB"}, {"title": "Scharfmacher an der Spitze: AfD Brandenburg will Kandidatenliste und Programm auf Parteitag beschlie\u00dfen", "url": "https://www.rbb24.de/politik/beitrag/2024/04/afd-brandenburg-parteitag-kandidatenliste-wahlprogramm.html", "thumbnailUrl": null, "date": "Fri, 05 Apr 2024 18:55:00 +0200", "lat": 52.412523, "lon": 13.301902, "intensity": 0.7, "source": "RBB"}, {"title": "Schienenverkehr: Bahn will Gleisanlagen auf Vordermann bringen und k\u00fcndigt zahlreiche Bauprojekte an", "url": "https://www.rbb24.de/panorama/beitrag/2024/04/berlin-brandenburg-db-deutsche-nahn-instandsetzung-infrastruktur.html", "thumbnailUrl": null, "date": "Fri, 05 Apr 2024 18:40:00 +0200", "lat": 52.520008, "lon": 13.404954, "intensity": 0.8, "source": "RBB"}, {"title": "Wetter in Berlin und Brandenburg: Schlingernder Jetstream weht hei\u00dfen Wind in die Region", "url": "https://www.rbb24.de/panorama/beitrag/2024/04/berlin-brandenburg-wetter-wochenende-prognose-rekordwerte.html", "thumbnailUrl": null, "date": "Fri, 05 Apr 2024 17:27:00 +0200", "lat": 52.520008, "lon": 13.404954, "intensity": 0.8, "source": "RBB"}, {"title": "Berliner Polizei entdeckt offenbar Drogenlabor in Bohnsdorf", "url": "https://www.rbb24.de/panorama/beitrag/2024/04/berlin-koepenick-bohnsdorf-polizei-chemikalien-ammoniak.html", "thumbnailUrl": null, "date": "Fri, 05 Apr 2024 17:21:00 +0200", "lat": 52.4044, "lon": 13.6131, "intensity": 0.7, "source": "RBB"}, {"title": "Bauarbeiten im Nordwesten Brandenburgs: Stress f\u00fcr Pendler auf A24 und RE6-Strecke", "url": "https://www.rbb24.de/panorama/beitrag/2024/04/brandenburg-a24-bahnstrecke-re6-bauarbeiten.html", "thumbnailUrl": null, "date": "Fri, 05 Apr 2024 17:05:28 +0200", "lat": 52.5256, "lon": 12.3811, "intensity": 0.7, "source": "RBB"}, {"title": "Amnestieregelung: H\u00e4ftling in Berlin nach Teil-Legalisierung von Cannabis entlassen", "url": "https://www.rbb24.de/politik/beitrag/2024/04/berlin-teillegalisierung-cannabis-haeftling-entlassen.html", "thumbnailUrl": null, "date": "Fri, 05 Apr 2024 16:03:41 +0200", "lat": 52.520008, "lon": 13.404954, "intensity": 0.7, "source": "RBB"}, {"title": "Wer am Sonntag antritt, wo gelaufen wird und welche Stra\u00dfen gesperrt werden", "url": "https://www.rbb24.de/sport/beitrag/2024/04/berlin-halbmarathon-2024-laufen-sperrungen-strecke-verkehr-teilnehmer.html", "thumbnailUrl": null, "date": "Fri, 05 Apr 2024 15:32:00 +0200", "lat": 52.516, "lon": 13.378, "intensity": 0.8, "source": "RBB"}, {"title": "Strukturwandel: Lausitz bekommt einen Forschungscampus f\u00fcr klimafreundliche Materialproduktion", "url": "https://www.rbb24.de/wirtschaft/beitrag/2024/04/lausitz-schwarze-pumpe-startschuss-forschungscampus-unis-strukturwandel.html", "thumbnailUrl": null, "date": "Fri, 05 Apr 2024 15:26:21 +0200", "lat": 51.5167, "lon": 14.3167, "intensity": 0.8, "source": "RBB"}, {"title": "Wetter in Berlin und Brandenburg: Bis zu 27 Grad am Wochenende erwartet - vorher Sturm und Hagel m\u00f6glich", "url": "https://www.rbb24.de/panorama/beitrag/2024/04/wetter-aussichten-wochenende-berlin-brandenburg.html", "thumbnailUrl": null, "date": "Fri, 05 Apr 2024 14:43:00 +0200", "lat": 52.52, "lon": 13.405, "intensity": 0.7, "source": "RBB"}, {"title": "Saison er\u00f6ffnet: Berliner Brunnen sprudeln wieder", "url": "https://www.rbb24.de/panorama/beitrag/2024/04/berlin-wasserbetriebe-brunnensaison-eroeffnet.html", "thumbnailUrl": null, "date": "Fri, 05 Apr 2024 13:52:00 +0200", "lat": 52.520008, "lon": 13.404954, "intensity": 0.5, "source": "RBB"}, {"title": "Geplante Nord-S\u00fcd-Verbindung: Berliner S21 geht erst Ende 2024 in Betrieb", "url": "https://www.rbb24.de/panorama/beitrag/2024/04/berlin-s-bahn-s21-s15-hauptbahnhof-gesundbrunnen-ende-2024.html", "thumbnailUrl": null, "date": "Fri, 05 Apr 2024 12:49:00 +0200", "lat": 52.5256, "lon": 13.3692, "intensity": 0.8, "source": "RBB"}, {"title": "BSR-Gebrauchtwarenkaufhaus \"NochMall\" verzeichnet mehr Nachfrage", "url": "https://www.rbb24.de/wirtschaft/beitrag/2024/04/berliner-stadtreinigung-bsr-gebrauchtwarenkaufhaus-nochmall-mehr-umsatz-mehr-kunden.html", "thumbnailUrl": null, "date": "Fri, 05 Apr 2024 12:31:00 +0200", "lat": 53.0736, "lon": 8.8076, "intensity": 0.6, "source": "RBB"}, {"title": "U19-Juniorenetappenfahrt: Internationaler Radsport-Nachwuchs tritt in Cottbus im Stra\u00dfenrennsport an", "url": "https://www.rbb24.de/sport/beitrag/2024/04/brandenburg-cottbus-juniorenetappenfahrt-strassenrennsport-rsc-wettkampf.html", "thumbnailUrl": null, "date": "Fri, 05 Apr 2024 12:13:04 +0200", "lat": 51.7562, "lon": 14.3356, "intensity": 0.4, "source": "RBB"}, {"title": "Berlin-Tiergarten: Stra\u00dfensperrungen durch Berliner Halbmarathon", "url": "https://www.rbb24.de/panorama/beitrag/2024/04/berlin-halbmarathon-strassensperrung-tiergarten-grosser-stern.html", "thumbnailUrl": null, "date": "Fri, 05 Apr 2024 11:28:46 +0200", "lat": 52.5166, "lon": 13.3789, "intensity": 0.6, "source": "RBB"}, {"title": "Liam Gallagher und John Squire in der Columbiahalle: Eine Stunde professionelle Nostalgie", "url": "https://www.rbb24.de/kultur/beitrag/2024/04/liam-gallagher-john-squire-konzert-berlin-columbiahalle-professionelle-nostalgie.html", "thumbnailUrl": null, "date": "Fri, 05 Apr 2024 10:20:51 +0200", "lat": 52.497852, "lon": 13.396236, "intensity": 0.7, "source": "RBB"},