[{"title": "++ Laut Milit\u00e4r nur wenige Raketen in Israel eingeschlagen ++ ", "url": "https://www.tagesschau.de/newsticker/liveblog-nahost-samstag-124.html", "thumbnailUrl": "https://images.tagesschau.de/image/45dbb046-3abb-44d8-9591-2054b93edeb3/AAABjtoSmJI/AAABjcWesUg/16x9-512.jpg", "date": "2024-04-14T03:22:52.288+02:00", "lat": 31.046051, "lon": 34.851612, "intensity": 0.7, "source": "Tagesschau"}, {"title": "\"Eine neue Stufe der Destabilisierung\"", "url": "https://www.tagesschau.de/ausland/iran-israel-angriff-102.html", "thumbnailUrl": "https://images.tagesschau.de/image/a6370085-bba6-4cd1-b94e-cdb586e791da/AAABjtohxsY/AAABjcWesUg/16x9-512.jpg", "date": "2024-04-14T03:18:11.144+02:00", "lat": 51.3963, "lon": 35.6895, "intensity": 0.8, "source": "Tagesschau"}, {"title": "Polizei geht nicht von Terrormotiv aus", "url": "https://www.tagesschau.de/ausland/ozeanien/sydney-angriff-tote-102.html", "thumbnailUrl": "https://images.tagesschau.de/image/49295675-83f3-4f4b-96c8-f15655cbabc4/AAABjtn61K8/AAABjcWesUg/16x9-512.jpg", "date": "2024-04-14T02:21:18.399+02:00", "lat": -33.8688, "lon": 151.2093, "intensity": 0.3, "source": "Tagesschau"}, {"title": "NATO-\u00dcbung: Mehrere Konvois fahren durch Niedersachsen", "url": "https://www.tagesschau.de/inland/regional/niedersachsen/ndr-nato-uebung-mehrere-konvois-fahren-durch-niedersachsen-100.html", "thumbnailUrl": "https://images.tagesschau.de/image/321a54b4-e233-4ae6-b3c5-0e1edfc4f95b/AAABjtJnHio/AAABjcWesUg/16x9-512.jpg", "date": "2024-04-14T02:00:00.000+02:00", "lat": 52.3759, "lon": 9.732, "intensity": 0.8, "source": "Tagesschau"}, {"title": "Iran greift Israel an", "url": "https://www.tagesschau.de/ausland/asien/iran-drohnen-114.html", "thumbnailUrl": "https://images.tagesschau.de/image/415a798f-30b2-448d-927a-3f50a827da03/AAABjG8AzS8/AAABjcWesUg/16x9-512.jpg", "date": "2024-04-14T01:50:34.511+02:00", "lat": 31.5497, "lon": 35.6895, "intensity": 0.8, "source": "Tagesschau"}, {"title": "Deutsche in Israel sollen Beh\u00f6rdenanweisungen folgen", "url": "https://www.tagesschau.de/ausland/asien/israel-iran-drohnen-deutsche-botschaft-100.html", "thumbnailUrl": "https://images.tagesschau.de/image/df88685b-94e2-462e-8743-b347cd67fa86/AAABiqbAKxw/AAABjcWesUg/16x9-512.jpg", "date": "2024-04-14T00:33:51.986+02:00", "lat": 32.0853, "lon": 34.781768, "intensity": 0.7, "source": "Tagesschau"}, {"title": "Gro\u00dfe Sorge in den USA vor der Reaktion Israels", "url": "https://www.tagesschau.de/ausland/asien/iran-israel-angriff-100.html", "thumbnailUrl": "https://images.tagesschau.de/image/c3d0ecc4-36d8-4875-bf68-c43ef480d8e3/AAABjtl4vrk/AAABjcWesUg/16x9-512.jpg", "date": "2024-04-14T00:08:01.180+02:00", "lat": 39.8283, "lon": -98.5795, "intensity": 0.8, "source": "Tagesschau"}, {"title": "Kiel: Blindg\u00e4nger in Schwentine wird heute entsch\u00e4rft", "url": "https://www.tagesschau.de/inland/regional/schleswigholstein/ndr-kiel-blindgaenger-in-schwentine-gefunden-entschaerfung-am-sonntag-100.html", "thumbnailUrl": "https://images.tagesschau.de/image/f7e55eff-56f0-43de-9397-c6c4d76f6e25/AAABjtl6XmE/AAABjcWesUg/16x9-512.jpg", "date": "2024-04-14T00:00:00.000+02:00", "lat": 54.3227, "lon": 10.1393, "intensity": 0.8, "source": "Tagesschau"}, {"title": "Aarbergen-Michelbach: Pilot stirbt bei Absturz eines Kleinflugzeugs", "url": "https://www.tagesschau.de/inland/regional/hessen/hr-aarbergen-michelbach-pilot-stirbt-bei-absturz-eines-kleinflugzeugs-100.html", "thumbnailUrl": "https://images.tagesschau.de/image/3966c514-db0c-4761-8a88-eb7a00e19c5a/AAABjtlcb3w/AAABjcWesUg/16x9-512.jpg", "date": "2024-04-13T23:26:33.561+02:00", "lat": 50.2517, "lon": 8.0717, "intensity": 0.8, "source": "Tagesschau"}, {"title": "Wer steht im Finale der Badminton-EM in Saarbr\u00fccken?", "url": "https://www.tagesschau.de/inland/regional/saarland/sr-wer-steht-im-finale-der-badminton-em-in-saarbruecken-102.html", "thumbnailUrl": "https://images.tagesschau.de/image/bba7d4a6-b8c3-4a35-bbd4-110e66af4f08/AAABjtklRBU/AAABjcWesUg/16x9-512.jpg", "date": "2024-04-13T22:25:00.000+02:00", "lat": 49.2354, "lon": 6.9754, "intensity": 0.8, "source": "Tagesschau"}, {"title": "Bauarbeiten auf der A7 - mehrere Sperrungen am Wochenende", "url": "https://www.tagesschau.de/inland/regional/niedersachsen/ndr-a7-zwischen-seevetal-ramelsloh-und-horster-dreieck-gesperrt-100.html", "thumbnailUrl": "https://images.tagesschau.de/image/e15fb7f1-6066-473a-abe9-9e798160a629/AAABjtl7ylA/AAABjcWesUg/16x9-512.jpg", "date": "2024-04-13T22:12:00.000+02:00", "lat": 53.4029, "lon": 10.0002, "intensity": 0.6, "source": "Tagesschau"}, {"title": "A7-Sperrung wegen Bauarbeiten f\u00fcr L\u00e4rmschutztunnel in Altona", "url": "https://www.tagesschau.de/inland/regional/hamburg/ndr-a7-sperrung-wegen-bauarbeiten-fuer-laermschutztunnel-in-altona-100.html", "thumbnailUrl": "https://images.tagesschau.de/image/739e1662-63f0-4762-b2ae-f48c466b570c/AAABjtka040/AAABjcWesUg/16x9-512.jpg", "date": "2024-04-13T22:00:00.000+02:00", "lat": 53.5511, "lon": 9.9039, "intensity": 0.8, "source": "Tagesschau"}, {"title": "Die Sorge vor einem Angriff w\u00e4chst", "url": "https://www.tagesschau.de/ausland/asien/israel-iran-usa-100.html", "thumbnailUrl": "https://images.tagesschau.de/image/a675bf26-7b3f-4f8a-abd8-ecd8f32f8941/AAABjVTIU6k/AAABjcWesUg/16x9-512.jpg", "date": "2024-04-13T21:49:27.715+02:00", "lat": 31.7683, "lon": 35.2137, "intensity": 0.8, "source": "Tagesschau"}, {"title": "Eintracht: +++ Eintracht bei VfB chancenlos +++ G\u00f6tze fehlt, Hasebe startet +++ Mainz erweist Eintracht gute Dienste +++", "url": "https://www.tagesschau.de/inland/regional/hessen/hr--eintracht-wohl-mit-chaibi-einig--glasner-fast-nur-kolo-muani-der-tore-erzielt--bericht-eintracht-sagt-aouar-ab-100.html", "thumbnailUrl": "https://images.tagesschau.de/image/30e52ee7-c0c6-482a-8706-00e11d408213/AAABjtjyNgw/AAABjcWesUg/16x9-512.jpg", "date": "2024-04-13T21:29:02.293+02:00", "lat": 50.110922, "lon": 8.682127, "intensity": 0.6, "source": "Tagesschau"}, {"title": "Proteste nach Aufl\u00f6sung von \"Pal\u00e4stina-Kongress\"", "url": "https://www.tagesschau.de/inland/regional/berlin/proteste-palaestina-kongress-berlin-100.html", "thumbnailUrl": "https://images.tagesschau.de/image/76d672fd-aff9-4740-b813-86f57570d949/AAABjthl6Cg/AAABjcWesUg/16x9-512.jpg", "date": "2024-04-13T21:17:17.000+02:00", "lat": 52.520008, "lon": 13.404954, "intensity": 0.8, "source": "Tagesschau"}, {"title": "22 Menschen bei Brand in Asyl-Aufnahmeeinrichtung in Trier verletzt", "url": "https://www.tagesschau.de/inland/regional/saarland/sr-22-menschen-bei-brand-in-asyl-aufnahmeeinrichtung-in-trier-verletzt-100.html", "thumbnailUrl": "https://images.tagesschau.de/image/99afcab8-5685-495d-b79d-6f70133d9eea/AAABjtjnAoY/AAABjcWesUg/16x9-512.jpg", "date": "2024-04-13T21:17:00.000+02:00", "lat": 49.7567, "lon": 6.9528, "intensity": 0.9, "source": "Tagesschau"}, {"title": "Eine Tote bei Zusammensto\u00df zwischen Auto und Zug an Bahn\u00fcbergang", "url": "https://www.tagesschau.de/inland/regional/brandenburg/rbb-dahme-spreewald-ein-toter-bei-zusammenstoss-zwischen-auto-und-zug-in-bestensee-100.html", "thumbnailUrl": "https://images.tagesschau.de/image/4e8508c9-3d50-4459-b7ae-ac89e4111a62/AAABjtjJ55A/AAABjcWesUg/16x9-512.jpg", "date": "2024-04-13T20:45:16.000+02:00", "lat": 52.2333, "lon": 13.5997, "intensity": 0.8, "source": "Tagesschau"}, {"title": "Finale! Melsungen schl\u00e4gt Flensburg", "url": "https://www.tagesschau.de/inland/regional/hessen/hr-finale-melsungen-schlaegt-flensburg-102.html", "thumbnailUrl": "https://images.tagesschau.de/image/d206c5d4-554e-49f8-b186-f1c20b9aae42/AAABjtjpCAk/AAABjcWesUg/16x9-512.jpg", "date": "2024-04-13T20:44:00.378+02:00", "lat": 51.132145, "lon": 9.40584, "intensity": 0.8, "source": "Tagesschau"}, {"title": "Desolate Eintracht geht unter beim VfB Stuttgart", "url": "https://www.tagesschau.de/inland/regional/hessen/hr-desolate-eintracht-geht-unter-beim-vfb-stuttgart-102.html", "thumbnailUrl": "https://images.tagesschau.de/image/a4a753b4-b200-47af-b3de-77bc79f60fb1/AAABjtkCrjo/AAABjcWesUg/16x9-512.jpg", "date": "2024-04-13T20:26:29.415+02:00", "lat": 48.7758, "lon": 9.1776, "intensity": 0.5, "source": "Tagesschau"}, {"title": "Norderelbbr\u00fccke: Bauarbeiten sorgen f\u00fcr Behinderungen auf der A1", "url": "https://www.tagesschau.de/inland/regional/hamburg/ndr-norderelbbruecke-100.html", "thumbnailUrl": "https://images.tagesschau.de/image/2119720b-227d-4b09-8231-ed268c71b979/AAABjtkckEU/AAABjcWesUg/16x9-512.jpg", "date": "2024-04-13T20:26:00.000+02:00", "lat": 53.5511, "lon": 9.9833, "intensity": 0.7, "source": "Tagesschau"}, {"title": "Landtagswahl Brandenburg: SPD-Parteitag w\u00e4hlt Woidke mit 97 Prozent der Stimmen zum Spitzenkandidaten", "url": "https://www.tagesschau.de/inland/regional/brandenburg/rbb-spd-parteitag-waehlt-woidke-mit-97-prozent-der-stimmen-zum-spitzenkandidaten-100.html", "thumbnailUrl": "https://images.tagesschau.de/image/08b7dc49-64ab-4609-967c-018c24df56c8/AAABjtiftQ0/AAABjcWesUg/16x9-512.jpg", "date": "2024-04-13T20:22:12.000+02:00", "lat": 52.5013, "lon": 13.1815, "intensity": 0.9, "source": "Tagesschau"}, {"title": "St\u00f6rt Kiffen auf Festen wie dem Mainzer Marktfr\u00fchst\u00fcck?", "url": "https://www.tagesschau.de/inland/regional/rheinlandpfalz/swr-stoert-kiffen-auf-festen-wie-dem-mainzer-marktfruehstueck-102.html", "thumbnailUrl": "https://images.tagesschau.de/image/d8ce0508-3569-4190-afe5-17be9314a3ac/AAABjtizye4/AAABjcWesUg/16x9-512.jpg", "date": "2024-04-13T20:16:54.000+02:00", "lat": 50.0021, "lon": 8.2711, "intensity": 0.4, "source": "Tagesschau"}, {"title": "Gartenakademie Neustadt setzt sich f\u00fcr mehr Artenvielfalt ein", "url": "https://www.tagesschau.de/inland/regional/rheinlandpfalz/swr-gartenakademie-neustadt-setzt-sich-fuer-mehr-artenvielfalt-ein-102.html", "thumbnailUrl": "https://images.tagesschau.de/image/0a599ffb-2b15-4123-a753-1ff15fdf238c/AAABjtiwHsk/AAABjcWesUg/16x9-512.jpg", "date": "2024-04-13T20:14:34.000+02:00", "lat": 49.3558, "lon": 8.1291, "intensity": 0.6, "source": "Tagesschau"}, {"title": "Saar-Gr\u00fcne wollen sich grundlegend reformieren", "url": "https://www.tagesschau.de/inland/regional/saarland/sr-saar-gruene-wollen-sich-grundlegend-reformieren-100.html", "thumbnailUrl": "https://images.tagesschau.de/image/ac60c4eb-8cf3-4783-9e5e-527cd33aae3a/AAABjtZc_Xw/AAABjcWesUg/16x9-512.jpg", "date": "2024-04-13T19:59:00.000+02:00", "lat": 49.3964, "lon": 7.0, "intensity": 0.3, "source": "Tagesschau"}, {"title": "So bereitet sich Leverkusen auf den Meistertitel vor", "url": "https://www.tagesschau.de/inland/regional/nordrheinwestfalen/wdr-so-bereitet-die-stadt-leverkusen-sich-auf-moeglichen-meistertitel-vor-100.html", "thumbnailUrl": "https://images.tagesschau.de/image/c54065fc-e3a3-4277-a401-f65cf4f99955/AAABjtib7K4/AAABjcWesUg/16x9-512.jpg", "date": "2024-04-13T19:54:00.000+02:00", "lat": 51.045, "lon": 7.08, "intensity": 0.8, "source": "Tagesschau"}, {"title": "Autodiebe bauen Unfall und landen auf dem Dach", "url": "https://www.tagesschau.de/inland/regional/hamburg/ndr-autodiebe-bauen-unfall-und-landen-auf-dem-dach-100.html", "thumbnailUrl": "https://images.tagesschau.de/image/24b277f3-2afb-4e12-abc7-dbbdb9c347a6/AAABjteb7Ig/AAABjcWesUg/16x9-512.jpg", "date": "2024-04-13T19:53:00.000+02:00", "lat": 53.5587, "lon": 9.9937, "intensity": 0.8, "source": "Tagesschau"}, {"title": "\"Letzte Generation\": Neue Blockade-Aktion in Hamburg", "url": "https://www.tagesschau.de/inland/regional/hamburg/ndr-letzte-generation-blockiert-kreuzung-in-hamburg-altona-100.html", "thumbnailUrl": "https://images.tagesschau.de/image/1a521e71-6c70-4905-be86-70b848756abc/AAABjtifYGc/AAABjcWesUg/16x9-512.jpg", "date": "2024-04-13T19:50:00.000+02:00", "lat": 53.5511, "lon": 9.9616, "intensity": 0.7, "source": "Tagesschau"}, {"title": "Schwerer Unfall in Rastede: Auto kollidiert mit Motorrad", "url": "https://www.tagesschau.de/inland/regional/niedersachsen/ndr-schwerer-unfall-in-rastede-auto-kollidiert-mit-motorrad-100.html", "thumbnailUrl": "https://images.tagesschau.de/image/6287e411-07b4-4bbf-aedf-d6ca190c04b7/AAABjtijw_U/AAABjcWesUg/16x9-512.jpg", "date": "2024-04-13T19:49:00.000+02:00", "lat": 53.2482, "lon": 8.2006, "intensity": 0.8, "source": "Tagesschau"}, {"title": "Terrorverdacht: Haftbefehl gegen 16-J\u00e4hrigen aus Ostfildern", "url": "https://www.tagesschau.de/inland/regional/badenwuerttemberg/swr-terrorverdacht-haftbefehl-gegen-16-jaehrigen-aus-bw-100.html", "thumbnailUrl": "https://images.tagesschau.de/image/0ac847da-1c3e-47f8-87d5-cd1a303e1b7a/AAABjtJi8CA/AAABjcWesUg/16x9-512.jpg", "date": "2024-04-13T19:48:00.000+02:00", "lat": 48.6811, "lon": 9.2386, "intensity": 0.8, "source": "Tagesschau"}, {"title": "Hohe UV-Belastung im Saarland erwartet", "url": "https://www.tagesschau.de/inland/regional/saarland/sr-hohe-uv-belastung-im-saarland-erwartet-100.html", "thumbnailUrl": "https://images.tagesschau.de/image/122b36d4-fa74-48f4-83a4-7f7017dcde13/AAABjtLD-NQ/AAABjcWesUg/16x9-512.jpg", "date": "2024-04-13T19:47:00.000+02:00", "lat": 49.3964, "lon": 6.9964, "intensity": 0.8, "source": "Tagesschau"}, {"title": "Luxemburger ESC-Comeback nach 31 Jahren", "url": "https://www.tagesschau.de/inland/regional/saarland/sr-luxemburger-esc-comeback-nach-31-jahren-100.html", "thumbnailUrl": "https://images.tagesschau.de/image/2184b1a4-fe2a-45b5-a1ae-e68bbe0bc3fa/AAABjtiSyAk/AAABjcWesUg/16x9-512.jpg", "date": "2024-04-13T19:42:00.000+02:00", "lat": 49.6116, "lon": 6.1296, "intensity": 0.7, "source": "Tagesschau"}, {"title": "Wie Islamisten TikTok nutzen, um Jugendliche zu radikalisieren", "url": "https://www.tagesschau.de/inland/regional/nordrheinwestfalen/wdr-wie-islamisten-tiktok-nutzen-um-jugendliche-zu-radikalisieren-100.html", "thumbnailUrl": "https://images.tagesschau.de/image/8ff028c7-d3e4-4d53-8d7d-b044ba7e432e/AAABjtjNXsU/AAABjcWesUg/16x9-512.jpg", "date": "2024-04-13T19:36:00.000+02:00", "lat": 51.514125, "lon": 7.466944, "intensity": 0.8, "source": "Tagesschau"}, {"title": "22 Verletzte bei Brand in der AfA in Trier-Nord", "url": "https://www.tagesschau.de/inland/regional/rheinlandpfalz/swr-vier-verletzte-bei-brand-in-der-afa-in-trier-nord-100.html", "thumbnailUrl": "https://images.tagesschau.de/image/97fe4a03-8da2-4d76-81d8-698574d96403/AAABjthCPl4/AAABjcWesUg/16x9-512.jpg", "date": "2024-04-13T19:36:00.000+02:00", "lat": 49.7561, "lon": 6.6519, "intensity": 0.8, "source": "Tagesschau"}, {"title": "Gro\u00dfeinsatz: Acht Menschen bei Feuer in Wiesmoor verletzt", "url": "https://www.tagesschau.de/inland/regional/niedersachsen/ndr-grosseinsatz-in-wiesmoor-feuer-in-ehemaligem-hotel-100.html", "thumbnailUrl": "https://images.tagesschau.de/image/f77099ad-7587-4976-a180-9a6c69dbbc01/AAABjtheFGw/AAABjcWesUg/16x9-512.jpg", "date": "2024-04-13T19:32:00.000+02:00", "lat": 53.4457, "lon": 7.6731, "intensity": 0.8, "source": "Tagesschau"}, {"title": "Wetterlage und Temperaturen", "url": "https://www.tagesschau.de/wetter/europa-welt", "thumbnailUrl": "https://images.tagesschau.de/image/6e7d3b16-79c8-4308-822b-20c3035236b5/AAABjth4LwY/AAABjcWesUg/16x9-512.jpg", "date": "2024-04-13T19:19:59.992+02:00", "lat": 51.1657, "lon": 10.4515, "intensity": 0.3, "source": "Tagesschau"}, {"title": "Wo Hunderttausende durch den Dschungel fliehen", "url": "https://www.tagesschau.de/ausland/amerika/darien-luecke-migration-100.html", "thumbnailUrl": "https://images.tagesschau.de/image/93354377-c420-45d5-8b08-ee8d03c0ff9c/AAABjthzktw/AAABjcWesUg/16x9-512.jpg", "date": "2024-04-13T19:13:57.578+02:00", "lat": 8.091, "lon": -77.9114, "intensity": 0.8, "source": "Tagesschau"}, {"title": "Ukraine baut zwei neue Atomreaktoren", "url": "https://www.tagesschau.de/ausland/europa/ukraine-krieg-russland-atomreaktoren-100.html", "thumbnailUrl": "https://images.tagesschau.de/image/73f83b87-1c0e-4838-9ac5-ef461ea7d3e3/AAABjtgirb8/AAABjcWesUg/16x9-512.jpg", "date": "2024-04-13T19:10:16.716+02:00", "lat": 50.4501, "lon": 30.5234, "intensity": 0.8, "source": "Tagesschau"}, {"title": "Terminstau beim Bremer B\u00fcrgeramt: Ausweise aus Automaten sollen helfen", "url": "https://www.tagesschau.de/inland/regional/bremen/rb-terminstau-beim-bremer-buergeramt-ausweise-aus-automaten-sollen-helfen-100.html", "thumbnailUrl": "https://images.tagesschau.de/image/dace5625-422d-46d8-ac0a-e6276e752b70/AAABjthsZYE/AAABjcWesUg/16x9-512.jpg", "date": "2024-04-13T19:03:00.000+02:00", "lat": 53.0793, "lon": 8.8017, "intensity": 0.7, "source": "Tagesschau"}, {"title": "Iranische Revolutionsgarden kapern Handelsschiff", "url": "https://www.tagesschau.de/ausland/asien/iran-beschlagnahmt-schiff-100.html", "thumbnailUrl": "https://images.tagesschau.de/image/9d9c36d1-43d6-43a7-85bc-3fea3197a4b0/AAABjtc6Ai0/AAABjcWesUg/16x9-512.jpg", "date": "2024-04-13T18:47:07.728+02:00", "lat": 32.0, "lon": 50.0, "intensity": 0.8, "source": "Tagesschau"}, {"title": "Final Four in K\u00f6ln: F\u00fcchse Berlin verlieren Pokal-Halbfinale gegen Magdeburg nach katastrophalem Start", "url": "https://www.tagesschau.de/inland/regional/berlin/rbb-final-four-um-den-dhb-pokal-fuechse-berlin-verlieren-halbfinale-gegen-magdeburg-und-verpassen-finale-102.html", "thumbnailUrl": "https://images.tagesschau.de/image/6add0d14-a73e-49e7-b14a-4823ab6d1caf/AAABjtgz7xM/AAABjcWesUg/16x9-512.jpg", "date": "2024-04-13T18:29:15.000+02:00", "lat": 52.520008, "lon": 13.404954, "intensity": 0.8, "source": "Tagesschau"}, {"title": "1. FC Saarbr\u00fccken sichert sich drei Punkte gegen Sandhausen", "url": "https://www.tagesschau.de/inland/regional/saarland/sr-fcs-will-gegen-sandhausen-weiteren-dreier-eintueten-102.html", "thumbnailUrl": "https://images.tagesschau.de/image/410ca815-0f2e-41be-8d53-4fb9c43c0d21/AAABjthSvHA/AAABjcWesUg/16x9-512.jpg", "date": "2024-04-13T18:26:00.000+02:00", "lat": 49.2334, "lon": 6.9746, "intensity": 0.6, "source": "Tagesschau"}, {"title": "Einsatz\u00fcbung f\u00fcr die Feuerwehr im Emstunnel bei Leer", "url": "https://www.tagesschau.de/inland/regional/niedersachsen/ndr-einsatzuebung-im-emstunnel-bei-leer-a31-bis-15-uhr-gesperrt-100.html", "thumbnailUrl": "https://images.tagesschau.de/image/8e65971f-3f48-4b63-b97b-b7796c3e4c27/AAABjthTNsA/AAABjcWesUg/16x9-512.jpg", "date": "2024-04-13T18:08:00.000+02:00", "lat": 53.2326, "lon": 7.4409, "intensity": 0.6, "source": "Tagesschau"}, {"title": "Deutschland liefert Ukraine drittes \"Patriot\"-System", "url": "https://www.tagesschau.de/ausland/europa/ukraine-patriots-100.html", "thumbnailUrl": "https://images.tagesschau.de/image/78532372-013b-468b-a874-5f0a74cb470c/AAABjtgjWjQ/AAABjcWesUg/16x9-512.jpg", "date": "2024-04-13T17:46:19.679+02:00", "lat": 50.4501, "lon": 30.5234, "intensity": 0.8, "source": "Tagesschau"}, {"title": "Waldbrand bei Ferch ausgebrochen", "url": "https://www.tagesschau.de/inland/regional/brandenburg/rbb-waldbrand-bei-ferch-ausgebrochen-100.html", "thumbnailUrl": "https://images.tagesschau.de/image/191a52af-44d5-4e68-a087-f4a6f939ff75/AAABjtgjYH0/AAABjcWesUg/16x9-512.jpg", "date": "2024-04-13T17:43:09.000+02:00", "lat": 52.3845, "lon": 12.9377, "intensity": 0.8, "source": "Tagesschau"}, {"title": "Furiose Mainzer drehen das Spiel gegen Hoffenheim", "url": "https://www.tagesschau.de/inland/regional/rheinlandpfalz/swr-furiose-mainzer-drehen-das-spiel-gegen-hoffenheim-106.html", "thumbnailUrl": "https://images.tagesschau.de/image/d88b6d10-c52e-4496-92dd-88ce56b7fd24/AAABjtgomR0/AAABjcWesUg/16x9-512.jpg", "date": "2024-04-13T17:33:00.000+02:00", "lat": 49.9929, "lon": 8.2697, "intensity": 0.9, "source": "Tagesschau"}, {"title": "Katastrophenschutz\u00fcbung in Koblenz und Cochem: Hunderte Einsatzkr\u00e4fte waren beteiligt", "url": "https://www.tagesschau.de/inland/regional/rheinlandpfalz/swr-katastrophenschutzuebung-in-cochem-und-koblenz-100.html", "thumbnailUrl": "https://images.tagesschau.de/image/a39e18ef-1639-4fbc-9ed3-2aaa4fa0f95d/AAABjtadGEY/AAABjcWesUg/16x9-512.jpg", "date": "2024-04-13T17:25:00.000+02:00", "lat": 50.35694, "lon": 7.59465, "intensity": 0.8, "source": "Tagesschau"}, {"title": "Wolfsburgs Abstiegssorgen immer gr\u00f6\u00dfer: VfL verliert in Leipzig", "url": "https://www.tagesschau.de/inland/regional/niedersachsen/ndr-wolfsburgs-abstiegssorgen-immer-groesser-vfl-verliert-in-leipzig-102.html", "thumbnailUrl": "https://images.tagesschau.de/image/22b251fc-8fa2-476a-9a1b-4d17443436ec/AAABjtgcRxU/AAABjcWesUg/16x9-512.jpg", "date": "2024-04-13T17:25:00.000+02:00", "lat": 52.3387, "lon": 11.6276, "intensity": 0.8, "source": "Tagesschau"}, {"title": "Darmstadt 98: +++ R\u00fcckstand w\u00e4chst auf zw\u00f6lf Punkte an +++ Streich: Lilien k\u00f6nnen richtig gut kicken +++ Lilien wollen vers\u00f6hnlichen Abschied  +++", "url": "https://www.tagesschau.de/inland/regional/hessen/hr--tietz-vermisst-fehlende-gier--lilien-fans-liefern-sich-raststaetten-pruegelei--die-niederlage-der-lilien-in-der-video-zusammenfassung-102.html", "thumbnailUrl": "https://images.tagesschau.de/image/f3f618e2-f08f-4c98-bf8b-6368112877c1/AAABjtgPG2o/AAABjcWesUg/16x9-512.jpg", "date": "2024-04-13T17:23:01.182+02:00", "lat": 49.878, "lon": 8.6536, "intensity": 0.6, "source": "Tagesschau"}, {"title": "Ein Toter bei Seilbahnungl\u00fcck in Antalya", "url": "https://www.tagesschau.de/ausland/europa/tuerkei-seilbahnunglueck-100.html", "thumbnailUrl": "https://images.tagesschau.de/image/58fe28a9-ccac-4187-a1f0-36343a82180c/AAABjtffyCA/AAABjcWesUg/16x9-512.jpg", "date": "2024-04-13T17:13:02.336+02:00", "lat": 36.8969, "lon": 30.7133, "intensity": 1, "source": "Tagesschau"}, {"title": "Erneuter Wolfsriss in der N\u00e4he von Redderstorf", "url": "https://www.tagesschau.de/inland/regional/mecklenburgvorpommern/ndr-erneuter-wolfsriss-in-der-naehe-von-redderstorf-100.html", "thumbnailUrl": "https://images.tagesschau.de/image/f3ed7626-8ad1-4af3-9920-43865686368e/AAABjtgWkB4/AAABjcWesUg/16x9-512.jpg", "date": "2024-04-13T17:13:00.000+02:00", "lat": 53.7683, "lon": 12.0299, "intensity": 0.8, "source": "Tagesschau"}, {"title": "#Wiegehtesuns | Schulleiter aus Burg (Spreewald): \"Es gibt Kollegen, die sagen, n\u00f6, die unterrichte ich nicht mehr. Kann ja auch keine L\u00f6sung sein\"", "url": "https://www.tagesschau.de/inland/regional/brandenburg/rbb-wiegehtesuns--schulleiter-aus-burg-spreewald-es-gibt-kollegen-die-sagen-noe-die-unterrichte-ich-nicht-mehr-kann-ja-auch-keine-loesung-sein-100.html", "thumbnailUrl": "https://images.tagesschau.de/image/06d78896-3244-4d59-a06d-7d1e47eea973/AAABjtgGIaY/AAABjcWesUg/16x9-512.jpg", "date": "2024-04-13T17:12:59.000+02:00", "lat": 51.8538, "lon": 13.9952, "intensity": 0.8, "source": "Tagesschau"}, {"title": "Junge Union schl\u00e4gt Bau von Panzern in Saarlouis vor", "url": "https://www.tagesschau.de/inland/regional/saarland/sr-junge-union-schlaegt-bau-von-panzern-in-saarlouis-vor-100.html", "thumbnailUrl": "https://images.tagesschau.de/image/fbd17a74-6a9c-4cfb-87e1-6534c53cfa48/AAABjtgHorY/AAABjcWesUg/16x9-512.jpg", "date": "2024-04-13T17:09:00.000+02:00", "lat": 49.3076, "lon": 6.7521, "intensity": 0.6, "source": "Tagesschau"}, {"title": "Neue Studie: Mehr Nosferatu-Spinnen als gedacht", "url": "https://www.tagesschau.de/inland/regional/nordrheinwestfalen/wdr-neue-studie-mehr-nosferatu-spinnen-als-gedacht-100.html", "thumbnailUrl": "https://images.tagesschau.de/image/6570c934-0269-4c83-9ff8-3f688a550b76/AAABjtgJd1w/AAABjcWesUg/16x9-512.jpg", "date": "2024-04-13T17:05:00.000+02:00", "lat": 51.1657, "lon": 7.6261, "intensity": 0.8, "source": "Tagesschau"}, {"title": "Wie pflanze ich insektenfreundlich und gleichzeitig pflegeleicht?", "url": "https://www.tagesschau.de/inland/regional/saarland/sr-wie-pflanze-ich-insektenfreundlich-und-gleichzeitig-pflegeleicht-100.html", "thumbnailUrl": "https://images.tagesschau.de/image/4a3fbdb8-909a-4ec3-81ff-df6c0be023ff/AAABjtfzffE/AAABjcWesUg/16x9-512.jpg", "date": "2024-04-13T16:51:00.000+02:00", "lat": 49.3964, "lon": 6.9934, "intensity": 0.7, "source": "Tagesschau"}, {"title": "Deutschlands j\u00fcngster B\u00fcrgermeister - beispielhaft f\u00fcr die n\u00e4chsten Wahlen? ", "url": "https://www.tagesschau.de/inland/regional/badenwuerttemberg/swr-deutschlands-juengster-buergermeister-beispielhaft-fuer-die-naechsten-wahlen-100.html", "thumbnailUrl": "https://images.tagesschau.de/image/c91e5ffa-6021-43ae-b0a7-c05dec453331/AAABjtf63cI/AAABjcWesUg/16x9-512.jpg", "date": "2024-04-13T16:49:42.000+02:00", "lat": 49.2013, "lon": 9.7756, "intensity": 0.7, "source": "Tagesschau"}, {"title": "SEK-Einsatz in Bad Godesberg: 23-J\u00e4hrige bedroht Mann mit Messer", "url": "https://www.tagesschau.de/inland/regional/nordrheinwestfalen/wdr-sek-einsatz-bei-den-stadtwerken-in-bad-godesberg-100.html", "thumbnailUrl": "https://images.tagesschau.de/image/4dd339a0-1593-45ce-be77-92bff1fc67ac/AAABjtisc_c/AAABjcWesUg/16x9-512.jpg", "date": "2024-04-13T16:12:00.000+02:00", "lat": 50.6895, "lon": 7.1547, "intensity": 0.8, "source": "Tagesschau"}, {"title": "Blo\u00df keine Pandas umarmen", "url": "https://www.tagesschau.de/ausland/asien/scholz-china-reise-106.html", "thumbnailUrl": "https://images.tagesschau.de/image/411807f9-e509-4ab6-919c-c2dbc9a6d657/AAABjtfJmOI/AAABjcWesUg/16x9-512.jpg", "date": "2024-04-13T16:08:17.730+02:00", "lat": 39.9042, "lon": 116.4074, "intensity": 0.7, "source": "Tagesschau"}, {"title": "FDP-Landesparteitag in MV w\u00e4hlt neuen Vize-Landesvorsitzenden", "url": "https://www.tagesschau.de/inland/regional/mecklenburgvorpommern/ndr-fdp-landesparteitag-in-mv-waehlt-neuen-vize-landesvorsitzenden-100.html", "thumbnailUrl": "https://images.tagesschau.de/image/6e5f4505-231c-4321-bd29-0f9ecf71a9b4/AAABjtjH9hA/AAABjcWesUg/16x9-512.jpg", "date": "2024-04-13T16:02:00.000+02:00", "lat": 53.892, "lon": 11.462, "intensity": 0.5, "source": "Tagesschau"}, {"title": "Hund bellt und rettet Bewohner: Hoher Schaden bei Wohnhausbrand in Hofbieber", "url": "https://www.tagesschau.de/inland/regional/hessen/hr-einsatz-in-der-nacht-wohnung-in-hofbieber-ausgebrannt-100.html", "thumbnailUrl": "https://images.tagesschau.de/image/dbf56ee0-b72b-42a5-bec8-8919822c67d9/AAABjtfEG3k/AAABjcWesUg/16x9-512.jpg", "date": "2024-04-13T16:00:24.114+02:00", "lat": 50.4967, "lon": 9.7286, "intensity": 0.7, "source": "Tagesschau"}, {"title": "AfD beschlie\u00dft \"massive Abschiebungsinitiative\" f\u00fcr Wahlprogramm", "url": "https://www.tagesschau.de/inland/regional/brandenburg/rbb-landesparteitag-in-brandenburg-afd-beschliesst-massive-abschiebungsinitiative-fuer-wahlprogramm-100.html", "thumbnailUrl": "https://images.tagesschau.de/image/e78041c1-bf78-4f4e-8ffb-6b3837c78a21/AAABjtfCaF0/AAABjcWesUg/16x9-512.jpg", "date": "2024-04-13T15:58:22.000+02:00", "lat": 52.5013, "lon": 13.4805, "intensity": 0.7, "source": "Tagesschau"}, {"title": "R\u00fcckschlag im Champions-League-Rennen: Eintracht-Fu\u00dfballerinnen verlieren in Leverkusen", "url": "https://www.tagesschau.de/inland/regional/hessen/hr-rueckschlag-im-champions-league-rennen-eintracht-fussballerinnen-verlieren-in-leverkusen-102.html", "thumbnailUrl": "https://images.tagesschau.de/image/e83e546b-ab24-4667-b237-6569110eefd1/AAABjtfLanA/AAABjcWesUg/16x9-512.jpg", "date": "2024-04-13T15:55:33.680+02:00", "lat": 50.938361, "lon": 8.58925, "intensity": 0.7, "source": "Tagesschau"}, {"title": "Chancenlos in Unterhaching - VfB L\u00fcbeck kassiert 16. Saisonniederlage ", "url": "https://www.tagesschau.de/inland/regional/schleswigholstein/ndr-chancenlos-in-unterhaching-vfb-luebeck-kassiert-16-saisonniederlage-102.html", "thumbnailUrl": "https://images.tagesschau.de/image/dbbd9fe8-486f-4b90-b8dd-34af04e27712/AAABjtfRGMU/AAABjcWesUg/16x9-512.jpg", "date": "2024-04-13T15:55:00.000+02:00", "lat": 47.7806, "lon": 11.5667, "intensity": 0.8, "source": "Tagesschau"}, {"title": "Fahrlehrerverband in BW gibt Politik die Schuld an steigenden F\u00fchrerscheinkosten", "url": "https://www.tagesschau.de/inland/regional/badenwuerttemberg/swr-fahrlehrerverband-in-bw-gibt-politik-die-schuld-an-steigenden-fuehrerscheinkosten-100.html", "thumbnailUrl": "https://images.tagesschau.de/image/7a20062d-8e59-484a-8288-8f236e592552/AAABjte4_HM/AAABjcWesUg/16x9-512.jpg", "date": "2024-04-13T15:46:24.000+02:00", "lat": 48.7758, "lon": 9.3167, "intensity": 0.7, "source": "Tagesschau"}, {"title": "Vorerst doch kein begleitetes Fahren ab 16", "url": "https://www.tagesschau.de/inland/innenpolitik/fuehrerschein-16-jahre-100.html", "thumbnailUrl": "https://images.tagesschau.de/image/747ff25f-de8d-41f3-95b4-cbe85e10d29f/AAABhoBP3AU/AAABjcWesUg/16x9-512.jpg", "date": "2024-04-13T15:34:10.611+02:00", "lat": 53.5511, "lon": 9.9937, "intensity": 0.5, "source": "Tagesschau"}, {"title": "Nach Missbrauchsvorw\u00fcrfen: Freispruch f\u00fcr Ex-Jugendeinrichtungsleiter aus Raestrup", "url": "https://www.tagesschau.de/inland/regional/nordrheinwestfalen/wdr-nach-missbrauchsvorwuerfen-freispruch-fuer-ex-jugendeinrichtungsleiter-aus-raestrup-100.html", "thumbnailUrl": "https://images.tagesschau.de/image/2c8c659e-bf3f-48e6-90f3-e450a6acd64e/AAABjtgCHWY/AAABjcWesUg/16x9-512.jpg", "date": "2024-04-13T15:31:00.000+02:00", "lat": 51.9895, "lon": 7.8531, "intensity": 0.3, "source": "Tagesschau"}, {"title": "SV Elversberg will bei St. Pauli dem Klassenerhalt n\u00e4herkommen", "url": "https://www.tagesschau.de/inland/regional/saarland/sr-sv-elversberg-will-bei-st-pauli-dem-klassenerhalt-naeherkommen-100.html", "thumbnailUrl": "https://images.tagesschau.de/image/10055365-5e04-4640-8218-39b955b7c92d/AAABjteLNvc/AAABjcWesUg/16x9-512.jpg", "date": "2024-04-13T14:56:00.000+02:00", "lat": 53.5511, "lon": 9.9563, "intensity": 0.7, "source": "Tagesschau"}, {"title": "Der HSV hat Schnupfen: Baumgart muss vor Magdeburg-Spiel umbauen", "url": "https://www.tagesschau.de/inland/regional/hamburg/ndr-der-hsv-hat-schnupfen-baumgart-muss-vor-magdeburg-spiel-umbauen-102.html", "thumbnailUrl": "https://images.tagesschau.de/image/7c86d98d-7aff-4bc9-9b32-eb6d9a59db56/AAABjtat8Hg/AAABjcWesUg/16x9-512.jpg", "date": "2024-04-13T14:55:00.000+02:00", "lat": 53.5511, "lon": 9.9937, "intensity": 0.8, "source": "Tagesschau"}, {"title": "SV Wehen Wiesbaden verliert in Unterzahl gegen D\u00fcsseldorf", "url": "https://www.tagesschau.de/inland/regional/hessen/hr-sv-wehen-wiesbaden-verliert-in-unterzahl-gegen-duesseldorf-100.html", "thumbnailUrl": "https://images.tagesschau.de/image/7ea9c922-1d19-4000-be58-7da4959b57a3/AAABjteJd70/AAABjcWesUg/16x9-512.jpg", "date": "2024-04-13T14:54:38.635+02:00", "lat": 50.0461, "lon": 8.2486, "intensity": 0.8, "source": "Tagesschau"}, {"title": "Holstein Kiel besiegt Osnabr\u00fcck souver\u00e4n und springt auf Platz eins", "url": "https://www.tagesschau.de/inland/regional/schleswigholstein/ndr-holstein-kiel-besiegt-osnabrueck-souveraen-und-springt-auf-platz-eins-102.html", "thumbnailUrl": "https://images.tagesschau.de/image/6b25b96e-36e1-4eb6-bce6-82157da9753f/AAABjtesnSk/AAABjcWesUg/16x9-512.jpg", "date": "2024-04-13T14:54:00.000+02:00", "lat": 54.3213, "lon": 10.1391, "intensity": 0.8, "source": "Tagesschau"}, {"title": "Ausstellung sogenannter Gastarbeiter in Frankfurt: Wenn Schmerz, Heimweh und Hoffnung zu Kunst werden ", "url": "https://www.tagesschau.de/inland/regional/hessen/hr-ausstellung-sogenannter-gastarbeiter-in-frankfurt-wenn-schmerz-heimweh-und-hoffnung-zu-kunst-werden-100.html", "thumbnailUrl": "https://images.tagesschau.de/image/897e28e5-62f2-4d50-99db-78f32ecd850f/AAABjtd5DmM/AAABjcWesUg/16x9-512.jpg", "date": "2024-04-13T14:37:48.258+02:00", "lat": 50.1109, "lon": 8.6821, "intensity": 0.7, "source": "Tagesschau"}, {"title": "Ministerpr\u00e4sident besucht Synagoge nach Brandanschlag", "url": "https://www.tagesschau.de/inland/regional/niedersachsen/ndr-nach-brandanschlag-weil-besucht-synagoge-in-oldenburg-100.html", "thumbnailUrl": "https://images.tagesschau.de/image/05bab72c-d141-45b5-a168-39cf5fde6537/AAABjtd3hY0/AAABjcWesUg/16x9-512.jpg", "date": "2024-04-13T14:33:00.000+02:00", "lat": 53.1435, "lon": 8.2145, "intensity": 0.8, "source": "Tagesschau"}, {"title": "Entsetzen und die Suche nach dem Motiv ", "url": "https://www.tagesschau.de/ausland/ozeanien/sydney-angriff-tote-100.html", "thumbnailUrl": "https://images.tagesschau.de/image/acac434f-f15c-4853-af6e-3515c6eea64e/AAABjtdbYcs/AAABjcWesUg/16x9-512.jpg", "date": "2024-04-13T14:30:35.434+02:00", "lat": -33.8688, "lon": 151.2093, "intensity": 0.9, "source": "Tagesschau"}, {"title": "Studentenfutter und Rosinen wegen Schimmelpilzgift zur\u00fcckgerufen", "url": "https://www.tagesschau.de/inland/regional/saarland/sr-studentenfutter-und-rosinen-wegen-schimmelpilzgift-zurueckgerufen-100.html", "thumbnailUrl": "https://images.tagesschau.de/image/4d79a3e8-c610-414f-a0d3-8a1cdd66a2e1/AAABjteLHnA/AAABjcWesUg/16x9-512.jpg", "date": "2024-04-13T14:28:00.000+02:00", "lat": 49.3964, "lon": 7.0, "intensity": 0.7, "source": "Tagesschau"}, {"title": "Autofahrer erfasst Rollerfahrer - 85-J\u00e4hriger lebensgef\u00e4hrlich verletzt", "url": "https://www.tagesschau.de/inland/regional/berlin/rbb-autofahrer-erfasst-rollerfahrer-85-jaehriger-lebensgefaehrlich-verletzt-100.html", "thumbnailUrl": "https://images.tagesschau.de/image/c5874df8-c344-493f-85f0-3d3b4f70ce54/AAABjtdshZc/AAABjcWesUg/16x9-512.jpg", "date": "2024-04-13T14:24:02.000+02:00", "lat": 52.520008, "lon": 13.404954, "intensity": 0.8, "source": "Tagesschau"}, {"title": "Klo-Demo f\u00fcr \u00f6ffentliche Toilette in der Osterstra\u00dfe", "url": "https://www.tagesschau.de/inland/regional/hamburg/ndr-klo-demo-fuer-oeffentliche-toilette-in-der-osterstrasse-100.html", "thumbnailUrl": "https://images.tagesschau.de/image/c95cac73-b25f-4be9-955a-36d33a870e73/AAABjtdwE4Q/AAABjcWesUg/16x9-512.jpg", "date": "2024-04-13T14:24:00.000+02:00", "lat": 53.5816, "lon": 9.9576, "intensity": 0.6, "source": "Tagesschau"}, {"title": "Kontaktb\u00f6rse Supermarkt: Mit rosa Einkaufskorb die gro\u00dfe Liebe finden", "url": "https://www.tagesschau.de/inland/regional/bremen/rb-kontaktboerse-supermarkt-mit-rosa-einkaufskorb-die-grosse-liebe-finden-102.html", "thumbnailUrl": "https://images.tagesschau.de/image/c585602b-3058-4489-9ccd-1e77f07f3ae3/AAABjtdmidw/AAABjcWesUg/16x9-512.jpg", "date": "2024-04-13T14:13:00.000+02:00", "lat": 53.079296, "lon": 8.801694, "intensity": 0.7, "source": "Tagesschau"}, {"title": "Cottbus nach Sieg gegen GFC: \"So ein Publikum hat es dann auch irgendwann einfach verdient\"", "url": "https://www.tagesschau.de/inland/regional/brandenburg/rbb-cottbus-nach-sieg-gegen-gfc-so-ein-publikum-hat-es-dann-auch-irgendwann-einfach-verdient-102.html", "thumbnailUrl": "https://images.tagesschau.de/image/3727d1ae-b3e2-42e4-8469-ffb0f2ce5c3b/AAABjtdYH2A/AAABjcWesUg/16x9-512.jpg", "date": "2024-04-13T14:01:42.000+02:00", "lat": 51.769079, "lon": 14.335904, "intensity": 0.8, "source": "Tagesschau"}, {"title": "Streit eskaliert auf der Bremer A27: Dr\u00e4ngler zersticht Reifen", "url": "https://www.tagesschau.de/inland/regional/bremen/rb-draengler-bremst-senioren-auf-der-bremer-a27-aus-und-zersticht-reifen-100.html", "thumbnailUrl": "https://images.tagesschau.de/image/42578db1-18e4-428a-ae0f-1f8bd67a538c/AAABjtdUQ94/AAABjcWesUg/16x9-512.jpg", "date": "2024-04-13T13:57:00.000+02:00", "lat": 53.0793, "lon": 8.8017, "intensity": 0.8, "source": "Tagesschau"}, {"title": "Waffenfund im Neckar: LKA Stuttgart pr\u00fcft Zusammenhang mit Schuss-Serie", "url": "https://www.tagesschau.de/inland/regional/badenwuerttemberg/swr-waffenfund-im-neckar-lka-stuttgart-prueft-zusammenhang-mit-schuss-serie-100.html", "thumbnailUrl": "https://images.tagesschau.de/image/9026b6f2-b05a-4e0d-b932-b5e9ef852ce6/AAABjtdsDho/AAABjcWesUg/16x9-512.jpg", "date": "2024-04-13T13:52:55.000+02:00", "lat": 48.7758, "lon": 9.1829, "intensity": 0.7, "source": "Tagesschau"}, {"title": "Berlin-Charlottenburg: Siebenj\u00e4hriger bricht sich bei Verkehrsunfall das Bein", "url": "https://www.tagesschau.de/inland/regional/berlin/rbb-berlin-charlottenburg-siebenjaehriger-bricht-sich-bei-verkehrsunfall-das-bein-100.html", "thumbnailUrl": "https://images.tagesschau.de/image/6fd1b800-b677-40ad-a88b-10c6e8e0ffa9/AAABjtdshx8/AAABjcWesUg/16x9-512.jpg", "date": "2024-04-13T13:52:42.000+02:00", "lat": 52.5166, "lon": 13.3034, "intensity": 0.7, "source": "Tagesschau"}, {"title": "Appell zur Inklusion: \"Woche f\u00fcr das Leben 2024\" in R\u00fcdesheim er\u00f6ffnet", "url": "https://www.tagesschau.de/inland/regional/hessen/hr-appell-zur-inklusion-woche-fuer-das-leben-2024-in-ruedesheim-eroeffnet-100.html", "thumbnailUrl": "https://images.tagesschau.de/image/65287433-d24c-484e-98f4-8410f169dd8c/AAABjtcxm8Y/AAABjcWesUg/16x9-512.jpg", "date": "2024-04-13T13:20:46.452+02:00", "lat": 49.9831, "lon": 7.9268, "intensity": 0.8, "source": "Tagesschau"}, {"title": "Manuela Schwesig bleibt Landesvorsitzende der SPD in MV", "url": "https://www.tagesschau.de/inland/regional/mecklenburgvorpommern/ndr-wiedergewaehlt-schwesig-bleibt-an-der-spitze-der-landes-spd-100.html", "thumbnailUrl": "https://images.tagesschau.de/image/c5f38713-4d2e-4afd-ba79-f24ace666799/AAABjtekwq4/AAABjcWesUg/16x9-512.jpg", "date": "2024-04-13T13:18:00.000+02:00", "lat": 53.6127, "lon": 12.4964, "intensity": 0.6, "source": "Tagesschau"}, {"title": "Visbek: Millionenschaden nach Brand in S\u00e4gewerk", "url": "https://www.tagesschau.de/inland/regional/niedersachsen/ndr-visbek-millionenschaden-nach-brand-in-saegewerk-100.html", "thumbnailUrl": "https://images.tagesschau.de/image/8990e605-dccc-4a29-a1dd-e8ac26e87cea/AAABjtc80Oc/AAABjcWesUg/16x9-512.jpg", "date": "2024-04-13T13:15:00.000+02:00", "lat": 52.8976, "lon": 8.3691, "intensity": 0.8, "source": "Tagesschau"}, {"title": "Seniorin f\u00e4hrt mit Auto auf Bahn\u00fcbergang - Zugstrecke gesperrt", "url": "https://www.tagesschau.de/inland/regional/niedersachsen/ndr-seniorin-faehrt-mit-auto-auf-bahnuebergang-zugstrecke-gesperrt-100.html", "thumbnailUrl": "https://images.tagesschau.de/image/18028410-f938-4576-9bc5-11bc78317e62/AAABjtcjNW8/AAABjcWesUg/16x9-512.jpg", "date": "2024-04-13T13:03:00.000+02:00", "lat": 53.0481, "lon": 8.6317, "intensity": 0.7, "source": "Tagesschau"}, {"title": "Sechs Tote nach Messerangriff in Sydney", "url": "https://www.tagesschau.de/eilmeldung/australien-sydney-messerangriff-102.html", "thumbnailUrl": "https://images.tagesschau.de/image/ea22fe5a-d85c-4890-90f8-6f4ca30000db/AAABjtap6gg/AAABjcWesUg/16x9-512.jpg", "date": "2024-04-13T12:59:39.882+02:00", "lat": -33.8688, "lon": 151.2093, "intensity": 0.9, "source": "Tagesschau"}, {"title": "Sichere EM dank neuer \"Polizei-KI\"?", "url": "https://www.tagesschau.de/inland/gesellschaft/europa-meisterschaft-terrorgefahr-100.html", "thumbnailUrl": "https://images.tagesschau.de/image/92c47e76-36f1-4074-baeb-2014190c5179/AAABjtcZ9wM/AAABjcWesUg/16x9-512.jpg", "date": "2024-04-13T12:56:27.206+02:00", "lat": 51.1657, "lon": 10.4515, "intensity": 0.8, "source": "Tagesschau"}, {"title": "\"Desinformation\" und \"Panikmache\"", "url": "https://www.tagesschau.de/inland/innenpolitik/fahrverbote-debatte-wissing-100.html", "thumbnailUrl": "https://images.tagesschau.de/image/e6b36fd1-c4a3-4ffa-b85a-ac3eac68529a/AAABjtcVlpY/AAABjcWesUg/16x9-512.jpg", "date": "2024-04-13T12:51:40.353+02:00", "lat": 49.9935, "lon": 8.2394, "intensity": 0.7, "source": "Tagesschau"}, {"title": "Sonderburg setzt J\u00e4ger gegen M\u00f6wen ein - mit begrenztem Erfolg", "url": "https://www.tagesschau.de/inland/regional/schleswigholstein/ndr-sonderburg-setzt-jaeger-gegen-moewen-ein-mit-begrenztem-erfolg-100.html", "thumbnailUrl": "https://images.tagesschau.de/image/89431c68-e9bc-41b3-8a67-00026aa7f858/AAABjtbuBxE/AAABjcWesUg/16x9-512.jpg", "date": "2024-04-13T12:47:00.000+02:00", "lat": 54.9119, "lon": 9.7756, "intensity": 0.6, "source": "Tagesschau"}, {"title": "Ural erreicht neuen H\u00f6chststand", "url": "https://www.tagesschau.de/ausland/europa/russland-hochwasser-104.html", "thumbnailUrl": "https://images.tagesschau.de/image/d4e703b4-f5f4-41ef-a346-748cc9e55384/AAABjtcPvK4/AAABjcWesUg/16x9-512.jpg", "date": "2024-04-13T12:45:17.192+02:00", "lat": 55.09661, "lon": 51.768199, "intensity": 0.8, "source": "Tagesschau"}, {"title": "Berlin-Zehlendorf: Autofahrer prallt gegen Baum und fl\u00fcchtet zu Fu\u00df", "url": "https://www.tagesschau.de/inland/regional/berlin/rbb-berlin-zehlendorf-autofahrer-faehrt-fussgaenger-an-prallt-gegen-baum-und-fluechtet-zu-fuss-100.html", "thumbnailUrl": "https://images.tagesschau.de/image/0285d1ab-62f6-4479-bfd0-6eb3be25f898/AAABjtbi_UU/AAABjcWesUg/16x9-512.jpg", "date": "2024-04-13T12:44:20.000+02:00", "lat": 52.4371, "lon": 13.2467, "intensity": 0.6, "source": "Tagesschau"}, {"title": "Vollendung der A14: Teil der Elbbr\u00fccke bei Wittenberge wird verschoben", "url": "https://www.tagesschau.de/inland/regional/brandenburg/rbb-vollendung-der-a14-teil-der-elbbruecke-bei-wittenberge-wird-verschoben-100.html", "thumbnailUrl": "https://images.tagesschau.de/image/a5801afe-3b36-41a1-8c69-d8bb8df775ab/AAABjtcHdEI/AAABjcWesUg/16x9-512.jpg", "date": "2024-04-13T12:33:59.000+02:00", "lat": 53.0114, "lon": 11.7519, "intensity": 0.6, "source": "Tagesschau"}, {"title": "\"Sound of Cinema\" in Wadern und Saarbr\u00fccken", "url": "https://www.tagesschau.de/inland/regional/saarland/sr-sond-of-cinema-in-wadern-und-saarbruecken-100.html", "thumbnailUrl": "https://images.tagesschau.de/image/8d534427-4f39-4629-b327-64582fd5bb8e/AAABjtdLB-s/AAABjcWesUg/16x9-512.jpg", "date": "2024-04-13T12:23:00.000+02:00", "lat": 49.4326, "lon": 6.8737, "intensity": 0.8, "source": "Tagesschau"}, {"title": "Mannheimer BUGA-Gel\u00e4nde Spinelli wird wiederer\u00f6ffnet", "url": "https://www.tagesschau.de/inland/regional/badenwuerttemberg/swr-mannheimer-buga-gelaende-spinelli-wird-wiedereroeffnet-100.html", "thumbnailUrl": "https://images.tagesschau.de/image/64ee05e2-f474-4850-8575-09dc599c7538/AAABjteUWH4/AAABjcWesUg/16x9-512.jpg", "date": "2024-04-13T12:03:11.000+02:00", "lat": 49.4875, "lon": 8.4975, "intensity": 0.6, "source": "Tagesschau"}, {"title": "ELSA-Studie zeigt: Abtreibungen in Osthessen besonders schwer", "url": "https://www.tagesschau.de/inland/regional/hessen/hr-elsa-studie-zeigt-abtreibungen-in-osthessen-besonders-schwer-100.html", "thumbnailUrl": "https://images.tagesschau.de/image/aff2c362-f07a-406f-92de-98d837537d0a/AAABjtbkpXI/AAABjcWesUg/16x9-512.jpg", "date": "2024-04-13T11:56:49.424+02:00", "lat": 50.6998, "lon": 9.9252, "intensity": 0.7, "source": "Tagesschau"}, {"title": "Unfall im Einsatz: Polizeiwagen kollidiert mit Auto", "url": "https://www.tagesschau.de/inland/regional/niedersachsen/ndr-unfall-im-einsatz-streifenwagen-kollidiert-mit-auto-100.html", "thumbnailUrl": "https://images.tagesschau.de/image/c2e08556-9652-421b-9c72-e10b48b77cfa/AAABjtbjFGQ/AAABjcWesUg/16x9-512.jpg", "date": "2024-04-13T11:53:00.000+02:00", "lat": 52.8475, "lon": 7.9937, "intensity": 0.8, "source": "Tagesschau"}, {"title": "Wieso die Windkraft das Potenzial hat, \"die Gesellschaft zu spalten\"", "url": "https://www.tagesschau.de/inland/regional/badenwuerttemberg/swr-wieso-die-windkraft-das-potenzial-hat-die-gesellschaft-zu-spalten-100.html", "thumbnailUrl": "https://images.tagesschau.de/image/9062e4ef-cde5-4320-903f-301d18ceb890/AAABjtbV8Sk/AAABjcWesUg/16x9-512.jpg", "date": "2024-04-13T11:36:00.000+02:00", "lat": 48.8566, "lon": 9.3811, "intensity": 0.6, "source": "Tagesschau"}, {"title": "Deutlich mehr Unf\u00e4lle durch Schlagl\u00f6cher in Hamburg", "url": "https://www.tagesschau.de/inland/regional/hamburg/ndr-deutlich-mehr-unfaelle-durch-schlagloecher-in-hamburg-100.html", "thumbnailUrl": "https://images.tagesschau.de/image/bec0ee01-a976-4a99-8647-c11fb94ebdd5/AAABjtaM4EQ/AAABjcWesUg/16x9-512.jpg", "date": "2024-04-13T11:22:00.000+02:00", "lat": 53.5511, "lon": 9.9937, "intensity": 0.7, "source": "Tagesschau"}, {"title": "Pfalzgalerie in Kaiserslautern zeigt Pop Art", "url": "https://www.tagesschau.de/inland/regional/rheinlandpfalz/swr-pfalzgalerie-in-kaiserslautern-zeigt-pop-art-100.html", "thumbnailUrl": "https://images.tagesschau.de/image/fa1d1061-a489-431e-b41d-4292b8d73c15/AAABjtP7WmQ/AAABjcWesUg/16x9-512.jpg", "date": "2024-04-13T11:18:00.000+02:00", "lat": 49.4444, "lon": 7.7551, "intensity": 0.7, "source": "Tagesschau"}, {"title": "\u00dcbergangsrat in Haiti soll Weg aus der Krise finden", "url": "https://www.tagesschau.de/ausland/amerika/haiti-uebergangsrat-100.html", "thumbnailUrl": "https://images.tagesschau.de/image/a8e76268-4aa6-4bbc-bfc4-6696c17a1b25/AAABjta-AK0/AAABjcWesUg/16x9-512.jpg", "date": "2024-04-13T11:16:00.368+02:00", "lat": 18.594395, "lon": -72.285215, "intensity": 0.8, "source": "Tagesschau"}, {"title": "Holosolis plant gr\u00f6\u00dfte Solarzellen-Produktion Europas in Hambach", "url": "https://www.tagesschau.de/inland/regional/saarland/sr-holosolis-plant-groesste-solarzellen-produktion-europas-in-hambach-100.html", "thumbnailUrl": "https://images.tagesschau.de/image/d84d7ed1-5166-4f74-a2fc-b0db70780bcd/AAABjta6YJU/AAABjcWesUg/16x9-512.jpg", "date": "2024-04-13T11:06:00.000+02:00", "lat": 49.2356, "lon": 7.9449, "intensity": 0.8, "source": "Tagesschau"}, {"title": "Obstbaumbl\u00fcte in MV: Natur ist ihrer Zeit zwei Wochen voraus", "url": "https://www.tagesschau.de/inland/regional/mecklenburgvorpommern/ndr-obstbaumbluete-in-mv-natur-ist-ihrer-zeit-zwei-wochen-voraus-100.html", "thumbnailUrl": "https://images.tagesschau.de/image/47dfb315-134f-41fb-b2c5-032f7a3efe10/AAABjtbXr2o/AAABjcWesUg/16x9-512.jpg", "date": "2024-04-13T11:03:00.000+02:00", "lat": 53.6127, "lon": 13.3154, "intensity": 0.6, "source": "Tagesschau"}, {"title": "Viele offene Fragen bei der Wehrpflicht", "url": "https://www.tagesschau.de/inland/innenpolitik/wehrpflicht-bundeswehr-104.html", "thumbnailUrl": "https://images.tagesschau.de/image/ad5e8e6f-352f-4fdc-a506-243181ece2b8/AAABjmUdSAU/AAABjcWesUg/16x9-512.jpg", "date": "2024-04-13T11:00:24.372+02:00", "lat": 51.1657, "lon": 10.4515, "intensity": 0.6, "source": "Tagesschau"}, {"title": "A1 nach schwerem Unfall gesperrt: Lastwagen weicht riesigem Gewicht aus", "url": "https://www.tagesschau.de/inland/regional/nordrheinwestfalen/wdr-a1-nach-unfall-gesperrt-lastwagen-weicht-riesigem-gewicht-aus-100.html", "thumbnailUrl": "https://images.tagesschau.de/image/6d223f5e-1571-42d3-8c37-ec359ff5dbf3/AAABjtcByN8/AAABjcWesUg/16x9-512.jpg", "date": "2024-04-13T10:54:00.000+02:00", "lat": 51.1796, "lon": 7.2062, "intensity": 0.8, "source": "Tagesschau"}, {"title": "Alter Elbpark: Stadtteil-Vorschl\u00e4ge werden umgesetzt", "url": "https://www.tagesschau.de/inland/regional/hamburg/ndr-alter-elbpark-stadtteil-vorschlaege-werden-umgesetzt-100.html", "thumbnailUrl": "https://images.tagesschau.de/image/c2b7789e-a0c9-4c95-9dba-22ae8cad4dc5/AAABjtaxgiE/AAABjcWesUg/16x9-512.jpg", "date": "2024-04-13T10:48:00.000+02:00", "lat": 53.5511, "lon": 9.9797, "intensity": 0.6, "source": "Tagesschau"}, {"title": "T\u00f6dlicher Unfall bei Amstetten: 21-J\u00e4hriger prallt mit Auto gegen einen Baum", "url": "https://www.tagesschau.de/inland/regional/badenwuerttemberg/swr-toedlicher-unfall-bei-amstetten-21-jaehriger-prallt-mit-auto-gegen-einen-baum-100.html", "thumbnailUrl": "https://images.tagesschau.de/image/cc017639-2f2e-460a-976b-e45d483e7b3e/AAABjtap-Pw/AAABjcWesUg/16x9-512.jpg", "date": "2024-04-13T10:17:05.000+02:00", "lat": 48.4167, "lon": 9.9333, "intensity": 0.8, "source": "Tagesschau"}, {"title": "Schimmel im Ulmer M\u00fcnster: Was der Klimawandel damit zu tun hat", "url": "https://www.tagesschau.de/inland/regional/badenwuerttemberg/swr-schimmel-im-ulmer-muenster-was-der-klimawandel-damit-zu-tun-hat-100.html", "thumbnailUrl": "https://images.tagesschau.de/image/84c8c3ac-064e-4e1a-aef1-7d20dd01752c/AAABjtaJAPQ/AAABjcWesUg/16x9-512.jpg", "date": "2024-04-13T10:17:00.000+02:00", "lat": 48.4009, "lon": 9.9925, "intensity": 0.5, "source": "Tagesschau"}, {"title": "Drei M\u00e4nner schlagen auf Hundehalter ein - Polizei ermittelt", "url": "https://www.tagesschau.de/inland/regional/niedersachsen/ndr-drei-maenner-schlagen-auf-hundehalter-ein-polizei-ermittelt-100.html", "thumbnailUrl": "https://images.tagesschau.de/image/3f367bc1-0478-4c0f-873a-1bd3a7c1ba21/AAABjtaZ04k/AAABjcWesUg/16x9-512.jpg", "date": "2024-04-13T10:15:00.000+02:00", "lat": 51.1657, "lon": 10.4515, "intensity": 0.7, "source": "Tagesschau"}, {"title": "Solar-Module, die sich an den Bed\u00fcrfnissen der Pflanze ausrichten: Erste positive Erkenntnisse", "url": "https://www.tagesschau.de/inland/regional/badenwuerttemberg/swr-solar-module-die-sich-an-den-beduerfnissen-der-pflanze-ausrichten-erste-positive-erkenntnisse-100.html", "thumbnailUrl": "https://images.tagesschau.de/image/6c5a006d-8416-45ea-bc8a-2383577eef2b/AAABjtaFXLc/AAABjcWesUg/16x9-512.jpg", "date": "2024-04-13T10:11:00.000+02:00", "lat": 48.4167, "lon": 7.95, "intensity": 0.6, "source": "Tagesschau"}, {"title": "Mehrere Verletzte bei Messerangriff in Sydney", "url": "https://www.tagesschau.de/ausland/ozeanien/australien-sydney-messerangriff-100.html", "thumbnailUrl": "https://images.tagesschau.de/image/980a85e4-c054-4ab9-942c-0359743fb8bd/AAABjtZ945E/AAABjcWesUg/16x9-512.jpg", "date": "2024-04-13T10:05:58.716+02:00", "lat": -33.8688, "lon": 151.2093, "intensity": 0.8, "source": "Tagesschau"}, {"title": "Nah- und Fernverkehr erleben \"regelrechten Boom\"", "url": "https://www.tagesschau.de/wirtschaft/bahn-verkehrsrekord-100.html", "thumbnailUrl": "https://images.tagesschau.de/image/235892cf-542c-44f1-9b97-0d8f150c55aa/AAABjL8mHh4/AAABjcWesUg/16x9-512.jpg", "date": "2024-04-13T09:40:27.477+02:00", "lat": 51.531, "lon": 9.9864, "intensity": 0.8, "source": "Tagesschau"}, {"title": "A8 bei Neunkirchen bis Montagmorgen teilweise gesperrt", "url": "https://www.tagesschau.de/inland/regional/saarland/sr-a8-bei-neunkirchen-am-wochenende-teilweise-gesperrt-100.html", "thumbnailUrl": "https://images.tagesschau.de/image/96d93bcc-6e5b-44ce-a649-1a912353cc65/AAABjtCrd4g/AAABjcWesUg/16x9-512.jpg", "date": "2024-04-13T09:28:00.000+02:00", "lat": 49.3439, "lon": 7.19, "intensity": 0.6, "source": "Tagesschau"}, {"title": "\u201eNat\u00fcrlich, mit Geschichte\u201c", "url": "https://www.tagesschau.de/inland/regional/saarland/sr-natuerlich-mit-geschichte-100.html", "thumbnailUrl": "https://images.tagesschau.de/image/18f60f87-8197-4a8c-9a45-fa0716727c25/AAABjtZXf5A/AAABjcWesUg/16x9-512.jpg", "date": "2024-04-13T09:23:00.000+02:00", "lat": 49.3964, "lon": 6.9469, "intensity": 0.5, "source": "Tagesschau"}, {"title": "H\u00f6chste Saisonpleite: Hansa Rostock geht bei Hertha BSC unter", "url": "https://www.tagesschau.de/inland/regional/mecklenburgvorpommern/ndr-hoechste-saisonpleite-hansa-rostock-geht-bei-hertha-bsc-unter-100.html", "thumbnailUrl": "https://images.tagesschau.de/image/8189b89b-78aa-41af-af4d-e11509303794/AAABjtOYbus/AAABjcWesUg/16x9-512.jpg", "date": "2024-04-13T09:14:00.000+02:00", "lat": 52.5219, "lon": 13.3087, "intensity": 0.8, "source": "Tagesschau"}, {"title": "SSC Schwerin: Heute erstes Duell um die Deutsche Meisterschaft", "url": "https://www.tagesschau.de/inland/regional/mecklenburgvorpommern/ndr-ssc-schwerin-heute-erstes-duell-um-die-deutsche-meisterschaft-100.html", "thumbnailUrl": "https://images.tagesschau.de/image/6c7d94d9-49be-46b2-a8d8-0bf05999b609/AAABjtgsSsc/AAABjcWesUg/16x9-512.jpg", "date": "2024-04-13T09:11:00.000+02:00", "lat": 53.6297, "lon": 11.4067, "intensity": 0.8, "source": "Tagesschau"}, {"title": "Kulturzentrum Commune in Saarbr\u00fccken er\u00f6ffnet", "url": "https://www.tagesschau.de/inland/regional/saarland/sr-commune-eroeffnet-am-samstag-in-saarbruecken-100.html", "thumbnailUrl": "https://images.tagesschau.de/image/a44bd584-0aaa-4b04-92f7-efbe35262ef6/AAABjseQlMo/AAABjcWesUg/16x9-512.jpg", "date": "2024-04-13T09:08:00.000+02:00", "lat": 49.2354, "lon": 6.9804, "intensity": 0.7, "source": "Tagesschau"}, {"title": "Radfahrer wird in Bremen von Stra\u00dfenbahn erfasst und stirbt", "url": "https://www.tagesschau.de/inland/regional/niedersachsen/ndr-radfahrer-wird-in-bremen-von-strassenbahn-erfasst-und-stirbt-100.html", "thumbnailUrl": "https://images.tagesschau.de/image/5e3fb2b5-dece-4be8-b0f8-0c7f81e99f96/AAABjtZFmzE/AAABjcWesUg/16x9-512.jpg", "date": "2024-04-13T09:02:00.000+02:00", "lat": 53.0793, "lon": 8.7676, "intensity": 0.8, "source": "Tagesschau"}, {"title": "Messe in Homburg informiert \u00fcber Lebensqualit\u00e4t im Alter", "url": "https://www.tagesschau.de/inland/regional/saarland/sr-messe-in-homburg-informiert-ueber-lebensqualitaet-im-alter-100.html", "thumbnailUrl": "https://images.tagesschau.de/image/47e4710e-23c3-422d-8ccf-5b81e9150666/AAABjtOd3os/AAABjcWesUg/16x9-512.jpg", "date": "2024-04-13T08:56:00.000+02:00", "lat": 49.322013, "lon": 7.314857, "intensity": 0.6, "source": "Tagesschau"}, {"title": "Orchester im Treppenhaus mit musikalischer Wochenend-Auszeit", "url": "https://www.tagesschau.de/inland/regional/niedersachsen/ndr-orchester-im-treppenhaus-mit-musikalischer-wochenend-auszeit-100.html", "thumbnailUrl": "https://images.tagesschau.de/image/cda9c4bc-76ab-454a-a6e7-2aa5eba36205/AAABjtb5FMM/AAABjcWesUg/16x9-512.jpg", "date": "2024-04-13T08:46:00.000+02:00", "lat": 52.3759, "lon": 9.732, "intensity": 0.6, "source": "Tagesschau"}, {"title": "Kommentar: \"Westfield \u00dcberseequartier\" - keine Erfolgsgeschichte", "url": "https://www.tagesschau.de/inland/regional/hamburg/ndr-kommentar-westfield-ueberseequartier-keine-erfolgsgeschichte-102.html", "thumbnailUrl": "https://images.tagesschau.de/image/e914140f-47e2-4d5c-9626-9982ed099818/AAABjtYxZH0/AAABjcWesUg/16x9-512.jpg", "date": "2024-04-13T08:40:00.000+02:00", "lat": 53.542984, "lon": 9.993682, "intensity": 0.7, "source": "Tagesschau"}, {"title": "Kunststoff aus Biom\u00fcll: Zufallsentdeckung aus Gie\u00dfen k\u00f6nnte die Plastikindustrie revolutionieren", "url": "https://www.tagesschau.de/inland/regional/hessen/hr-kunststoff-aus-biomuell-zufallsentdeckung-aus-giessen-koennte-die-plastikindustrie-revolutionieren-100.html", "thumbnailUrl": "https://images.tagesschau.de/image/7b3e8851-451f-4b4e-bd42-f176c9602d64/AAABjtYoJUU/AAABjcWesUg/16x9-512.jpg", "date": "2024-04-13T08:30:41.076+02:00", "lat": 50.5822, "lon": 8.6843, "intensity": 0.8, "source": "Tagesschau"}, {"title": "Spionageskandal wird zur Staatsaff\u00e4re", "url": "https://www.tagesschau.de/ausland/europa/oesterreich-marsalek-spionagering-100.html", "thumbnailUrl": "https://images.tagesschau.de/image/d690c2b6-c60b-4abc-8173-a986ee13c5d1/AAABjp7H-1I/AAABjcWesUg/16x9-512.jpg", "date": "2024-04-13T08:20:44.973+02:00", "lat": 47.0707, "lon": 15.3222, "intensity": 0.8, "source": "Tagesschau"}, {"title": "Herthas 4:0-Sieg gegen Rostock in der Analyse: Wie ein Aufsteiger", "url": "https://www.tagesschau.de/inland/regional/berlin/rbb-herthas-40-sieg-gegen-rostock-in-der-analyse-wie-ein-aufsteiger-102.html", "thumbnailUrl": "https://images.tagesschau.de/image/1f3bf225-41fb-40e8-a183-ad78d17f572f/AAABjtYvtqM/AAABjcWesUg/16x9-512.jpg", "date": "2024-04-13T08:19:54.000+02:00", "lat": 52.520008, "lon": 13.404954, "intensity": 0.8, "source": "Tagesschau"}, {"title": "Fahrrad-Diebstahl in Berlin: \"Wer sein Fahrrad liebt, sollte sich ein Schloss mit Sicherheitsstufe zehn kaufen\"", "url": "https://www.tagesschau.de/inland/regional/berlin/rbb-fahrrad-diebstahl-in-berlin-wer-sein-fahrrad-liebt-sollte-sich-ein-schloss-mit-sicherheitsstufe-zehn-kaufen-100.html", "thumbnailUrl": "https://images.tagesschau.de/image/7f925772-18f2-41c8-aca7-04a847cc1372/AAABjtYvneg/AAABjcWesUg/16x9-512.jpg", "date": "2024-04-13T08:18:59.000+02:00", "lat": 52.520008, "lon": 13.404954, "intensity": 0.8, "source": "Tagesschau"}, {"title": "Leitantrag zum Wahlprogramm: Brandenburger AfD fordert mehr Abschiebung und Geburtenf\u00f6rderung ", "url": "https://www.tagesschau.de/inland/regional/brandenburg/rbb-leitantrag-zum-wahlprogramm-brandenburger-afd-fordert-mehr-abschiebung-und-geburtenfoerderung-100.html", "thumbnailUrl": "https://images.tagesschau.de/image/2a1f3a69-c193-4abe-8455-dc4e1260074f/AAABjtfCa1A/AAABjcWesUg/16x9-512.jpg", "date": "2024-04-13T08:18:18.000+02:00", "lat": 51.9959, "lon": 13.1509, "intensity": 0.8, "source": "Tagesschau"}, {"title": "Fachkr\u00e4ftemangel: Fahrradwerkst\u00e4tten suchen dringend Personal", "url": "https://www.tagesschau.de/inland/regional/niedersachsen/ndr-fachkraeftemangel-fahrradwerkstaetten-suchen-dringend-personal-100.html", "thumbnailUrl": "https://images.tagesschau.de/image/383f763b-f0fd-47f2-8644-091d999b7736/AAABjtYbgzI/AAABjcWesUg/16x9-512.jpg", "date": "2024-04-13T08:13:00.000+02:00", "lat": 52.6367, "lon": 9.7533, "intensity": 0.6, "source": "Tagesschau"}, {"title": "Wird heute der Traum wahr?", "url": "https://www.tagesschau.de/inland/mittendrin/leverkusen-meisterschaft-100.html", "thumbnailUrl": "https://images.tagesschau.de/image/d46eb3e9-990a-4ff4-8f15-2c49982e334a/AAABjtYH_ds/AAABjcWesUg/16x9-512.jpg", "date": "2024-04-13T07:57:12.075+02:00", "lat": 51.045, "lon": 7.004262, "intensity": 0.8, "source": "Tagesschau"}, {"title": "Noch bis Mittwoch: IC Berlin-Rostock muss umgeleitet werden", "url": "https://www.tagesschau.de/inland/regional/mecklenburgvorpommern/ndr-noch-bis-mittwoch-ic-berlin-rostock-muss-umgeleitet-werden-100.html", "thumbnailUrl": "https://images.tagesschau.de/image/ff09c357-4049-40f7-95d4-62aa4d4f7d0b/AAABjtYib8Q/AAABjcWesUg/16x9-512.jpg", "date": "2024-04-13T07:54:00.000+02:00", "lat": 52.52, "lon": 13.4061, "intensity": 0.8, "source": "Tagesschau"}, {"title": "Guten Morgen, NRW!", "url": "https://www.tagesschau.de/inland/regional/nordrheinwestfalen/wdr-guten-morgen-nrw-444.html", "thumbnailUrl": "https://images.tagesschau.de/image/098658a6-f91b-4185-8ead-80c1c0fc8365/AAABjtYBa6Q/AAABjcWesUg/16x9-512.jpg", "date": "2024-04-13T07:47:00.000+02:00", "lat": 51.045, "lon": 7.0203, "intensity": 0.3, "source": "Tagesschau"}, {"title": "Parteitags-Wochenende: SPD w\u00e4hlt Schwesig, CDU setzt auf Peters", "url": "https://www.tagesschau.de/inland/regional/mecklenburgvorpommern/ndr-parteitags-wochenende-spd-waehlt-schwesig-cdu-setzt-auf-peters-100.html", "thumbnailUrl": "https://images.tagesschau.de/image/4b6f09df-7b76-46d6-903b-358974fa1c44/AAABjtjH64M/AAABjcWesUg/16x9-512.jpg", "date": "2024-04-13T07:38:00.000+02:00", "lat": 53.612, "lon": 13.444, "intensity": 0.7, "source": "Tagesschau"}, {"title": "Freibad und Riesen-Rutsche im Salinarium Bad D\u00fcrkheim machen auf", "url": "https://www.tagesschau.de/inland/regional/rheinlandpfalz/swr-freibad-und-riesen-rutsche-im-salinarium-bad-duerkheim-machen-auf-100.html", "thumbnailUrl": "https://images.tagesschau.de/image/b3647bc7-bee2-40f0-a52e-caa1ba4de46e/AAABjtezahQ/AAABjcWesUg/16x9-512.jpg", "date": "2024-04-13T07:10:02.000+02:00", "lat": 49.4564, "lon": 8.1812, "intensity": 0.6, "source": "Tagesschau"}, {"title": "Stra\u00dfenmagazin \"Hinz&Kunzt\": Verkaufszahlen brechen ein", "url": "https://www.tagesschau.de/inland/regional/hamburg/ndr-strassenmagazin-hinzkunzt-verkaufszahlen-brechen-ein-100.html", "thumbnailUrl": "https://images.tagesschau.de/image/d5b3dac2-02b9-4dc4-a062-a53a26c3d127/AAABjtYQZx8/AAABjcWesUg/16x9-512.jpg", "date": "2024-04-13T07:07:00.000+02:00", "lat": 53.5511, "lon": 9.9937, "intensity": 0.7, "source": "Tagesschau"}, {"title": "Bildungsreform in BW: Sprachf\u00f6rderung soll rund 400 Millionen Euro pro Jahr kosten", "url": "https://www.tagesschau.de/inland/regional/badenwuerttemberg/swr-spitzen-von-gruenen-und-cdu-bw-entscheiden-ueber-millionenschwere-bildungsreformen-100.html", "thumbnailUrl": "https://images.tagesschau.de/image/a029e53f-8da2-4d40-aae2-d65f27533827/AAABjtW4PNg/AAABjcWesUg/16x9-512.jpg", "date": "2024-04-13T07:02:00.000+02:00", "lat": 48.7758, "lon": 9.1895, "intensity": 0.8, "source": "Tagesschau"}, {"title": "Gr\u00fcner Strom statt Atom? Die Energiewende und ihre T\u00fccken", "url": "https://www.tagesschau.de/inland/regional/badenwuerttemberg/swr-gruener-strom-statt-atom-die-energiewende-und-ihre-tuecken-100.html", "thumbnailUrl": "https://images.tagesschau.de/image/9dd44cfb-b763-4191-b794-f2e3ca27b3f9/AAABjtXOOO0/AAABjcWesUg/16x9-512.jpg", "date": "2024-04-13T06:41:18.000+02:00", "lat": 48.9382, "lon": 9.0455, "intensity": 0.6, "source": "Tagesschau"}, {"title": "Sozialwohnungen: Hamburg meldet Erfolg mit F\u00f6rderprogramm", "url": "https://www.tagesschau.de/inland/regional/hamburg/ndr-sozialwohnungen-hamburg-meldet-erfolg-mit-foerderprogramm-100.html", "thumbnailUrl": "https://images.tagesschau.de/image/843556bb-b878-4e09-b8e5-ceb7960f62a4/AAABjtXzHY8/AAABjcWesUg/16x9-512.jpg", "date": "2024-04-13T06:30:00.000+02:00", "lat": 53.551085, "lon": 9.993682, "intensity": 0.6, "source": "Tagesschau"}, {"title": "Ex-Staatschef Zuma vor Comeback?", "url": "https://www.tagesschau.de/ausland/afrika/suedafrika-zuma-comeback-100.html", "thumbnailUrl": "https://images.tagesschau.de/image/a32e9499-2cc0-4335-ae81-92675cec0455/AAABjs3yT0Y/AAABjcWesUg/16x9-512.jpg", "date": "2024-04-13T06:00:16.229+02:00", "lat": -26.204103, "lon": 28.047305, "intensity": 0.8, "source": "Tagesschau"}, {"title": "Landesparteitag der FDP: Holt Henning H\u00f6ne diesmal mehr Stimmen?", "url": "https://www.tagesschau.de/inland/regional/nordrheinwestfalen/wdr-landesparteitag-der-fdp-holt-henning-hoene-diesmal-mehr-stimmen-100.html", "thumbnailUrl": "https://images.tagesschau.de/image/0eed1e5b-b81b-45aa-be56-c0d24c01db93/AAABjtXnzx4/AAABjcWesUg/16x9-512.jpg", "date": "2024-04-13T06:00:00.000+02:00", "lat": 51.4344, "lon": 6.7744, "intensity": 0.7, "source": "Tagesschau"}, {"title": "HVO100: Kommt jetzt der saubere Dieselkraftstoff?", "url": "https://www.tagesschau.de/inland/regional/rheinlandpfalz/swr-hvo100-kommt-jetzt-der-saubere-dieselkraftstoff-100.html", "thumbnailUrl": "https://images.tagesschau.de/image/a4ac4f3b-6ac9-4d7a-9f56-f154c309f888/AAABjtWVf54/AAABjcWesUg/16x9-512.jpg", "date": "2024-04-13T05:51:20.000+02:00", "lat": 49.8175, "lon": 7.5935, "intensity": 0.6, "source": "Tagesschau"}, {"title": "Wie Hunde auch an der Leine zufrieden sein k\u00f6nnen", "url": "https://www.tagesschau.de/inland/regional/schleswigholstein/ndr-wie-hunde-auch-an-der-leine-zufrieden-sein-koennen-100.html", "thumbnailUrl": "https://images.tagesschau.de/image/0e090920-6da4-44a5-b46f-ad9d359ba60f/AAABjtcdpNU/AAABjcWesUg/16x9-512.jpg", "date": "2024-04-13T05:00:00.000+02:00", "lat": 54.8583, "lon": 8.7167, "intensity": 0.4, "source": "Tagesschau"}, {"title": "++ USA verst\u00e4rken Milit\u00e4rpr\u00e4senz im Nahen Osten ++", "url": "https://www.tagesschau.de/newsticker/liveblog-nahost-freitag-126.html", "thumbnailUrl": "https://images.tagesschau.de/image/c88e0de3-a41f-4214-b846-6cb8916a98cc/AAABh3O4er8/AAABjcWesUg/16x9-512.jpg", "date": "2024-04-13T02:01:28.164+02:00", "lat": 31.0461, "lon": 35.8439, "intensity": 0.9, "source": "Tagesschau"}, {"title": "Millionen Menschen im Sudan droht der Hungertod", "url": "https://www.tagesschau.de/ausland/afrika/sudan-kamepfe-100.html", "thumbnailUrl": "https://images.tagesschau.de/image/740c092a-a9a5-48dc-931a-f1aa8401f954/AAABjtS6wrw/AAABjcWesUg/16x9-512.jpg", "date": "2024-04-13T01:57:29.067+02:00", "lat": 12.8628, "lon": 30.2176, "intensity": 0.8, "source": "Tagesschau"}, {"title": "Biden erwartet baldigen Angriff des Irans", "url": "https://www.tagesschau.de/ausland/amerika/biden-warnung-iran-100.html", "thumbnailUrl": "https://images.tagesschau.de/image/2005ded8-860b-45f4-9302-c232746126ee/AAABjtRzaCI/AAABjcWesUg/16x9-512.jpg", "date": "2024-04-13T00:35:17.222+02:00", "lat": 35.689506, "lon": 51.183884, "intensity": 0.8, "source": "Tagesschau"}, {"title": "A7 bei Rendsburg bis Montag gesperrt", "url": "https://www.tagesschau.de/inland/regional/schleswigholstein/ndr-a7-im-april-an-zwei-wochenenden-teilweise-voll-gesperrt-100.html", "thumbnailUrl": "https://images.tagesschau.de/image/c94e1b76-ddf3-408c-b9fd-92bae2df40ee/AAABjtl7wUM/AAABjcWesUg/16x9-512.jpg", "date": "2024-04-13T00:01:00.000+02:00", "lat": 54.2994, "lon": 9.6477, "intensity": 0.7, "source": "Tagesschau"}, {"title": "Israels Heimatschutz gibt vorerst Entwarnung", "url": "https://www.br.de/nachrichten/meldungen/index.html#n1", "thumbnailUrl": null, "date": "2024-04-14T03:29:11+02:00", "lat": 30.0444, "lon": 31.2357, "intensity": 0.8, "source": "Bayrischer Rundfunk"}, {"title": "Bundeskanzler Scholz verurteilt iranischen Angriff scharf", "url": "https://www.br.de/nachrichten/meldungen/index.html#n2", "thumbnailUrl": null, "date": "2024-04-14T03:29:11+02:00", "lat": 33.5138, "lon": 36.2021, "intensity": 0.8, "source": "Bayrischer Rundfunk"}, {"title": "USA verst\u00e4rken angesichts iranischer Bedrohung Milit\u00e4rpr\u00e4senz im Nahen Osten", "url": "https://www.br.de/nachrichten/meldungen/index.html#n3", "thumbnailUrl": null, "date": "2024-04-14T03:29:11+02:00", "lat": 39.9334, "lon": 32.8597, "intensity": 0.8, "source": "Bayrischer Rundfunk"}, {"title": "Einreise-Verbot gegen prominente Redner nach Pal\u00e4stina-Kongress", "url": "https://www.br.de/nachrichten/meldungen/index.html#n4", "thumbnailUrl": null, "date": "2024-04-14T03:29:11+02:00", "lat": 52.520008, "lon": 13.404954, "intensity": 0.7, "source": "Bayrischer Rundfunk"}, {"title": "Selenskyj bedankt sich f\u00fcr dritte Patriot-Lieferung Deutschlands", "url": "https://www.br.de/nachrichten/meldungen/index.html#n5", "thumbnailUrl": null, "date": "2024-04-14T03:29:11+02:00", "lat": 52.520008, "lon": 13.404954, "intensity": 0.6, "source": "Bayrischer Rundfunk"}, {"title": "Rettungsaktion nach Seilbahnungl\u00fcck in der T\u00fcrkei erfolgreich", "url": "https://www.br.de/nachrichten/meldungen/index.html#n6", "thumbnailUrl": null, "date": "2024-04-14T03:29:11+02:00", "lat": 48.135125, "lon": 11.581981, "intensity": 0.6, "source": "Bayrischer Rundfunk"}, {"title": "Rotes Kreuz fordert Aufmerksamkeit f\u00fcr Krise im Sudan", "url": "https://www.br.de/nachrichten/meldungen/index.html#n7", "thumbnailUrl": null, "date": "2024-04-14T03:29:11+02:00", "lat": 50.110922, "lon": 8.682127, "intensity": 0.8, "source": "Bayrischer Rundfunk"}, {"title": "Bundesliga: Bayern und Stuttgart gewinnen und bleiben Leverkusen auf den Fersen", "url": "https://www.br.de/nachrichten/meldungen/index.html#n8", "thumbnailUrl": null, "date": "2024-04-14T03:29:11+02:00", "lat": 47.8684, "lon": 12.6394, "intensity": 0.8, "source": "Bayrischer Rundfunk"}, {"title": "Olympia-Teilnahme der Handball-Frauen ist perfekt", "url": "https://www.br.de/nachrichten/meldungen/index.html#n9", "thumbnailUrl": null, "date": "2024-04-14T03:29:11+02:00", "lat": 48.5844, "lon": 13.6722, "intensity": 0.8, "source": "Bayrischer Rundfunk"}, {"title": "Das Wetter in Bayern: In der Nacht \u00fcberwiegend klar bei Tiefstwerten bis acht Grad", "url": "https://www.br.de/nachrichten/meldungen/index.html#n10", "thumbnailUrl": null, "date": "2024-04-14T03:29:11+02:00", "lat": 53.5396, "lon": 8.5761, "intensity": 0.4, "source": "Bayrischer Rundfunk"}, {"title": "Hunderte demonstrieren nach Aufl\u00f6sung des \"Pal\u00e4stina-Kongresses\" in Berlin", "url": "https://www.rbb24.de/panorama/beitrag/2024/04/palaestina-kongress-berlin-proteste-polizei-demonstrationen.html", "thumbnailUrl": null, "date": "Sat, 13 Apr 2024 21:17:17 +0200", "lat": 52.517036, "lon": 13.38886, "intensity": 0.8, "source": "RBB"}, {"title": "Eine Tote bei Zusammensto\u00df zwischen Auto und Zug an Bahn\u00fcbergang", "url": "https://www.rbb24.de/panorama/beitrag/2024/04/brandenburg-bestensee-unfall-zug-toter.html", "thumbnailUrl": null, "date": "Sat, 13 Apr 2024 20:45:16 +0200", "lat": 52.25, "lon": 13.642, "intensity": 0.8, "source": "RBB"}, {"title": "Video | Training von freiwilligen Helfern f\u00fcr den Einsatz in Gaza", "url": "https://www.rbb24.de/panorama/beitrag/av7/video-ausbildung-gaza-freiwillige-verein-cadus-berlin.html", "thumbnailUrl": null, "date": "Sat, 13 Apr 2024 20:22:04 +0200", "lat": 31.5276, "lon": 34.4505, "intensity": 0.7, "source": "RBB"}, {"title": "Landtagswahl Brandenburg: SPD-Parteitag w\u00e4hlt Woidke mit 97 Prozent der Stimmen zum Spitzenkandidaten", "url": "https://www.rbb24.de/politik/wahl/Landtagswahl/2024/woidke-spd-brandenburg-spitzenkandidat-landtagswahl.html", "thumbnailUrl": null, "date": "Sat, 13 Apr 2024 20:22:00 +0200", "lat": 52.52, "lon": 13.405, "intensity": 0.8, "source": "RBB"}, {"title": "Final Four in K\u00f6ln: F\u00fcchse Berlin verlieren Pokal-Halbfinale gegen Magdeburg nach katastrophalem Start", "url": "https://www.rbb24.de/sport/beitrag/2024/04/handball-dhb-pokal-halbfinale-koeln-fuechse-berlin-sc-magdeburg-gidsel.html", "thumbnailUrl": null, "date": "Sat, 13 Apr 2024 18:29:00 +0200", "lat": 50.9375, "lon": 6.9603, "intensity": 0.7, "source": "RBB"}, {"title": "Waldbrand bei Ferch ausgebrochen", "url": "https://www.rbb24.de/panorama/beitrag/2024/04/waldbrand-ferch-potsdam-mittelmark-feuerwehr.html", "thumbnailUrl": null, "date": "Sat, 13 Apr 2024 17:43:09 +0200", "lat": 52.4233, "lon": 12.9541, "intensity": 0.8, "source": "RBB"}, {"title": "Interview | Radtour f\u00fcr obdachlose Menschen: \"Das Fr\u00fchst\u00fcck ist das eine, aber die langen Gespr\u00e4che sind viel wichtiger\"", "url": "https://www.rbb24.de/panorama/beitrag/2024/04/berlin-interview-obdachlose-wohnungslose-radtour-stephan-may.html", "thumbnailUrl": null, "date": "Sat, 13 Apr 2024 17:35:54 +0200", "lat": 52.520008, "lon": 13.404954, "intensity": 0.7, "source": "RBB"}, {"title": "#Wiegehtesuns | Schulleiter aus Burg (Spreewald): \"Es gibt Kollegen, die sagen, n\u00f6, die unterrichte ich nicht mehr. Kann ja auch keine L\u00f6sung sein\"", "url": "https://www.rbb24.de/panorama/thema/wiegehtesuns/brandenburg-burg-spreewald-rechtsextremismus-schulleiter-markus-mandel.html", "thumbnailUrl": null, "date": "Sat, 13 Apr 2024 17:12:59 +0200", "lat": 51.8418, "lon": 13.9871, "intensity": 0.8, "source": "RBB"}, {"title": "AfD beschlie\u00dft \"massive Abschiebungsinitiative\" f\u00fcr Wahlprogramm", "url": "https://www.rbb24.de/politik/wahl/Landtagswahl/2024/brandenburg-afd-wahlprogramm-landesparteitag.html", "thumbnailUrl": null, "date": "Sat, 13 Apr 2024 15:58:00 +0200", "lat": 52.520008, "lon": 13.404954, "intensity": 0.7, "source": "RBB"}, {"title": "Autofahrer erfasst Rollerfahrer - 85-J\u00e4hriger lebensgef\u00e4hrlich verletzt", "url": "https://www.rbb24.de/panorama/beitrag/2024/04/autofahrer-unfall-rollerfahrer-berlin-reinickendorf.html", "thumbnailUrl": null, "date": "Sat, 13 Apr 2024 14:24:02 +0200", "lat": 52.520008, "lon": 13.404954, "intensity": 0.8, "source": "RBB"}, {"title": "Cottbus nach Sieg gegen GFC: \"So ein Publikum hat es dann auch irgendwann einfach verdient\"", "url": "https://www.rbb24.de/sport/beitrag/2024/04/fussball-regionalliga-nordost-energie-cottbus-greifswald-.html", "thumbnailUrl": null, "date": "Sat, 13 Apr 2024 14:01:00 +0200", "lat": 51.7611, "lon": 14.3256, "intensity": 0.8, "source": "RBB"}, {"title": "Berlin-Charlottenburg: Siebenj\u00e4hriger bricht sich bei Verkehrsunfall das Bein", "url": "https://www.rbb24.de/panorama/beitrag/2024/04/berlin-charlottenburg-unfall-kind-verletzt.html", "thumbnailUrl": null, "date": "Sat, 13 Apr 2024 13:52:42 +0200", "lat": 52.516, "lon": 13.305, "intensity": 0.4, "source": "RBB"}, {"title": "Berlin-Zehlendorf: Autofahrer prallt gegen Baum und fl\u00fcchtet zu Fu\u00df", "url": "https://www.rbb24.de/panorama/beitrag/2024/04/berlin-zehlendorf-unfall-fahrerflucht-fussgaenger-verletzt.html", "thumbnailUrl": null, "date": "Sat, 13 Apr 2024 12:44:20 +0200", "lat": 52.4298, "lon": 13.2529, "intensity": 0.6, "source": "RBB"}, {"title": "Vollendung der A14: Teil der Elbbr\u00fccke bei Wittenberge wird verschoben", "url": "https://www.rbb24.de/panorama/beitrag/2024/04/bruecke-elbe-wittenberge-autobahn-a14-verschiebung.html", "thumbnailUrl": null, "date": "Sat, 13 Apr 2024 12:33:59 +0200", "lat": 52.9996, "lon": 11.808, "intensity": 0.6, "source": "RBB"}, {"title": "Herthas 4:0-Sieg gegen Rostock in der Analyse: Wie ein Aufsteiger", "url": "https://www.rbb24.de/sport/beitrag/2024/04/berlin-sport-fussball-hertha-bsc-hansa-rostock-zeefuik-dardai-analyse.html", "thumbnailUrl": null, "date": "Sat, 13 Apr 2024 08:19:00 +0200", "lat": 52.52, "lon": 13.4332, "intensity": 0.8, "source": "RBB"}, {"title": "Fahrrad-Diebstahl in Berlin: ADFC r\u00e4t zu Sicherheitsschloss Stufe 10", "url": "https://www.rbb24.de/wirtschaft/beitrag/2024/04/fahrrad-diebstahl-berlin-schloss-knacken-sicherheit-adfc.html", "thumbnailUrl": null, "date": "Sat, 13 Apr 2024 08:18:00 +0200", "lat": 52.520008, "lon": 13.404954, "intensity": 0.7, "source": "RBB"}, {"title": "Feuer in Germendorf (Oberhavel) f\u00fchrt zu starker Rauchentwicklung", "url": "https://www.rbb24.de/panorama/beitrag/2024/04/brandenburg-brand-germendorf-oberhavel-rauchentwicklung.html", "thumbnailUrl": null, "date": "Fri, 12 Apr 2024 22:46:00 +0200", "lat": 52.7146, "lon": 13.2242, "intensity": 0.8, "source": "RBB"}, {"title": "0:2-Niederlage: Union Berlin entt\u00e4uscht beim FC Augsburg auf ganzer Linie", "url": "https://www.rbb24.de/sport/beitrag/2024/04/fussball-bundesliga-1-fc-union-berlin-fc-augsburg-audiostream-liveticker-spielbericht.html", "thumbnailUrl": null, "date": "Fri, 12 Apr 2024 22:23:00 +0200", "lat": 48.3653, "lon": 10.8978, "intensity": 0.7, "source": "RBB"}, {"title": "Basketball-Playoffs: Alba-Frauen erk\u00e4mpfen sich zweiten Halbfinal-Sieg", "url": "https://www.rbb24.de/sport/beitrag/2024/04/basketball-frauen-playoffs-halbfinale-spiel-zwei-alba-berlin-gisa-lions-mbc-halle.html", "thumbnailUrl": null, "date": "Fri, 12 Apr 2024 22:10:00 +0200", "lat": 52.5075, "lon": 13.3847, "intensity": 0.7, "source": "RBB"}, {"title": "4:0 gegen Hansa Rostock: Spielfreudige Hertha siegt und schielt doch noch nach oben", "url": "https://www.rbb24.de/sport/beitrag/2024/04/fussball-2-liga-hertha-bsc-hansa-rostock-liveticker-audiostream-spielbericht.html", "thumbnailUrl": null, "date": "Fri, 12 Apr 2024 21:43:00 +0200", "lat": 54.1095, "lon": 13.1167, "intensity": 0.8, "source": "RBB"}, {"title": "Video | Produktion in Wildau: Innovative Leuchttechnologie f\u00fcr den Alltag", "url": "https://www.rbb24.de/panorama/beitrag/av7/video-brandenburg-wildau-inuru-oled-leuchten-produktion-.html", "thumbnailUrl": null, "date": "Fri, 12 Apr 2024 21:39:38 +0200", "lat": 52.3225, "lon": 13.6231, "intensity": 0.7, "source": "RBB"}, {"title": "Entgleiste Lok: Strecke zwischen Oranienburg und Berlin bleibt bis Mittwoch unterbrochen", "url": "https://www.rbb24.de/panorama/beitrag/2024/04/brandenburg-oberhavel-birkenwerder-entgleiste-lok-strecke-bis-mittwoch-unterbrochen-sev.html", "thumbnailUrl": null, "date": "Fri, 12 Apr 2024 21:29:43 +0200", "lat": 52.7519, "lon": 13.2463, "intensity": 0.8, "source": "RBB"}, {"title": "Video | Berlin-Lichtenberg: Unterk\u00fcnfte f\u00fcr Gefl\u00fcchtete, statt lange versprochener Schule", "url": "https://www.rbb24.de/panorama/beitrag/av7/video-berlin-hohenschoenhausen-pankow-gefluechtetenheim-schule.html", "thumbnailUrl": null, "date": "Fri, 12 Apr 2024 21:02:00 +0200", "lat": 52.5108, "lon": 13.4901, "intensity": 0.6, "source": "RBB"}, {"title": "S\u00e4nger Frank Zander feiert R\u00fcckkehr ins Berliner Olympiastadion", "url": "https://www.rbb24.de/panorama/beitrag/2024/04/berlin-frank-zander-rueckkehr-olympiastadion-hertha-bsc.html", "thumbnailUrl": null, "date": "Fri, 12 Apr 2024 20:22:08 +0200", "lat": 52.5145, "lon": 13.2506, "intensity": 0.3, "source": "RBB"}, {"title": "Dorfanwohner protestieren gegen Pl\u00e4ne f\u00fcr 250 Meter hohe Windr\u00e4der", "url": "https://www.rbb24.de/panorama/beitrag/2024/04/boernicke-windrad-250-meter-hoch-protest-anwohner.html", "thumbnailUrl": null, "date": "Fri, 12 Apr 2024 19:06:12 +0200", "lat": 51.541218, "lon": 7.450033, "intensity": 0.7, "source": "RBB"}, {"title": "BrandenburgTrend: Bev\u00f6lkerung ist beim Thema Wachstum der Tesla-Fabrik in Gr\u00fcnheide gespalten", "url": "https://www.rbb24.de/politik/beitrag/2024/04/brandenburgtrend-politik-tesla-wachstum-umfrage-wahlen-gruenheide.html", "thumbnailUrl": null, "date": "Fri, 12 Apr 2024 18:00:00 +0200", "lat": 52.4426, "lon": 13.6363, "intensity": 0.6, "source": "RBB"}, {"title": "Nach Kabelbrand wochenlang unterbrochen: U6 f\u00e4hrt ab Montag wieder bis zum Kurt-Schumacher-Platz", "url": "https://www.rbb24.de/panorama/beitrag/2024/04/berlin-u6-unterbrochen-kabelbrand-reperaturarbeiten-abgeschlosse.html", "thumbnailUrl": null, "date": "Fri, 12 Apr 2024 15:49:00 +0200", "lat": 52.5822, "lon": 13.2988, "intensity": 0.7, "source": "RBB"}, {"title": "Nach Gefahrenhinweis: Polizeieinsatz an Berliner Schule beendet", "url": "https://www.rbb24.de/panorama/beitrag/2024/04/berlin-marzahn-mann-mit-waffe-schule.html", "thumbnailUrl": null, "date": "Fri, 12 Apr 2024 15:38:00 +0200", "lat": 52.520008, "lon": 13.404954, "intensity": 0.5, "source": "RBB"}, {"title": "Vorfall an Lichtenberger Br\u00fccke: Stein auf S-Bahn geworfen - Zeugen gesucht", "url": "https://www.rbb24.de/panorama/beitrag/2024/04/berlin-lichtenberger-bruecke-unbekannter-wirft-stein-auf-sbahn-zeugen-gesucht.html", "thumbnailUrl": null, "date": "Fri, 12 Apr 2024 15:34:00 +0200", "lat": 52.53333, "lon": 13.48306, "intensity": 0.7, "source": "RBB"}, {"title": "In eigener Sache: Katrin G\u00fcnther wird neue rbb-Programmdirektorin", "url": "https://www.rbb24.de/panorama/beitrag/2024/04/rbb-programmdirektion-katrin-guenther-rundfunkrat-wahl-berlin-brandenburg.html", "thumbnailUrl": null, "date": "Fri, 12 Apr 2024 11:10:53 +0200", "lat": 52.5166, "lon": 13.3574, "intensity": 0.3, "source": "RBB"}, {"title": "Volleyball: Netzhoppers verk\u00fcnden Abgang von Trainer Kolevich und f\u00fcnf Spielern", "url": "https://www.rbb24.de/sport/beitrag/2024/04/volleyball-bundesliga-netzhoppers-koenigs-wusterhausen-abgang-trainer-alejandro-kolevich-spieler.html", "thumbnailUrl": null, "date": "Fri, 12 Apr 2024 10:35:00 +0200", "lat": 52.3228, "lon": 13.2444, "intensity": 0.5, "source": "RBB"}, {"title": "Jahresabschl\u00fcsse der Bezirke: Lichtenberg wirtschaftet besonders gut, gr\u00f6\u00dftes Defizit in Pankow", "url": "https://www.rbb24.de/politik/beitrag/2024/04/berlin-bezirke-jahresueberschuss-zuweisungen-senat-pankow-lichtenberg.html", "thumbnailUrl": null, "date": "Fri, 12 Apr 2024 10:29:00 +0200", "lat": 52.5325, "lon": 13.5124, "intensity": 0.7, "source": "RBB"}, {"title": "Erinnerung im Belower Wald: Gedenken an NS-Todesmarsch bei Wittstock", "url": "https://www.rbb24.de/politik/beitrag/2024/04/gedenkstaette-konzentrationslager-brandenburg-befreiung-nationalsozialismus-opfer-ns-todesmarsch.html", "thumbnailUrl": null, "date": "Fri, 12 Apr 2024 09:10:00 +0200", "lat": 53.1593, "lon": 12.2201, "intensity": 0.6, "source": "RBB"}, {"title": "Basketball: Alba Berlin verliert zum Abschluss der Euroleague", "url": "https://www.rbb24.de/sport/beitrag/2024/04/basketball-euroleague-alba-berlin-panathinaikos-athen.html", "thumbnailUrl": null, "date": "Thu, 11 Apr 2024 22:34:07 +0200", "lat": 52.534, "lon": 13.407, "intensity": 0.7, "source": "RBB"}, {"title": "Video | Denkmalgerechter Umbau: Hochschule will Wohnungen bauen", "url": "https://www.rbb24.de/panorama/beitrag/av7/video-berlin-hochschule-wohnungsbau-gutachten-baumassnahme-denkmalschutz.html", "thumbnailUrl": null, "date": "Thu, 11 Apr 2024 21:20:56 +0200", "lat": 52.52, "lon": 13.405, "intensity": 0.4, "source": "RBB"}, {"title": "Video | Frankfurt (Oder): Kein Neubau wegen R\u00fcckbaupr\u00e4mien?", "url": "https://www.rbb24.de/panorama/beitrag/av7/video-frankfurt-wohnungen-abgerissen-neubau.html", "thumbnailUrl": null, "date": "Thu, 11 Apr 2024 21:20:24 +0200", "lat": 52.34, "lon": 14.553, "intensity": 0.6, "source": "RBB"}, {"title": "Gegen Protest der Bauern: Verkaufsstopp f\u00fcr staatliche Agrarfl\u00e4chen in Ostdeutschland ist beschlossen", "url": "https://www.rbb24.de/politik/beitrag/2024/04/ostdeutschland-verkaufsstopp-agrar-flaechen-acker-wald-besitz-bund.html", "thumbnailUrl": null, "date": "Thu, 11 Apr 2024 21:14:00 +0200", "lat": 52.520008, "lon": 13.404954, "intensity": 0.7, "source": "RBB"}, {"title": "Wagenknecht-Partei BSW gr\u00fcndet Ende Mai Brandenburger Landesverband", "url": "https://www.rbb24.de/politik/beitrag/2024/04/brandenburg-buendnis-sahra-wagenknecht-bsw-partei-landesverband-gruendung.html", "thumbnailUrl": null, "date": "Thu, 11 Apr 2024 18:10:17 +0200", "lat": 52.3728, "lon": 13.08, "intensity": 0.4, "source": "RBB"}, {"title": "Streit um Hauptstadtzulage: Viele Berliner Kitas blieben am Donnerstag geschlossen - Freie Tr\u00e4ger demonstrieren", "url": "https://www.rbb24.de/wirtschaft/beitrag/2024/04/berlin-zahlreiche-kitas-donnerstag-geschlossen-freie-traeger-protestaktion-mehr-geld-hauptstadtzulage.html", "thumbnailUrl": null, "date": "Thu, 11 Apr 2024 17:37:05 +0200", "lat": 52.520008, "lon": 13.404954, "intensity": 0.7, "source": "RBB"}, {"title": "Beschluss des Stadtparlaments: Stra\u00dfe \"Zu den drei Mohren\" in Potsdam wird umbenannt", "url": "https://www.rbb24.de/panorama/beitrag/2024/04/potsdam-zu-den-drei-mohren-strasse-umbenennung.html", "thumbnailUrl": null, "date": "Thu, 11 Apr 2024 17:13:00 +0200", "lat": 52.3906, "lon": 13.0645, "intensity": 0.7, "source": "RBB"}, {"title": "Umbenennung in Audre-Lorde-Stra\u00dfe: Berliner Manteuffelstra\u00dfe soll im Mai neuen Namen tragen", "url": "https://www.rbb24.de/panorama/beitrag/2024/04/berlin-friedrichshain-kreuzberg-manteuffelstrasse-umbenennung-audre-lorde.html", "thumbnailUrl": null, "date": "Thu, 11 Apr 2024 16:59:09 +0200", "lat": 52.4881, "lon": 13.3763, "intensity": 0.4, "source": "RBB"}, {"title": "Video | Ende des Ramadans: Beeskower Muslime feiern Zuckerfest", "url": "https://www.rbb24.de/panorama/beitrag/av7/video-brandenburg-muslimischer-fastenmonat-ramadan-endet-mit-zuckerfest-beeskow.html", "thumbnailUrl": null, "date": "Wed, 10 Apr 2024 21:24:07 +0200", "lat": 52.1796, "lon": 13.8977, "intensity": 0.5, "source": "RBB"}, {"title": "Video | Testphase f\u00fcr Prototyp beginnt: Frankfurt (Oder) erh\u00e4lt erste neue Stra\u00dfenbahn in 30 Jahren", "url": "https://www.rbb24.de/panorama/beitrag/av7/video-brandenburg-neue-strassenbahn-frankfurt-oder-prototyp-zug.html", "thumbnailUrl": null, "date": "Wed, 10 Apr 2024 21:20:20 +0200", "lat": 52.341939, "lon": 14.553405, "intensity": 0.7, "source": "RBB"}, {"title": "Video | Erziehermangel: Wie Kitas Personall\u00fccken mit Zeitarbeitern stopfen", "url": "https://www.rbb24.de/panorama/beitrag/av7/video-zeitarbeit-kita-kinder-erzieherin.html", "thumbnailUrl": null, "date": "Wed, 10 Apr 2024 20:37:25 +0200", "lat": 53.5511, "lon": 9.9937, "intensity": 0.7, "source": "RBB"}, {"title": "Hannover im Marathon-Fieber - Petros und Mayer DM-Favoriten", "url": "https://www.ndr.de/sport/mehr_sport/Hannover-im-Marathon-Fieber-Petros-und-Mayer-DM-Favoriten,hannovermarathon930.html", "thumbnailUrl": "https://www.ndr.de/sport/mehr_sport/petros110_v-contentwidescreen.jpg", "date": "2024-04-14T01:14:50.024+02:00", "lat": 52.3759, "lon": 9.7332, "intensity": 0.8, "source": "NDR"}, {"title": "Krieg in Nahost: Iran startet Vergeltungsschlag gegen Israel", "url": "https://www.tagesschau.de/", "thumbnailUrl": "https://www.ndr.de/nachrichten/info/iran590_v-contentwidescreen.jpg", "date": "2024-04-14T02:11:52.952+02:00", "lat": 51.389, "lon": 35.6895, "intensity": 0.8, "source": "NDR"}, {"title": "Bauarbeiten auf der A7 - mehrere Sperrungen am Wochenende", "url": "https://www.ndr.de/nachrichten/niedersachsen/lueneburg_heide_unterelbe/Bauarbeiten-auf-der-A7-mehrere-Sperrungen-am-Wochenende,sperrung774.html", "thumbnailUrl": "https://www.ndr.de/nachrichten/niedersachsen/baustelle1066_v-contentwidescreen.jpg", "date": "2024-04-13T22:16:29.026+02:00", "lat": 53.5511, "lon": 10.0733, "intensity": 0.8, "source": "NDR"}, {"title": "Gro\u00dfeinsatz: Acht Menschen bei Feuer in Wiesmoor verletzt", "url": "https://www.ndr.de/nachrichten/niedersachsen/oldenburg_ostfriesland/Grosseinsatz-Acht-Menschen-bei-Feuer-in-Wiesmoor-verletzt,wiesmoor194.html", "thumbnailUrl": "https://www.ndr.de/nachrichten/niedersachsen/oldenburg_ostfriesland/wiesmoor200_v-contentwidescreen.jpg", "date": "2024-04-13T19:34:42.365+02:00", "lat": 53.2645, "lon": 7.7186, "intensity": 0.8, "source": "NDR"}, {"title": "Erneuter Wolfsriss in der N\u00e4he von Redderstorf", "url": "https://www.ndr.de/nachrichten/mecklenburg-vorpommern/Erneuter-Wolfsriss-in-der-Naehe-von-Redderstorf,wolfsriss156.html", "thumbnailUrl": "https://www.ndr.de/nachrichten/mecklenburg-vorpommern/wolfsriss158_v-contentwidescreen.jpg", "date": "2024-04-13T18:58:08.408+02:00", "lat": 53.595, "lon": 11.452, "intensity": 0.8, "source": "NDR"}, {"title": "Kiel: Blindg\u00e4nger in Schwentine wird heute entsch\u00e4rft", "url": "https://www.ndr.de/nachrichten/schleswig-holstein/Kiel-Blindgaenger-in-Schwentine-wird-heute-entschaerft,bombe4212.html", "thumbnailUrl": "https://www.ndr.de/nachrichten/schleswig-holstein/bombenentschaerfung586_v-contentwidescreen.jpg", "date": "2024-04-14T00:00:00.340+02:00", "lat": 54.3222, "lon": 10.1266, "intensity": 0.8, "source": "NDR"}, {"title": "Manuela Schwesig bleibt Landesvorsitzende der SPD in MV", "url": "https://www.ndr.de/nachrichten/mecklenburg-vorpommern/Manuela-Schwesig-bleibt-Landesvorsitzende-der-SPD-in-MV,spd2086.html", "thumbnailUrl": "https://www.ndr.de/nachrichten/mecklenburg-vorpommern/schwesig1332_v-contentwidescreen.jpg", "date": "2024-04-13T20:37:24.318+02:00", "lat": 53.628, "lon": 12.092, "intensity": 0.8, "source": "NDR"}, {"title": "Daniel Peters \u00fcbernimmt Parteispitze der Landes-CDU in MV", "url": "https://www.ndr.de/nachrichten/mecklenburg-vorpommern/Daniel-Peters-uebernimmt-Parteispitze-der-Landes-CDU-in-MV,cdu1864.html", "thumbnailUrl": "https://www.ndr.de/nachrichten/mecklenburg-vorpommern/peters404_v-contentwidescreen.jpg", "date": "2024-04-13T20:41:19.765+02:00", "lat": 53.6127, "lon": 12.5665, "intensity": 0.8, "source": "NDR"}, {"title": "\"Letzte Generation\": Neue Blockade-Aktion in Hamburg", "url": "https://www.ndr.de/nachrichten/hamburg/Letzte-Generation-Neue-Blockade-Aktion-in-Hamburg,letztegeneration514.html", "thumbnailUrl": "https://www.ndr.de/fernsehen/screenshot1732060_v-contentwidescreen.jpg", "date": "2024-04-13T19:59:59.973+02:00", "lat": 53.5511, "lon": 9.9418, "intensity": 0.7, "source": "NDR"}, {"title": "Unfall im Einsatz: Polizeiwagen kollidiert mit Auto", "url": "https://www.ndr.de/nachrichten/niedersachsen/oldenburg_ostfriesland/Unfall-im-Einsatz-Polizeiwagen-kollidiert-mit-Auto,polizeiwagen156.html", "thumbnailUrl": "https://www.ndr.de/nachrichten/niedersachsen/oldenburg_ostfriesland/polizei7054_v-contentwidescreen.jpg", "date": "2024-04-13T11:55:05.430+02:00", "lat": 52.666, "lon": 7.9745, "intensity": 0.8, "source": "NDR"}, {"title": "Deutlich mehr Unf\u00e4lle durch Schlagl\u00f6cher in Hamburg", "url": "https://www.ndr.de/nachrichten/hamburg/Deutlich-mehr-Unfaelle-durch-Schlagloecher-in-Hamburg,schlagloecher234.html", "thumbnailUrl": "https://www.ndr.de/nachrichten/hamburg/schlagloch508_v-contentwidescreen.jpg", "date": "2024-04-13T11:22:46.012+02:00", "lat": 53.5511, "lon": 9.9937, "intensity": 0.8, "source": "NDR"}, {"title": "Gro\u00df\u00fcbung im Emstunnel: Feuerwehr trainiert f\u00fcr Brandfall", "url": "https://www.ndr.de/fernsehen/sendungen/hallo_niedersachsen/Grossuebung-im-Emstunnel-Feuerwehr-trainiert-fuer-Brandfall,hallonds86900.html", "thumbnailUrl": "https://www.ndr.de/fernsehen/screenshot1732156_v-contentwidescreen.jpg", "date": "2024-04-13T20:29:44.016+02:00", "lat": 53.419184, "lon": 7.628155, "intensity": 0.8, "source": "NDR"}, {"title": "Obstbaumbl\u00fcte in MV: Natur ist ihrer Zeit zwei Wochen voraus", "url": "https://www.ndr.de/fernsehen/sendungen/nordmagazin/Obstbaumbluete-in-MV-Natur-ist-ihrer-Zeit-zwei-Wochen-voraus,nordmagazin117228.html", "thumbnailUrl": "https://www.ndr.de/fernsehen/screenshot1732314_v-contentwidescreen.jpg", "date": "2024-04-13T21:47:25.862+02:00", "lat": 53.6127, "lon": 12.1487, "intensity": 0.8, "source": "NDR"}, {"title": "Gr\u00fcne diskutieren in Oldenburg \u00fcber Europapolitik", "url": "https://www.ndr.de/fernsehen/sendungen/hallo_niedersachsen/Gruene-diskutieren-in-Oldenburg-ueber-Europapolitik,hallonds86902.html", "thumbnailUrl": "https://www.ndr.de/fernsehen/screenshot1732176_v-contentwidescreen.jpg", "date": "2024-04-13T21:52:53.018+02:00", "lat": 53.14345, "lon": 8.215358, "intensity": 0.5, "source": "NDR"}, {"title": "Technoclub \"S\u00fcdpol\" in Hammerbrook feiert zehnten Geburtstag", "url": "https://www.ndr.de/fernsehen/sendungen/hamburg_journal/Technoclub-Suedpol-in-Hammerbrook-feiert-10-Geburtstag,hamj146064.html", "thumbnailUrl": "https://www.ndr.de/fernsehen/screenshot1732256_v-contentwidescreen.jpg", "date": "2024-04-13T20:56:03.973+02:00", "lat": 53.543446, "lon": 10.016634, "intensity": 0.7, "source": "NDR"}, {"title": "Br\u00fcckenarbeiten sorgen f\u00fcr Sperrung auf A7 bei Rendsburg", "url": "https://www.ndr.de/fernsehen/sendungen/schleswig-holstein_magazin/Brueckenarbeiten-sorgen-fuer-Sperrung-auf-A7-bei-Rendsburg,shmag115472.html", "thumbnailUrl": "https://www.ndr.de/fernsehen/screenshot1732146_v-contentwidescreen.jpg", "date": "2024-04-13T19:44:55.249+02:00", "lat": 54.2964, "lon": 9.6667, "intensity": 0.5, "source": "NDR"}, {"title": "SPD w\u00e4hlt Schwesig erneut zur Landesvorsitzenden", "url": "https://www.ndr.de/fernsehen/sendungen/nordmagazin/SPD-waehlt-Schwesig-erneut-zur-Landesvorsitzenden,nordmagazin117210.html", "thumbnailUrl": "https://www.ndr.de/fernsehen/screenshot1732284_v-contentwidescreen.jpg", "date": "2024-04-13T20:40:32.292+02:00", "lat": 53.6167, "lon": 12.7286, "intensity": 0.8, "source": "NDR"}, {"title": "Jetzt anmelden: Workshops zum Tag der Pressefreiheit", "url": "https://www.ndr.de/ratgeber/medienkompetenz/Jetzt-anmelden-Workshops-zum-Tag-der-Pressefreiheit,tdpressefreiheit100.html", "thumbnailUrl": "https://www.ndr.de/ratgeber/medienkompetenz/pressefreiheit418_v-contentwidescreen.jpg", "date": "2024-04-11T12:50:59.616+02:00", "lat": 53.5511, "lon": 10.0103, "intensity": 0.3, "source": "NDR"}, {"title": "\"W\u00fcnsch Dir Deinen NDR\" - Jetzt f\u00fcr die Publikumsaktion bewerben!", "url": "https://www.ndr.de/wuensch_dir_deinen_ndr/index.html", "thumbnailUrl": "https://www.ndr.de/der_ndr/wunschprogramm131_v-contentwidescreen.jpg", "date": "2024-04-10T15:15:28.747+02:00", "lat": 53.551086, "lon": 9.993682, "intensity": 0.2, "source": "NDR"}, {"title": "Relaunch der vier NDR L\u00e4nder-Apps: Nachrichten aus Ihrer Region!", "url": "https://www.ndr.de/Relaunch-der-vier-NDR-Laender-Apps-Nachrichten-aus-Ihrer-Region,laenderapprelaunch100.html", "thumbnailUrl": "https://www.ndr.de/laenderapprelaunch102_v-contentwidescreen.jpg", "date": "2024-03-19T09:22:34.719+01:00", "lat": 53.8659, "lon": 9.8606, "intensity": 0.4, "source": "NDR"}, {"title": "Gaspreis Dashboard", "url": "https://www.ndr.de/home/gaspreis176.html", "thumbnailUrl": null, "date": "2023-04-06T14:49:06.409+02:00", "lat": 51.3426, "lon": 9.9976, "intensity": 0.7, "source": "NDR"}, {"title": "NDR Radioprogramme", "url": "https://www.ndr.de/radio/radiologobox100.html", "thumbnailUrl": null, "date": "2020-12-01T14:04:26.700+01:00", "lat": 53.5511, "lon": 9.9937, "intensity": 0.3, "source": "NDR"}, {"title": "Krieg und Terror - Die Lage im Nahen Osten und in der Ukraine", "url": "https://www.ndr.de/nachrichten/info/podcast5342.html", "thumbnailUrl": "https://www.ndr.de/nachrichten/info/podcastbild412_v-contentwidescreen.jpg", "date": "2024-04-13T16:53:04.615+02:00", "lat": 46.79651, "lon": 30.739834, "intensity": 0.8, "source": "NDR"}, {"title": "Die Ern\u00e4hrungs-Docs - Essen als Medizin", "url": "https://www.ndr.de/fernsehen/sendungen/die-ernaehrungsdocs/audio-podcast/index.html", "thumbnailUrl": "https://www.ndr.de/fernsehen/sendungen/die-ernaehrungsdocs/podcastbild338_v-contentwidescreen.jpg", "date": "2024-04-10T08:00:11.160+02:00", "lat": 53.5511, "lon": 9.9876, "intensity": 0.3, "source": "NDR"}, {"title": "Unsere Comedy \"Die Kur-Oase\"!", "url": "https://www.ndr.de/ndr2/podcasts/podcast5816.html", "thumbnailUrl": "https://www.ndr.de/ndr2/podcasts/podcast5812_v-contentwidescreen.jpg", "date": "2024-04-12T07:15:07.605+02:00", "lat": 54.9069, "lon": 8.7386, "intensity": 0.2, "source": "NDR"}, {"title": "Organisiertes Verbrechen - Recherchen im Verborgenen", "url": "https://www.ndr.de/nachrichten/info/podcast4992.html", "thumbnailUrl": "https://www.ndr.de/nachrichten/info/podcastbildov100_v-contentwidescreen.jpg", "date": "2024-03-01T06:00:27.490+01:00", "lat": 45.9432, "lon": 24.9668, "intensity": 0.8, "source": "NDR"}, {"title": "eat.READ.sleep. B\u00fccher f\u00fcr dich", "url": "https://www.ndr.de/kultur/sendungen/eat_read_sleep/index.html", "thumbnailUrl": "https://www.ndr.de/mediathek/podcastbild434_v-contentwidescreen.jpg", "date": "2024-04-12T06:00:31.991+02:00", "lat": 53.5511, "lon": 9.9937, "intensity": 0.2, "source": "NDR"}, {"title": "Killed in Action: Afghanistan - Mission ohne Ziel", "url": "https://www.ndr.de/nachrichten/info/sendungen/podcast4574.html", "thumbnailUrl": "https://www.ndr.de/nachrichten/info/podcasts/podcastbild478_v-contentwidescreen.jpg", "date": "2024-02-16T17:44:01.214+01:00", "lat": 33.9391, "lon": 66.2385, "intensity": 0.8, "source": "NDR"}, {"title": "Streitkr\u00e4fte und Strategien", "url": "https://www.ndr.de/nachrichten/info/podcast2998.html", "thumbnailUrl": "https://www.ndr.de/mediathek/mediathekbild652_v-contentwidescreen.jpg", "date": "2024-04-12T15:35:16.518+02:00", "lat": 53.5511, "lon": 9.9937, "intensity": 0.8, "source": "NDR"}, {"title": "Standpunkte", "url": "https://www.ndr.de/nachrichten/info/podcast4700.html", "thumbnailUrl": "https://www.ndr.de/mediathek/podcast5332_v-contentwidescreen.jpg", "date": "2024-04-13T00:00:22.360+02:00", "lat": 53.5511, "lon": 9.9937, "intensity": 0.5, "source": "NDR"}, {"title": "Mein Einsatz - der Feuerwehr-Podcast von NDR Niedersachsen", "url": "https://www.ndr.de/ndr1niedersachsen/podcast5774.html", "thumbnailUrl": "https://www.ndr.de/ndr1niedersachsen/podcasts/podcastbild364_v-contentwidescreen.jpg", "date": "2024-04-11T04:00:07.819+02:00", "lat": 52.3759, "lon": 9.7345, "intensity": 0.7, "source": "NDR"}, {"title": "\"Feel Hamburg\" - alle Folgen", "url": "https://www.ndr.de/903/podcasts/podcast5108.html", "thumbnailUrl": "https://www.ndr.de/mediathek/mediathekbild514_v-contentwidescreen.jpg", "date": "2024-04-09T15:20:56.109+02:00", "lat": 53.55, "lon": 10.0, "intensity": 0.4, "source": "NDR"}, {"title": "Intensiv-Station - Satire von NDR Info", "url": "https://www.ndr.de/nachrichten/info/podcast4274.html", "thumbnailUrl": "https://www.ndr.de/nachrichten/info/programm/intensivstation3272_v-contentwidescreen.jpg", "date": "2024-04-08T21:21:32.487+02:00", "lat": 54.3706, "lon": 10.5038, "intensity": 0.8, "source": "NDR"}, {"title": "Amerika, wir m\u00fcssen reden!", "url": "https://www.ndr.de/nachrichten/info/podcast4932.html", "thumbnailUrl": "https://www.ndr.de/nachrichten/info/podcastbild488_v-contentwidescreen.jpg", "date": "2024-04-03T18:15:10.308+02:00", "lat": 39.78373, "lon": -100.445882, "intensity": 0.7, "source": "NDR"}, {"title": "Ab Montag neue Streiks im \u00d6PNV", "url": "https://www1.wdr.de/nachrichten/streik-nahverkehr-102.html", "thumbnailUrl": null, "date": "2024-04-13T18:05:21Z", "lat": 51.9607, "lon": 7.6279, "intensity": 0.8, "source": "WDR"}, {"title": "Wie Islamisten TikTok nutzen, um Jugendliche zu radikalisieren", "url": "https://www1.wdr.de/nachrichten/radikalisierung-auf-social-media-100.html", "thumbnailUrl": null, "date": "2024-04-13T18:57:18Z", "lat": 51.476082, "lon": 7.5885761, "intensity": 0.7, "source": "WDR"}, {"title": "So bereitet sich Leverkusen auf den Meistertitel vor", "url": "https://www1.wdr.de/nachrichten/rheinland/moegliche-meisterfeier-bayer-leverkusen-100.html", "thumbnailUrl": null, "date": "2024-04-13T17:55:32Z", "lat": 51.045, "lon": 7.0069, "intensity": 0.6, "source": "WDR"}, {"title": "Leverkusen freut sich: Hoffnung auf Fu\u00dfball", "url": "https://www1.wdr.de/nachrichten/leverkusen-fans-104.html", "thumbnailUrl": null, "date": "2024-04-13T13:10:36Z", "lat": 51.045, "lon": 7.0059, "intensity": 0.3, "source": "WDR"}, {"title": "Konstellation pl\u00f6tzlich top: Bayer Leverkusens Triple-Chance stark verbessert", "url": "https://www.sportschau.de/fussball/europaleague/analyse-triple-chance-fuer-bayer-leverkusen-100.html", "thumbnailUrl": null, "date": "2024-04-12T11:42:04Z", "lat": 51.038822, "lon": 7.031308, "intensity": 0.8, "source": "WDR"}, {"title": "Schluss mit Vizekusen: Was die Meisterschaft f\u00fcr Leverkusen bedeutet", "url": "https://www1.wdr.de/nachrichten/wird-leverkusen-meister-nah-dran-podcast100.html", "thumbnailUrl": null, "date": "2024-04-13T15:07:42Z", "lat": 51.0451, "lon": 7.0086, "intensity": 0.8, "source": "WDR"}, {"title": "Wetter in NRW: Sonntag l\u00e4utet Wetterwechsel ein", "url": "https://www1.wdr.de/nachrichten/wetter-wochenende-april-nrw100.html", "thumbnailUrl": null, "date": "2024-04-13T17:52:01Z", "lat": 51.8133, "lon": 7.6261, "intensity": 0.6, "source": "WDR"}, {"title": "Neue Studie: Mehr Nosferatu-Spinnen als gedacht", "url": "https://www1.wdr.de/nachrichten/nosferatu-spinne-104.html", "thumbnailUrl": null, "date": "2024-04-13T15:19:40Z", "lat": 51.1657, "lon": 10.4515, "intensity": 0.8, "source": "WDR"}, {"title": "SEK-Einsatz in Bad Godesberg: 23-J\u00e4hrige bedroht Mann mit Messer", "url": "https://www1.wdr.de/nachrichten/rheinland/polizeieinsatz-bad-godesberg-100.html", "thumbnailUrl": null, "date": "2024-04-13T18:12:37Z", "lat": 50.6831, "lon": 7.1422, "intensity": 0.8, "source": "WDR"}, {"title": "In Reken ist ein Bus in die Terrasse einer Eisdiele gefahren", "url": "https://www1.wdr.de/nachrichten/westfalen-lippe/unfall-reken-bus-eisdiele-100.html", "thumbnailUrl": null, "date": "2024-04-13T17:48:21Z", "lat": 51.8539, "lon": 7.2374, "intensity": 0.8, "source": "WDR"}, {"title": "Landesparteitag der FDP: Henning H\u00f6ne erneut zum Vorsitzenden gew\u00e4hlt", "url": "https://www1.wdr.de/nachrichten/landespolitik/fdp-parteitag-nrw-vorstandswahl-100.html", "thumbnailUrl": null, "date": "2024-04-13T14:23:34Z", "lat": 51.4344, "lon": 6.7746, "intensity": 0.7, "source": "WDR"}, {"title": "Nach Missbrauchsvorw\u00fcrfen: Freispruch f\u00fcr Ex-Jugendeinrichtungsleiter aus Raestrup", "url": "https://www1.wdr.de/nachrichten/westfalen-lippe/freispruch-jugendeinrichtung-telgte-raestrup-100.html", "thumbnailUrl": null, "date": "2024-04-13T15:09:31Z", "lat": 51.9966, "lon": 7.8544, "intensity": 0.6, "source": "WDR"}, {"title": "Unfall auf A1 bei Remscheid", "url": "https://www1.wdr.de/nachrichten/unfall-lkw-a1-sperrung-100.html", "thumbnailUrl": null, "date": "2024-04-13T10:29:51Z", "lat": 51.1789, "lon": 7.1864, "intensity": 0.8, "source": "WDR"}, {"title": "Krieg im Nahen Osten: Nahost-Liveblog: ++ Laut Milit\u00e4r nur wenige Raketen in Israel eingeschlagen ++", "url": "https://www.tagesschau.de/newsticker/liveblog-nahost-samstag-124.html", "thumbnailUrl": null, "date": "2024-04-14T00:54:02Z", "lat": 32.109333, "lon": 34.851612, "intensity": 0.8, "source": "WDR"}, {"title": "Umstrittenes Treffen in Berlin: Proteste nach Aufl\u00f6sung von \"Pal\u00e4stina-Kongress\" in Berlin", "url": "https://www.tagesschau.de/inland/regional/berlin/proteste-palaestina-kongress-berlin-100.html", "thumbnailUrl": null, "date": "2024-04-13T17:00:04Z", "lat": 52.520008, "lon": 13.404954, "intensity": 0.8, "source": "WDR"}, {"title": "Vorfall im Golf von Oman: Golf von Oman: Iranische Revolutionsgarden kapern Handelsschiff", "url": "https://www.tagesschau.de/ausland/asien/iran-beschlagnahmt-schiff-100.html", "thumbnailUrl": null, "date": "2024-04-13T16:48:02Z", "lat": 26.0667, "lon": 56.2808, "intensity": 0.9, "source": "WDR"}, {"title": "Krieg in Nahost: US-Pr\u00e4sident Biden erwartet baldigen Vergeltungsschlag des Irans", "url": "https://www.tagesschau.de/ausland/amerika/biden-warnung-iran-100.html", "thumbnailUrl": null, "date": "2024-04-13T12:09:01Z", "lat": 35.689506, "lon": 51.388973, "intensity": 0.8, "source": "WDR"},