[{"title": "Zwei Menschen bei schwerem Unfall auf B31 bei L\u00f6ffingen gestorben", "url": "https://www.tagesschau.de/inland/regional/badenwuerttemberg/swr-zwei-menschen-bei-schwerem-unfall-auf-b31-bei-loeffingen-gestorben-100.html", "thumbnailUrl": "https://images.tagesschau.de/image/14c7cc7e-5068-4cf9-8638-74c84e642877/AAABjveZ5NA/AAABjcWesUg/16x9-512.jpg", "date": "2024-04-20T01:05:00.000+02:00", "lat": 47.8765, "lon": 8.3566, "intensity": 0.8, "source": "Tagesschau"}, {"title": "Eintracht: +++ Kr\u00f6sche: \"Erleichterung ist gro\u00df\" +++ Eintracht ringt Augsburg nieder  +++ Gedenkstunde f\u00fcr H\u00f6lzenbein im Stadion +++", "url": "https://www.tagesschau.de/inland/regional/hessen/hr--eintracht-wohl-mit-chaibi-einig--glasner-fast-nur-kolo-muani-der-tore-erzielt--bericht-eintracht-sagt-aouar-ab-100.html", "thumbnailUrl": "https://images.tagesschau.de/image/c8a9ad7b-06b4-40ca-9115-8aa780c4da44/AAABjvgLpOU/AAABjcWesUg/16x9-512.jpg", "date": "2024-04-19T23:17:43.591+02:00", "lat": 50.110922, "lon": 8.682127, "intensity": 0.6, "source": "Tagesschau"}, {"title": "HSV gegen Kiel: H\u00e4lt Holsteins Volkspark-Serie, ist der Aufstieg nah ", "url": "https://www.tagesschau.de/inland/regional/schleswigholstein/ndr-hsv-gegen-kiel-haelt-holsteins-volkspark-serie-ist-der-aufstieg-nah-102.html", "thumbnailUrl": "https://images.tagesschau.de/image/4b159258-0e14-4751-8a2d-a63022102527/AAABjvgzvQk/AAABjcWesUg/16x9-512.jpg", "date": "2024-04-19T23:09:00.000+02:00", "lat": 53.5706, "lon": 9.9889, "intensity": 0.8, "source": "Tagesschau"}, {"title": "SG Flensburg-Handewitt kassiert gegen Magdeburg erste Heimniederlage", "url": "https://www.tagesschau.de/inland/regional/schleswigholstein/ndr-sg-flensburg-handewitt-kassiert-gegen-magdeburg-erste-heimniederlage-102.html", "thumbnailUrl": "https://images.tagesschau.de/image/84b3964d-0d09-417c-becb-40499a0253ab/AAABjvfhaKo/AAABjcWesUg/16x9-512.jpg", "date": "2024-04-19T23:00:00.000+02:00", "lat": 54.7937, "lon": 9.3917, "intensity": 0.6, "source": "Tagesschau"}, {"title": "Positive Zwischenbilanz: \"Blitzermarathon\" - und der Regen - bremsen Raser in Hessen aus", "url": "https://www.tagesschau.de/inland/regional/hessen/hr-blitzermarathon-in-hessen-2024-polizei-kuendigt-radarkontrollen-gegen-raser-an-100.html", "thumbnailUrl": "https://images.tagesschau.de/image/79d14c88-8f5d-43a3-a9c2-931445373823/AAABjvgYSNk/AAABjcWesUg/16x9-512.jpg", "date": "2024-04-19T22:41:04.105+02:00", "lat": 50.5852, "lon": 9.7167, "intensity": 0.4, "source": "Tagesschau"}, {"title": "Kassel Huskies kassieren Ausgleich in Finalserie der DEL2", "url": "https://www.tagesschau.de/inland/regional/hessen/hr-kassel-huskies-kassieren-ausgleich-in-finalserie-der-del2-102.html", "thumbnailUrl": "https://images.tagesschau.de/image/d1084653-0d66-406f-9071-6c2ac4a52469/AAABjvg3YkY/AAABjcWesUg/16x9-512.jpg", "date": "2024-04-19T22:32:00.727+02:00", "lat": 51.3155, "lon": 9.4806, "intensity": 0.8, "source": "Tagesschau"}, {"title": "Eintracht Frankfurt feiert erl\u00f6senden Sieg gegen Augsburg", "url": "https://www.tagesschau.de/inland/regional/hessen/hr-eintracht-frankfurt-feiert-erloesenden-sieg-gegen-augsburg-102.html", "thumbnailUrl": "https://images.tagesschau.de/image/0db53585-cf10-4d76-803c-b9d363f08f52/AAABjvgaHy0/AAABjcWesUg/16x9-512.jpg", "date": "2024-04-19T22:26:45.585+02:00", "lat": 50.1109, "lon": 8.6524, "intensity": 0.8, "source": "Tagesschau"}, {"title": "Der \"F\u00fchrerschein mit 17\" wird 20 Jahre alt", "url": "https://www.tagesschau.de/inland/regional/niedersachsen/ndr-der-fuehrerschein-mit-17-wird-20-jahre-alt-100.html", "thumbnailUrl": "https://images.tagesschau.de/image/2027dc55-8012-4ed5-9857-4f2aa4f79cb2/AAABjvbAB_c/AAABjcWesUg/16x9-512.jpg", "date": "2024-04-19T22:13:00.000+02:00", "lat": 52.3759, "lon": 9.3733, "intensity": 0.6, "source": "Tagesschau"}, {"title": "5:3 gegen Bremerhaven: Eisb\u00e4ren Berlin gleichen in Finalserie aus", "url": "https://www.tagesschau.de/inland/regional/berlin/rbb-jetzt-live-hoeren-und-im-ticker-koennen-die-eisbaeren-berlin-in-der-final-serie-ausgleichen-102.html", "thumbnailUrl": "https://images.tagesschau.de/image/d1085ce9-d1c3-4a47-a948-a7a8a6099651/AAABjvgAdUU/AAABjcWesUg/16x9-512.jpg", "date": "2024-04-19T22:13:00.000+02:00", "lat": 52.5096, "lon": 13.4061, "intensity": 0.7, "source": "Tagesschau"}, {"title": "DEL-Finale: Fischtown Pinguins verlieren Spiel zwei in Berlin", "url": "https://www.tagesschau.de/inland/regional/niedersachsen/ndr-del-finale-fischtown-pinguins-verlieren-spiel-zwei-in-berlin-102.html", "thumbnailUrl": "https://images.tagesschau.de/image/a2f1933d-d89d-4a75-97fa-8772c377cf79/AAABjvgLvRA/AAABjcWesUg/16x9-512.jpg", "date": "2024-04-19T22:13:00.000+02:00", "lat": 52.520008, "lon": 13.404954, "intensity": 0.8, "source": "Tagesschau"}, {"title": "Casting bei \"Rote Rosen\": Telenovela sucht zweiten Serienhund", "url": "https://www.tagesschau.de/inland/regional/niedersachsen/ndr-rote-rosen-suchen-schlausten-hund-der-welt-casting-im-april-100.html", "thumbnailUrl": "https://images.tagesschau.de/image/343f43c7-e5a3-4724-b58c-be508fb7321b/AAABjvaZq34/AAABjcWesUg/16x9-512.jpg", "date": "2024-04-19T22:12:00.000+02:00", "lat": 53.256, "lon": 10.407, "intensity": 0.4, "source": "Tagesschau"}, {"title": "Ehrenb\u00fcrger Otto Waalkes er\u00f6ffnet neues Festspielhaus in Emden", "url": "https://www.tagesschau.de/inland/regional/niedersachsen/ndr-ehrenbuerger-otto-waalkes-eroeffnet-neues-festspielhaus-in-emden-100.html", "thumbnailUrl": "https://images.tagesschau.de/image/427acae3-5c4b-4535-a173-04fa536caf50/AAABjvf81Cw/AAABjcWesUg/16x9-512.jpg", "date": "2024-04-19T22:09:00.000+02:00", "lat": 53.3675, "lon": 7.2066, "intensity": 0.6, "source": "Tagesschau"}, {"title": "++ Selenskyj fordert mehr \"Patriot\"-Systeme ++", "url": "https://www.tagesschau.de/newsticker/liveblog-ukraine-freitag-380.html", "thumbnailUrl": "https://images.tagesschau.de/image/e305cc1c-c2a3-4123-a5dd-9c85b90a2f06/AAABjvI92ZI/AAABjcWesUg/16x9-512.jpg", "date": "2024-04-19T21:58:28.772+02:00", "lat": 50.4501, "lon": 30.5234, "intensity": 0.9, "source": "Tagesschau"}, {"title": "Polizei verfolgt gestohlenen Porsche - Sch\u00fcsse auf das Auto", "url": "https://www.tagesschau.de/inland/regional/niedersachsen/ndr-polizei-verfolgt-gestohlenen-porsche-schuesse-auf-das-auto-100.html", "thumbnailUrl": "https://images.tagesschau.de/image/bb3ec6df-5d6c-478b-9193-e61ee0de2be2/AAABjvfuNgE/AAABjcWesUg/16x9-512.jpg", "date": "2024-04-19T21:53:00.000+02:00", "lat": 52.37589, "lon": 9.73201, "intensity": 0.8, "source": "Tagesschau"}, {"title": "SPD-Treffen auf Norderney: Der Kanzler kommt per Hubschrauber", "url": "https://www.tagesschau.de/inland/regional/niedersachsen/ndr-spd-treffen-auf-norderney-der-kanzler-kommt-per-hubschrauber-100.html", "thumbnailUrl": "https://images.tagesschau.de/image/689fb3bc-ac57-4412-b063-a9ab767da208/AAABjvbt2rs/AAABjcWesUg/16x9-512.jpg", "date": "2024-04-19T21:44:00.000+02:00", "lat": 53.7068, "lon": 7.1392, "intensity": 0.6, "source": "Tagesschau"}, {"title": "1. FC Saarbr\u00fccken kann mit Sieg auf den Relegationsplatz rutschen", "url": "https://www.tagesschau.de/inland/regional/saarland/sr-1-fc-saarbruecken-kann-mit-sieg-auf-den-relegationsplatz-rutschen-102.html", "thumbnailUrl": "https://images.tagesschau.de/image/0116d850-07d8-43a2-b33a-e3ed9bb02a53/AAABjvfYIlI/AAABjcWesUg/16x9-512.jpg", "date": "2024-04-19T21:26:00.000+02:00", "lat": 49.2402, "lon": 6.9974, "intensity": 0.6, "source": "Tagesschau"}, {"title": "++ Lkw mit Hilfsg\u00fctern erreichen Gazastreifen ++", "url": "https://www.tagesschau.de/newsticker/liveblog-nahost-freitag-128.html", "thumbnailUrl": "https://images.tagesschau.de/image/7658ed86-cb54-4d69-8cf1-f899ad4f4a06/AAABjTuS-C4/AAABjcWesUg/16x9-512.jpg", "date": "2024-04-19T21:25:20.490+02:00", "lat": 31.5012, "lon": 34.4854, "intensity": 0.7, "source": "Tagesschau"}, {"title": "69:49 gegen Keltern: Albas Basketballerinnen gewinnen erstes Finalspiel", "url": "https://www.tagesschau.de/inland/regional/berlin/rbb-6949-gegen-keltern-albas-basketballerinnen-gewinnen-erstes-finalspiel-102.html", "thumbnailUrl": "https://images.tagesschau.de/image/0581147f-a109-4c55-816f-fb3af981ee3d/AAABjvfhVyQ/AAABjcWesUg/16x9-512.jpg", "date": "2024-04-19T21:21:00.000+02:00", "lat": 52.520008, "lon": 13.404954, "intensity": 0.8, "source": "Tagesschau"}, {"title": "Geld\u00fcbergabe an Bystron im Auto?\u00a0", "url": "https://www.tagesschau.de/investigativ/kontraste/russland-afd-krah-bystron-voice-of-europe-100.html", "thumbnailUrl": "https://images.tagesschau.de/image/7a9e773f-17a4-469e-b492-952dbafd3ffc/AAABjvZ5hpo/AAABjcWesUg/16x9-512.jpg", "date": "2024-04-19T21:20:27.535+02:00", "lat": 48.135125, "lon": 11.581981, "intensity": 0.8, "source": "Tagesschau"}, {"title": "Fu\u00dfball-Regionalliga Nordost: BFC Dynamo bricht ein und verpasst Tabellenf\u00fchrung", "url": "https://www.tagesschau.de/inland/regional/berlin/rbb-fussball-regionalliga-nordost-bfc-dynamo-bricht-ein-und-verpasst-tabellenfuehrung-102.html", "thumbnailUrl": "https://images.tagesschau.de/image/30319be7-1f9b-4229-bc36-f5ad9fd52a65/AAABjvfNLuU/AAABjcWesUg/16x9-512.jpg", "date": "2024-04-19T21:14:00.000+02:00", "lat": 52.52, "lon": 13.405, "intensity": 0.7, "source": "Tagesschau"}, {"title": "Autozulieferer schlie\u00dft Werk am Erfurter Kreuz", "url": "https://www.tagesschau.de/inland/regional/thueringen/mdr-autozulieferer-schliesst-werk-am-erfurter-kreuz-100.html", "thumbnailUrl": "https://images.tagesschau.de/image/c41d0ee8-b6fa-4028-956e-d724ce7b0f11/AAABjvg9K28/AAABjcWesUg/16x9-512.jpg", "date": "2024-04-19T20:59:11.000+02:00", "lat": 50.984, "lon": 11.031, "intensity": 0.8, "source": "Tagesschau"}, {"title": "Schwerpunktkontrollen am Freitag: Polizei f\u00fchrt Blitzermarathon an Brandenburger Alleen durch", "url": "https://www.tagesschau.de/inland/regional/brandenburg/rbb-schwerpunktkontrollen-am-freitag-polizei-fuehrt-blitzermarathon-an-brandenburger-alleen-durch-100.html", "thumbnailUrl": "https://images.tagesschau.de/image/90fbf9ca-c6c1-431d-93d7-09eac1d780e2/AAABjve1Yb0/AAABjcWesUg/16x9-512.jpg", "date": "2024-04-19T20:51:03.000+02:00", "lat": 52.4125, "lon": 13.1513, "intensity": 0.8, "source": "Tagesschau"}, {"title": "Elversberg verteidigt Unentschieden gegen Schalke", "url": "https://www.tagesschau.de/inland/regional/saarland/sr-elversberg-will-erneut-gegen-schalke-punkten-100.html", "thumbnailUrl": "https://images.tagesschau.de/image/e991d6c4-d7ae-404a-b78f-bec60cd22886/AAABjvejCPw/AAABjcWesUg/16x9-512.jpg", "date": "2024-04-19T20:29:00.000+02:00", "lat": 49.325, "lon": 7.2103, "intensity": 0.5, "source": "Tagesschau"}, {"title": "Jetzt live: Frankfurt gegen Augsburg", "url": "https://www.sportschau.de/live-und-ergebnisse/fussball/deutschland-bundesliga/ma9685718/eintracht-frankfurt_fc-augsburg/liveticker/", "thumbnailUrl": "https://images.tagesschau.de/image/9f8165ba-ca30-4328-b2f7-799fe3637a8c/AAABiNkNSio/AAABjcWesUg/16x9-512.jpg", "date": "2024-04-19T20:06:07.094+02:00", "lat": 50.1109, "lon": 8.6821, "intensity": 0.8, "source": "Tagesschau"}, {"title": "Neuer Sand f\u00fcr die K\u00fcste: Land und Bund stellen \"Rekordsumme\"", "url": "https://www.tagesschau.de/inland/regional/niedersachsen/ndr-neuer-sand-fuer-die-kueste-land-und-bund-stellen-rekordsumme-100.html", "thumbnailUrl": "https://images.tagesschau.de/image/87e0a9d0-db85-4b98-9698-16b68d9770e6/AAABjveN9Vw/AAABjcWesUg/16x9-512.jpg", "date": "2024-04-19T20:06:00.000+02:00", "lat": 52.3735, "lon": 9.6656, "intensity": 0.8, "source": "Tagesschau"}, {"title": "Landesparteitag: Wer ist der AfD-Politiker Ansgar Schledde?", "url": "https://www.tagesschau.de/inland/regional/niedersachsen/ndr-landesparteitag-wer-ist-der-afd-politiker-ansgar-schledde-100.html", "thumbnailUrl": "https://images.tagesschau.de/image/4794af33-5732-4a58-987e-7f14f5db653a/AAABjveF4x4/AAABjcWesUg/16x9-512.jpg", "date": "2024-04-19T20:00:00.000+02:00", "lat": 52.375891, "lon": 10.423446, "intensity": 0.6, "source": "Tagesschau"}, {"title": "Mobilit\u00e4tsforscher zu Berliner Lades\u00e4ulenstrategie: \"Die Ziele sind v\u00f6llig illusorisch\"", "url": "https://www.tagesschau.de/inland/regional/berlin/rbb-interview-zur-ladesaeulenstrategie-die-ziele-sind-voellig-illusorisch-100.html", "thumbnailUrl": "https://images.tagesschau.de/image/83e6e684-f20b-4f5b-91d4-47357a7ab4d9/AAABjveD-5o/AAABjcWesUg/16x9-512.jpg", "date": "2024-04-19T19:56:44.000+02:00", "lat": 52.520008, "lon": 13.404954, "intensity": 0.7, "source": "Tagesschau"}, {"title": "Mitarbeiterin von Gr\u00fcnen-Politiker mit Verletzungen entdeckt - Staatsschutz ermittelt", "url": "https://www.tagesschau.de/inland/regional/badenwuerttemberg/swr-mitarbeiterin-von-gruenen-politiker-mit-verletzungen-entdeckt-staatsschutz-ermittelt-100.html", "thumbnailUrl": "https://images.tagesschau.de/image/9c9eabc9-017e-4ec0-8c47-c64e2e7b1cb4/AAABjvdmn4U/AAABjcWesUg/16x9-512.jpg", "date": "2024-04-19T19:56:00.000+02:00", "lat": 48.5236, "lon": 9.1023, "intensity": 0.8, "source": "Tagesschau"}, {"title": "Verdienstorden des Landes BW: Diese Personen hat Kretschmann ausgezeichnet", "url": "https://www.tagesschau.de/inland/regional/badenwuerttemberg/swr-hoechste-auszeichnung-des-landes-diese-menschen-erhalten-den-verdienstorden-100.html", "thumbnailUrl": "https://images.tagesschau.de/image/1d033d5a-611e-4ae6-abc5-a0da2d75618b/AAABjveLP-E/AAABjcWesUg/16x9-512.jpg", "date": "2024-04-19T19:55:00.000+02:00", "lat": 48.7758, "lon": 9.1829, "intensity": 0.8, "source": "Tagesschau"}, {"title": "Wetterlage und Temperaturen", "url": "https://www.tagesschau.de/wetter/europa-welt", "thumbnailUrl": "https://images.tagesschau.de/image/6e7d3b16-79c8-4308-822b-20c3035236b5/AAABjvXhY5s/AAABjcWesUg/16x9-512.jpg", "date": "2024-04-19T19:52:59.480+02:00", "lat": 51.1657, "lon": 10.4515, "intensity": 0.3, "source": "Tagesschau"}, {"title": "Nach Unfall: Sperrung der A7 sorgt in Hamburg f\u00fcr lange Staus", "url": "https://www.tagesschau.de/inland/regional/hamburg/ndr-hamburg-a7-ist-nach-unfall-hoehe-volkspark-gesperrt-100.html", "thumbnailUrl": "https://images.tagesschau.de/image/f4391077-a130-496b-9fe8-18012ed5ff4d/AAABjvZtqH4/AAABjcWesUg/16x9-512.jpg", "date": "2024-04-19T19:52:00.000+02:00", "lat": 53.5511, "lon": 9.9937, "intensity": 0.8, "source": "Tagesschau"}, {"title": "Elektromobilit\u00e4t: Berlin muss bei den Lades\u00e4ulen f\u00fcr E-Fahrzeuge deutlich zulegen ", "url": "https://www.tagesschau.de/inland/regional/berlin/rbb-elektromobilitaet-berlin-muss-bei-den-ladesaeulen-fuer-e-fahrzeuge-deutlich-zulegen-100.html", "thumbnailUrl": "https://images.tagesschau.de/image/caac1a4f-908f-4b1e-88f0-584688d87cc2/AAABjveASXU/AAABjcWesUg/16x9-512.jpg", "date": "2024-04-19T19:47:25.000+02:00", "lat": 52.520008, "lon": 13.404954, "intensity": 0.8, "source": "Tagesschau"}, {"title": "Teilschlie\u00dfung des Fraunhofer-Zentrums in Leipzig geplant", "url": "https://www.tagesschau.de/inland/regional/sachsen/mdr-teilschliessung-des-fraunhofer-zentrums-in-leipzig-geplant-100.html", "thumbnailUrl": "https://images.tagesschau.de/image/2ccf2a1b-e146-410a-b371-7302b1747aa0/AAABjvg-t1E/AAABjcWesUg/16x9-512.jpg", "date": "2024-04-19T19:47:25.000+02:00", "lat": 51.34348, "lon": 12.38605, "intensity": 0.7, "source": "Tagesschau"}, {"title": "Wird Ex-Landrat Pf\u00f6hler disziplinarrechtlich belangt?", "url": "https://www.tagesschau.de/inland/regional/rheinlandpfalz/swr-wird-ex-landrat-pfoehler-disziplinarrechtlich-belangt-100.html", "thumbnailUrl": "https://images.tagesschau.de/image/f6563704-e059-4016-a0de-0ab5339aec5b/AAABjvhQ_1E/AAABjcWesUg/16x9-512.jpg", "date": "2024-04-19T19:35:00.000+02:00", "lat": 50.1921, "lon": 7.2663, "intensity": 0.3, "source": "Tagesschau"}, {"title": "Erstmals EU-Sanktionen gegen israelische Siedler", "url": "https://www.tagesschau.de/ausland/europa/eu-sanktionen-siedler-westjordanland-100.html", "thumbnailUrl": "https://images.tagesschau.de/image/d06fcd77-37c2-486b-80e6-54da4203cf36/AAABjvb1Q4g/AAABjcWesUg/16x9-512.jpg", "date": "2024-04-19T19:32:05.439+02:00", "lat": 31.7754, "lon": 35.2354, "intensity": 0.8, "source": "Tagesschau"}, {"title": "Ermittlungen gegen SPD-Landtagsabgeordneten Domeier eingestellt", "url": "https://www.tagesschau.de/inland/regional/niedersachsen/ndr-ermittlungen-gegen-spd-landtagsabgeordneten-domeier-eingestellt-100.html", "thumbnailUrl": "https://images.tagesschau.de/image/04473976-c59e-4e63-8be6-fdc7c8a485b5/AAABjvdv15w/AAABjcWesUg/16x9-512.jpg", "date": "2024-04-19T19:30:00.000+02:00", "lat": 52.3738, "lon": 9.7356, "intensity": 0.4, "source": "Tagesschau"}, {"title": "Chefarzt des Berliner Ma\u00dfregelvollzugs reicht K\u00fcndigung ein ", "url": "https://www.tagesschau.de/inland/regional/berlin/rbb-chefarzt-des-berliner-massregelvollzugs-reicht-kuendigung-ein-100.html", "thumbnailUrl": "https://images.tagesschau.de/image/6299ee38-c1af-43da-a6c7-70a9e1caf4d5/AAABjvcfS8o/AAABjcWesUg/16x9-512.jpg", "date": "2024-04-19T19:11:28.000+02:00", "lat": 52.520008, "lon": 13.404954, "intensity": 0.8, "source": "Tagesschau"}, {"title": "Hertha BSC vor dem Spiel in Karlsruhe: Gut gelaunt in den Schlussspurt", "url": "https://www.tagesschau.de/inland/regional/berlin/rbb-hertha-bsc-vor-dem-spiel-in-karlsruhe-gut-gelaunt-in-den-schlussspurt-102.html", "thumbnailUrl": "https://images.tagesschau.de/image/e17b2449-ba62-4eaa-842e-c07b121e9b7b/AAABjvdWNo0/AAABjcWesUg/16x9-512.jpg", "date": "2024-04-19T19:02:53.000+02:00", "lat": 52.52, "lon": 13.4086, "intensity": 0.6, "source": "Tagesschau"}, {"title": "NATO sichert Kiew weitere Waffenlieferungen zu", "url": "https://www.tagesschau.de/ausland/europa/nato-rat-europa-ukraine-hilfen-100.html", "thumbnailUrl": "https://images.tagesschau.de/image/bc23e6b8-5117-49b1-8cb8-ce395d12ea86/AAABjvdtSug/AAABjcWesUg/16x9-512.jpg", "date": "2024-04-19T18:51:06.743+02:00", "lat": 50.4501, "lon": 30.5234, "intensity": 0.8, "source": "Tagesschau"}, {"title": "Radfahrerin bei Unfall in Losheim am See schwer verletzt", "url": "https://www.tagesschau.de/inland/regional/saarland/sr-radfahrerin-bei-unfall-in-losheim-am-see-schwer-verletzt-100.html", "thumbnailUrl": "https://images.tagesschau.de/image/b3815f3d-9b73-4c61-92f7-6db62805e3fd/AAABjvdFp48/AAABjcWesUg/16x9-512.jpg", "date": "2024-04-19T18:47:00.000+02:00", "lat": 49.4806, "lon": 6.8011, "intensity": 0.8, "source": "Tagesschau"}, {"title": "Schleuse Kannenburg nach sechs Jahren Bauarbeiten offiziell er\u00f6ffnet", "url": "https://www.tagesschau.de/inland/regional/brandenburg/rbb-schleuse-kannenburg-nach-sechs-jahren-bauarbeiten-offiziell-eroeffnet-100.html", "thumbnailUrl": "https://images.tagesschau.de/image/840934ab-9adb-4e5c-8623-8241e4d95fe0/AAABjvdX_Qo/AAABjcWesUg/16x9-512.jpg", "date": "2024-04-19T18:45:54.000+02:00", "lat": 52.6421, "lon": 14.2686, "intensity": 0.6, "source": "Tagesschau"}, {"title": "F\u00f6rderverein darf keine F\u00fchrungen mehr anbieten", "url": "https://www.tagesschau.de/inland/regional/sachsenanhalt/mdr-foerderverein-darf-keine-fuehrungen-mehr-anbieten-100.html", "thumbnailUrl": "https://images.tagesschau.de/image/c678dc14-6fcb-4e75-9faa-08726b92eeb7/AAABjvhCaZY/AAABjcWesUg/16x9-512.jpg", "date": "2024-04-19T18:40:05.000+02:00", "lat": 51.4818, "lon": 11.9629, "intensity": 0.4, "source": "Tagesschau"}, {"title": "Im Bremer BLG-Forum werden Leichen ausgestellt ", "url": "https://www.tagesschau.de/inland/regional/bremen/rb-im-bremer-blg-forum-werden-leichen-ausgestellt-100.html", "thumbnailUrl": "https://images.tagesschau.de/image/69db57f7-0cf7-4b46-8e8d-4bb657f6d4e8/AAABjvc1MNY/AAABjcWesUg/16x9-512.jpg", "date": "2024-04-19T18:32:00.000+02:00", "lat": 53.0793, "lon": 8.8006, "intensity": 0.8, "source": "Tagesschau"}, {"title": "Finalturnier der Badminton-Bundesliga: SV Fun-Ball Dortelweil sehnt sich nach erstem Meistertitel   ", "url": "https://www.tagesschau.de/inland/regional/hessen/hr-finalturnier-der-badminton-bundesliga-sv-fun-ball-dortelweil-sehnt-sich-nach-erstem-meistertitel-102.html", "thumbnailUrl": "https://images.tagesschau.de/image/d73bca60-b7d0-4668-9aff-3b354b87a94c/AAABjvct5Jo/AAABjcWesUg/16x9-512.jpg", "date": "2024-04-19T18:21:25.930+02:00", "lat": 50.1772, "lon": 8.7266, "intensity": 0.8, "source": "Tagesschau"}, {"title": "Jetzt gibt es eine rote Linie weniger", "url": "https://www.tagesschau.de/ausland/asien/iran-israel-konflikt-analyse-100.html", "thumbnailUrl": "https://images.tagesschau.de/image/b8913bef-565a-4490-854e-e563a96e416e/AAABjvbrKS4/AAABjcWesUg/16x9-512.jpg", "date": "2024-04-19T18:08:42.216+02:00", "lat": 32.427908, "lon": 47.576927, "intensity": 0.8, "source": "Tagesschau"}, {"title": "Wahlstedt: Viba sweets \u00fcbernimmt Arko, Hussel und Eilles ", "url": "https://www.tagesschau.de/inland/regional/schleswigholstein/ndr-wahlstedt-viba-sweets-uebernimmt-arko-hussel-und-eilles-100.html", "thumbnailUrl": "https://images.tagesschau.de/image/712b893c-15b3-47bb-b0a0-b377adf3a12b/AAABjvd5CA4/AAABjcWesUg/16x9-512.jpg", "date": "2024-04-19T18:01:00.000+02:00", "lat": 53.9914, "lon": 10.3679, "intensity": 0.6, "source": "Tagesschau"}, {"title": "Saarbr\u00fccker Unternehmen er\u00f6ffnet gr\u00f6\u00dften Solarpark in Rheinland-Pfalz", "url": "https://www.tagesschau.de/inland/regional/saarland/sr-saarbruecker-unternehmen-eroeffnet-groessten-solarpark-in-rheinland-pfalz-100.html", "thumbnailUrl": "https://images.tagesschau.de/image/b8543437-0931-4a88-9aeb-c47addb9fa8e/AAABjvcZtbQ/AAABjcWesUg/16x9-512.jpg", "date": "2024-04-19T18:00:00.000+02:00", "lat": 49.6583, "lon": 6.4301, "intensity": 0.8, "source": "Tagesschau"}, {"title": "Traum vom Aufstieg: Was im Holstein-Stadion noch zu tun ist", "url": "https://www.tagesschau.de/inland/regional/schleswigholstein/ndr-traum-vom-aufstieg-was-im-holstein-stadion-noch-zu-tun-ist-100.html", "thumbnailUrl": "https://images.tagesschau.de/image/5b4b4157-63fc-4cff-be55-d7b92dc4509a/AAABjvc45hs/AAABjcWesUg/16x9-512.jpg", "date": "2024-04-19T18:00:00.000+02:00", "lat": 54.3678, "lon": 10.1367, "intensity": 0.8, "source": "Tagesschau"}, {"title": "Gestank am Aalener Bahnhof - \u00c4rger um Container von DB Cargo", "url": "https://www.tagesschau.de/inland/regional/badenwuerttemberg/swr-gestank-am-aalener-bahnhof-aerger-um-container-von-db-cargo-100.html", "thumbnailUrl": "https://images.tagesschau.de/image/a8a8f3ad-098c-4fc3-9e58-0ea05956592b/AAABjvcWGFI/AAABjcWesUg/16x9-512.jpg", "date": "2024-04-19T17:53:16.000+02:00", "lat": 48.834, "lon": 10.093, "intensity": 0.6, "source": "Tagesschau"}, {"title": "Datenlecks bei Facebook: Oberlandesgericht weist Berufungen zur\u00fcck", "url": "https://www.tagesschau.de/inland/regional/niedersachsen/ndr-datenlecks-bei-facebook-oberlandesgericht-weist-berufungen-zurueck-100.html", "thumbnailUrl": "https://images.tagesschau.de/image/295ae527-40b7-4cbb-a1db-b987def3362c/AAABjvcJSHs/AAABjcWesUg/16x9-512.jpg", "date": "2024-04-19T17:52:00.000+02:00", "lat": 52.956449, "lon": 8.215357, "intensity": 0.7, "source": "Tagesschau"}, {"title": "Berlin sperrt ein Viertel der Mietwagen auf Plattformen", "url": "https://www.tagesschau.de/inland/regional/berlin/rbb-berlin-sperrt-ein-viertel-der-mietwagen-auf-plattformen-100.html", "thumbnailUrl": "https://images.tagesschau.de/image/b0e2e7e3-41dd-4b2d-9bda-2c8f19778527/AAABjveASzU/AAABjcWesUg/16x9-512.jpg", "date": "2024-04-19T17:48:43.000+02:00", "lat": 52.52, "lon": 13.405, "intensity": 0.7, "source": "Tagesschau"}, {"title": "\"Fridays for Future\": Globaler und europaweiter Klimastreik", "url": "https://www.tagesschau.de/inland/regional/niedersachsen/ndr-fridays-for-future-globaler-und-europaweiter-klimastreik-100.html", "thumbnailUrl": "https://images.tagesschau.de/image/ec8e38b2-7cde-4bf4-a152-520bb6e68c45/AAABjvXLw5s/AAABjcWesUg/16x9-512.jpg", "date": "2024-04-19T17:48:00.000+02:00", "lat": 52.3759, "lon": 9.7489, "intensity": 0.8, "source": "Tagesschau"}, {"title": "Norderelbbr\u00fccke: A1-Bauarbeiten behindern Verkehr am Wochenende", "url": "https://www.tagesschau.de/inland/regional/hamburg/ndr-norderelbbruecke-100.html", "thumbnailUrl": "https://images.tagesschau.de/image/2119720b-227d-4b09-8231-ed268c71b979/AAABjvci6Ac/AAABjcWesUg/16x9-512.jpg", "date": "2024-04-19T17:43:00.000+02:00", "lat": 53.541556, "lon": 9.999518, "intensity": 0.6, "source": "Tagesschau"}, {"title": "Anklage gegen Seenotretter vom Tisch", "url": "https://www.tagesschau.de/ausland/europa/italien-seenotretter-106.html", "thumbnailUrl": "https://images.tagesschau.de/image/0760d340-6fb9-4865-a38a-569ea5919664/AAABhnREgGg/AAABjcWesUg/16x9-512.jpg", "date": "2024-04-19T17:39:14.794+02:00", "lat": 41.9028, "lon": 12.4964, "intensity": 0.8, "source": "Tagesschau"}, {"title": "Feuer im Solarpark: Ermittlungen wegen fahrl\u00e4ssiger Brandstiftung", "url": "https://www.tagesschau.de/inland/regional/sachsen/mdr-feuer-im-solarpark-ermittlungen-wegen-fahrlaessiger-brandstiftung-100.html", "thumbnailUrl": "https://images.tagesschau.de/image/ca07a612-3ad9-405a-adcd-b23959a4747b/AAABjvg-zRw/AAABjcWesUg/16x9-512.jpg", "date": "2024-04-19T17:38:00.000+02:00", "lat": 51.3167, "lon": 13.4583, "intensity": 0.8, "source": "Tagesschau"}, {"title": "Wetter: Skandinavische K\u00e4lte hat Hessen fest im Griff", "url": "https://www.tagesschau.de/inland/regional/hessen/hr-wetter-skandinavische-kaelte-hat-hessen-fest-im-griff-100.html", "thumbnailUrl": "https://images.tagesschau.de/image/f3dcc478-ad35-4432-a035-881458c405b7/AAABjvcB8zI/AAABjcWesUg/16x9-512.jpg", "date": "2024-04-19T17:37:01.627+02:00", "lat": 50.5443, "lon": 9.6933, "intensity": 0.7, "source": "Tagesschau"}, {"title": "Kultkneipe Black Out in Saarlouis bleibt sich treu", "url": "https://www.tagesschau.de/inland/regional/saarland/sr-kultkneipe-black-out-in-saarlouis-bleibt-sich-treu-100.html", "thumbnailUrl": "https://images.tagesschau.de/image/2e46ff11-a4aa-4202-89eb-c5cd9c9fb59c/AAABjvcDu3k/AAABjcWesUg/16x9-512.jpg", "date": "2024-04-19T17:36:00.000+02:00", "lat": 49.3131, "lon": 6.7488, "intensity": 0.3, "source": "Tagesschau"}, {"title": "Offshore-Transporte: Cuxhaven plant 3 Anleger f\u00fcr 300 Millionen Euro", "url": "https://www.tagesschau.de/inland/regional/bremen/rb-offshore-transporte-cuxhaven-plant-3-anleger-fuer-300-millionen-euro-100.html", "thumbnailUrl": "https://images.tagesschau.de/image/53301133-664d-426b-bcec-b616559748d0/AAABjvcLE48/AAABjcWesUg/16x9-512.jpg", "date": "2024-04-19T17:28:00.000+02:00", "lat": 53.868, "lon": 8.685, "intensity": 0.8, "source": "Tagesschau"}, {"title": "Kreistag von Stendal unterst\u00fctzt Verfassungsbeschwerde zum Finanzausgleich", "url": "https://www.tagesschau.de/inland/regional/sachsenanhalt/mdr-kreistag-von-stendal-unterstuetzt-verfassungsbeschwerde-zum-finanzausgleich-100.html", "thumbnailUrl": "https://images.tagesschau.de/image/da732eae-9df4-463a-9fba-901431161271/AAABjvhC0D8/AAABjcWesUg/16x9-512.jpg", "date": "2024-04-19T17:26:14.000+02:00", "lat": 52.6076, "lon": 11.8661, "intensity": 0.8, "source": "Tagesschau"}, {"title": "Warum nun auch die EU Siedler ins Visier nimmt", "url": "https://www.tagesschau.de/ausland/asien/israel-siedler-sanktionen-weltweit-100.html", "thumbnailUrl": "https://images.tagesschau.de/image/36af306e-6f27-4a91-9436-c9c2dfe12606/AAABjvadgVM/AAABjcWesUg/16x9-512.jpg", "date": "2024-04-19T17:20:34.121+02:00", "lat": 31.94603, "lon": 35.30212, "intensity": 0.8, "source": "Tagesschau"}, {"title": "Pilotprojekt in der Prignitz: Lieferdrohne startet ab Juni in Wusterhausen/Dosse", "url": "https://www.tagesschau.de/inland/regional/brandenburg/rbb-pilotprojekt-in-der-prignitz-lieferdrohne-startet-ab-juni-in-wusterhausendosse-100.html", "thumbnailUrl": "https://images.tagesschau.de/image/e6473900-dc34-44dc-9290-a3cfa21102a5/AAABjvbqL7U/AAABjcWesUg/16x9-512.jpg", "date": "2024-04-19T17:07:14.000+02:00", "lat": 52.9475, "lon": 12.4806, "intensity": 0.8, "source": "Tagesschau"}, {"title": "Gas breitet sich in Schule in Falkensee aus: Mehr als zehn Sch\u00fcler im Krankenhaus", "url": "https://www.tagesschau.de/inland/regional/brandenburg/rbb-falkensee-mehrere-schueler-durch-mutmasslichem-gasaustritt-verletzt-100.html", "thumbnailUrl": "https://images.tagesschau.de/image/08fdb741-bac6-4a30-9e10-bb99b229bf81/AAABjvboVqc/AAABjcWesUg/16x9-512.jpg", "date": "2024-04-19T17:06:40.000+02:00", "lat": 52.5624, "lon": 13.0883, "intensity": 0.8, "source": "Tagesschau"}, {"title": "Fixierter Patient stirbt bei Brand - Anklage gegen sieben \u00c4rzte und Pfleger", "url": "https://www.tagesschau.de/inland/regional/badenwuerttemberg/swr-helios-klinikum-pforzheim-anklage-gegen-sieben-aerzte-und-pflegekraefte-100.html", "thumbnailUrl": "https://images.tagesschau.de/image/86810852-267a-48b3-9b8f-31628a4542a5/AAABjvbr8Wo/AAABjcWesUg/16x9-512.jpg", "date": "2024-04-19T17:04:44.000+02:00", "lat": 48.8924, "lon": 8.709, "intensity": 0.8, "source": "Tagesschau"}, {"title": "Festival: Vanlife-Szene trifft sich auf Fehmarn", "url": "https://www.tagesschau.de/inland/regional/schleswigholstein/ndr-festival-vanlife-szene-trifft-sich-auf-fehmarn-100.html", "thumbnailUrl": "https://images.tagesschau.de/image/f7875c6d-628f-4407-91f9-5c1111a3543e/AAABjvbkxxQ/AAABjcWesUg/16x9-512.jpg", "date": "2024-04-19T17:00:00.000+02:00", "lat": 54.5189, "lon": 11.23, "intensity": 0.7, "source": "Tagesschau"}, {"title": "Hilfs-Polizeieinsatz in Pflegeheim - nun Untersuchung eines Todesfalls ", "url": "https://www.tagesschau.de/inland/regional/berlin/rbb-hilfs-polizeieinsatz-in-pflegeheim-nun-untersuchung-eines-todesfalls-100.html", "thumbnailUrl": "https://images.tagesschau.de/image/08e51310-618b-427f-a997-302c6e9d2621/AAABjvboY8g/AAABjcWesUg/16x9-512.jpg", "date": "2024-04-19T16:56:52.000+02:00", "lat": 52.52, "lon": 13.405, "intensity": 0.7, "source": "Tagesschau"}, {"title": "Kultur: +++ Werner Reinke und Holger Weinert mit Hessischem Verdienstorden geehrt +++ Ensemble f\u00fcr Festspiel-Musical in Bad Hersfeld steht +++ Stiftung Handschrift zeichnet Sch\u00fcler aus +++", "url": "https://www.tagesschau.de/inland/regional/hessen/hr--schauspiel-frankfurt-bringt-putin-und-macbeth-zusammen--die-filmfestival-saison-2023-startet--lichter-filmfest-zum-thema-liebe-startet-am-dienstag-100.html", "thumbnailUrl": "https://images.tagesschau.de/image/8917cee6-bb82-4d1d-a36d-91918cf951b2/AAABjvbZzJA/AAABjcWesUg/16x9-512.jpg", "date": "2024-04-19T16:53:37.233+02:00", "lat": 50.110922, "lon": 8.682127, "intensity": 0.7, "source": "Tagesschau"}, {"title": "Digitallotsen helfen in Hamburger Kundenzentren", "url": "https://www.tagesschau.de/inland/regional/hamburg/ndr-lotsen-sollen-hamburgern-bei-digitalen-ausweisen-helfen-100.html", "thumbnailUrl": "https://images.tagesschau.de/image/ceb7326e-10f1-4743-9142-751130c295d3/AAABjvbX6Y0/AAABjcWesUg/16x9-512.jpg", "date": "2024-04-19T16:47:00.000+02:00", "lat": 53.551086, "lon": 9.993682, "intensity": 0.8, "source": "Tagesschau"}, {"title": "Haftstrafen im Prozess um zerst\u00fcckelte Leiche gefordert", "url": "https://www.tagesschau.de/inland/regional/mecklenburgvorpommern/ndr-haftstrafen-im-prozess-um-zerstueckelte-leiche-gefordert-100.html", "thumbnailUrl": "https://images.tagesschau.de/image/f0950dfe-baaf-435c-aa9c-187539861b37/AAABjvb1FhA/AAABjcWesUg/16x9-512.jpg", "date": "2024-04-19T16:45:00.000+02:00", "lat": 54.0964, "lon": 13.3833, "intensity": 0.8, "source": "Tagesschau"}, {"title": "Wer nicht absagt, zahlt: Immer mehr Restaurants erheben No-Show-Geb\u00fchr", "url": "https://www.tagesschau.de/inland/regional/badenwuerttemberg/swr-wer-nicht-absagt-zahlt-immer-mehr-restaurants-erheben-no-show-gebuehr-100.html", "thumbnailUrl": "https://images.tagesschau.de/image/d8569d1e-ec9f-402a-9020-9598627ba814/AAABjvbQjXc/AAABjcWesUg/16x9-512.jpg", "date": "2024-04-19T16:39:39.000+02:00", "lat": 48.7758, "lon": 9.2069, "intensity": 0.7, "source": "Tagesschau"}, {"title": "Schiff mit sanktioniertem Holz aus Russland verl\u00e4sst Rostock", "url": "https://www.tagesschau.de/inland/regional/mecklenburgvorpommern/ndr-wochenlang-festgesetzt-schiff-mit-holz-aus-russland-verlaesst-rostock-100.html", "thumbnailUrl": "https://images.tagesschau.de/image/5bd5070a-ae6f-4e24-a04a-4ba4194b8ef3/AAABjvbDp2g/AAABjcWesUg/16x9-512.jpg", "date": "2024-04-19T16:35:00.000+02:00", "lat": 54.0924, "lon": 12.0991, "intensity": 0.8, "source": "Tagesschau"}, {"title": "Wie man lernt, sich gegen Stammtischparolen zur Wehr zu setzen ", "url": "https://www.tagesschau.de/inland/regional/badenwuerttemberg/swr-wie-man-lernt-sich-gegen-stammtischparolen-zur-wehr-zu-setzen-100.html", "thumbnailUrl": "https://images.tagesschau.de/image/3f439479-ad48-4897-9cb4-c9e7152846f9/AAABjvZQbDQ/AAABjcWesUg/16x9-512.jpg", "date": "2024-04-19T16:30:00.000+02:00", "lat": 48.6616, "lon": 9.6604, "intensity": 0.8, "source": "Tagesschau"}, {"title": "Staatsanwaltschaft klagt nicht gegen Ex-Landrat im Ahrtal: Betroffene w\u00fctend und entt\u00e4uscht", "url": "https://www.tagesschau.de/inland/regional/nordrheinwestfalen/wdr-staatsanwaltschaft-klagt-nicht-gegen-ex-landrat-im-ahrtal-betroffene-wuetend-und-enttaeuscht-100.html", "thumbnailUrl": "https://images.tagesschau.de/image/1a4eecc4-e90d-4bb1-bdd9-d0e491ef3133/AAABjvbdTHU/AAABjcWesUg/16x9-512.jpg", "date": "2024-04-19T16:28:00.000+02:00", "lat": 50.3569, "lon": 7.357, "intensity": 0.8, "source": "Tagesschau"}, {"title": "Erste Bauarbeiten f\u00fcr Rhein-Ruhr-Express in D\u00fcsseldorf gestartet", "url": "https://www.tagesschau.de/inland/regional/nordrheinwestfalen/wdr-erste-bauarbeiten-fuer-rhein-ruhr-express-in-duesseldorf-gestartet-102.html", "thumbnailUrl": "https://images.tagesschau.de/image/9746c291-2f30-4237-b391-9b87bdbe1df5/AAABjvbvoOo/AAABjcWesUg/16x9-512.jpg", "date": "2024-04-19T16:24:00.000+02:00", "lat": 51.2277, "lon": 6.7735, "intensity": 0.8, "source": "Tagesschau"}, {"title": "Erster j\u00fcdischer Sportverein im Saarland gegr\u00fcndet", "url": "https://www.tagesschau.de/inland/regional/saarland/sr-erster-juedischer-sportverein-im-saarland-gegruendet-100.html", "thumbnailUrl": "https://images.tagesschau.de/image/fb71de74-f4a9-4bab-bbab-bdc327c7c57d/AAABjva-Jzo/AAABjcWesUg/16x9-512.jpg", "date": "2024-04-19T16:22:00.000+02:00", "lat": 49.3964, "lon": 6.9969, "intensity": 0.6, "source": "Tagesschau"}, {"title": "Lesben und Schwule loben Bremer Polizei f\u00fcr schnelle Ermittlungen", "url": "https://www.tagesschau.de/inland/regional/bremen/rb-lesben-und-schwule-loben-bremer-polizei-fuer-schnelle-ermittlungen-100.html", "thumbnailUrl": "https://images.tagesschau.de/image/9616d481-7883-4d3c-8f9f-f2504a4557e5/AAABjvbULcM/AAABjcWesUg/16x9-512.jpg", "date": "2024-04-19T16:21:00.000+02:00", "lat": 53.0793, "lon": 8.8017, "intensity": 0.7, "source": "Tagesschau"}, {"title": "Uni Marburg: H\u00f6rsaal bleibt nach Decken-Einsturz im Sommersemester gesperrt", "url": "https://www.tagesschau.de/inland/regional/hessen/hr-uni-marburg-hoersaal-bleibt-nach-decken-einsturz-im-sommersemester-gesperrt-100.html", "thumbnailUrl": "https://images.tagesschau.de/image/9b249ddf-1409-422b-bd7e-215f00f37700/AAABjva4spE/AAABjcWesUg/16x9-512.jpg", "date": "2024-04-19T16:16:33.491+02:00", "lat": 50.807591, "lon": 8.775103, "intensity": 0.8, "source": "Tagesschau"}, {"title": "Neue Ermittlungen gegen AfD-Politiker Halemba", "url": "https://www.tagesschau.de/inland/regional/bayern/halemba-verdacht-afd-immunitaet-100.html", "thumbnailUrl": "https://images.tagesschau.de/image/931a6b0b-4939-4fba-9136-92c7fd80e6ec/AAABjvdum1M/AAABjcWesUg/16x9-512.jpg", "date": "2024-04-19T16:15:56.047+02:00", "lat": 48.1371, "lon": 11.5742, "intensity": 0.8, "source": "Tagesschau"}, {"title": "Mann mit Schraubenzieher angegriffen: Verd\u00e4chtiger in U-Haft", "url": "https://www.tagesschau.de/inland/regional/niedersachsen/ndr-mann-mit-schraubenzieher-angegriffen-staatsschutz-ermittelt-100.html", "thumbnailUrl": "https://images.tagesschau.de/image/0e9a76d4-52c5-45b0-a091-f527cac2e9e8/AAABjva1D-E/AAABjcWesUg/16x9-512.jpg", "date": "2024-04-19T16:11:00.000+02:00", "lat": 52.4167, "lon": 8.047, "intensity": 0.7, "source": "Tagesschau"}, {"title": "Warum am Klinikum Bremen-Mitte nicht ordentlich geputzt wird", "url": "https://www.tagesschau.de/inland/regional/bremen/rb-wie-die-hygiene-am-klinikum-bremen-mitte-besser-werden-soll-100.html", "thumbnailUrl": "https://images.tagesschau.de/image/b92d873b-e646-4dbe-accf-109a9ed8608a/AAABjvatsIc/AAABjcWesUg/16x9-512.jpg", "date": "2024-04-19T16:04:00.000+02:00", "lat": 53.0736, "lon": 8.8046, "intensity": 0.7, "source": "Tagesschau"}, {"title": "Reif f\u00fcr die Insel", "url": "https://www.tagesschau.de/inland/innenpolitik/spd-klausur-scholz-100.html", "thumbnailUrl": "https://images.tagesschau.de/image/5e414337-933f-4fb2-a6be-516c03809c69/AAABjvZw5GA/AAABjcWesUg/16x9-512.jpg", "date": "2024-04-19T16:03:31.428+02:00", "lat": 53.7053, "lon": 7.1408, "intensity": 0.6, "source": "Tagesschau"}, {"title": "S\u00fc\u00dfwarenhersteller Viba \u00fcbernimmt 125 Filialen von Arko, Hussel und Eilles", "url": "https://www.tagesschau.de/inland/regional/thueringen/mdr-suesswarenhersteller-viba-uebernimmt-125-filialen-von-arko-hussel-und-eilles-100.html", "thumbnailUrl": "https://images.tagesschau.de/image/52f047ba-f970-4f81-92e7-851a4e339979/AAABjvg83wI/AAABjcWesUg/16x9-512.jpg", "date": "2024-04-19T16:01:06.000+02:00", "lat": 50.8278, "lon": 10.4515, "intensity": 0.7, "source": "Tagesschau"}, {"title": "Merseburg: Wahlhelfer bekommen mehr Geld", "url": "https://www.tagesschau.de/inland/regional/sachsenanhalt/mdr-merseburg-wahlhelfer-bekommen-mehr-geld-100.html", "thumbnailUrl": "https://images.tagesschau.de/image/6a4095a0-2183-47b4-a201-3f70169b9755/AAABjvhCqbs/AAABjcWesUg/16x9-512.jpg", "date": "2024-04-19T15:58:38.000+02:00", "lat": 51.3536, "lon": 11.9833, "intensity": 0.7, "source": "Tagesschau"}, {"title": "Wie Hessen im Streit um die Vorratsdatenspeicherung den Druck erh\u00f6ht", "url": "https://www.tagesschau.de/inland/regional/hessen/hr-wie-hessen-im-streit-um-die-vorratsdatenspeicherung-den-druck-erhoeht-100.html", "thumbnailUrl": "https://images.tagesschau.de/image/69ac5eb9-15a6-4c94-94f3-105cf91ac769/AAABjvamalI/AAABjcWesUg/16x9-512.jpg", "date": "2024-04-19T15:56:20.952+02:00", "lat": 50.6403, "lon": 9.6753, "intensity": 0.8, "source": "Tagesschau"}, {"title": "Polizeihochschule in Oranienburg feiert Richtfest f\u00fcr Wohnheim ", "url": "https://www.tagesschau.de/inland/regional/brandenburg/rbb-polizeihochschule-in-oranienburg-feiert-richtfest-fuer-wohnheim-100.html", "thumbnailUrl": "https://images.tagesschau.de/image/c6b3fa8c-5cd5-49ac-854e-6819531457e0/AAABjvamfco/AAABjcWesUg/16x9-512.jpg", "date": "2024-04-19T15:54:55.000+02:00", "lat": 52.7555, "lon": 13.2364, "intensity": 0.3, "source": "Tagesschau"}, {"title": "Bundeswehr\u00fcbung in Ziesar: Und pl\u00f6tzlich patrouillieren Soldaten im Gewerbegebiet", "url": "https://www.tagesschau.de/inland/regional/brandenburg/rbb-bundeswehruebung-in-ziesar-und-ploetzlich-patrouillieren-soldaten-im-gewerbegebiet-100.html", "thumbnailUrl": "https://images.tagesschau.de/image/99dfa218-2365-42ea-bf89-6729937d476b/AAABjvadRXA/AAABjcWesUg/16x9-512.jpg", "date": "2024-04-19T15:40:50.000+02:00", "lat": 52.2316, "lon": 12.301, "intensity": 0.7, "source": "Tagesschau"}, {"title": "Warum nun B\u00fcrger \u00fcber Bremer Abgeordneten-Renten bestimmen sollen", "url": "https://www.tagesschau.de/inland/regional/bremen/rb-warum-nun-buerger-ueber-bremer-abgeordneten-renten-bestimmen-sollen-100.html", "thumbnailUrl": "https://images.tagesschau.de/image/359f50fb-ecb6-4064-a5d1-38be70335a35/AAABjvadNPY/AAABjcWesUg/16x9-512.jpg", "date": "2024-04-19T15:37:00.000+02:00", "lat": 53.0793, "lon": 8.8017, "intensity": 0.7, "source": "Tagesschau"}, {"title": "Nawalnaja will weiter f\u00fcr Medienfreiheit k\u00e4mpfen", "url": "https://www.tagesschau.de/inland/regional/bayern/nawalnaja-freiheitspreis-medien-100.html", "thumbnailUrl": "https://images.tagesschau.de/image/24e2a570-39b6-4ac6-9b9a-d5732cb41b89/AAABjvcXzhk/AAABjcWesUg/16x9-512.jpg", "date": "2024-04-19T15:35:28.408+02:00", "lat": 48.1502, "lon": 11.5683, "intensity": 0.8, "source": "Tagesschau"}, {"title": "Berlinertordammbr\u00fccke: Bauarbeiten behindern Verkehr", "url": "https://www.tagesschau.de/inland/regional/hamburg/ndr-berlinertordammbruecke-bauarbeiten-behindern-verkehr-100.html", "thumbnailUrl": "https://images.tagesschau.de/image/c2f7509f-df50-474b-b589-8469056c022c/AAABjvaQklk/AAABjcWesUg/16x9-512.jpg", "date": "2024-04-19T15:32:00.000+02:00", "lat": 53.549682, "lon": 10.001178, "intensity": 0.8, "source": "Tagesschau"}, {"title": "Abstiegskn\u00fcller in Kaiserslautern: SVWW vor Nervenspiel am Betzenberg ", "url": "https://www.tagesschau.de/inland/regional/hessen/hr-abstiegsknueller-in-kaiserslautern-svww-vor-nervenspiel-am-betzenberg-102.html", "thumbnailUrl": "https://images.tagesschau.de/image/26689283-670c-4458-aeaf-0efaafc52438/AAABjvaQfNk/AAABjcWesUg/16x9-512.jpg", "date": "2024-04-19T15:28:40.772+02:00", "lat": 49.4435, "lon": 7.7719, "intensity": 0.8, "source": "Tagesschau"}, {"title": "Umfrage: Kita-Leitungen im Land beklagen Personalnot - auch Sprachf\u00f6rderung beeintr\u00e4chtigt", "url": "https://www.tagesschau.de/inland/regional/badenwuerttemberg/swr-umfrage-kita-leitungen-im-land-beklagen-personalnot-auch-sprachfoerderung-beeintraechtigt-100.html", "thumbnailUrl": "https://images.tagesschau.de/image/5ea28b4e-6330-4242-917e-fb8847011478/AAABjvaDp4o/AAABjcWesUg/16x9-512.jpg", "date": "2024-04-19T15:25:00.000+02:00", "lat": 48.7758, "lon": 9.0153, "intensity": 0.8, "source": "Tagesschau"}, {"title": "Geldtransporter bei G\u00fctzkow ausgeraubt: Ermittlungen eingestellt", "url": "https://www.tagesschau.de/inland/regional/mecklenburgvorpommern/ndr-geldtransporter-bei-guetzkow-ausgeraubt-ermittlungen-eingestellt-100.html", "thumbnailUrl": "https://images.tagesschau.de/image/f6d6ea3e-e5e4-42d4-af75-6091a5d58005/AAABjvaJHOQ/AAABjcWesUg/16x9-512.jpg", "date": "2024-04-19T15:23:00.000+02:00", "lat": 54.0294, "lon": 13.2856, "intensity": 0.7, "source": "Tagesschau"}, {"title": "Prenzlauer Berg: Drei Schwerverletzte nach Auseinandersetzung mit politischem Hintergrund", "url": "https://www.tagesschau.de/inland/regional/berlin/rbb-prenzlauer-berg-drei-schwerverletzte-nach-auseinandersetzung-mit-politischem-hintergrund-100.html", "thumbnailUrl": "https://images.tagesschau.de/image/c3fd060a-95fe-4644-bf8d-a9653f85d611/AAABjvaD5jo/AAABjcWesUg/16x9-512.jpg", "date": "2024-04-19T15:19:10.000+02:00", "lat": 52.5323, "lon": 13.4405, "intensity": 0.8, "source": "Tagesschau"}, {"title": "Entwarnung nach Gasaustritt in Taunusstein-Bleidenstadt", "url": "https://www.tagesschau.de/inland/regional/hessen/hr-entwarnung-nach-gasaustritt-in-taunusstein-bleidenstadt-100.html", "thumbnailUrl": "https://images.tagesschau.de/image/991f0cbd-2527-442e-89b3-d4ec34cf2aa2/AAABjvaMwfc/AAABjcWesUg/16x9-512.jpg", "date": "2024-04-19T15:14:40.485+02:00", "lat": 50.224436, "lon": 8.169847, "intensity": 0.4, "source": "Tagesschau"}, {"title": "ver.di k\u00fcndigt weitere Warnstreiks bei der Telekom an", "url": "https://www.tagesschau.de/inland/regional/badenwuerttemberg/swr-ver-di-kuendigt-weitere-warnstreiks-bei-der-telekom-an-100.html", "thumbnailUrl": "https://images.tagesschau.de/image/d4020a21-0e9c-4fd9-a118-af741d4776c6/AAABjvaD1H8/AAABjcWesUg/16x9-512.jpg", "date": "2024-04-19T15:06:51.000+02:00", "lat": 48.6616, "lon": 9.9937, "intensity": 0.8, "source": "Tagesschau"}, {"title": "Schneeregen und Graupelschauer am Wochenende erwartet", "url": "https://www.tagesschau.de/inland/regional/saarland/sr-schneeregen-und-graupelschauer-am-wochenende-erwartet-100.html", "thumbnailUrl": "https://images.tagesschau.de/image/53940813-a847-4e93-8211-4386b4227d61/AAABjvaDjz4/AAABjcWesUg/16x9-512.jpg", "date": "2024-04-19T15:04:00.000+02:00", "lat": 49.3964, "lon": 6.9817, "intensity": 0.5, "source": "Tagesschau"}, {"title": "Baugenehmigung f\u00fcr Nordmainische S-Bahn in Frankfurt liegt vor", "url": "https://www.tagesschau.de/inland/regional/hessen/hr-baugenehmigung-fuer-nordmainische-s-bahn-in-frankfurt-liegt-vor-100.html", "thumbnailUrl": "https://images.tagesschau.de/image/e9cb820e-dd8f-477b-8f97-0e907f60aba5/AAABjvZ1Bdg/AAABjcWesUg/16x9-512.jpg", "date": "2024-04-19T15:03:32.557+02:00", "lat": 50.1109, "lon": 8.6819, "intensity": 0.7, "source": "Tagesschau"}, {"title": "Kopfh\u00f6rer im Ohr und Handy in der Hand: Radfahrerin rammt Traktor", "url": "https://www.tagesschau.de/inland/regional/niedersachsen/ndr-kopfhoerer-im-ohr-und-handy-in-der-hand-radfahrerin-rammt-traktor-100.html", "thumbnailUrl": "https://images.tagesschau.de/image/d2c71971-473a-4c86-b98c-64df96578e31/AAABjvZ20PQ/AAABjcWesUg/16x9-512.jpg", "date": "2024-04-19T15:03:00.000+02:00", "lat": 52.2605, "lon": 9.0562, "intensity": 0.6, "source": "Tagesschau"}, {"title": "Iran und Israel: Droht ein neuer Krieg im Nahen Osten?", "url": "https://www.tagesschau.de/inland/regional/nordrheinwestfalen/wdr-mutmasslicher-israelischer-gegenschlag-auf-den-iran-droht-ein-grosser-krieg-im-nahen-osten-100.html", "thumbnailUrl": "https://images.tagesschau.de/image/ebd8db48-6de0-489a-b4a4-d9d0d166816c/AAABjvaOjNs/AAABjcWesUg/16x9-512.jpg", "date": "2024-04-19T14:56:00.000+02:00", "lat": 35.689197, "lon": 51.388973, "intensity": 0.8, "source": "Tagesschau"}, {"title": "St. Pauli bei Hannover 96: \"Charakter zeigen\" und Mini-Krise \u00fcberwinden", "url": "https://www.tagesschau.de/inland/regional/hamburg/ndr-st-pauli-bei-hannover-96-charakter-zeigen-und-mini-krise-ueberwinden-102.html", "thumbnailUrl": "https://images.tagesschau.de/image/e1138b1f-9928-4db3-a588-6ec186f86695/AAABjvZr2hQ/AAABjcWesUg/16x9-512.jpg", "date": "2024-04-19T14:52:00.000+02:00", "lat": 53.5544, "lon": 9.9623, "intensity": 0.8, "source": "Tagesschau"}, {"title": "Betriebsrat fordert Ende des Streiks in Espenhainer Recyclingfirma ", "url": "https://www.tagesschau.de/inland/regional/sachsen/mdr-betriebsrat-fordert-ende-des-streiks-in-espenhainer-recyclingfirma-100.html", "thumbnailUrl": "https://images.tagesschau.de/image/c6e4638a-c891-4240-87f1-63ad8764c2a1/AAABjvg-3ao/AAABjcWesUg/16x9-512.jpg", "date": "2024-04-19T14:49:29.000+02:00", "lat": 51.2333, "lon": 12.3467, "intensity": 0.8, "source": "Tagesschau"}, {"title": "Aktivisten hungern nahe dem Kanzleramt gegen die Klimakrise ", "url": "https://www.tagesschau.de/inland/regional/berlin/rbb-aktivisten-hungern-nahe-dem-kanzleramt-gegen-die-klimakrise-100.html", "thumbnailUrl": "https://images.tagesschau.de/image/e25318a3-b641-4d09-aba5-f15e3ae94d2c/AAABjvZoNOQ/AAABjcWesUg/16x9-512.jpg", "date": "2024-04-19T14:46:50.000+02:00", "lat": 52.52, "lon": 13.3889, "intensity": 0.8, "source": "Tagesschau"}, {"title": "Gegen das Vergessen: Herbertstra\u00dfe bekommt Stolper-Bordstein", "url": "https://www.tagesschau.de/inland/regional/hamburg/ndr-gegen-das-vergessen-herbertstrasse-bekommt-stolper-bordstein-100.html", "thumbnailUrl": "https://images.tagesschau.de/image/4f7d8b6a-89a6-46a0-aed6-9b6ed565ca60/AAABjvZmXDs/AAABjcWesUg/16x9-512.jpg", "date": "2024-04-19T14:46:00.000+02:00", "lat": 53.548488, "lon": 9.96414, "intensity": 0.7, "source": "Tagesschau"}, {"title": "Ex-RAF-Terroristin: Haftbedingungen f\u00fcr Daniela Klette gelockert", "url": "https://www.tagesschau.de/inland/regional/niedersachsen/ndr-ex-raf-terroristin-haftbedingungen-fuer-daniela-klette-gelockert-100.html", "thumbnailUrl": "https://images.tagesschau.de/image/e484d3ec-24be-4274-9ddf-3c0c188f75c2/AAABjvZisME/AAABjcWesUg/16x9-512.jpg", "date": "2024-04-19T14:42:00.000+02:00", "lat": 52.723, "lon": 8.289, "intensity": 0.3, "source": "Tagesschau"}, {"title": "Festgenommener mutma\u00dflicher Spion war \"unauff\u00e4lliger\" Nachbar", "url": "https://www.tagesschau.de/inland/regional/bayern/br-festgenommener-mutmasslicher-spion-war-unauffaelliger-nachbar-102.html", "thumbnailUrl": "https://images.tagesschau.de/image/6bac49ed-076a-4e49-8833-f4dbeddc77b0/AAABjvcX7KY/AAABjcWesUg/16x9-512.jpg", "date": "2024-04-19T14:40:00.812+02:00", "lat": 49.9427, "lon": 11.5761, "intensity": 0.5, "source": "Tagesschau"}, {"title": "Gro\u00dfeinsatz an Wuppertaler Schule: Polizei gibt Entwarnung", "url": "https://www.tagesschau.de/inland/regional/nordrheinwestfalen/wdr-verdaechtige-person-grosseinsatz-der-polizei-an-wuppertaler-schule-100.html", "thumbnailUrl": "https://images.tagesschau.de/image/ee1fd2b7-a744-4bda-a5ed-9a7202f71913/AAABjvbQeRk/AAABjcWesUg/16x9-512.jpg", "date": "2024-04-19T14:39:24.000+02:00", "lat": 51.2646, "lon": 7.1757, "intensity": 0.8, "source": "Tagesschau"}, {"title": "Leichenteile im Rhein: Vermisster aus dem Kreis Waldshut wurde wohl get\u00f6tet", "url": "https://www.tagesschau.de/inland/regional/badenwuerttemberg/swr-leichenteile-im-rhein-vermisster-aus-dem-kreis-waldshut-wurde-wohl-getoetet-100.html", "thumbnailUrl": "https://images.tagesschau.de/image/8239a0a3-aae1-4be8-9340-86148fcbcddb/AAABjvZ07HI/AAABjcWesUg/16x9-512.jpg", "date": "2024-04-19T14:24:16.000+02:00", "lat": 47.5998, "lon": 8.2115, "intensity": 0.8, "source": "Tagesschau"}, {"title": "MDR-Bericht: Ostdeutsches Abh\u00f6rzentrum der Polizei verz\u00f6gert sich und wird teurer ", "url": "https://www.tagesschau.de/inland/regional/brandenburg/rbb-mdr-bericht-ostdeutsches-abhoerzentrum-der-polizei-verzoegert-sich-und-wird-teurer-100.html", "thumbnailUrl": "https://images.tagesschau.de/image/0f153c03-ef3b-4237-bd47-4eab255fc0e0/AAABjvZUH-I/AAABjcWesUg/16x9-512.jpg", "date": "2024-04-19T14:22:56.000+02:00", "lat": 52.52, "lon": 13.3986, "intensity": 0.7, "source": "Tagesschau"}, {"title": "Ver.di-Chef gegen neues Streikrecht", "url": "https://www.tagesschau.de/wirtschaft/interview-frank-werneke-verdi-102.html", "thumbnailUrl": "https://images.tagesschau.de/image/681b7082-1517-4535-87be-c428a05f0832/AAABjvG9Q28/AAABjcWesUg/16x9-512.jpg", "date": "2024-04-19T14:22:31.006+02:00", "lat": 48.7823, "lon": 9.1785, "intensity": 0.3, "source": "Tagesschau"}, {"title": "Prozess gegen mutma\u00dfliche Drogenbande in Hamburg", "url": "https://www.tagesschau.de/inland/regional/hamburg/ndr-prozess-gegen-mutmassliche-drogenbande-in-hamburg-100.html", "thumbnailUrl": "https://images.tagesschau.de/image/b7deb87f-7c6b-4aaf-a08d-c7e916129fc2/AAABjvZQXP0/AAABjcWesUg/16x9-512.jpg", "date": "2024-04-19T14:19:00.000+02:00", "lat": 53.5511, "lon": 9.9937, "intensity": 0.8, "source": "Tagesschau"}, {"title": "Lehramtsstudium: Macht Schwesig die Reform zur Chefsache?", "url": "https://www.tagesschau.de/inland/regional/mecklenburgvorpommern/ndr-lehramtsstudium-macht-schwesig-die-reform-zur-chefsache-100.html", "thumbnailUrl": "https://images.tagesschau.de/image/a477ec49-88dc-413e-ac8b-686801d76f9b/AAABjvZK0Lg/AAABjcWesUg/16x9-512.jpg", "date": "2024-04-19T14:11:00.000+02:00", "lat": 54.133333, "lon": -12.650048, "intensity": 0.6, "source": "Tagesschau"}, {"title": "Erneut Einschr\u00e4nkungen auf Teilst\u00fcck der U1 in Hamburg", "url": "https://www.tagesschau.de/inland/regional/hamburg/ndr-einschraenkungen-auf-teilstueck-der-u1-in-hamburg-100.html", "thumbnailUrl": "https://images.tagesschau.de/image/840c1488-fff0-47ce-9372-3d2c17a7af10/AAABjvZHLr4/AAABjcWesUg/16x9-512.jpg", "date": "2024-04-19T14:11:00.000+02:00", "lat": 53.5753, "lon": 10.0037, "intensity": 0.7, "source": "Tagesschau"}, {"title": "Sch\u00fcler starten Online-Petition gegen Erdkunde-Abitur", "url": "https://www.tagesschau.de/inland/regional/nordrheinwestfalen/wdr-schueler-starten-online-petition-gegen-erdkunde-abitur-102.html", "thumbnailUrl": "https://images.tagesschau.de/image/2c12416c-a34f-4eee-85e4-3a3c6b1e86dc/AAABjvc-U74/AAABjcWesUg/16x9-512.jpg", "date": "2024-04-19T14:09:00.000+02:00", "lat": 51.8131, "lon": 7.6261, "intensity": 0.7, "source": "Tagesschau"}, {"title": "Von Odessa nach Kiel: K\u00fcnftige IT-Expertin am Studienkolleg", "url": "https://www.tagesschau.de/inland/regional/schleswigholstein/ndr-von-odessa-nach-kiel-kuenftige-it-expertin-am-studienkolleg-100.html", "thumbnailUrl": "https://images.tagesschau.de/image/b5705609-d247-46c5-990b-f07feb51f1fd/AAABjveQ9hM/AAABjcWesUg/16x9-512.jpg", "date": "2024-04-19T14:07:00.000+02:00", "lat": 54.3233, "lon": 10.1167, "intensity": 0.6, "source": "Tagesschau"}, {"title": "Mega-Solarpark in der S\u00fcdeifel ist gestartet", "url": "https://www.tagesschau.de/inland/regional/rheinlandpfalz/swr-solarpark-in-der-suedeifel-geht-an-den-start-100.html", "thumbnailUrl": "https://images.tagesschau.de/image/b2e7f544-e2fb-45e1-a37a-2d41a55a6522/AAABjvV9xT0/AAABjcWesUg/16x9-512.jpg", "date": "2024-04-19T14:03:00.000+02:00", "lat": 49.8036, "lon": 6.3766, "intensity": 0.8, "source": "Tagesschau"}, {"title": "Tarifstreit im Baugewerbe: IG Bau stimmt Schlichterspruch zu - Arbeitgeber am Zug", "url": "https://www.tagesschau.de/inland/regional/brandenburg/rbb-tarifstreit-im-baugewerbe-ig-bau-stimmt-schlichterspruch-zu-arbeitgeber-am-zug-100.html", "thumbnailUrl": "https://images.tagesschau.de/image/c7e11224-ab37-424c-95ef-9efcfc239021/AAABjvY-JKU/AAABjcWesUg/16x9-512.jpg", "date": "2024-04-19T14:00:46.000+02:00", "lat": 52.520008, "lon": 13.404954, "intensity": 0.7, "source": "Tagesschau"}, {"title": "Tote nach russischen Angriffen auf Millionenstadt", "url": "https://www.tagesschau.de/ausland/europa/ukraine-tote-angriffe-langstreckenbomber-100.html", "thumbnailUrl": "https://images.tagesschau.de/image/1b1d7d72-8cac-4f11-9f28-ff8e303fa683/AAABjvZ4M40/AAABjcWesUg/16x9-512.jpg", "date": "2024-04-19T13:59:31.284+02:00", "lat": 48.4647, "lon": 35.0473, "intensity": 1, "source": "Tagesschau"}, {"title": "Aus f\u00fcr Landliebe in Heilbronn schon besiegelt?", "url": "https://www.tagesschau.de/inland/regional/badenwuerttemberg/swr-aus-fuer-landliebe-in-heilbronn-schon-besiegelt-100.html", "thumbnailUrl": "https://images.tagesschau.de/image/e499de30-86f4-4624-ae28-109e4d4a9b01/AAABjvZQs_M/AAABjcWesUg/16x9-512.jpg", "date": "2024-04-19T13:58:35.000+02:00", "lat": 49.1406, "lon": 9.2223, "intensity": 0.8, "source": "Tagesschau"}, {"title": "D\u00fcsseldorf: Selfie-Spots f\u00fcr das Stadtmarketing?", "url": "https://www.tagesschau.de/inland/regional/nordrheinwestfalen/wdr-duesseldorf-selfie-spots-fuer-das-stadtmarketing-100.html", "thumbnailUrl": "https://images.tagesschau.de/image/8e1b0b22-e82e-43b2-90a6-ec8a01f2ad1e/AAABjvaXtSw/AAABjcWesUg/16x9-512.jpg", "date": "2024-04-19T13:55:00.000+02:00", "lat": 51.227, "lon": 6.773, "intensity": 0.3, "source": "Tagesschau"}, {"title": "Gasflasche falsch bedient: Explosion in Mehrfamilienhaus", "url": "https://www.tagesschau.de/inland/regional/niedersachsen/ndr-gasflasche-falsch-bedient-explosion-in-mehrfamilienhaus-100.html", "thumbnailUrl": "https://images.tagesschau.de/image/7d97261d-5dd7-4713-9925-3a89b3bd3547/AAABjvYxQOg/AAABjcWesUg/16x9-512.jpg", "date": "2024-04-19T13:46:00.000+02:00", "lat": 52.3759, "lon": 9.7401, "intensity": 0.8, "source": "Tagesschau"}, {"title": "Die Lage nach der Flutkatastrophe", "url": "https://www.tagesschau.de/inland/regional/rheinlandpfalz/swr-liveticker-keine-anklage-gegen-ex-landrat-pfoehler-nach-der-flutkatastrophe-100.html", "thumbnailUrl": "https://images.tagesschau.de/image/a3ffd8e5-475d-441a-8973-37067d997bf4/AAABjvdk1dQ/AAABjcWesUg/16x9-512.jpg", "date": "2024-04-19T13:41:00.000+02:00", "lat": 49.8153, "lon": 7.2662, "intensity": 0.8, "source": "Tagesschau"}, {"title": "U-Haft in Niedersachsen: Haftbedingungen f\u00fcr Daniela Klette laut Bericht gelockert", "url": "https://www.tagesschau.de/inland/regional/berlin/rbb-u-haft-in-niedersachsen-haftbedingungen-fuer-daniela-klette-laut-bericht-gelockert-100.html", "thumbnailUrl": "https://images.tagesschau.de/image/36a27b5f-17f7-40c9-a55d-a20a06f2c3dd/AAABjvYZl94/AAABjcWesUg/16x9-512.jpg", "date": "2024-04-19T13:22:02.000+02:00", "lat": 52.3738, "lon": 9.6629, "intensity": 0.7, "source": "Tagesschau"}, {"title": "Hessen l\u00e4dt iranischen Generalkonsul wegen Angriff auf Israel aus", "url": "https://www.tagesschau.de/inland/regional/hessen/hr-hessen-laedt-iranischen-generalkonsul-wegen-angriff-auf-israel-aus-100.html", "thumbnailUrl": "https://images.tagesschau.de/image/ccf5b0dc-8564-4d43-b68a-3ffd67e8e830/AAABjvdFwEI/AAABjcWesUg/16x9-512.jpg", "date": "2024-04-19T13:11:54.517+02:00", "lat": 50.078218, "lon": 8.23976, "intensity": 0.8, "source": "Tagesschau"}, {"title": "S-Bahn-Sperrungen am Wochenende - Anreise zum HSV-Spiel erschwert", "url": "https://www.tagesschau.de/inland/regional/hamburg/ndr-s-bahn-sperrungen-am-wochenende-anreise-zum-hsv-spiel-erschwert-102.html", "thumbnailUrl": "https://images.tagesschau.de/image/69479ff0-4748-4bdf-b34d-6c8f30d543c4/AAABjvgzxJo/AAABjcWesUg/16x9-512.jpg", "date": "2024-04-19T13:10:00.000+02:00", "lat": 53.5511, "lon": 9.9937, "intensity": 0.7, "source": "Tagesschau"}, {"title": "Treffen auf Norderney: Massives Polizeiaufgebot sch\u00fctzt SPD-Spitze", "url": "https://www.tagesschau.de/inland/regional/niedersachsen/ndr-massives-polizeiaufgebot-bei-spd-treffen-auf-norderney-100.html", "thumbnailUrl": "https://images.tagesschau.de/image/642bcd20-bd4c-43aa-ab7f-e29ce1db16c1/AAABjvaSWCI/AAABjcWesUg/16x9-512.jpg", "date": "2024-04-19T13:08:00.000+02:00", "lat": 53.7068, "lon": 7.1394, "intensity": 0.8, "source": "Tagesschau"}, {"title": "Heiliggeistkirche in Heidelberg lockt mit Musik von Taylor Swift zum Gottesdienst", "url": "https://www.tagesschau.de/inland/regional/badenwuerttemberg/swr-heiliggeistkirche-in-heidelberg-lockt-mit-musik-von-taylor-swift-zum-gottesdienst-100.html", "thumbnailUrl": "https://images.tagesschau.de/image/601f0fb7-08e9-4845-94fc-e4cd66577ad7/AAABjvZQ2OY/AAABjcWesUg/16x9-512.jpg", "date": "2024-04-19T13:04:22.000+02:00", "lat": 49.4094, "lon": 8.7011, "intensity": 0.6, "source": "Tagesschau"}, {"title": "Wie alte Wehre die Fl\u00fcsse verstopfen", "url": "https://www.tagesschau.de/inland/regional/sachsenanhalt/mdr-wie-alte-wehranlagen-die-fluesse-verstopfen-100.html", "thumbnailUrl": "https://images.tagesschau.de/image/23969fc9-4a64-42bf-989c-70d92606b5ca/AAABjvYFT5c/AAABjcWesUg/16x9-512.jpg", "date": "2024-04-19T13:01:14.000+02:00", "lat": 52.1234, "lon": 11.6276, "intensity": 0.7, "source": "Tagesschau"}, {"title": "Ertappter Ladendieb zieht Messer - Polizei fasst Mann auf der Flucht", "url": "https://www.tagesschau.de/inland/regional/niedersachsen/ndr-ertappter-ladendieb-zieht-messer-polizei-fasst-mann-auf-der-flucht-100.html", "thumbnailUrl": "https://images.tagesschau.de/image/5dbca974-09eb-406a-a161-00d46d07bdd8/AAABjvYHRPg/AAABjcWesUg/16x9-512.jpg", "date": "2024-04-19T13:01:00.000+02:00", "lat": 52.1574, "lon": 10.3602, "intensity": 0.8, "source": "Tagesschau"}, {"title": "Razzia gegen mutma\u00dfliche Schleuser: Ermittlungen in \u00dcberlingen", "url": "https://www.tagesschau.de/inland/regional/badenwuerttemberg/swr-razzia-gegen-mutmassliche-schleuser-ermittlungen-in-ueberlingen-100.html", "thumbnailUrl": "https://images.tagesschau.de/image/72e0d778-edb2-466b-b3a2-b976c9ae65d4/AAABjvYZhXc/AAABjcWesUg/16x9-512.jpg", "date": "2024-04-19T12:49:48.000+02:00", "lat": 47.771835, "lon": 9.127961, "intensity": 0.8, "source": "Tagesschau"}, {"title": "Die Sanktionen wirken - und nutzen dennoch wenig", "url": "https://www.tagesschau.de/faktenfinder/kontext/russland-sanktionen-eu-114.html", "thumbnailUrl": "https://images.tagesschau.de/image/774cd37f-d4a5-49c2-9ac0-7ea4bf73c3a8/AAABjfntKzE/AAABjcWesUg/16x9-512.jpg", "date": "2024-04-19T12:47:12.101+02:00", "lat": 55.7558, "lon": 37.6176, "intensity": 0.6, "source": "Tagesschau"}, {"title": "Sperrung wird aufgehoben: Freie Fahrt auf dem Kaiserdamm ", "url": "https://www.tagesschau.de/inland/regional/berlin/rbb-sperrung-wird-aufgehoben-freie-fahrt-auf-dem-kaiserdamm-100.html", "thumbnailUrl": "https://images.tagesschau.de/image/79a427f7-94f8-4a99-906a-13a49ade7fdf/AAABjvX2oIQ/AAABjcWesUg/16x9-512.jpg", "date": "2024-04-19T12:42:12.000+02:00", "lat": 52.5166, "lon": 13.2984, "intensity": 0.2, "source": "Tagesschau"}, {"title": "Weniger Autos, mehr Fu\u00dfg\u00e4ngerzonen: Streit in vielen St\u00e4dten", "url": "https://www.tagesschau.de/inland/regional/bayern/br-weniger-autos-mehr-fussgaengerzonen-streit-in-vielen-staedten-102.html", "thumbnailUrl": "https://images.tagesschau.de/image/d7d9067e-6319-4415-963d-9fc6b7de31be/AAABjvcSazM/AAABjcWesUg/16x9-512.jpg", "date": "2024-04-19T12:40:00.521+02:00", "lat": 48.135125, "lon": 11.581981, "intensity": 0.7, "source": "Tagesschau"}, {"title": "Unfall zwischen Heilbronn und Untergruppenbach: Auto kracht in Gegenverkehr", "url": "https://www.tagesschau.de/inland/regional/badenwuerttemberg/swr-unfall-zwischen-heilbronn-und-untergruppenbach-auto-kracht-in-gegenverkehr-100.html", "thumbnailUrl": "https://images.tagesschau.de/image/f1c950b9-9c96-4730-82d1-a24e803b350f/AAABjvXxJLc/AAABjcWesUg/16x9-512.jpg", "date": "2024-04-19T12:38:00.000+02:00", "lat": 49.1427, "lon": 9.2195, "intensity": 0.8, "source": "Tagesschau"}, {"title": "Politiker der Saar-AfD schreiben Brandbrief an Bundesvorstand", "url": "https://www.tagesschau.de/inland/regional/saarland/sr-politiker-der-saar-afd-schreiben-brandbrief-an-bundesvorstand-100.html", "thumbnailUrl": "https://images.tagesschau.de/image/aa53d02d-156a-4de8-b40b-ce5d41067371/AAABjvbHTd0/AAABjcWesUg/16x9-512.jpg", "date": "2024-04-19T12:33:00.000+02:00", "lat": 49.3964, "lon": 6.9667, "intensity": 0.8, "source": "Tagesschau"}, {"title": "Festakt f\u00fcr 1.300 Jahre Klosterinsel Reichenau", "url": "https://www.tagesschau.de/inland/regional/badenwuerttemberg/swr-festakt-fuer-1-300-jahre-klosterinsel-reichenau-104.html", "thumbnailUrl": "https://images.tagesschau.de/image/09bc8afc-7736-4c62-8feb-0fc4c99c657a/AAABjvYvVmQ/AAABjcWesUg/16x9-512.jpg", "date": "2024-04-19T12:30:00.000+02:00", "lat": 47.7051, "lon": 9.0638, "intensity": 0.8, "source": "Tagesschau"}, {"title": "Isfahan - das Zentrum der iranischen Atomforschung", "url": "https://www.tagesschau.de/ausland/asien/isfahan-atomanlage-iran-100.html", "thumbnailUrl": "https://images.tagesschau.de/image/d99fc663-973d-4bd6-8aac-dc09cda0eb52/AAABjvWPCWQ/AAABjcWesUg/16x9-512.jpg", "date": "2024-04-19T12:28:13.920+02:00", "lat": 32.4279, "lon": 51.6636, "intensity": 0.8, "source": "Tagesschau"}, {"title": "Aachen: Nahostkonflikt im Klassenzimmer", "url": "https://www.tagesschau.de/inland/regional/nordrheinwestfalen/wdr-aachen-nahostkonflikt-im-klassenzimmer-100.html", "thumbnailUrl": "https://images.tagesschau.de/image/75044c3b-10a9-4720-a2a1-fee134fd570c/AAABjvY6U8k/AAABjcWesUg/16x9-512.jpg", "date": "2024-04-19T12:25:00.000+02:00", "lat": 50.775, "lon": 6.083, "intensity": 0.7, "source": "Tagesschau"}, {"title": "Sophia Kleinherne bleibt bei Eintracht Frankfurt \u2013 \"Herzensangelegenheit\" ", "url": "https://www.tagesschau.de/inland/regional/hessen/hr-sophia-kleinherne-bleibt-bei-eintracht-frankfurt--herzensangelegenheit-102.html", "thumbnailUrl": "https://images.tagesschau.de/image/061691e3-b8ca-4e13-b529-b13ae0e0c7a2/AAABjvXigLU/AAABjcWesUg/16x9-512.jpg", "date": "2024-04-19T12:19:13.269+02:00", "lat": 50.1109, "lon": 8.6821, "intensity": 0.4, "source": "Tagesschau"}, {"title": "Fahndungs- und Sicherheitstag in BW: 480 Straftaten registriert", "url": "https://www.tagesschau.de/inland/regional/badenwuerttemberg/swr-fahndungs-und-sicherheitstag-in-baden-wuerttemberg-strassenkriminalitaet-im-fokus-100.html", "thumbnailUrl": "https://images.tagesschau.de/image/c5a2d3e7-7ff0-472a-ac83-50babc8bb88f/AAABjvXexbI/AAABjcWesUg/16x9-512.jpg", "date": "2024-04-19T12:15:00.000+02:00", "lat": 48.6616, "lon": 9.9976, "intensity": 0.6, "source": "Tagesschau"}, {"title": "Wetter in NRW: Viel Regen und kaum Sonne am Wochenende", "url": "https://www.tagesschau.de/inland/regional/nordrheinwestfalen/wdr-wetter-in-nrw-viel-regen-und-kaum-sonne-am-wochenende-100.html", "thumbnailUrl": "https://images.tagesschau.de/image/6afe8958-e5e2-49a5-b604-91a0d9905315/AAABjvXmGFA/AAABjcWesUg/16x9-512.jpg", "date": "2024-04-19T12:14:00.000+02:00", "lat": 51.9607, "lon": 7.6169, "intensity": 0.6, "source": "Tagesschau"}, {"title": "In Hamburg kommen deutlich weniger Gefl\u00fcchtete an", "url": "https://www.tagesschau.de/inland/regional/hamburg/ndr-in-hamburg-kommen-deutlich-weniger-gefluechtete-an-100.html", "thumbnailUrl": "https://images.tagesschau.de/image/b6eb2bf7-089c-4911-b92f-0aca7758d5c8/AAABjvXizlw/AAABjcWesUg/16x9-512.jpg", "date": "2024-04-19T12:13:00.000+02:00", "lat": 53.5511, "lon": 9.9937, "intensity": 0.7, "source": "Tagesschau"}, {"title": "ADAC MX Masters in F\u00fcrstlich Drehna: Lausitzer Profi freut sich auf \"sehr spezielle Strecke\" bei Motocross-Volksfest ", "url": "https://www.tagesschau.de/inland/regional/brandenburg/rbb-adac-mx-masters-in-fuerstlich-drehna-lausitzer-profi-freut-sich-auf-sehr-spezielle-strecke-bei-motocross-volksfest-102.html", "thumbnailUrl": "https://images.tagesschau.de/image/15e89193-7a92-4761-b799-07aa92ddc58e/AAABjvXT4hk/AAABjcWesUg/16x9-512.jpg", "date": "2024-04-19T12:04:01.000+02:00", "lat": 51.6194, "lon": 13.6475, "intensity": 0.8, "source": "Tagesschau"}, {"title": "Gro\u00dfbrand in Chemiefabrik Braunschweig: Feuer ist gel\u00f6scht", "url": "https://www.tagesschau.de/inland/regional/niedersachsen/ndr-explosionsgefahr-in-braunschweig-feuer-in-gewerbegebiet-100.html", "thumbnailUrl": "https://images.tagesschau.de/image/e17c356d-6e17-46e3-8b6d-91be3b6b3d86/AAABjvXtlEA/AAABjcWesUg/16x9-512.jpg", "date": "2024-04-19T12:04:00.000+02:00", "lat": 52.2689, "lon": 10.5277, "intensity": 0.8, "source": "Tagesschau"}, {"title": "Hilfe f\u00fcr die Menschen in der Ukraine", "url": "https://www.tagesschau.de/spendenkonten/spendenkonten-133.html", "thumbnailUrl": "https://images.tagesschau.de/image/af005073-bb3d-428a-b6f8-a685c725811f/AAABh4VRChA/AAABjcWesUg/16x9-512.jpg", "date": "2024-04-19T12:02:39.793+02:00", "lat": 50.4501, "lon": 30.5234, "intensity": 0.8, "source": "Tagesschau"}, {"title": "Fl\u00fcchtlingsunterkunft Hermsdorf: Landtag muss sich mit Forderung zu Schlie\u00dfung besch\u00e4ftigen", "url": "https://www.tagesschau.de/inland/regional/thueringen/mdr-fluechtlingsunterkunft-hermsdorf-landtag-muss-sich-mit-forderung-zu-schliessung-beschaeftigen-100.html", "thumbnailUrl": "https://images.tagesschau.de/image/6a2daf23-37b9-43df-80f5-e6951ec026e7/AAABjvg9ZYU/AAABjcWesUg/16x9-512.jpg", "date": "2024-04-19T11:57:41.000+02:00", "lat": 50.9386, "lon": 11.1525, "intensity": 0.7, "source": "Tagesschau"}, {"title": "DEL-Titel vor 20 Jahren: Die L\u00f6wen Frankfurt erinnern sich", "url": "https://www.tagesschau.de/inland/regional/hessen/hr-del-titel-vor-20-jahren-die-loewen-frankfurt-erinnern-sich-102.html", "thumbnailUrl": "https://images.tagesschau.de/image/ac92d349-94fb-4ef5-af83-b69c35e9f291/AAABjvXR-Gs/AAABjcWesUg/16x9-512.jpg", "date": "2024-04-19T11:57:28.214+02:00", "lat": 50.1109, "lon": 8.6821, "intensity": 0.8, "source": "Tagesschau"}, {"title": "Sorgen auf Sulawesi", "url": "https://www.tagesschau.de/ausland/asien/vulkan-ausbruch-indonesien-100.html", "thumbnailUrl": "https://images.tagesschau.de/image/8a12f571-3dd3-43ec-a501-f6278be5d4aa/AAABjvXH_R0/AAABjcWesUg/16x9-512.jpg", "date": "2024-04-19T11:57:09.281+02:00", "lat": -1.2, "lon": 120.33, "intensity": 0.8, "source": "Tagesschau"}, {"title": "Festnahmen nach Angriff auf Nawalny-Vertrauten", "url": "https://www.tagesschau.de/ausland/europa/wolkow-angriff-festnahmen-100.html", "thumbnailUrl": "https://images.tagesschau.de/image/7c9f9f28-8fa0-4c60-815d-f2f046233e65/AAABjjVqq60/AAABjcWesUg/16x9-512.jpg", "date": "2024-04-19T11:52:42.620+02:00", "lat": 54.6872, "lon": 24.9668, "intensity": 0.7, "source": "Tagesschau"}, {"title": "Waldsch\u00e4den in Hessen: Weniger Schadholz in W\u00e4ldern", "url": "https://www.tagesschau.de/inland/regional/hessen/hr-waldschaeden-in-hessen-weniger-schadholz-in-waeldern-100.html", "thumbnailUrl": "https://images.tagesschau.de/image/2351c887-6660-4a43-a86b-207720ee30eb/AAABjvXFOuk/AAABjcWesUg/16x9-512.jpg", "date": "2024-04-19T11:51:58.383+02:00", "lat": 50.652381, "lon": 9.005965, "intensity": 0.7, "source": "Tagesschau"}, {"title": "Einbruch in Taxizentrale: Unbekannte stehlen Tresor mit Geld", "url": "https://www.tagesschau.de/inland/regional/niedersachsen/ndr-einbruch-in-taxizentrale-unbekannte-stehlen-tresor-mit-geld-100.html", "thumbnailUrl": "https://images.tagesschau.de/image/13640ee7-8888-4ff3-8ae8-7ae4e019b4d9/AAABjvYrrnw/AAABjcWesUg/16x9-512.jpg", "date": "2024-04-19T11:44:00.000+02:00", "lat": 53.198, "lon": 8.033, "intensity": 0.7, "source": "Tagesschau"}, {"title": "Kretschmann-Besuch abgesagt: Einsatz am ALM Konstanz beendet", "url": "https://www.tagesschau.de/inland/regional/badenwuerttemberg/swr-alm-konstanz-wegen-verdaechtigen-gegenstands-abgeriegelt-100.html", "thumbnailUrl": "https://images.tagesschau.de/image/253baeba-2658-4fd5-8e2b-b380ed7dff7f/AAABjvWmBak/AAABjcWesUg/16x9-512.jpg", "date": "2024-04-19T11:41:00.000+02:00", "lat": 47.6667, "lon": 9.1733, "intensity": 0.4, "source": "Tagesschau"}, {"title": "Computer, Internet und Kaffee: Co-Working-Spaces haben es nicht leicht in S\u00fcdbrandenburg", "url": "https://www.tagesschau.de/inland/regional/brandenburg/rbb-computer-internet-und-kaffee-co-working-spaces-haben-es-nicht-leicht-in-suedbrandenburg-100.html", "thumbnailUrl": "https://images.tagesschau.de/image/2c2925c7-fbbc-4924-ac0d-db150ba8af45/AAABjvW8C-Y/AAABjcWesUg/16x9-512.jpg", "date": "2024-04-19T11:38:52.000+02:00", "lat": 52.3007, "lon": 13.7858, "intensity": 0.6, "source": "Tagesschau"}, {"title": "Apple und Google wieder mit Kamera-Autos in MV unterwegs", "url": "https://www.tagesschau.de/inland/regional/mecklenburgvorpommern/ndr-apple-und-google-wieder-mit-kamera-autos-in-mv-unterwegs-100.html", "thumbnailUrl": "https://images.tagesschau.de/image/3959c478-7d2d-43fc-aa4b-f0e02514ecf0/AAABjvZmRC8/AAABjcWesUg/16x9-512.jpg", "date": "2024-04-19T11:37:00.000+02:00", "lat": 53.6127, "lon": 13.1005, "intensity": 0.6, "source": "Tagesschau"}, {"title": "A2 bei Wunstorf: Strecke nach Unfall mit Lkw wieder frei", "url": "https://www.tagesschau.de/inland/regional/niedersachsen/ndr-a2-bei-wunstorf-gesperrt-truemmerteile-nach-unfall-auf-autobahn-100.html", "thumbnailUrl": "https://images.tagesschau.de/image/5eca5de9-82e3-483a-8dc4-8274cad637a1/AAABjvWy3w8/AAABjcWesUg/16x9-512.jpg", "date": "2024-04-19T11:28:00.000+02:00", "lat": 52.462, "lon": 9.428, "intensity": 0.8, "source": "Tagesschau"}, {"title": "Mit Tempo 150 und ohne F\u00fchrerschein: Polizei stoppt 26-J\u00e4hrige", "url": "https://www.tagesschau.de/inland/regional/niedersachsen/ndr-mit-tempo-150-und-ohne-fuehrerschein-polizei-stoppt-26-jaehrige-100.html", "thumbnailUrl": "https://images.tagesschau.de/image/44b77ba9-b262-468b-8a88-ed49c2326375/AAABjvXi3xM/AAABjcWesUg/16x9-512.jpg", "date": "2024-04-19T11:20:00.000+02:00", "lat": 52.3, "lon": 8.3, "intensity": 0.7, "source": "Tagesschau"}, {"title": "Prozess in Waren (M\u00fcritz): Berliner Paar erh\u00e4lt Geldstrafe auf Bew\u00e4hrung f\u00fcr Beleidigung von Drosten", "url": "https://www.tagesschau.de/inland/regional/berlin/rbb-prozess-in-waren-mueritz-berliner-paar-erhaelt-geldstrafe-auf-bewaehrung-fuer-beleidigung-von-drosten-100.html", "thumbnailUrl": "https://images.tagesschau.de/image/7f27a51c-ca90-4b96-be42-69bacfab9948/AAABjvWpvkA/AAABjcWesUg/16x9-512.jpg", "date": "2024-04-19T11:16:27.000+02:00", "lat": 53.5206, "lon": 12.6898, "intensity": 0.7, "source": "Tagesschau"}, {"title": "Kritik aus Hamburg wegen gestoppter Pl\u00e4ne f\u00fcr Gesundheitskioske", "url": "https://www.tagesschau.de/inland/regional/hamburg/ndr-kritik-aus-hamburg-wegen-gestoppter-plaene-fuer-gesundheitskioske-100.html", "thumbnailUrl": "https://images.tagesschau.de/image/160ee542-2b65-4dc9-a1a2-3c0a9078963a/AAABjvYT7_Q/AAABjcWesUg/16x9-512.jpg", "date": "2024-04-19T11:14:00.000+02:00", "lat": 53.55, "lon": 10.0, "intensity": 0.8, "source": "Tagesschau"}, {"title": "Darmstadt 98: +++ Lilien verl\u00e4ngern mit Brunst +++ Lieberknecht: Stehen in der Bringschuld +++ Lilien bangen um Vilhelmsson +++ ", "url": "https://www.tagesschau.de/inland/regional/hessen/hr--tietz-vermisst-fehlende-gier--lilien-fans-liefern-sich-raststaetten-pruegelei--die-niederlage-der-lilien-in-der-video-zusammenfassung-102.html", "thumbnailUrl": "https://images.tagesschau.de/image/638bb2b2-fc17-4d4f-843a-eb098e259f81/AAABjvWicXI/AAABjcWesUg/16x9-512.jpg", "date": "2024-04-19T11:13:56.406+02:00", "lat": 49.878, "lon": 8.6536, "intensity": 0.6, "source": "Tagesschau"}, {"title": "Nagelsmann bleibt bis 2026 Bundestrainer ", "url": "https://www.tagesschau.de/sport/nagelsmann-vertragsverlaengerung-100.html", "thumbnailUrl": "https://images.tagesschau.de/image/53aef577-8471-486c-9fdd-541f255541fa/AAABiq0JgsI/AAABjcWesUg/16x9-512.jpg", "date": "2024-04-19T11:11:35.871+02:00", "lat": 51.5413, "lon": 9.9937, "intensity": 0.6, "source": "Tagesschau"}, {"title": "Privates Busgewerbe in SH: Einigung im Tarifstreit", "url": "https://www.tagesschau.de/inland/regional/schleswigholstein/ndr-privates-busgewerbe-einigung-im-tarifstreit-beendet-warnstreiks-100.html", "thumbnailUrl": "https://images.tagesschau.de/image/3d1ca314-deca-4346-a4db-3660cbd0c93a/AAABjvWixDM/AAABjcWesUg/16x9-512.jpg", "date": "2024-04-19T11:06:00.000+02:00", "lat": 54.3326, "lon": 9.6962, "intensity": 0.6, "source": "Tagesschau"}, {"title": "Amateurfu\u00dfball statt Karriereende: Ex-Union-Profi Max Kruse kickt k\u00fcnftig in Berliner Kreisliga", "url": "https://www.tagesschau.de/inland/regional/berlin/rbb-fussball-ex-union-profi-max-kruse-will-in-berliner-kreisliga-kicken-102.html", "thumbnailUrl": "https://images.tagesschau.de/image/c5e51149-4f04-435c-8ab8-424feda5cf49/AAABjvWXZ9I/AAABjcWesUg/16x9-512.jpg", "date": "2024-04-19T10:57:15.000+02:00", "lat": 52.52, "lon": 13.405, "intensity": 0.6, "source": "Tagesschau"}, {"title": "Ausstellungskritik zu 250 Jahre Caspar David Friedrich: Der deutsche Stimmungsmacher", "url": "https://www.tagesschau.de/inland/regional/berlin/rbb-ausstellungskritik-zu-250-jahre-caspar-david-friedrich-der-deutsche-stimmungsmacher-100.html", "thumbnailUrl": "https://images.tagesschau.de/image/994ee92d-06c7-4cb7-aa24-0714854b1884/AAABjvVKlXY/AAABjcWesUg/16x9-512.jpg", "date": "2024-04-19T10:51:16.000+02:00", "lat": 52.520008, "lon": 13.404954, "intensity": 0.7, "source": "Tagesschau"}, {"title": "Gericht best\u00e4tigt Baustopp f\u00fcr Gasbohrungen vor Borkum", "url": "https://www.tagesschau.de/inland/regional/niedersachsen/ndr-entscheidung-ueber-gasbohrungen-vor-borkum-erwartet-100.html", "thumbnailUrl": "https://images.tagesschau.de/image/3af679ab-7dcd-46bb-9e2e-4a33b0d671a2/AAABjvG3WDA/AAABjcWesUg/16x9-512.jpg", "date": "2024-04-19T10:42:00.000+02:00", "lat": 52.0705, "lon": 4.3007, "intensity": 0.6, "source": "Tagesschau"}, {"title": "Wochenende: Sperrung der A3 im Dreieck Heumar Richtung Frankfurt", "url": "https://www.tagesschau.de/inland/regional/nordrheinwestfalen/wdr-wochenende-sperrung-der-a3-im-dreieck-heumar-richtung-frankfurt-100.html", "thumbnailUrl": "https://images.tagesschau.de/image/7a6c888d-9464-416f-a3e9-98c3aaf2966c/AAABjvWMYbs/AAABjcWesUg/16x9-512.jpg", "date": "2024-04-19T10:42:00.000+02:00", "lat": 50.9333, "lon": 7.0667, "intensity": 0.7, "source": "Tagesschau"}, {"title": "Frau aus Idar-Oberstein verliert wertvollen Schmuck an Betr\u00fcger ", "url": "https://www.tagesschau.de/inland/regional/rheinlandpfalz/swr-frau-aus-idar-oberstein-verliert-wertvollen-schmuck-an-betrueger-102.html", "thumbnailUrl": "https://images.tagesschau.de/image/80768c79-b5e2-4e26-87c3-e54120874246/AAABjvXisAg/AAABjcWesUg/16x9-512.jpg", "date": "2024-04-19T10:42:00.000+02:00", "lat": 49.7098, "lon": 7.3137, "intensity": 0.6, "source": "Tagesschau"}, {"title": "ver.di: Erneute Streiks im \u00d6PNV in BW - in Karlsruhe einen Tag l\u00e4nger", "url": "https://www.tagesschau.de/inland/regional/badenwuerttemberg/swr-ver-di-ruft-fuer-donnerstag-und-freitag-zu-streiks-im-oepnv-in-bw-auf-100.html", "thumbnailUrl": "https://images.tagesschau.de/image/672cda65-c2a7-446e-bbcc-ffe6c99b7f2b/AAABjvVcyT0/AAABjcWesUg/16x9-512.jpg", "date": "2024-04-19T10:40:00.000+02:00", "lat": 48.7758, "lon": 9.0222, "intensity": 0.8, "source": "Tagesschau"}, {"title": "Deutscher Computerspielpreis 2024: Berliner Entwicklerstudios gewinnen Preise f\u00fcr Videospiele", "url": "https://www.tagesschau.de/inland/regional/berlin/rbb-deutscher-computerspielpreis-2024-berliner-entwicklerstudios-gewinnen-preise-fuer-videospiele-100.html", "thumbnailUrl": "https://images.tagesschau.de/image/fbf5c9ed-42f8-4ac1-b9c8-02534ff16548/AAABjvWFOr0/AAABjcWesUg/16x9-512.jpg", "date": "2024-04-19T10:39:36.000+02:00", "lat": 52.520008, "lon": 13.404954, "intensity": 0.8, "source": "Tagesschau"}, {"title": "BRB schie\u00dft gegen Deutsche Bahn: \"Das System ist am Ende\"", "url": "https://www.tagesschau.de/inland/regional/bayern/br-brb-schiesst-gegen-deutsche-bahn-das-system-ist-am-ende-102.html", "thumbnailUrl": "https://images.tagesschau.de/image/43ca6407-c66e-43ba-9c7b-5eefc0f530a0/AAABjvV6H2o/AAABjcWesUg/16x9-512.jpg", "date": "2024-04-19T10:28:12.973+02:00", "lat": 48.1371, "lon": 11.5761, "intensity": 0.8, "source": "Tagesschau"}, {"title": "Unfall mit Quad: Fahrer verletzt sich schwer", "url": "https://www.tagesschau.de/inland/regional/niedersachsen/ndr-unfall-mit-quad-fahrer-verletzt-sich-schwer-100.html", "thumbnailUrl": "https://images.tagesschau.de/image/eeeb4e03-669b-4ee5-bdd3-9539dba6ddcc/AAABjvV2j5E/AAABjcWesUg/16x9-512.jpg", "date": "2024-04-19T10:20:00.000+02:00", "lat": 52.3759, "lon": 10.4234, "intensity": 0.7, "source": "Tagesschau"}, {"title": "Gestrandete Spiekeroog-F\u00e4hre: Schwimmkran hebt Schiff ins Wasser", "url": "https://www.tagesschau.de/inland/regional/niedersachsen/ndr-gestrandete-spiekeroog-faehre-schwimmt-wieder-100.html", "thumbnailUrl": "https://images.tagesschau.de/image/2e613552-2f7d-41bd-93fe-78d6b462529b/AAABjvDI-Rw/AAABjcWesUg/16x9-512.jpg", "date": "2024-04-19T10:07:00.000+02:00", "lat": 53.7002, "lon": 7.6608, "intensity": 0.8, "source": "Tagesschau"}, {"title": "Liqui Moly will Produktion im Saarland massiv steigern", "url": "https://www.tagesschau.de/inland/regional/saarland/sr-liqui-moly-zentrallager-kommt-nicht-nach-saarlouis-100.html", "thumbnailUrl": "https://images.tagesschau.de/image/3cf742e8-91e3-4f74-ad00-e133f6cad4cd/AAABjvUypok/AAABjcWesUg/16x9-512.jpg", "date": "2024-04-19T10:06:00.000+02:00", "lat": 49.2463, "lon": 6.9703, "intensity": 0.8, "source": "Tagesschau"}, {"title": "G\u00fcstrow: 12-J\u00e4hriger schie\u00dft mit Softair-Waffe auf Mitsch\u00fcler", "url": "https://www.tagesschau.de/inland/regional/mecklenburgvorpommern/ndr-guestrow-12-jaehriger-schiesst-mit-softair-waffe-auf-mitschueler-100.html", "thumbnailUrl": "https://images.tagesschau.de/image/13640ee7-8888-4ff3-8ae8-7ae4e019b4d9/AAABjvYrrnw/AAABjcWesUg/16x9-512.jpg", "date": "2024-04-19T10:05:00.000+02:00", "lat": 53.7933, "lon": 12.1696, "intensity": 0.7, "source": "Tagesschau"}, {"title": "BW-Newsticker am Morgen: Blitzermarathon im ganzen Land, weiter \u00c4rger mit der 110, Skilifte im Land wieder offen", "url": "https://www.tagesschau.de/inland/regional/badenwuerttemberg/swr-bw-newsticker-am-morgen-blitzermarathon-im-ganzen-land-wieder-streik-bei-bussen-und-bahnen-100.html", "thumbnailUrl": "https://images.tagesschau.de/image/94c776e3-c085-4bba-9105-eff73aa60394/AAABjvSGnSE/AAABjcWesUg/16x9-512.jpg", "date": "2024-04-19T10:00:00.000+02:00", "lat": 48.6617, "lon": 9.3292, "intensity": 0.7, "source": "Tagesschau"}, {"title": "Wo Skifahren am Wochenende im Schwarzwald m\u00f6glich ist - und das Mitte April!", "url": "https://www.tagesschau.de/inland/regional/badenwuerttemberg/swr-wo-skifahren-am-wochenende-im-schwarzwald-moeglich-ist-und-das-mitte-april-100.html", "thumbnailUrl": "https://images.tagesschau.de/image/5a6fbd99-10b3-4a42-bc3c-6f4886cf3e81/AAABjvilQiY/AAABjcWesUg/16x9-512.jpg", "date": "2024-04-19T09:27:00.000+02:00", "lat": 48.1467, "lon": 8.2285, "intensity": 0.5, "source": "Tagesschau"}, {"title": "Boni f\u00fcr Besch\u00e4ftigte trotz Milliardenverlust", "url": "https://www.tagesschau.de/investigativ/ndr/deutsche-bahn-boni-102.html", "thumbnailUrl": "https://images.tagesschau.de/image/394e1812-c77f-417a-a167-83c20ddb252a/AAABjnwBmuc/AAABjcWesUg/16x9-512.jpg", "date": "2024-04-19T09:25:36.710+02:00", "lat": 52.520008, "lon": 13.404954, "intensity": 0.7, "source": "Tagesschau"}, {"title": "Ein Jahr Skywalk auf R\u00fcgen: 560.000 Besucher am K\u00f6nigsstuhl", "url": "https://www.tagesschau.de/inland/regional/mecklenburgvorpommern/ndr-ein-jahr-skywalk-auf-ruegen-560-000-besucher-am-koenigsstuhl-100.html", "thumbnailUrl": "https://images.tagesschau.de/image/f3b0337d-6d64-4567-b3fd-52ac112c920f/AAABjvWVkS0/AAABjcWesUg/16x9-512.jpg", "date": "2024-04-19T09:24:00.000+02:00", "lat": 54.5508, "lon": 13.6254, "intensity": 0.8, "source": "Tagesschau"}, {"title": "Cold Cases: Wenn ungekl\u00e4rte Verbrechen wieder aufgerollt werden", "url": "https://www.tagesschau.de/inland/regional/nordrheinwestfalen/wdr-cold-cases-wenn-ungeklaerte-verbrechen-wieder-aufgerollt-werden-100.html", "thumbnailUrl": "https://images.tagesschau.de/image/b3f3f069-62e5-447d-a58a-aeedbe146835/AAABjvc-Y24/AAABjcWesUg/16x9-512.jpg", "date": "2024-04-19T09:19:00.000+02:00", "lat": 51.8133, "lon": 7.6261, "intensity": 0.8, "source": "Tagesschau"}, {"title": "US-Turnerinnen erhalten 100 Millionen Dollar Entsch\u00e4digung", "url": "https://www.tagesschau.de/ausland/amerika/usa-nassar-missbrauchsopfer-justizministerium-100.html", "thumbnailUrl": "https://images.tagesschau.de/image/9d59f3f7-8bf7-4139-98f5-b07d3fdc5040/AAABjvZovy4/AAABjcWesUg/16x9-512.jpg", "date": "2024-04-19T09:17:42.565+02:00", "lat": 39.8283, "lon": -98.5795, "intensity": 0.8, "source": "Tagesschau"}, {"title": "Apple muss WhatsApp aus App Store in China l\u00f6schen", "url": "https://www.tagesschau.de/wirtschaft/unternehmen/apple-china-whatsapp-threads-100.html", "thumbnailUrl": "https://images.tagesschau.de/image/06126968-3a0e-40b4-8b1b-56725324cbc5/AAABjvZ7yUQ/AAABjcWesUg/16x9-512.jpg", "date": "2024-04-19T09:10:43.265+02:00", "lat": 39.9042, "lon": 116.4074, "intensity": 0.8, "source": "Tagesschau"}, {"title": "Konzertkritik | Joe Bonamassa in Berlin: Der Blues-Athlet ", "url": "https://www.tagesschau.de/inland/regional/berlin/rbb-konzertkritik--joe-bonamassa-in-berlin-der-blues-athlet-100.html", "thumbnailUrl": "https://images.tagesschau.de/image/df15a7c4-f735-405d-8e61-f1d57eecb297/AAABjvUkHkY/AAABjcWesUg/16x9-512.jpg", "date": "2024-04-19T08:55:06.000+02:00", "lat": 52.520008, "lon": 13.404954, "intensity": 0.6, "source": "Tagesschau"}, {"title": "Wie der Bezirk Hamburg-Mitte das Clubsterben stoppen will ", "url": "https://www.tagesschau.de/inland/regional/hamburg/ndr-wie-der-bezirk-hamburg-mitte-das-clubsterben-stoppen-will-100.html", "thumbnailUrl": "https://images.tagesschau.de/image/4e96659c-fa00-4795-94e1-337fd5883260/AAABjvURv9w/AAABjcWesUg/16x9-512.jpg", "date": "2024-04-19T08:35:00.000+02:00", "lat": 53.5511, "lon": 9.9903, "intensity": 0.7, "source": "Tagesschau"}, {"title": "Waldsterben im Harz: Freiwillige wollen 25.000 B\u00e4ume pflanzen", "url": "https://www.tagesschau.de/inland/regional/niedersachsen/ndr-waldsterben-im-harz-freiwillige-wollen-25-000-baeume-pflanzen-100.html", "thumbnailUrl": "https://images.tagesschau.de/image/cc46a641-cdac-4b65-ae35-0b15e0b26f40/AAABjvU6E1U/AAABjcWesUg/16x9-512.jpg", "date": "2024-04-19T08:33:00.000+02:00", "lat": 51.8038, "lon": 10.5695, "intensity": 0.7, "source": "Tagesschau"}, {"title": "Modis Erfolge und ungel\u00f6ste Probleme", "url": "https://www.tagesschau.de/ausland/asien/wahlen-indien-102.html", "thumbnailUrl": "https://images.tagesschau.de/image/54b1715b-c9a9-4e2b-8f2b-682652c0d502/AAABjvULxzw/AAABjcWesUg/16x9-512.jpg", "date": "2024-04-19T08:29:33.929+02:00", "lat": 28.6139, "lon": 77.209, "intensity": 0.8, "source": "Tagesschau"}, {"title": "Ist das Girokonto zu teuer? ", "url": "https://www.tagesschau.de/wirtschaft/verbraucher/girokonten-gebuehren-kontowechsel-100.html", "thumbnailUrl": "https://images.tagesschau.de/image/5939e7c8-d2d8-40ba-a182-f21342c613aa/AAABhnRVyyc/AAABjcWesUg/16x9-512.jpg", "date": "2024-04-19T08:14:40.493+02:00", "lat": 53.5511, "lon": 9.9937, "intensity": 0.4, "source": "Tagesschau"}, {"title": "Berliner SPD-Mitglieder k\u00f6nnen noch bis Freitagabend \u00fcber neue Doppelspitze der Landespartei abstimmen", "url": "https://www.tagesschau.de/inland/regional/berlin/rbb-berliner-spd-mitglieder-koennen-noch-bis-freitagabend-ueber-neue-doppelspitze-der-landespartei-abstimmen-100.html", "thumbnailUrl": "https://images.tagesschau.de/image/4a84c63e-ff32-4c52-9e51-21277db7a141/AAABjvT_dj8/AAABjcWesUg/16x9-512.jpg", "date": "2024-04-19T08:14:37.000+02:00", "lat": 52.520008, "lon": 13.404954, "intensity": 0.5, "source": "Tagesschau"}, {"title": "Springe: Unbekannter greift Frau an - Polizei sucht Zeugen", "url": "https://www.tagesschau.de/inland/regional/niedersachsen/ndr-springe-unbekannter-greift-frau-an-polizei-sucht-zeugen-100.html", "thumbnailUrl": "https://images.tagesschau.de/image/f9927396-7cda-456f-9f87-aa73601c8622/AAABjvVDTLE/AAABjcWesUg/16x9-512.jpg", "date": "2024-04-19T08:10:00.000+02:00", "lat": 52.2074, "lon": 9.5753, "intensity": 0.6, "source": "Tagesschau"}, {"title": "Bauern und Winzer im Saarland bangen um ihre Ernte ", "url": "https://www.tagesschau.de/inland/regional/saarland/sr-bauern-und-winzer-im-saarland-bangen-um-ihre-ernte-100.html", "thumbnailUrl": "https://images.tagesschau.de/image/21bde5f4-f15e-4d8a-a2e0-fa5f54adb632/AAABjvaDkdU/AAABjcWesUg/16x9-512.jpg", "date": "2024-04-19T08:10:00.000+02:00", "lat": 49.3964, "lon": 6.9912, "intensity": 0.8, "source": "Tagesschau"}, {"title": "Tulpenmeer bei Gifhorn: Am Sonntag geht es in die Blumen", "url": "https://www.tagesschau.de/inland/regional/niedersachsen/ndr-tulpenmeer-bei-gifhorn-am-sonntag-geht-es-in-die-blumen-100.html", "thumbnailUrl": "https://images.tagesschau.de/image/92afdc72-6e52-4baf-9661-3d37212f9c52/AAABjvT593E/AAABjcWesUg/16x9-512.jpg", "date": "2024-04-19T08:02:00.000+02:00", "lat": 52.475, "lon": 10.5511, "intensity": 0.6, "source": "Tagesschau"}, {"title": "Bonner Stadtrat spricht sich f\u00fcr Milliarden-Bauprojekt aus", "url": "https://www.tagesschau.de/inland/regional/nordrheinwestfalen/wdr-bonner-stadtrat-spricht-sich-fuer-milliarden-bauprojekt-aus-102.html", "thumbnailUrl": "https://images.tagesschau.de/image/27212a06-5dd1-480e-9674-3bc0e602b77a/AAABjvUXMCQ/AAABjcWesUg/16x9-512.jpg", "date": "2024-04-19T08:01:00.000+02:00", "lat": 50.7374, "lon": 7.0982, "intensity": 0.8, "source": "Tagesschau"}, {"title": "Hessen will Cannabis-Verbotszonen", "url": "https://www.tagesschau.de/inland/regional/hessen/hr-hessen-will-cannabis-verbotszonen-100.html", "thumbnailUrl": "https://images.tagesschau.de/image/06f10c61-d48e-4a29-be5f-ad514ad74e54/AAABjvTtLgI/AAABjcWesUg/16x9-512.jpg", "date": "2024-04-19T07:54:13.576+02:00", "lat": 50.1109, "lon": 9.6856, "intensity": 0.7, "source": "Tagesschau"}, {"title": "Gegen Alleebaum geprallt: Frau stirbt bei schwerem Unfall in Hennigsdorf", "url": "https://www.tagesschau.de/inland/regional/brandenburg/rbb-gegen-alleebaum-geprallt-frau-stirbt-bei-schwerem-unfall-in-hennigsdorf-100.html", "thumbnailUrl": "https://images.tagesschau.de/image/c5290ba7-39b4-49f1-8b7e-43b2919c1bb6/AAABjvTw2QA/AAABjcWesUg/16x9-512.jpg", "date": "2024-04-19T07:50:31.000+02:00", "lat": 52.6319, "lon": 13.2067, "intensity": 0.8, "source": "Tagesschau"}, {"title": "Gro\u00dfer Drogen- und Waffenfund nach Festnahme in Sch\u00f6ntal", "url": "https://www.tagesschau.de/inland/regional/badenwuerttemberg/swr-grosser-drogen-und-waffenfund-nach-festnahme-in-schoental-100.html", "thumbnailUrl": "https://images.tagesschau.de/image/d809d7b2-452e-48ed-a370-d2ad8d828f2f/AAABjvXxKXY/AAABjcWesUg/16x9-512.jpg", "date": "2024-04-19T07:47:45.000+02:00", "lat": 49.3369, "lon": 9.4944, "intensity": 0.8, "source": "Tagesschau"}, {"title": "Hessen am Morgen: +++ Blitzermarathon in Hessen +++ Innenminister pr\u00fcft Cannabis-Verbotszonen +++ Mond mit Ring unterwegs +++", "url": "https://www.tagesschau.de/inland/regional/hessen/hr-hessen-am-morgen--blitzermarathon-in-hessen--alle-radarkontrollen-in-der-uebersicht--schulausfall-wegen-kaputter-heizung-100.html", "thumbnailUrl": "https://images.tagesschau.de/image/9cd402d6-138f-4711-9a23-eac3a9bc089d/AAABjvSEvFA/AAABjcWesUg/16x9-512.jpg", "date": "2024-04-19T07:40:51.730+02:00", "lat": 50.6, "lon": 9.05, "intensity": 0.6, "source": "Tagesschau"}, {"title": "Zum Schutz von Igeln: M\u00e4hroboter d\u00fcrfen in Nuthetal nachts nicht mehr fahren", "url": "https://www.tagesschau.de/inland/regional/brandenburg/rbb-igel-schutz-maehroboter-duerfen-in-nuthetal-nachts-nicht-mehr-fahren-100.html", "thumbnailUrl": "https://images.tagesschau.de/image/b476db37-b73d-4442-966c-846ab7307349/AAABjvTRo1I/AAABjcWesUg/16x9-512.jpg", "date": "2024-04-19T07:23:58.000+02:00", "lat": 52.325, "lon": 13.2167, "intensity": 0.6, "source": "Tagesschau"}, {"title": "T\u00f6dlicher Unfall in Mainz: Auto erfasst Radfahrerin", "url": "https://www.tagesschau.de/inland/regional/rheinlandpfalz/swr-toedlicher-unfall-in-mainz-auto-erfasst-radfahrerin-100.html", "thumbnailUrl": "https://images.tagesschau.de/image/02cacc01-a660-4872-8a53-347997ac504f/AAABjvTj71o/AAABjcWesUg/16x9-512.jpg", "date": "2024-04-19T06:35:00.000+02:00", "lat": 50.006388, "lon": 8.247252, "intensity": 0.8, "source": "Tagesschau"}, {"title": "Was tun f\u00fcr die ukrainische Flugabwehr?", "url": "https://www.tagesschau.de/ausland/europa/luftabwehr-ukraine-104.html", "thumbnailUrl": "https://images.tagesschau.de/image/07b9b1f0-080b-43fb-beb9-11d7731bb9a0/AAABjvSaekI/AAABjcWesUg/16x9-512.jpg", "date": "2024-04-19T06:25:48.691+02:00", "lat": 50.4501, "lon": 30.5234, "intensity": 0.6, "source": "Tagesschau"}, {"title": "Sind die Korallen noch zu retten?", "url": "https://www.tagesschau.de/multimedia/podcast/11km/11km-feed-100.html", "thumbnailUrl": "https://images.tagesschau.de/image/95131040-613f-4d17-83f0-4cd45a3286b8/AAABjvRcUfM/AAABjcWesUg/16x9-512.jpg", "date": "2024-04-19T06:23:12.536+02:00", "lat": -19.2302, "lon": 147.9417, "intensity": 0.8, "source": "Tagesschau"}, {"title": "Kampf gegen M\u00fcllberge in Pforzheim: Auf Streife mit den M\u00fcll-Sheriffs", "url": "https://www.tagesschau.de/inland/regional/badenwuerttemberg/swr-kampf-gegen-muellberge-in-pforzheim-auf-streife-mit-den-muell-sheriffs-100.html", "thumbnailUrl": "https://images.tagesschau.de/image/0d52ad37-f30d-4125-8556-d077aa5e3a4e/AAABjvUE4Uw/AAABjcWesUg/16x9-512.jpg", "date": "2024-04-19T06:23:08.000+02:00", "lat": 48.8566, "lon": 8.6947, "intensity": 0.7, "source": "Tagesschau"}, {"title": "Waldbrand\u00fcbung: Feuerwehren aus der Region Trier proben den Ernstfall", "url": "https://www.tagesschau.de/inland/regional/rheinlandpfalz/swr-waldbranduebung-feuerwehren-aus-der-region-trier-proben-den-ernstfall-100.html", "thumbnailUrl": "https://images.tagesschau.de/image/c910d9a8-a60a-4ae1-b7fe-4db64e129c98/AAABjvghYf8/AAABjcWesUg/16x9-512.jpg", "date": "2024-04-19T06:06:43.000+02:00", "lat": 49.7559, "lon": 7.2125, "intensity": 0.7, "source": "Tagesschau"}, {"title": "Mafiaprozess: Entscheidende Phase in Duisburg?", "url": "https://www.tagesschau.de/inland/regional/nordrheinwestfalen/wdr-wichtiges-rechtsgespraech-im-duisburger-mafiaprozess-100.html", "thumbnailUrl": "https://images.tagesschau.de/image/aed9de2c-3d11-4240-9238-c147678aa562/AAABjvUGtbc/AAABjcWesUg/16x9-512.jpg", "date": "2024-04-19T06:00:00.000+02:00", "lat": 51.4344, "lon": 6.7675, "intensity": 0.8, "source": "Tagesschau"}, {"title": "Urteil im Fall um zerst\u00fcckelte Leiche in Greifswald erwartet", "url": "https://www.tagesschau.de/inland/regional/mecklenburgvorpommern/ndr-urteil-im-fall-um-zerstueckelte-leiche-in-greifswald-erwartet-100.html", "thumbnailUrl": "https://images.tagesschau.de/image/f0950dfe-baaf-435c-aa9c-187539861b37/AAABjvb1FhA/AAABjcWesUg/16x9-512.jpg", "date": "2024-04-19T06:00:00.000+02:00", "lat": 54.0924, "lon": 13.3946, "intensity": 0.8, "source": "Tagesschau"}, {"title": "Rocker in K\u00f6ln erschossen - Prozess gegen mutma\u00dflichen Auftraggeber", "url": "https://www.tagesschau.de/inland/regional/nordrheinwestfalen/wdr-rocker-in-koeln-erschossen-prozess-gegen-mutmasslichen-auftraggeber-100.html", "thumbnailUrl": "https://images.tagesschau.de/image/93056a59-f7af-4f04-9c49-ee4729a5b022/AAABjvSwuxc/AAABjcWesUg/16x9-512.jpg", "date": "2024-04-19T06:00:00.000+02:00", "lat": 50.9375, "lon": 6.9603, "intensity": 0.8, "source": "Tagesschau"}, {"title": "Kinderpornografie: Gericht verurteilt 39-J\u00e4hrigen zu drei Jahren Haft", "url": "https://www.tagesschau.de/inland/regional/niedersachsen/ndr-kinderpornografie-gericht-verurteilt-39-jaehrigen-zu-drei-jahren-haft-100.html", "thumbnailUrl": "https://images.tagesschau.de/image/96c75c9d-3e95-4554-9e6f-b7d2989ed025/AAABjvUrgEc/AAABjcWesUg/16x9-512.jpg", "date": "2024-04-19T05:44:00.000+02:00", "lat": 52.2799, "lon": 8.0476, "intensity": 0.8, "source": "Tagesschau"}, {"title": "Generation Z und der Tod der Gastronomie in SH?", "url": "https://www.tagesschau.de/inland/regional/schleswigholstein/ndr-generation-z-und-der-tod-der-gastronomie-in-sh-100.html", "thumbnailUrl": "https://images.tagesschau.de/image/3f7e2afb-b66a-417c-a107-e36b8e7147f4/AAABjvRN0T8/AAABjcWesUg/16x9-512.jpg", "date": "2024-04-19T05:00:00.000+02:00", "lat": 54.1291, "lon": 9.5569, "intensity": 0.6, "source": "Tagesschau"}, {"title": "Blitzermarathon in BW: Haupttag der europaweiten Aktionswoche ", "url": "https://www.tagesschau.de/inland/regional/badenwuerttemberg/swr-blitzermarathon-in-bw-am-freitag-haupttag-der-europaweiten-aktionswoche-100.html", "thumbnailUrl": "https://images.tagesschau.de/image/9f0b556e-8934-4148-be79-54e9a2241935/AAABjvQ7gJs/AAABjcWesUg/16x9-512.jpg", "date": "2024-04-19T04:40:28.000+02:00", "lat": 48.7904, "lon": 9.0233, "intensity": 0.6, "source": "Tagesschau"}, {"title": "Nach Messerstichen: Mann rettet sich in Bad Kreuznacher Klinik", "url": "https://www.tagesschau.de/inland/regional/rheinlandpfalz/swr-nach-messerstichen-mann-rettet-sich-in-bad-kreuznacher-klinik-100.html", "thumbnailUrl": "https://images.tagesschau.de/image/4c2aa873-0b5b-4958-a4b7-bc801eea5b22/AAABjvXT1tY/AAABjcWesUg/16x9-512.jpg", "date": "2024-04-19T03:53:15.000+02:00", "lat": 49.8419, "lon": 7.8717, "intensity": 0.8, "source": "Tagesschau"}, {"title": "Nur nicht den Anschluss verlieren", "url": "https://www.tagesschau.de/wirtschaft/weltwirtschaft/bruessel-gipfeltreffen-wirtschaft-100.html", "thumbnailUrl": "https://images.tagesschau.de/image/ab97b3c8-847a-4635-bee7-13a754fc0e68/AAABjvLRUFU/AAABjcWesUg/16x9-512.jpg", "date": "2024-04-19T00:41:31.914+02:00", "lat": 50.8503, "lon": 4.3517, "intensity": 0.8, "source": "Tagesschau"}, {"title": "A7 bei Rendsburg an diesem Wochenende erneut gesperrt", "url": "https://www.tagesschau.de/inland/regional/schleswigholstein/ndr-a7-im-april-an-zwei-wochenenden-teilweise-voll-gesperrt-100.html", "thumbnailUrl": "https://images.tagesschau.de/image/c94e1b76-ddf3-408c-b9fd-92bae2df40ee/AAABjvUn8aM/AAABjcWesUg/16x9-512.jpg", "date": "2024-04-19T00:00:00.000+02:00", "lat": 54.3113, "lon": 9.6655, "intensity": 0.4, "source": "Tagesschau"}, {"title": "Laut Spiegel belasten Videoaufnahmen AfD-Politiker Bystron", "url": "https://www.br.de/nachrichten/meldungen/index.html#n1", "thumbnailUrl": null, "date": "2024-04-20T03:14:12+02:00", "lat": 30.0444, "lon": 31.2357, "intensity": 0.8, "source": "Bayrischer Rundfunk"}, {"title": "NATO will der Ukraine weitere Luftabwehrsysteme liefern", "url": "https://www.br.de/nachrichten/meldungen/index.html#n2", "thumbnailUrl": null, "date": "2024-04-20T03:14:12+02:00", "lat": 33.5138, "lon": 36.2021, "intensity": 0.8, "source": "Bayrischer Rundfunk"}, {"title": "Europa-Staatsministerin fordert bessere Spionageabwehr", "url": "https://www.br.de/nachrichten/meldungen/index.html#n3", "thumbnailUrl": null, "date": "2024-04-20T03:14:12+02:00", "lat": 39.9334, "lon": 32.8597, "intensity": 0.8, "source": "Bayrischer Rundfunk"}, {"title": "USA und EU verh\u00e4ngen Sanktionen gegen radikale israelische Siedler", "url": "https://www.br.de/nachrichten/meldungen/index.html#n4", "thumbnailUrl": null, "date": "2024-04-20T03:14:12+02:00", "lat": 52.520008, "lon": 13.404954, "intensity": 0.7, "source": "Bayrischer Rundfunk"}, {"title": "Wohnkosten verschlingen wachsenden Teil des Einkommens", "url": "https://www.br.de/nachrichten/meldungen/index.html#n5", "thumbnailUrl": null, "date": "2024-04-20T03:14:12+02:00", "lat": 52.520008, "lon": 13.404954, "intensity": 0.6, "source": "Bayrischer Rundfunk"}, {"title": "Bundesregierung will Cannabisgesetz nachsch\u00e4rfen", "url": "https://www.br.de/nachrichten/meldungen/index.html#n6", "thumbnailUrl": null, "date": "2024-04-20T03:14:12+02:00", "lat": 48.135125, "lon": 11.581981, "intensity": 0.6, "source": "Bayrischer Rundfunk"}, {"title": "Jury f\u00fcr US-Strafprozess gegen Trump ist komplett", "url": "https://www.br.de/nachrichten/meldungen/index.html#n7", "thumbnailUrl": null, "date": "2024-04-20T03:14:12+02:00", "lat": 50.110922, "lon": 8.682127, "intensity": 0.8, "source": "Bayrischer Rundfunk"}, {"title": "Tesla ruft Cybertruck wegen Gespedal-Problemen zur\u00fcck", "url": "https://www.br.de/nachrichten/meldungen/index.html#n8", "thumbnailUrl": null, "date": "2024-04-20T03:14:12+02:00", "lat": 47.8684, "lon": 12.6394, "intensity": 0.8, "source": "Bayrischer Rundfunk"}, {"title": "Augsburg verliert in Frankfurt 1:3", "url": "https://www.br.de/nachrichten/meldungen/index.html#n9", "thumbnailUrl": null, "date": "2024-04-20T03:14:12+02:00", "lat": 48.5844, "lon": 13.6722, "intensity": 0.8, "source": "Bayrischer Rundfunk"}, {"title": "Das Wetter in Bayern: In der Nacht zeitweise Regen oder Schnee", "url": "https://www.br.de/nachrichten/meldungen/index.html#n10", "thumbnailUrl": null, "date": "2024-04-20T03:14:12+02:00", "lat": 53.5396, "lon": 8.5761, "intensity": 0.4, "source": "Bayrischer Rundfunk"}, {"title": "5:3 gegen Bremerhaven: Eisb\u00e4ren Berlin gleichen in Finalserie aus", "url": "https://www.rbb24.de/sport/beitrag/2024/04/eishockey-del-finale-spiel-zwei-eisbaeren-berlin-bremerhaven-audio-ticker-spielbericht.html", "thumbnailUrl": null, "date": "Fri, 19 Apr 2024 22:13:00 +0200", "lat": 52.52, "lon": 13.4073, "intensity": 0.7, "source": "RBB"}, {"title": "69:49 gegen Keltern: Albas Basketballerinnen gewinnen erstes Finalspiel", "url": "https://www.rbb24.de/sport/beitrag/2024/04/basketball-frauen-bundesliga-finale-spiel-eins-alba-berlin-keltern.html", "thumbnailUrl": null, "date": "Fri, 19 Apr 2024 21:21:00 +0200", "lat": 48.9869, "lon": 8.5636, "intensity": 0.7, "source": "RBB"}, {"title": "Video | Oderbruch: Theater am Rand beginnt Saison mit einigen Ver\u00e4nderungen", "url": "https://www.rbb24.de/panorama/beitrag/av7/video-theater-am-rand-oderbruch.html", "thumbnailUrl": null, "date": "Fri, 19 Apr 2024 20:58:00 +0200", "lat": 52.6263, "lon": 14.528, "intensity": 0.6, "source": "RBB"}, {"title": "Schwerpunktkontrollen am Freitag: Polizei f\u00fchrt Blitzermarathon an Brandenburger Alleen durch", "url": "https://www.rbb24.de/panorama/beitrag/2024/04/brandenburg-blitzer-marathon-freitag-alleen-polizei-aktionswoche.html", "thumbnailUrl": null, "date": "Fri, 19 Apr 2024 20:51:03 +0200", "lat": 52.517, "lon": 13.3809, "intensity": 0.6, "source": "RBB"}, {"title": "Tote bei Unfall an Bahn\u00fcbergang in Bestensee zweifelsfrei identifiziert", "url": "https://www.rbb24.de/panorama/beitrag/2024/04/bestensee-toedlicher-unfall-bahnuebergang-opfer-identifiziert.html", "thumbnailUrl": null, "date": "Fri, 19 Apr 2024 20:28:44 +0200", "lat": 52.2628, "lon": 13.5957, "intensity": 0.9, "source": "RBB"},