[{"title": "++ Frankreich will weitere Waffen liefern ++", "url": "https://www.tagesschau.de/newsticker/liveblog-ukraine-dienstag-350.html", "thumbnailUrl": "https://images.tagesschau.de/image/e9bc4744-01e0-4246-94b9-74e9f2a8747b/AAABjiS9Lio/AAABjwnlKNc/16x9-512.jpg", "date": "2024-05-14T23:10:29.130+02:00", "lat": 50.4501, "lon": 30.5234, "intensity": 0.8, "source": "Tagesschau"}, {"title": "++ UN kritisieren Angriff auf Hilfskonvoi ++", "url": "https://www.tagesschau.de/newsticker/liveblog-nahost-dienstag-138.html", "thumbnailUrl": "https://images.tagesschau.de/image/35510126-b002-452b-a4f9-7f6b870152fc/AAABj3bizXk/AAABjwnlKNc/16x9-512.jpg", "date": "2024-05-14T23:09:32.115+02:00", "lat": 31.7717, "lon": 35.2137, "intensity": 0.8, "source": "Tagesschau"}, {"title": "BBL-Play-ins: Hamburg Towers gewinnen bei Baskets Oldenburg", "url": "https://www.tagesschau.de/inland/regional/hamburg/ndr-bbl-play-ins-hamburg-towers-gewinnen-bei-baskets-oldenburg-102.html", "thumbnailUrl": "https://images.tagesschau.de/image/bc2a5138-ef4c-4568-98c3-edfb797e09e6/AAABj3h4EI0/AAABjwnlKNc/16x9-512.jpg", "date": "2024-05-14T22:31:00.000+02:00", "lat": 53.55, "lon": 10.0, "intensity": 0.8, "source": "Tagesschau"}, {"title": "Stolperstein gestohlen: \"Omas gegen Rechts\" halten Mahnwache", "url": "https://www.tagesschau.de/inland/regional/niedersachsen/ndr-stolperstein-gestohlen-omas-gegen-rechts-halten-mahnwache-100.html", "thumbnailUrl": "https://images.tagesschau.de/image/a9b24336-28d5-4728-a4ee-812272ee1404/AAABj3jIn2A/AAABjwnlKNc/16x9-512.jpg", "date": "2024-05-14T22:22:00.000+02:00", "lat": 52.1902, "lon": 8.0464, "intensity": 0.7, "source": "Tagesschau"}, {"title": "Wall Street f\u00e4ngt sich noch", "url": "https://www.tagesschau.de/wirtschaft/finanzen/marktberichte/marktbericht-dax-dow-geldanlage-boerse-100.html", "thumbnailUrl": "https://images.tagesschau.de/image/637734b9-dc9b-4f98-9efa-b018b45942b8/AAABjfi4Xsc/AAABjwnlKNc/16x9-512.jpg", "date": "2024-05-14T22:15:54.805+02:00", "lat": 40.707907, "lon": -74.011258, "intensity": 0.2, "source": "Tagesschau"}, {"title": "Waldbrandgefahr steigt: H\u00f6chste Warnstufe in f\u00fcnf Regionen", "url": "https://www.tagesschau.de/inland/regional/niedersachsen/ndr-waldbrandgefahr-steigt-hoechste-warnstufe-in-fuenf-regionen-100.html", "thumbnailUrl": "https://images.tagesschau.de/image/2160b046-0c24-4cd2-823f-3bb4f3ce6273/AAABj3ZsskI/AAABjwnlKNc/16x9-512.jpg", "date": "2024-05-14T22:09:00.000+02:00", "lat": 52.8932, "lon": 10.3127, "intensity": 0.8, "source": "Tagesschau"}, {"title": "\"Chris F\u00fchrich f\u00fcr Deutschland\": Eine B\u00e4ckerei in Nagold wusste es zuerst", "url": "https://www.tagesschau.de/inland/regional/badenwuerttemberg/swr-chris-fuehrich-fuer-deutschland-eine-baeckerei-in-nagold-wusste-es-zuerst-100.html", "thumbnailUrl": "https://images.tagesschau.de/image/b8962c36-bdc7-4b9d-b0a4-fb5a1ffa02f5/AAABj3eTJF0/AAABjwnlKNc/16x9-512.jpg", "date": "2024-05-14T21:50:00.000+02:00", "lat": 48.5591, "lon": 8.7227, "intensity": 0.7, "source": "Tagesschau"}, {"title": "Ehrenpalme f\u00fcr Meryl Streep", "url": "https://www.tagesschau.de/ausland/europa/cannes-filmfestspiele-104.html", "thumbnailUrl": "https://images.tagesschau.de/image/75c57170-45ab-4cef-92e1-d66dc42695f0/AAABj3iFWRs/AAABjwnlKNc/16x9-512.jpg", "date": "2024-05-14T21:40:06.494+02:00", "lat": 43.5528, "lon": 7.0186, "intensity": 0.8, "source": "Tagesschau"}, {"title": "Hardegsen: Gro\u00dfbrand in Biogasanlage - sechs Verletzte", "url": "https://www.tagesschau.de/inland/regional/niedersachsen/ndr-hardegsen-grossbrand-in-biogasanlage-ausgebrochen-100.html", "thumbnailUrl": "https://images.tagesschau.de/image/5a75f8d5-ed57-4307-81a1-7806104405ac/AAABj3ictJk/AAABjwnlKNc/16x9-512.jpg", "date": "2024-05-14T21:35:00.000+02:00", "lat": 51.7103, "lon": 9.8888, "intensity": 0.8, "source": "Tagesschau"}, {"title": "Badesaison startet: Gew\u00e4sser in Niedersachsen haben \"Top-Qualit\u00e4t\"", "url": "https://www.tagesschau.de/inland/regional/niedersachsen/ndr-badesaison-startet-gewaesser-in-niedersachsen-haben-top-qualitaet-100.html", "thumbnailUrl": "https://images.tagesschau.de/image/9a9b0933-38fa-4966-ac37-05b8451efda9/AAABj3XLfo8/AAABjwnlKNc/16x9-512.jpg", "date": "2024-05-14T21:21:00.000+02:00", "lat": 52.6367, "lon": 10.4515, "intensity": 0.3, "source": "Tagesschau"}, {"title": "Th\u00fcringer AfD-Chef H\u00f6cke zu Geldstrafe verurteilt", "url": "https://www.tagesschau.de/inland/regional/sachsenanhalt/mdr-bjoern-hoecke-in-halle-vor-gericht-keine-freiheitsstrafe-fuer-afd-politiker-zu-erwarten-100.html", "thumbnailUrl": "https://images.tagesschau.de/image/17f81c29-a481-4053-9a4a-c5488a42cab2/AAABj3kn19s/AAABjwnlKNc/16x9-512.jpg", "date": "2024-05-14T21:15:22.000+02:00", "lat": 51.4818, "lon": 11.9676, "intensity": 0.8, "source": "Tagesschau"}, {"title": "Wetterumschwung in Sicht: Wieder Starkregen und Gewitter m\u00f6glich", "url": "https://www.tagesschau.de/inland/regional/nordrheinwestfalen/wdr-wetterumschwung-in-sicht-wieder-starkregen-und-gewitter-moeglich-100.html", "thumbnailUrl": "https://images.tagesschau.de/image/a6c96801-ce55-4063-a54b-083d3dda4afa/AAABj3iVSxU/AAABjwnlKNc/16x9-512.jpg", "date": "2024-05-14T21:10:00.000+02:00", "lat": 51.4332, "lon": 7.6261, "intensity": 0.7, "source": "Tagesschau"}, {"title": "Frau in Eilenriede attackiert - Passanten verhindern Vergewaltigung", "url": "https://www.tagesschau.de/inland/regional/niedersachsen/ndr-frau-in-stadtwald-attackiert-passanten-verhindern-vergewaltigung-100.html", "thumbnailUrl": "https://images.tagesschau.de/image/53a614c6-5d70-4e52-811d-6f91f10de0ee/AAABj3inrMM/AAABjwnlKNc/16x9-512.jpg", "date": "2024-05-14T21:08:00.000+02:00", "lat": 52.375, "lon": 9.732, "intensity": 0.8, "source": "Tagesschau"}, {"title": "\"Queen Mary 2\" f\u00fcr Stippvisite im Hamburger Hafen", "url": "https://www.tagesschau.de/inland/regional/hamburg/ndr-queen-mary-2-fuer-stippvisite-im-hamburger-hafen-100.html", "thumbnailUrl": "https://images.tagesschau.de/image/6a0f9831-ca51-41c4-9386-c143b2b0c446/AAABj3YQ4p0/AAABjwnlKNc/16x9-512.jpg", "date": "2024-05-14T21:03:00.000+02:00", "lat": 53.5511, "lon": 9.9937, "intensity": 0.7, "source": "Tagesschau"}, {"title": "Digitalisierung an Schulen in RLP braucht noch immer engagierte Lehrkr\u00e4fte", "url": "https://www.tagesschau.de/inland/regional/rheinlandpfalz/swr-digitalisierung-an-schulen-in-rlp-braucht-noch-immer-engagierte-lehrkraefte-102.html", "thumbnailUrl": "https://images.tagesschau.de/image/8f2b01de-4c70-4db2-8b48-ec84ed727825/AAABj3iC_ug/AAABjwnlKNc/16x9-512.jpg", "date": "2024-05-14T21:02:30.000+02:00", "lat": 49.992861, "lon": 8.275249, "intensity": 0.7, "source": "Tagesschau"}, {"title": "Atomkraftwerk Cattenom informiert B\u00fcrger \u00fcber Laufzeitverl\u00e4ngerung", "url": "https://www.tagesschau.de/inland/regional/saarland/sr-infoveranstaltung-zur-laufzeitverlaengerung-des-akw-cattenom-100.html", "thumbnailUrl": "https://images.tagesschau.de/image/368ff41c-0fde-41e9-9180-e43852c2d284/AAABj3WB7-g/AAABjwnlKNc/16x9-512.jpg", "date": "2024-05-14T20:59:00.000+02:00", "lat": 49.4236, "lon": 6.2434, "intensity": 0.6, "source": "Tagesschau"}, {"title": "AfD Niedersachsen: Haben Mitarbeitende Kontakte zur rechten Szene?", "url": "https://www.tagesschau.de/inland/regional/niedersachsen/ndr-afd-niedersachsen-haben-mitarbeitende-kontakte-zur-rechten-szene-100.html", "thumbnailUrl": "https://images.tagesschau.de/image/28230e2b-fab4-4ba0-898e-bcd3331ef144/AAABj3anGXE/AAABjwnlKNc/16x9-512.jpg", "date": "2024-05-14T20:59:00.000+02:00", "lat": 52.3759, "lon": 10.4515, "intensity": 0.7, "source": "Tagesschau"}, {"title": "ARD-Mitmach-Aktion \"Unsere Fl\u00fcsse\": Freiwillige untersuchen Gew\u00e4sser in Hessen", "url": "https://www.tagesschau.de/inland/regional/hessen/hr-ard-mitmach-aktion-unsere-fluesse-freiwillige-untersuchen-gewaesser-in-hessen-100.html", "thumbnailUrl": "https://images.tagesschau.de/image/4a07e981-5bf1-44ac-9bd4-32f58bd3571c/AAABj3h57D4/AAABjwnlKNc/16x9-512.jpg", "date": "2024-05-14T20:58:15.896+02:00", "lat": 50.6521, "lon": 9.0865, "intensity": 0.5, "source": "Tagesschau"}, {"title": "Schwerer Lkw-Unfall auf A1: Vollsperrung ab Gevelsberg", "url": "https://www.tagesschau.de/inland/regional/nordrheinwestfalen/wdr-schwerer-lkw-unfall-auf-a1-vollsperrung-ab-gevelsberg-100.html", "thumbnailUrl": "https://images.tagesschau.de/image/72f96b1c-322b-4312-bf2a-a6f9a8443f46/AAABj3icpXQ/AAABjwnlKNc/16x9-512.jpg", "date": "2024-05-14T20:50:00.000+02:00", "lat": 51.3333, "lon": 7.3323, "intensity": 0.8, "source": "Tagesschau"}, {"title": "Kirchenasyl gebrochen: Beh\u00f6rden schieben russische Familie ab", "url": "https://www.tagesschau.de/inland/regional/niedersachsen/ndr-kirchenasyl-gebrochen-behoerden-schieben-russische-familie-ab-100.html", "thumbnailUrl": "https://images.tagesschau.de/image/ed093787-2182-4c9c-a831-f5ff7b6222c7/AAABj3eW2iM/AAABjwnlKNc/16x9-512.jpg", "date": "2024-05-14T20:31:00.000+02:00", "lat": 53.148, "lon": 10.572, "intensity": 0.7, "source": "Tagesschau"}, {"title": "Jahresbilanz: Mehr als 300.000 Eins\u00e4tze f\u00fcr Hamburgs Feuerwehr", "url": "https://www.tagesschau.de/inland/regional/hamburg/ndr-jahresbilanz-mehr-als-300-000-einsaetze-fuer-hamburgs-feuerwehr-100.html", "thumbnailUrl": "https://images.tagesschau.de/image/ded69d8a-e1d1-40c9-b093-283f848bf4f7/AAABj3dTJyc/AAABjwnlKNc/16x9-512.jpg", "date": "2024-05-14T20:30:00.000+02:00", "lat": 53.551086, "lon": 9.993682, "intensity": 0.8, "source": "Tagesschau"}, {"title": "Wohnhaus in Twistringen in Flammen - Brandursache unklar", "url": "https://www.tagesschau.de/inland/regional/niedersachsen/ndr-wohnhaus-in-twistringen-in-flammen-brandursache-unklar-100.html", "thumbnailUrl": "https://images.tagesschau.de/image/7aa79d4c-6eb5-4e2f-91c8-c1fa337e2720/AAABj3hY8po/AAABjwnlKNc/16x9-512.jpg", "date": "2024-05-14T20:19:00.000+02:00", "lat": 52.7833, "lon": 8.6167, "intensity": 0.7, "source": "Tagesschau"}, {"title": "Streit um Klavier eskaliert - Mann bedroht 23-J\u00e4hrigen mit Waffe", "url": "https://www.tagesschau.de/inland/regional/niedersachsen/ndr-streit-um-klavier-eskaliert-mann-bedroht-23-jaehrigen-mit-waffe-100.html", "thumbnailUrl": "https://images.tagesschau.de/image/8cb9a70e-5aca-4645-b1d4-9a2bb857b988/AAABj3hawU8/AAABjwnlKNc/16x9-512.jpg", "date": "2024-05-14T20:19:00.000+02:00", "lat": 52.3759, "lon": 9.7332, "intensity": 0.8, "source": "Tagesschau"}, {"title": "\"Machen statt meckern!\" Mitwirken in B\u00fcrgerr\u00e4ten", "url": "https://www.tagesschau.de/inland/regional/bayern/br-machen-statt-meckern-mitwirken-in-buergerraeten-102.html", "thumbnailUrl": "https://images.tagesschau.de/image/9ddac0a0-08cb-4256-8292-76e85d1bac36/AAABj3W-hKI/AAABjwnlKNc/16x9-512.jpg", "date": "2024-05-14T20:00:05.298+02:00", "lat": 51.1657, "lon": 10.4234, "intensity": 0.7, "source": "Tagesschau"}, {"title": "Saar-Richterbund widerspricht AfD-Vorw\u00fcrfen", "url": "https://www.tagesschau.de/inland/regional/saarland/sr-saar-richterbund-widerspricht-afd-vorwuerfen-100.html", "thumbnailUrl": "https://images.tagesschau.de/image/250b0f72-25a7-49c9-bed6-6692094379a9/AAABj3hC5NA/AAABjwnlKNc/16x9-512.jpg", "date": "2024-05-14T19:57:00.000+02:00", "lat": 49.3964, "lon": 6.9538, "intensity": 0.8, "source": "Tagesschau"}, {"title": "Schockanruferin bringt Senior aus Bad Nauheim um 100.000 Euro", "url": "https://www.tagesschau.de/inland/regional/hessen/hr-schockanruferin-bringt-senior-aus-bad-nauheim-um-100-000-euro-100.html", "thumbnailUrl": "https://images.tagesschau.de/image/8a52d675-0db7-4b70-b543-8e2ff51dc705/AAABj3g9bVE/AAABjwnlKNc/16x9-512.jpg", "date": "2024-05-14T19:52:22.426+02:00", "lat": 50.3554, "lon": 8.7476, "intensity": 0.8, "source": "Tagesschau"}, {"title": "H\u00f6cke wegen NS-Parole zu Geldstrafe verurteilt", "url": "https://www.tagesschau.de/inland/innenpolitik/hoecke-verurteilt-100.html", "thumbnailUrl": "https://images.tagesschau.de/image/17345592-a647-4d29-9c87-8b1e659cb870/AAABj3gZCE8/AAABjwnlKNc/16x9-512.jpg", "date": "2024-05-14T19:49:26.011+02:00", "lat": 50.9775, "lon": 11.3296, "intensity": 0.8, "source": "Tagesschau"}, {"title": "\"Man hat auf unsere Justiz geschossen\"", "url": "https://www.tagesschau.de/ausland/europa/ueberfall-gefangenentransport-frankreich-100.html", "thumbnailUrl": "https://images.tagesschau.de/image/17330593-3a23-4670-89d7-427a9bf3d122/AAABj3gTPh0/AAABjwnlKNc/16x9-512.jpg", "date": "2024-05-14T19:46:28.761+02:00", "lat": 49.443231, "lon": 1.088379, "intensity": 0.8, "source": "Tagesschau"}, {"title": "Saar-Fu\u00dfballvereine wollen zu altem Terminplan zur\u00fcckkehren", "url": "https://www.tagesschau.de/inland/regional/saarland/sr-saar-fussballvereine-wollen-zu-altem-terminplan-zurueckkehren-102.html", "thumbnailUrl": "https://images.tagesschau.de/image/2d064ce0-801e-4433-872f-23257e6b7e20/AAABj3g36CE/AAABjwnlKNc/16x9-512.jpg", "date": "2024-05-14T19:44:00.000+02:00", "lat": 49.3964, "lon": 7.0, "intensity": 0.3, "source": "Tagesschau"}, {"title": "Erster Streik am Bau seit \u00fcber 20 Jahren im Saarland", "url": "https://www.tagesschau.de/inland/regional/saarland/sr-erster-streik-am-bau-seit-ueber-20-jahren-im-saarland-100.html", "thumbnailUrl": "https://images.tagesschau.de/image/34adf422-d1d0-478c-b6c3-307ce679a3c9/AAABj3Vg-mA/AAABjwnlKNc/16x9-512.jpg", "date": "2024-05-14T19:39:00.000+02:00", "lat": 49.3964, "lon": 6.9944, "intensity": 0.8, "source": "Tagesschau"}, {"title": "Eintracht: +++ Koch freut sich auf EM +++ Robin Koch steht im EM-Kader +++ Bericht: Bayern meldete sich bei Glasner +++", "url": "https://www.tagesschau.de/inland/regional/hessen/hr--eintracht-wohl-mit-chaibi-einig--glasner-fast-nur-kolo-muani-der-tore-erzielt--bericht-eintracht-sagt-aouar-ab-100.html", "thumbnailUrl": "https://images.tagesschau.de/image/bfc8cbd0-eb4e-4b8e-9896-31c837a3607b/AAABj3gw3Qs/AAABjwnlKNc/16x9-512.jpg", "date": "2024-05-14T19:38:45.059+02:00", "lat": 50.110922, "lon": 8.682127, "intensity": 0.6, "source": "Tagesschau"}, {"title": "Fahrer versch\u00e4tzt sich - Lkw bleibt unter Br\u00fccke stecken", "url": "https://www.tagesschau.de/inland/regional/niedersachsen/ndr-fahrer-verschaetzt-sich-lkw-bleibt-unter-bruecke-stecken-100.html", "thumbnailUrl": "https://images.tagesschau.de/image/ba1ad8b1-2dff-4c09-8594-bd3fadeb6f7d/AAABj3gRiKw/AAABjwnlKNc/16x9-512.jpg", "date": "2024-05-14T19:01:00.000+02:00", "lat": 52.37589, "lon": 9.73322, "intensity": 0.8, "source": "Tagesschau"}, {"title": "Brand in F\u00f6rderschule in Westerburg gel\u00f6scht", "url": "https://www.tagesschau.de/inland/regional/rheinlandpfalz/swr-brand-in-foerderschule-in-westerburg-geloescht-100.html", "thumbnailUrl": "https://images.tagesschau.de/image/bce4387f-1220-49b6-ad0d-b70dc03dab3d/AAABj3gVKfg/AAABjwnlKNc/16x9-512.jpg", "date": "2024-05-14T18:57:00.000+02:00", "lat": 50.6106, "lon": 7.9446, "intensity": 0.8, "source": "Tagesschau"}, {"title": "Streit um Lithiumabbau: Investor informiert B\u00fcrger in Altenberg", "url": "https://www.tagesschau.de/inland/regional/sachsen/mdr-streit-um-lithiumabbau-investor-informiert-buerger-in-altenberg-100.html", "thumbnailUrl": "https://images.tagesschau.de/image/12fdff86-f204-4ed7-aef6-4de8ca91aa11/AAABj3kp-gM/AAABjwnlKNc/16x9-512.jpg", "date": "2024-05-14T18:55:02.000+02:00", "lat": 50.775, "lon": 13.774, "intensity": 0.6, "source": "Tagesschau"}, {"title": "Dehoga Saar gegen Scholz\u2019 Mindestlohn-Pl\u00e4ne", "url": "https://www.tagesschau.de/inland/regional/saarland/sr-dehoga-saar-gegen-scholz-mindestlohn-plaene-100.html", "thumbnailUrl": "https://images.tagesschau.de/image/ee74cc33-cba2-4a36-857e-1408375b645e/AAABj3am6FY/AAABjwnlKNc/16x9-512.jpg", "date": "2024-05-14T18:52:00.000+02:00", "lat": 49.3964, "lon": 6.9538, "intensity": 0.7, "source": "Tagesschau"}, {"title": "Tod durch Gewalt? 25-J\u00e4hriger leblos in Wohnung aufgefunden", "url": "https://www.tagesschau.de/inland/regional/niedersachsen/ndr-tod-durch-gewalt-25-jaehriger-leblos-in-wohnung-aufgefunden-100.html", "thumbnailUrl": "https://images.tagesschau.de/image/97c72692-65b2-4228-816e-b2f9d56a4a57/AAABj3gGk04/AAABjwnlKNc/16x9-512.jpg", "date": "2024-05-14T18:52:00.000+02:00", "lat": 53.0153, "lon": 8.6717, "intensity": 0.7, "source": "Tagesschau"}, {"title": "EU will zus\u00e4tzliche Feuerwehrleute stationieren", "url": "https://www.tagesschau.de/ausland/europa/eu-waldbraende-100.html", "thumbnailUrl": "https://images.tagesschau.de/image/e8c891f6-ad5c-45fc-8314-54fe77b51e9b/AAABihfr510/AAABjwnlKNc/16x9-512.jpg", "date": "2024-05-14T18:42:59.285+02:00", "lat": 51.339, "lon": 9.985, "intensity": 0.7, "source": "Tagesschau"}, {"title": "Pro-Pal\u00e4stina-Camp an der LMU: Wer protestiert und warum?", "url": "https://www.tagesschau.de/inland/regional/bayern/br-pro-palaestina-camp-an-der-lmu-wer-protestiert-und-warum-100.html", "thumbnailUrl": "https://images.tagesschau.de/image/2c512364-3ee4-4410-91ac-9a71719dafaf/AAABj3f5r1s/AAABjwnlKNc/16x9-512.jpg", "date": "2024-05-14T18:38:04.748+02:00", "lat": 48.150092, "lon": 11.580566, "intensity": 0.6, "source": "Tagesschau"}, {"title": "LNG-Terminal in Mukran: Widerspruch vor geplantem Regelbetrieb", "url": "https://www.tagesschau.de/inland/regional/mecklenburgvorpommern/ndr-lng-terminal-in-mukran-widerspruch-kurz-vor-geplantem-regelbetrieb-100.html", "thumbnailUrl": "https://images.tagesschau.de/image/c5a4fc08-cd85-4db6-ab06-cbf0ecbd6210/AAABj3e7cQE/AAABjwnlKNc/16x9-512.jpg", "date": "2024-05-14T18:38:00.000+02:00", "lat": 54.4071, "lon": 13.6308, "intensity": 0.8, "source": "Tagesschau"}, {"title": "Streik auf 40 bayerischen Baustellen \u2013 Weitere Aktionen folgen", "url": "https://www.tagesschau.de/inland/regional/bayern/br-streik-auf-40-bayerischen-baustellen--weitere-aktionen-folgen-102.html", "thumbnailUrl": "https://images.tagesschau.de/image/12c27f02-627d-4d81-b973-cf5c32ef3ee0/AAABj3f32_k/AAABjwnlKNc/16x9-512.jpg", "date": "2024-05-14T18:36:51.537+02:00", "lat": 48.1351, "lon": 11.582, "intensity": 0.7, "source": "Tagesschau"}, {"title": "Ausw\u00e4rtiges Amt hilft bei Aufkl\u00e4rung im Fall Dillinger", "url": "https://www.tagesschau.de/inland/regional/saarland/sr-auswaertiges-amt-hilft-bei-aufklaerung-im-fall-dillinger-100.html", "thumbnailUrl": "https://images.tagesschau.de/image/3dccbe81-7664-43b5-b75a-1c56deb04793/AAABj3f7e7o/AAABjwnlKNc/16x9-512.jpg", "date": "2024-05-14T18:35:00.000+02:00", "lat": 49.34, "lon": 7.0586, "intensity": 0.8, "source": "Tagesschau"}, {"title": "Dopingfall HSV-Profi Vuskovic: Die wichtigsten Fragen und Antworten", "url": "https://www.tagesschau.de/inland/regional/hamburg/ndr-dopingfall-hsv-profi-vuskovic-die-wichtigsten-fragen-und-antworten-110.html", "thumbnailUrl": "https://images.tagesschau.de/image/a1ebf540-a57b-4c2a-b0bd-a3bdd8ab7ed6/AAABj3f7rr0/AAABjwnlKNc/16x9-512.jpg", "date": "2024-05-14T18:34:00.000+02:00", "lat": 53.551086, "lon": 9.993682, "intensity": 0.7, "source": "Tagesschau"}, {"title": "Freibad-Saison startet in Hamburg am Freitag", "url": "https://www.tagesschau.de/inland/regional/hamburg/ndr-freibad-saison-startet-in-hamburg-am-freitag-100.html", "thumbnailUrl": "https://images.tagesschau.de/image/72606bd3-e2b4-4327-b372-f1ed0519b346/AAABj3fRh78/AAABjwnlKNc/16x9-512.jpg", "date": "2024-05-14T18:28:00.000+02:00", "lat": 53.5511, "lon": 9.9908, "intensity": 0.6, "source": "Tagesschau"}, {"title": "Prignitz: Stalker bel\u00e4stigt und bedroht Dorf ", "url": "https://www.tagesschau.de/inland/regional/brandenburg/rbb-prignitz-stalker-belaestigt-und-bedroht-dorf-100.html", "thumbnailUrl": "https://images.tagesschau.de/image/b75f4397-01c4-4e97-adcb-75f8b4b4e902/AAABj3fuuGA/AAABjwnlKNc/16x9-512.jpg", "date": "2024-05-14T18:23:35.000+02:00", "lat": 53.1817, "lon": 12.0599, "intensity": 0.7, "source": "Tagesschau"}, {"title": "Gericht best\u00e4tigt hohe Haftstrafe gegen Kara-Mursa", "url": "https://www.tagesschau.de/ausland/europa/russland-kara-mursa-urteil-100.html", "thumbnailUrl": "https://images.tagesschau.de/image/afa17159-5b9e-4946-97d4-e883e0b34ce4/AAABiayyT50/AAABjwnlKNc/16x9-512.jpg", "date": "2024-05-14T18:18:17.368+02:00", "lat": 55.7558, "lon": 37.6176, "intensity": 0.8, "source": "Tagesschau"}, {"title": "AfD-Abgeordnete aus RLP besch\u00e4ftigen M\u00e4nner mit rechtsextremer Vergangenheit", "url": "https://www.tagesschau.de/inland/regional/rheinlandpfalz/swr-afd-abgeordnete-aus-rlp-beschaeftigen-maenner-mit-rechtsextremer-vergangenheit-100.html", "thumbnailUrl": "https://images.tagesschau.de/image/e278bf11-2d1d-4cae-b19a-4fa7868ee408/AAABj3fh3So/AAABjwnlKNc/16x9-512.jpg", "date": "2024-05-14T18:09:49.000+02:00", "lat": 50.3964, "lon": 7.8252, "intensity": 0.7, "source": "Tagesschau"}, {"title": "T\u00f6dlicher Bob-Unfall in Oberhof: Verwarnung f\u00fcr Helferin", "url": "https://www.tagesschau.de/inland/regional/thueringen/mdr-toedlicher-bob-unfall-in-oberhof-verwarnung-fuer-helferin-100.html", "thumbnailUrl": "https://images.tagesschau.de/image/5274c478-b165-4d80-855e-458b705a00a7/AAABj3krdx8/AAABjwnlKNc/16x9-512.jpg", "date": "2024-05-14T18:07:14.000+02:00", "lat": 50.706665, "lon": 10.698977, "intensity": 0.7, "source": "Tagesschau"}, {"title": "Hessen: Neue Streiks bei privaten Bus-Unternehmen ab Freitag", "url": "https://www.tagesschau.de/inland/regional/hessen/hr-hessen-neue-streiks-bei-privaten-bus-unternehmen-ab-freitag-100.html", "thumbnailUrl": "https://images.tagesschau.de/image/c8dac324-8a6c-40f0-bf23-365f6a31c4ad/AAABj3fcau8/AAABjwnlKNc/16x9-512.jpg", "date": "2024-05-14T18:05:11.267+02:00", "lat": 50.586, "lon": 9.4306, "intensity": 0.7, "source": "Tagesschau"}, {"title": "Wetter in RLP: Gewitter am Abend m\u00f6glich", "url": "https://www.tagesschau.de/inland/regional/rheinlandpfalz/swr-gewitter-und-unwetterartiger-starkregen-ab-montagnachmittag-moeglich-100.html", "thumbnailUrl": "https://images.tagesschau.de/image/89cefaae-e956-403c-b777-63c98ebde0eb/AAABj3fPjNw/AAABjwnlKNc/16x9-512.jpg", "date": "2024-05-14T17:50:00.000+02:00", "lat": 50.3735, "lon": 7.6129, "intensity": 0.7, "source": "Tagesschau"}, {"title": "Antisemitismus in SH: Neuer H\u00f6chststand an Vorf\u00e4llen", "url": "https://www.tagesschau.de/inland/regional/schleswigholstein/ndr-antisemitismus-in-sh-neuer-hoechststand-an-vorfaellen-100.html", "thumbnailUrl": "https://images.tagesschau.de/image/9cc249d1-a435-46ae-8b72-772573818a73/AAABj3VB7-w/AAABjwnlKNc/16x9-512.jpg", "date": "2024-05-14T17:42:00.000+02:00", "lat": 54.2194, "lon": 9.6966, "intensity": 0.9, "source": "Tagesschau"}, {"title": "Schiri-Assistent mit Ball abgeschossen: DFB sperrt KSC-Busfahrer", "url": "https://www.tagesschau.de/inland/regional/badenwuerttemberg/swr-schiri-assistent-mit-ball-abgeschossen-dfb-sperrt-ksc-busfahrer-100.html", "thumbnailUrl": "https://images.tagesschau.de/image/6ff9df68-a4a1-4a8a-a7fa-cbaa9be65f1a/AAABj3jRubQ/AAABjwnlKNc/16x9-512.jpg", "date": "2024-05-14T17:34:30.000+02:00", "lat": 49.0069, "lon": 8.4037, "intensity": 0.7, "source": "Tagesschau"}, {"title": "\"Sinwar wei\u00df ganz genau, was er will\"", "url": "https://www.tagesschau.de/ausland/asien/hamas-gazastreifen-israel-100.html", "thumbnailUrl": "https://images.tagesschau.de/image/c9a7a7ca-075a-4923-b012-dde451148aa6/AAABjzmSp3A/AAABjwnlKNc/16x9-512.jpg", "date": "2024-05-14T17:25:01.399+02:00", "lat": 31.5226, "lon": 34.4354, "intensity": 0.8, "source": "Tagesschau"}, {"title": "Israels Armee auf dem Vormarsch in Rafah ", "url": "https://www.tagesschau.de/ausland/europa/israel-rafah-108.html", "thumbnailUrl": "https://images.tagesschau.de/image/236ff997-127b-45c9-bee9-752c57380071/AAABj3ewd2g/AAABjwnlKNc/16x9-512.jpg", "date": "2024-05-14T17:20:05.253+02:00", "lat": 31.068, "lon": 34.2594, "intensity": 0.8, "source": "Tagesschau"}, {"title": "Thail\u00e4ndische Aktivistin stirbt in Haft", "url": "https://www.tagesschau.de/ausland/asien/thailand-hungerstreik-aktivistin-100.html", "thumbnailUrl": "https://images.tagesschau.de/image/74f59da4-6854-4cda-94a3-22b34018c0af/AAABj3eoMrw/AAABjwnlKNc/16x9-512.jpg", "date": "2024-05-14T17:11:03.382+02:00", "lat": 13.7563, "lon": 100.9925, "intensity": 0.8, "source": "Tagesschau"}, {"title": "L\u00e4nder\u00fcbergreifende Zusammenarbeit: Mecklenburger Polizisten lernen von Gubener Doppelstreife", "url": "https://www.tagesschau.de/inland/regional/brandenburg/rbb-laenderuebergreifende-zusammenarbeit-mecklenburger-polizisten-lernen-von-gubener-doppelstreife-100.html", "thumbnailUrl": "https://images.tagesschau.de/image/eecdffd6-203f-4ce4-85ca-b296d2bc7007/AAABj3eq-OA/AAABjwnlKNc/16x9-512.jpg", "date": "2024-05-14T17:10:35.000+02:00", "lat": 51.948416, "lon": 14.721107, "intensity": 0.8, "source": "Tagesschau"}, {"title": "Kultur: +++ Schirn gibt DFB-Nominierung bekannt +++ Loriot-Schau in Caricatura mit Rekordbesuch +++ Architektenentwurf f\u00fcr neues Forschungszentrum Keltenwelt +++", "url": "https://www.tagesschau.de/inland/regional/hessen/hr--schauspiel-frankfurt-bringt-putin-und-macbeth-zusammen--die-filmfestival-saison-2023-startet--lichter-filmfest-zum-thema-liebe-startet-am-dienstag-100.html", "thumbnailUrl": "https://images.tagesschau.de/image/b037ddf7-abd1-4c3e-94fc-906dd90a946c/AAABj3ejxFE/AAABjwnlKNc/16x9-512.jpg", "date": "2024-05-14T17:05:23.332+02:00", "lat": 50.1109, "lon": 8.5683, "intensity": 0.4, "source": "Tagesschau"}, {"title": "Massenschl\u00e4gerei bei Kreisligaspiel - Essener OB droht Konsequenzen an", "url": "https://www.tagesschau.de/inland/regional/nordrheinwestfalen/wdr-polizei-rueckt-mit-grossaufgebot-zu-kreisligaspiel-in-essen-aus-102.html", "thumbnailUrl": "https://images.tagesschau.de/image/0b6deeb4-ae89-408b-a5cb-0df280bb2dc0/AAABj3fuqHY/AAABjwnlKNc/16x9-512.jpg", "date": "2024-05-14T17:04:00.000+02:00", "lat": 51.4556, "lon": 7.0111, "intensity": 0.8, "source": "Tagesschau"}, {"title": "Richter sieht schwere Verfahrensfehler beim Bundesschiedsgericht der AfD", "url": "https://www.tagesschau.de/inland/regional/saarland/sr-landgericht-entscheidet-ob-absetzung-des-afd-kreisvorstands-richtig-war-100.html", "thumbnailUrl": "https://images.tagesschau.de/image/506f011b-3935-4c7b-bede-a1743ae78a69/AAABj3enTR8/AAABjwnlKNc/16x9-512.jpg", "date": "2024-05-14T17:04:00.000+02:00", "lat": 49.3964, "lon": 7.0233, "intensity": 0.7, "source": "Tagesschau"}, {"title": "Empfang f\u00fcr Bundesliga-Aufsteiger Holstein Kiel im Landeshaus", "url": "https://www.tagesschau.de/inland/regional/schleswigholstein/ndr-empfang-fuer-bundesliga-aufsteiger-holstein-kiel-im-landeshaus-100.html", "thumbnailUrl": "https://images.tagesschau.de/image/1067e365-7603-4a47-8707-72d400e0db70/AAABj3enXf0/AAABjwnlKNc/16x9-512.jpg", "date": "2024-05-14T17:02:00.000+02:00", "lat": 54.3275, "lon": 9.8833, "intensity": 0.6, "source": "Tagesschau"}, {"title": "Bundesweite Razzia gegen mutma\u00dfliche Schleuserbande aus Neustadt", "url": "https://www.tagesschau.de/inland/regional/rheinlandpfalz/swr-bundesweite-razzia-gegen-mutmassliche-schleuserbande-aus-neustadt-100.html", "thumbnailUrl": "https://images.tagesschau.de/image/2d948c17-9072-4ceb-bc07-81a8bd298e2d/AAABj3feMgU/AAABjwnlKNc/16x9-512.jpg", "date": "2024-05-14T16:55:25.000+02:00", "lat": 53.6917, "lon": 10.5556, "intensity": 0.8, "source": "Tagesschau"}, {"title": "Familie aus Linden entdeckt 10 Meter tiefes Loch im Garten - RP pl\u00e4diert f\u00fcr Verf\u00fcllen", "url": "https://www.tagesschau.de/inland/regional/hessen/hr-familie-aus-linden-entdeckt-10-meter-tiefes-loch-im-garten-100.html", "thumbnailUrl": "https://images.tagesschau.de/image/12f36215-32e8-4026-94ae-bf3e3564c593/AAABj3fePYI/AAABjwnlKNc/16x9-512.jpg", "date": "2024-05-14T16:53:49.565+02:00", "lat": 50.5759, "lon": 8.6591, "intensity": 0.6, "source": "Tagesschau"}, {"title": "Geburtenr\u00fcckgang in Berlin: Vier Frauen, drei nicht geborene Wunschkinder", "url": "https://www.tagesschau.de/inland/regional/berlin/rbb-geburtenrueckgang-in-berlin-vier-frauen-drei-nicht-geborene-wunschkinder-100.html", "thumbnailUrl": "https://images.tagesschau.de/image/ec19a696-534b-46bf-b38f-94c4f705bca6/AAABj3eanBg/AAABjwnlKNc/16x9-512.jpg", "date": "2024-05-14T16:52:43.000+02:00", "lat": 52.520008, "lon": 13.404954, "intensity": 0.8, "source": "Tagesschau"}, {"title": "Missbrauch an 13-J\u00e4hriger: Zwei Paketzusteller zu je f\u00fcnf Jahren Haft verurteilt", "url": "https://www.tagesschau.de/inland/regional/rheinlandpfalz/swr-missbrauch-an-13-jaehriger-zwei-paketzusteller-zu-je-fuenf-jahren-haft-verurteilt-100.html", "thumbnailUrl": "https://images.tagesschau.de/image/5a8b24b1-c6ad-4e9a-9523-a4b169db48e6/AAABj3c14es/AAABjwnlKNc/16x9-512.jpg", "date": "2024-05-14T16:52:00.000+02:00", "lat": 49.8419, "lon": 7.8667, "intensity": 0.8, "source": "Tagesschau"}, {"title": "Die R\u00fcckkehr der Zockerpapiere", "url": "https://www.tagesschau.de/wirtschaft/finanzen/meme-stocks-gamestop-100.html", "thumbnailUrl": "https://images.tagesschau.de/image/f7a349a5-66ed-4702-90d5-02cf9d11d01b/AAABhnkRc2E/AAABjwnlKNc/16x9-512.jpg", "date": "2024-05-14T16:50:17.763+02:00", "lat": 40.7128, "lon": -74.0059, "intensity": 0.8, "source": "Tagesschau"}, {"title": "Mieterbund fordert harte Sanktionen bei Mietwucher", "url": "https://www.tagesschau.de/wirtschaft/verbraucher/mietpreisbremse-188.html", "thumbnailUrl": "https://images.tagesschau.de/image/53981c1a-660b-49f7-bfe0-027f32672461/AAABjnUxjXI/AAABjwnlKNc/16x9-512.jpg", "date": "2024-05-14T16:50:04.602+02:00", "lat": 53.5511, "lon": 9.9937, "intensity": 0.7, "source": "Tagesschau"}, {"title": "Ist es eine Offensive oder nicht?", "url": "https://www.tagesschau.de/ausland/europa/russland-angriff-region-charkiw-100.html", "thumbnailUrl": "https://images.tagesschau.de/image/f268c32c-41df-49b9-9710-c9664decbd4b/AAABj3dldyE/AAABjwnlKNc/16x9-512.jpg", "date": "2024-05-14T16:50:00.357+02:00", "lat": 49.9935, "lon": 36.249616, "intensity": 0.8, "source": "Tagesschau"}, {"title": "Mann soll M\u00e4dchen auf Schulgel\u00e4nde missbraucht haben - Polizei sucht Zeugen", "url": "https://www.tagesschau.de/inland/regional/badenwuerttemberg/swr-mann-soll-maedchen-auf-schulgelaende-missbraucht-haben-polizei-sucht-zeugen-100.html", "thumbnailUrl": "https://images.tagesschau.de/image/4deeb0a5-9167-4a2b-9401-35b8fbec15bc/AAABj3e9VPk/AAABjwnlKNc/16x9-512.jpg", "date": "2024-05-14T16:33:37.000+02:00", "lat": 48.935774, "lon": 8.947287, "intensity": 0.8, "source": "Tagesschau"}, {"title": "Stadt Erfurt bekommt ersten Stolperstein zum Katholikentag", "url": "https://www.tagesschau.de/inland/regional/thueringen/mdr-stadt-erfurt-bekommt-ersten-stolperstein-zum-katholikentag-100.html", "thumbnailUrl": "https://images.tagesschau.de/image/bd5e007c-529a-4396-8470-070b49ce3253/AAABj3kromw/AAABjwnlKNc/16x9-512.jpg", "date": "2024-05-14T16:30:48.000+02:00", "lat": 50.9848, "lon": 11.0299, "intensity": 0.3, "source": "Tagesschau"}, {"title": "Darmstadt 98 sucht vor Neuanfang das Wir-Gef\u00fchl", "url": "https://www.tagesschau.de/inland/regional/hessen/hr-darmstadt-98-sucht-vor-neuanfang-das-wir-gefuehl-102.html", "thumbnailUrl": "https://images.tagesschau.de/image/a5edab0e-7a26-40a3-a19d-ef60c1eb9196/AAABj3eTRco/AAABjwnlKNc/16x9-512.jpg", "date": "2024-05-14T16:29:20.043+02:00", "lat": 49.8709, "lon": 8.65, "intensity": 0.7, "source": "Tagesschau"}, {"title": "Bosch: Weniger Stellenabbau in der Region Stuttgart als geplant", "url": "https://www.tagesschau.de/inland/regional/badenwuerttemberg/swr-bosch-weniger-stellenabbau-in-der-region-stuttgart-als-geplant-100.html", "thumbnailUrl": "https://images.tagesschau.de/image/43df6f63-e38f-45f1-b659-f2fac4ce1d5d/AAABj3eL1io/AAABjwnlKNc/16x9-512.jpg", "date": "2024-05-14T16:27:50.000+02:00", "lat": 48.7758, "lon": 9.1829, "intensity": 0.8, "source": "Tagesschau"}, {"title": "Schwerer Unfall auf der A3 zwischen Solingen und Hilden", "url": "https://www.tagesschau.de/inland/regional/nordrheinwestfalen/wdr-a3-zwischen-solingen-und-hilden-nach-unfall-gesperrt-100.html", "thumbnailUrl": "https://images.tagesschau.de/image/8454574e-52d7-469b-a121-5f54e14ffdc8/AAABj3eCqSk/AAABjwnlKNc/16x9-512.jpg", "date": "2024-05-14T16:26:00.000+02:00", "lat": 51.1796, "lon": 7.0155, "intensity": 0.8, "source": "Tagesschau"}, {"title": "Wahlkampf in MV: Diese Regeln gelten f\u00fcr Plakate in der Wahlwerbung", "url": "https://www.tagesschau.de/inland/regional/mecklenburgvorpommern/ndr-wahlkampf-in-mv-diese-regeln-gelten-fuer-plakate-in-der-wahlwerbung-100.html", "thumbnailUrl": "https://images.tagesschau.de/image/5b012d67-6f3f-49f2-92ba-1e0cab2fa704/AAABj3eGVi0/AAABjwnlKNc/16x9-512.jpg", "date": "2024-05-14T16:26:00.000+02:00", "lat": 53.6127, "lon": 12.6794, "intensity": 0.8, "source": "Tagesschau"}, {"title": "Nach Training vermisst: Zoo Stralsund sucht Showadler \"Milow\"", "url": "https://www.tagesschau.de/inland/regional/mecklenburgvorpommern/ndr-nach-training-vermisst-zoo-stralsund-sucht-showadler-milow-100.html", "thumbnailUrl": "https://images.tagesschau.de/image/b8673b6d-69c2-43e9-bccd-c8f41cc06013/AAABj3eU9F4/AAABjwnlKNc/16x9-512.jpg", "date": "2024-05-14T16:26:00.000+02:00", "lat": 54.3077, "lon": 12.6952, "intensity": 0.7, "source": "Tagesschau"}, {"title": "Kaderplanung beim HSV: Braucht der Zweitliga-Dino eine Frischzellenkur?", "url": "https://www.tagesschau.de/inland/regional/hamburg/ndr-kaderplanung-beim-hsv-braucht-der-zweitliga-dino-eine-frischzellenkur-102.html", "thumbnailUrl": "https://images.tagesschau.de/image/ca469508-fda4-45b5-9518-78c6796056a2/AAABj3eGjXM/AAABjwnlKNc/16x9-512.jpg", "date": "2024-05-14T16:26:00.000+02:00", "lat": 53.5511, "lon": 10.0003, "intensity": 0.7, "source": "Tagesschau"}, {"title": "Der schwierige Weg ins deutsche Schulsystem", "url": "https://www.tagesschau.de/inland/mittendrin/vorbereitungsklasse-schulen-integration-100.html", "thumbnailUrl": "https://images.tagesschau.de/image/77725361-7435-453a-aa25-ca879fe20413/AAABj3d8q8E/AAABjwnlKNc/16x9-512.jpg", "date": "2024-05-14T16:23:30.695+02:00", "lat": 51.3148, "lon": 9.9976, "intensity": 0.8, "source": "Tagesschau"}, {"title": "Nirgends in Deutschland wird mehr Lotto gespielt als in Hessen", "url": "https://www.tagesschau.de/inland/regional/hessen/hr-nirgends-in-deutschland-wird-mehr-lotto-gespielt-als-in-hessen-100.html", "thumbnailUrl": "https://images.tagesschau.de/image/8cd4b356-7e66-4483-aec9-00ce08efe6a6/AAABj3d9Oys/AAABjwnlKNc/16x9-512.jpg", "date": "2024-05-14T16:23:28.275+02:00", "lat": 50.586, "lon": 8.676, "intensity": 0.8, "source": "Tagesschau"}, {"title": "Gro\u00dfeinsatz gegen mutma\u00dfliche Drogenh\u00e4ndler in zwei Landkreisen", "url": "https://www.tagesschau.de/inland/regional/niedersachsen/ndr-grosse-drogenrazzia-in-landkreisen-hameln-pyrmont-und-holzminden-100.html", "thumbnailUrl": "https://images.tagesschau.de/image/0d648368-4c75-4f3d-8853-3cec9d947d03/AAABj3d5qoQ/AAABjwnlKNc/16x9-512.jpg", "date": "2024-05-14T16:18:00.000+02:00", "lat": 52.1031, "lon": 9.3879, "intensity": 0.8, "source": "Tagesschau"}, {"title": "\"Sonderschutzplan Stromausfall\" soll Katastrophenschutz verbessern", "url": "https://www.tagesschau.de/inland/regional/niedersachsen/ndr-sonderschutzplan-stromausfall-soll-katastrophenschutz-verbessern-100.html", "thumbnailUrl": "https://images.tagesschau.de/image/5435a6de-6804-4fde-9530-d1157d211e03/AAABj3d9Vh0/AAABjwnlKNc/16x9-512.jpg", "date": "2024-05-14T16:18:00.000+02:00", "lat": 52.2301, "lon": 10.8639, "intensity": 0.6, "source": "Tagesschau"}, {"title": "Ensdorfer Kraftwerk wird Ende Juni gesprengt", "url": "https://www.tagesschau.de/inland/regional/saarland/sr-ensdorfer-kraftwerk-wird-ende-juni-gesprengt-100.html", "thumbnailUrl": "https://images.tagesschau.de/image/2776f415-79f4-4440-8fff-b768875c05d0/AAABj3enQDs/AAABjwnlKNc/16x9-512.jpg", "date": "2024-05-14T16:15:00.000+02:00", "lat": 49.2722, "lon": 6.9667, "intensity": 0.6, "source": "Tagesschau"}, {"title": "Neue Unwetter: Am Mittwoch drohen wieder \u00dcberschwemmungen in BW", "url": "https://www.tagesschau.de/inland/regional/badenwuerttemberg/swr-neue-unwetter-am-mittwoch-drohen-wieder-ueberschwemmungen-in-bw-100.html", "thumbnailUrl": "https://images.tagesschau.de/image/9ccd3ce8-8bc2-4d50-a4c3-dbd9ebaaefb0/AAABj3eEePI/AAABjwnlKNc/16x9-512.jpg", "date": "2024-05-14T16:09:03.000+02:00", "lat": 48.8566, "lon": 9.0146, "intensity": 0.8, "source": "Tagesschau"}, {"title": "Fu\u00dfball-EM: Berliner Mittelst\u00e4dt f\u00fcr DFB-Team nominiert - Dardai und Sch\u00e4fer f\u00fcr Ungarn", "url": "https://www.tagesschau.de/inland/regional/berlin/rbb-fussball-em-berliner-mittelstaedt-fuer-dfb-team-nominiert-dardai-und-schaefer-fuer-ungarn-100.html", "thumbnailUrl": "https://images.tagesschau.de/image/5c3178a9-20b5-4a86-8043-ed8cff495bf6/AAABj3dsucw/AAABjwnlKNc/16x9-512.jpg", "date": "2024-05-14T16:03:50.000+02:00", "lat": 52.52, "lon": 13.405, "intensity": 0.6, "source": "Tagesschau"}, {"title": "Warum ist die Europa\u00b7wahl wichtig?", "url": "https://www.tagesschau.de/europawahl/leichtesprache/europawahl-in-leichter-sprache-110.html", "thumbnailUrl": "https://images.tagesschau.de/image/f04a6dd7-2a89-4974-8382-a86132a3fab3/AAABj0OFzeE/AAABjwnlKNc/16x9-512.jpg", "date": "2024-05-14T16:00:55.660+02:00", "lat": 52.3759, "lon": 9.732, "intensity": 0.7, "source": "Tagesschau"}, {"title": "\"Jahrtausend-Unwetter\": Schlammschichten in Gemminger Kellern und Gesch\u00e4ften", "url": "https://www.tagesschau.de/inland/regional/badenwuerttemberg/swr-nach-starkregen-in-gemmingen-aufraeumarbeiten-werden-tage-dauern-100.html", "thumbnailUrl": "https://images.tagesschau.de/image/42f6e6e9-4068-4b64-9d0d-c23ccb771345/AAABj3eEflE/AAABjwnlKNc/16x9-512.jpg", "date": "2024-05-14T16:00:00.000+02:00", "lat": 49.1027, "lon": 8.9603, "intensity": 0.8, "source": "Tagesschau"}, {"title": "Verfassungsschutz: Islamisten werben f\u00fcr Anschl\u00e4ge bei EURO 2024", "url": "https://www.tagesschau.de/inland/regional/badenwuerttemberg/swr-verfassungsschutz-100.html", "thumbnailUrl": "https://images.tagesschau.de/image/f23d6dbd-399b-473d-92df-b851157bcab9/AAABj3dlhE0/AAABjwnlKNc/16x9-512.jpg", "date": "2024-05-14T15:54:30.000+02:00", "lat": 48.6616, "lon": 9.9937, "intensity": 0.8, "source": "Tagesschau"}, {"title": "Saarland bekommt Solarpflicht f\u00fcr zwei Geb\u00e4ude-Arten", "url": "https://www.tagesschau.de/inland/regional/saarland/sr-saarland-bekommt-solarpflicht-fuer-zwei-gebaeude-arten-100.html", "thumbnailUrl": "https://images.tagesschau.de/image/f96da1af-4edc-4718-91f4-95ee2ab027f3/AAABj3dlaeM/AAABjwnlKNc/16x9-512.jpg", "date": "2024-05-14T15:51:00.000+02:00", "lat": 49.3964, "lon": 6.9969, "intensity": 0.8, "source": "Tagesschau"}, {"title": "Historischer Tiefstwert bei t\u00f6dlich Verungl\u00fcckten auf den Stra\u00dfen von MV ", "url": "https://www.tagesschau.de/inland/regional/mecklenburgvorpommern/ndr-weniger-tote-auf-strassen-in-mv-100.html", "thumbnailUrl": "https://images.tagesschau.de/image/b7c091b5-34fe-41bb-8d45-2582f4d56ba4/AAABj3d15DA/AAABjwnlKNc/16x9-512.jpg", "date": "2024-05-14T15:44:00.000+02:00", "lat": 53.6127, "lon": 12.5877, "intensity": 0.8, "source": "Tagesschau"}, {"title": "Neuruppin: Bezahlbarer Wohnraum f\u00fcr Senioren mit Pflegebedarf", "url": "https://www.tagesschau.de/inland/regional/brandenburg/rbb-neuruppin-bezahlbarer-wohnraum-fuer-senioren-mit-pflegebedarf-100.html", "thumbnailUrl": "https://images.tagesschau.de/image/a80b5237-eeba-4403-9a60-67cc14752f9a/AAABj3dYjwY/AAABjwnlKNc/16x9-512.jpg", "date": "2024-05-14T15:40:38.000+02:00", "lat": 52.9253, "lon": 12.8055, "intensity": 0.6, "source": "Tagesschau"}, {"title": "Schweinswal in der Au\u00dfenems gesichtet", "url": "https://www.tagesschau.de/inland/regional/niedersachsen/ndr-schweinswal-in-der-aussenems-gesichtet-100.html", "thumbnailUrl": "https://images.tagesschau.de/image/4ec5aec4-c47a-4c6a-84a9-1ed6fb932188/AAABj3dTSuY/AAABjwnlKNc/16x9-512.jpg", "date": "2024-05-14T15:35:00.000+02:00", "lat": 53.5497, "lon": 7.0585, "intensity": 0.6, "source": "Tagesschau"}, {"title": "Putin vergibt wichtige Posten an enge Vertraute", "url": "https://www.tagesschau.de/ausland/europa/russland-putin-machtapparat-umbau-100.html", "thumbnailUrl": "https://images.tagesschau.de/image/ddcffacd-3bca-4e69-8f3c-9628f54ecf33/AAABjxYA1Hs/AAABjwnlKNc/16x9-512.jpg", "date": "2024-05-14T15:34:18.178+02:00", "lat": 55.7558, "lon": 37.6176, "intensity": 0.8, "source": "Tagesschau"}, {"title": "Missbrauchsprozess: Haftstrafe f\u00fcr L\u00fcner Ex-Vizeb\u00fcrgermeister", "url": "https://www.tagesschau.de/inland/regional/nordrheinwestfalen/wdr-haftstrafe-wegen-missbrauchs-und-kinderpornografie-fuer-ex-vizebuergermeister-aus-luenen-102.html", "thumbnailUrl": "https://images.tagesschau.de/image/56bdc42d-a473-4143-99e9-fbf1b80d4e5d/AAABj3hiCiY/AAABjwnlKNc/16x9-512.jpg", "date": "2024-05-14T15:34:00.000+02:00", "lat": 51.4818, "lon": 7.218, "intensity": 0.8, "source": "Tagesschau"}, {"title": "Fr\u00fcherkennungssystem: 106 Kamerasensoren sp\u00fcren Waldbr\u00e4nde in Brandenburg auf", "url": "https://www.tagesschau.de/inland/regional/brandenburg/rbb-frueherkennungssystem-106-kamerasensoren-spueren-waldbraende-in-brandenburg-auf-100.html", "thumbnailUrl": "https://images.tagesschau.de/image/ae43108f-867d-4812-8488-fc8e80861563/AAABj3dPfbs/AAABjwnlKNc/16x9-512.jpg", "date": "2024-05-14T15:32:13.000+02:00", "lat": 52.4118, "lon": 13.08, "intensity": 0.8, "source": "Tagesschau"}, {"title": "Sondersitzung in Rheinsberg: Stadtverordnete beschlie\u00dfen weitere Verhandlungen zum Tucholsky-Museum", "url": "https://www.tagesschau.de/inland/regional/brandenburg/rbb-sondersitzung-in-rheinsberg-stadtverordnete-beschliessen-weitere-verhandlungen-zum-tucholsky-museum-100.html", "thumbnailUrl": "https://images.tagesschau.de/image/46d753f0-5c23-4a39-8fcd-1e1a06ebb291/AAABj3dIFYU/AAABjwnlKNc/16x9-512.jpg", "date": "2024-05-14T15:22:44.000+02:00", "lat": 53.0935, "lon": 12.8996, "intensity": 0.6, "source": "Tagesschau"}, {"title": "NOK: S\u00fcdschleuse in Brunsb\u00fcttel wird f\u00fcr Bauarbeiten gesperrt", "url": "https://www.tagesschau.de/inland/regional/schleswigholstein/ndr-nok-suedschleuse-in-brunsbuettel-wird-fuer-bauarbeiten-gesperrt-100.html", "thumbnailUrl": "https://images.tagesschau.de/image/70bd5fc4-98a8-4076-a03b-0c911d3d67ea/AAABj3e7lH4/AAABjwnlKNc/16x9-512.jpg", "date": "2024-05-14T15:21:00.000+02:00", "lat": 53.8965, "lon": 9.1221, "intensity": 0.7, "source": "Tagesschau"}, {"title": "Franziska geh\u00f6rt zu den zehn besten Tischtennisspielern der Welt", "url": "https://www.tagesschau.de/inland/regional/saarland/sr-franziska-gehoert-zu-den-zehn-besten-tischtennisspielern-der-welt-102.html", "thumbnailUrl": "https://images.tagesschau.de/image/68836091-5c7e-4041-a72a-c6fea1a23d89/AAABj3dRMPM/AAABjwnlKNc/16x9-512.jpg", "date": "2024-05-14T15:21:00.000+02:00", "lat": 49.2388, "lon": 6.9734, "intensity": 0.8, "source": "Tagesschau"}, {"title": "Rechtschreibfehler auf Stimmzettel f\u00fcr Stadtratswahl in Hildburghausen", "url": "https://www.tagesschau.de/inland/regional/thueringen/mdr-rechtschreibfehler-auf-stimmzettel-fuer-stadtratswahl-in-hildburghausen-100.html", "thumbnailUrl": "https://images.tagesschau.de/image/1e79c05c-9b1f-45d5-8f30-3f981457f51a/AAABj3krvlI/AAABjwnlKNc/16x9-512.jpg", "date": "2024-05-14T15:19:55.000+02:00", "lat": 50.43, "lon": 10.7282, "intensity": 0.6, "source": "Tagesschau"}, {"title": "Ein Gesetz gegen das Volk", "url": "https://www.tagesschau.de/ausland/europa/georgien-gesetz-protest-100.html", "thumbnailUrl": "https://images.tagesschau.de/image/dc8946f3-e636-430f-80ce-ab709cc5e56f/AAABj3c9puY/AAABjwnlKNc/16x9-512.jpg", "date": "2024-05-14T15:14:40.603+02:00", "lat": 41.6941, "lon": 44.793, "intensity": 0.8, "source": "Tagesschau"}, {"title": "Karstadt-Areal am Ku'damm bekommt laut Senat nur noch ein Hochhaus", "url": "https://www.tagesschau.de/inland/regional/berlin/rbb-karstadt-areal-am-kudamm-bekommt-laut-senat-nur-noch-ein-hochhaus-100.html", "thumbnailUrl": "https://images.tagesschau.de/image/cb7f79b6-1a6b-4095-8771-8f6d5fd9ff87/AAABj3dA3k4/AAABjwnlKNc/16x9-512.jpg", "date": "2024-05-14T15:14:26.000+02:00", "lat": 52.5034, "lon": 13.3303, "intensity": 0.8, "source": "Tagesschau"}, {"title": "Seel\u00f6we \"Mickey\" ist neues Maskottchen der Marineflieger", "url": "https://www.tagesschau.de/inland/regional/niedersachsen/ndr-seeloewe-mickey-ist-neues-maskottchen-der-marineflieger-100.html", "thumbnailUrl": "https://images.tagesschau.de/image/ef45eed3-503e-404c-b247-91acd7d2289d/AAABj3dEcw8/AAABjwnlKNc/16x9-512.jpg", "date": "2024-05-14T15:11:00.000+02:00", "lat": 53.7763, "lon": 8.6474, "intensity": 0.6, "source": "Tagesschau"}, {"title": "Parlament verabschiedet umstrittenes Gesetz", "url": "https://www.tagesschau.de/eilmeldung/georgien-gesetz-verabschiedet-100.html", "thumbnailUrl": "https://images.tagesschau.de/image/9914a26f-fa5b-4c38-a42d-9fa579acd489/AAABj3cTTLQ/AAABjwnlKNc/16x9-512.jpg", "date": "2024-05-14T15:02:03.371+02:00", "lat": 47.516231, "lon": 14.550072, "intensity": 0.8, "source": "Tagesschau"}, {"title": "30 Verletzte bei Reizgas-Angriff an Sulzbacher Schule", "url": "https://www.tagesschau.de/inland/regional/saarland/sr-30-verletzte-bei-reizgas-angriff-an-sulzbacher-schule-100.html", "thumbnailUrl": "https://images.tagesschau.de/image/822e34d2-a738-4f59-9968-e3d24ef4611b/AAABj3dnKeg/AAABjwnlKNc/16x9-512.jpg", "date": "2024-05-14T15:01:00.000+02:00", "lat": 49.3173, "lon": 6.9587, "intensity": 0.8, "source": "Tagesschau"}, {"title": "Mann bei Einsturz zweier Balkone in Hanau verletzt", "url": "https://www.tagesschau.de/inland/regional/hessen/hr-mann-bei-einsturz-zweier-balkone-in-hanau-verletzt-100.html", "thumbnailUrl": "https://images.tagesschau.de/image/c739bb6e-9e57-45cd-9667-51b3ddf4d151/AAABj3cwUNw/AAABjwnlKNc/16x9-512.jpg", "date": "2024-05-14T14:59:39.128+02:00", "lat": 50.1266, "lon": 8.9141, "intensity": 0.7, "source": "Tagesschau"}, {"title": "K\u00fcnzelsauer W\u00fcrth-Gruppe will Wirtschaftskrise meistern", "url": "https://www.tagesschau.de/inland/regional/badenwuerttemberg/swr-kuenzelsauer-wuerth-gruppe-will-wirtschaftskrise-meistern-100.html", "thumbnailUrl": "https://images.tagesschau.de/image/84333127-3dde-44d6-8d48-77ef3d454481/AAABj3cyJd8/AAABjwnlKNc/16x9-512.jpg", "date": "2024-05-14T14:57:00.000+02:00", "lat": 49.2727, "lon": 9.6834, "intensity": 0.8, "source": "Tagesschau"}, {"title": "Opferschutz in SH: Was sich aus Brokstedt lernen l\u00e4sst", "url": "https://www.tagesschau.de/inland/regional/schleswigholstein/ndr-opferschutz-in-sh-was-sich-aus-brokstedt-lernen-laesst-100.html", "thumbnailUrl": "https://images.tagesschau.de/image/6b4f168c-47f0-4571-b731-d26643e7fce5/AAABj3cwYRU/AAABjwnlKNc/16x9-512.jpg", "date": "2024-05-14T14:57:00.000+02:00", "lat": 53.979, "lon": 9.8642, "intensity": 0.7, "source": "Tagesschau"}, {"title": "Ausl\u00e4ndische K\u00f6che ausgebeutet? Razzia im Saarland und in Hessen ", "url": "https://www.tagesschau.de/inland/regional/saarland/sr-auslaendische-koeche-ausgebeutet-razzia-im-saarland-und-in-hessen-100.html", "thumbnailUrl": "https://images.tagesschau.de/image/e1c560a5-8205-4482-8fc7-2287b4bec105/AAABj3cuZ5A/AAABjwnlKNc/16x9-512.jpg", "date": "2024-05-14T14:51:00.000+02:00", "lat": 49.3964, "lon": 8.2733, "intensity": 0.8, "source": "Tagesschau"}, {"title": "Bauplan f\u00fcr Besucherzentrum am Bundestag steht", "url": "https://www.tagesschau.de/inland/regional/berlin/rbb-senat-will-plaene-des-besucherzentrums-fuer-den-bundestag-beschliessen-102.html", "thumbnailUrl": "https://images.tagesschau.de/image/ba7d256b-99f1-4097-ab76-2942500ee981/AAABj3Vha14/AAABjwnlKNc/16x9-512.jpg", "date": "2024-05-14T14:48:54.000+02:00", "lat": 52.517, "lon": 13.3769, "intensity": 0.6, "source": "Tagesschau"}, {"title": "Abschnitt der Sch\u00f6nhauser Allee f\u00fcr zwei Wochen stadtausw\u00e4rts gesperrt", "url": "https://www.tagesschau.de/inland/regional/berlin/rbb-abschnitt-der-schoenhauser-allee-fuer-zwei-wochen-stadtauswaerts-gesperrt-100.html", "thumbnailUrl": "https://images.tagesschau.de/image/8f9ba692-ed3d-45d8-92a7-303792052a03/AAABj3cjfTU/AAABjwnlKNc/16x9-512.jpg", "date": "2024-05-14T14:45:00.000+02:00", "lat": 52.5535, "lon": 13.414, "intensity": 0.5, "source": "Tagesschau"}, {"title": "Stra\u00dfe zwischen Dillingen und Rehlingen bleibt nach Hangrutsch gesperrt ", "url": "https://www.tagesschau.de/inland/regional/saarland/sr-strasse-zwischen-dillingen-und-rehlingen-bleibt-nach-hangrutsch-gesperrt-100.html", "thumbnailUrl": "https://images.tagesschau.de/image/b06fdb14-043a-4c55-bfc8-d830a4800c35/AAABj3co6Xk/AAABjwnlKNc/16x9-512.jpg", "date": "2024-05-14T14:44:00.000+02:00", "lat": 49.3616, "lon": 6.7696, "intensity": 0.6, "source": "Tagesschau"}, {"title": "Waschb\u00e4ren gef\u00e4hrden einheimische Tiere", "url": "https://www.tagesschau.de/wissen/waschbaeren-gefahr-100.html", "thumbnailUrl": "https://images.tagesschau.de/image/60615333-3c3f-431f-aa65-2d5f312fab83/AAABj3bdPCQ/AAABjwnlKNc/16x9-512.jpg", "date": "2024-05-14T14:41:15.367+02:00", "lat": 51.4994, "lon": 9.9976, "intensity": 0.7, "source": "Tagesschau"}, {"title": "K\u00fchlturm an Kraftwerk in Gro\u00dfkrotzenburg abgerissen", "url": "https://www.tagesschau.de/inland/regional/hessen/hr-kuehlturm-an-kraftwerk-in-grosskrotzenburg-abgerissen-100.html", "thumbnailUrl": "https://images.tagesschau.de/image/4d1e074f-1d62-4340-8771-a23f218471c9/AAABj3dq_OE/AAABjwnlKNc/16x9-512.jpg", "date": "2024-05-14T14:32:18.447+02:00", "lat": 50.0726, "lon": 9.0156, "intensity": 0.7, "source": "Tagesschau"}, {"title": "600 Milliarden Euro f\u00fcr die Infrastruktur?", "url": "https://www.tagesschau.de/wirtschaft/konjunktur/infrastruktur-modernisierung-sondervermoegen-100.html", "thumbnailUrl": "https://images.tagesschau.de/image/2b02f957-3098-40f6-9b5e-1dc89bb6e8d1/AAABj0fYgqE/AAABjwnlKNc/16x9-512.jpg", "date": "2024-05-14T14:31:17.189+02:00", "lat": 51.1657, "lon": 10.4515, "intensity": 0.8, "source": "Tagesschau"}, {"title": "\"Sie gef\u00e4hrden das, was wir aufgebaut haben\"", "url": "https://www.tagesschau.de/wirtschaft/konjunktur/konzernchefs-gegen-populismus-100.html", "thumbnailUrl": "https://images.tagesschau.de/image/bbd5c9b5-4637-4f3b-b060-039d30feebd6/AAABj3buWxw/AAABjwnlKNc/16x9-512.jpg", "date": "2024-05-14T14:29:43.819+02:00", "lat": 48.7784, "lon": 9.1734, "intensity": 0.7, "source": "Tagesschau"}, {"title": "\"Kita-Kollaps\": Etwa 200 Brandenburger Kitas am Mittwoch wegen Protests geschlossen ", "url": "https://www.tagesschau.de/inland/regional/brandenburg/rbb-kita-kollaps-etwa-200-brandenburger-kitas-am-mittwoch-wegen-protests-geschlossen-100.html", "thumbnailUrl": "https://images.tagesschau.de/image/893e86e2-9129-4ced-8e73-055bb810f6e3/AAABj3cPUWE/AAABjwnlKNc/16x9-512.jpg", "date": "2024-05-14T14:22:13.000+02:00", "lat": 52.5016, "lon": 13.5007, "intensity": 0.8, "source": "Tagesschau"}, {"title": "Landkreis Rostock warnt: Trinkwasser in G\u00fcstrow in Gefahr", "url": "https://www.tagesschau.de/inland/regional/mecklenburgvorpommern/ndr-landkreis-rostock-warnt-trinkwasser-in-guestrow-in-gefahr-100.html", "thumbnailUrl": "https://images.tagesschau.de/image/c8d7d474-cdbe-47de-97ff-420ef6ff7168/AAABj3aHzSI/AAABjwnlKNc/16x9-512.jpg", "date": "2024-05-14T14:14:00.000+02:00", "lat": 53.7686, "lon": 12.1719, "intensity": 0.7, "source": "Tagesschau"}, {"title": "Tierpark: Berliner Tigernachwuchs wird nach DDR-Cartoonfiguren benannt", "url": "https://www.tagesschau.de/inland/regional/berlin/rbb-tierpark-berliner-tigernachwuchs-wird-nach-ddr-cartoonfiguren-benannt-100.html", "thumbnailUrl": "https://images.tagesschau.de/image/dae51bac-b8b1-43b7-97a2-1d76d62cbe8d/AAABj3cCj3g/AAABjwnlKNc/16x9-512.jpg", "date": "2024-05-14T14:07:42.000+02:00", "lat": 52.5138, "lon": 13.4305, "intensity": 0.8, "source": "Tagesschau"}, {"title": "Rheinland-Pfalz unterst\u00fctzt Widerspruchsl\u00f6sung bei Organspende", "url": "https://www.tagesschau.de/inland/regional/rheinlandpfalz/swr-rheinland-pfalz-unterstuetzt-widerspruchsloesung-bei-organspende-100.html", "thumbnailUrl": "https://images.tagesschau.de/image/163f49c1-6e01-49fe-8e64-ccba5834f779/AAABj3b7LfE/AAABjwnlKNc/16x9-512.jpg", "date": "2024-05-14T13:58:27.000+02:00", "lat": 49.776994, "lon": 8.23976, "intensity": 0.7, "source": "Tagesschau"}, {"title": "Frau in Magdeburg angeschossen: Polizei gibt Details zu Tatverd\u00e4chtigem bekannt", "url": "https://www.tagesschau.de/inland/regional/sachsenanhalt/mdr-frau-in-magdeburg-angeschossen-polizei-gibt-details-zu-tatverdaechtigem-bekannt-100.html", "thumbnailUrl": "https://images.tagesschau.de/image/a817cef9-e101-4154-b615-11d66c93eb66/AAABj3koKgs/AAABjwnlKNc/16x9-512.jpg", "date": "2024-05-14T13:49:05.000+02:00", "lat": 52.1205, "lon": 11.6295, "intensity": 0.7, "source": "Tagesschau"}, {"title": "Darmstadt 98: +++ Marseiler vor Unterschrift +++ Spieler-Streit laut Lilien gekl\u00e4rt +++ Geldstrafe f\u00fcr die Lilien +++", "url": "https://www.tagesschau.de/inland/regional/hessen/hr--tietz-vermisst-fehlende-gier--lilien-fans-liefern-sich-raststaetten-pruegelei--die-niederlage-der-lilien-in-der-video-zusammenfassung-102.html", "thumbnailUrl": "https://images.tagesschau.de/image/1a136d8b-3617-4a25-b277-14e35fa817bc/AAABj3eEnXU/AAABjwnlKNc/16x9-512.jpg", "date": "2024-05-14T13:47:15.136+02:00", "lat": 49.8717, "lon": 8.6553, "intensity": 0.5, "source": "Tagesschau"}, {"title": "Pfingsten und Schulferien: Viele Staus im Norden erwartet", "url": "https://www.tagesschau.de/inland/regional/niedersachsen/ndr-pfingsten-und-schulferien-viel-staus-im-norden-erwartet-100.html", "thumbnailUrl": "https://images.tagesschau.de/image/c4e72ab4-94bd-4a1e-a180-316149b71519/AAABj3cGMKE/AAABjwnlKNc/16x9-512.jpg", "date": "2024-05-14T13:27:00.000+02:00", "lat": 52.3759, "lon": 9.732, "intensity": 0.8, "source": "Tagesschau"}, {"title": "Mobilfunk: Gibt es bald keine Funkl\u00f6cher mehr in Niedersachsen?", "url": "https://www.tagesschau.de/inland/regional/niedersachsen/ndr-mobilfunk-gibt-es-bald-keine-funkloecher-mehr-in-niedersachsen-100.html", "thumbnailUrl": "https://images.tagesschau.de/image/d00bac2a-4eab-41aa-8978-64b21278d8e2/AAABj3bcJzI/AAABjwnlKNc/16x9-512.jpg", "date": "2024-05-14T13:25:00.000+02:00", "lat": 52.3759, "lon": 9.7489, "intensity": 0.7, "source": "Tagesschau"}, {"title": "Stromausfall in Braunschweig: 10.000 Haushalte ohne Strom", "url": "https://www.tagesschau.de/inland/regional/niedersachsen/ndr-stromausfall-in-braunschweig-10-000-haushalte-ohne-strom-100.html", "thumbnailUrl": "https://images.tagesschau.de/image/948e01fa-11c5-4bdf-b417-f884f340baa7/AAABj3bUyyI/AAABjwnlKNc/16x9-512.jpg", "date": "2024-05-14T13:13:00.000+02:00", "lat": 52.268874, "lon": 10.526769, "intensity": 0.8, "source": "Tagesschau"}, {"title": "Mehr Bootsfreizeit und Tourismus auf der Saarschleife", "url": "https://www.tagesschau.de/inland/regional/saarland/sr-mehr-bootsfreizeit-und-tourismus-auf-der-saarschleife-100.html", "thumbnailUrl": "https://images.tagesschau.de/image/d1f2657d-860a-46ec-adc1-4ab9b63ffb64/AAABj3b-zB8/AAABjwnlKNc/16x9-512.jpg", "date": "2024-05-14T13:00:00.000+02:00", "lat": 49.5006, "lon": 6.6067, "intensity": 0.6, "source": "Tagesschau"}, {"title": "Containerlager in Ensdorf wird abgebaut", "url": "https://www.tagesschau.de/inland/regional/saarland/sr-containerlager-in-ensdorf-wird-abgebaut-100.html", "thumbnailUrl": "https://images.tagesschau.de/image/bd36ffe6-9d70-4481-8f70-f5755db7d9df/AAABj3bH3K0/AAABjwnlKNc/16x9-512.jpg", "date": "2024-05-14T13:00:00.000+02:00", "lat": 49.3672, "lon": 6.8411, "intensity": 0.5, "source": "Tagesschau"}, {"title": "Stromausfall im ICE: 600 Reisende sitzen drei Stunden im Zug fest", "url": "https://www.tagesschau.de/inland/regional/niedersachsen/ndr-stromausfall-im-ice-600-reisende-sitzen-drei-stunden-im-zug-fest-100.html", "thumbnailUrl": "https://images.tagesschau.de/image/495ae522-c806-4669-89a0-2c8d7558bc0a/AAABj3a-xxE/AAABjwnlKNc/16x9-512.jpg", "date": "2024-05-14T12:54:00.000+02:00", "lat": 51.0571, "lon": 9.0146, "intensity": 0.8, "source": "Tagesschau"}, {"title": "Gro\u00df\u00fcbung im Stadion: Polizei und Rettungskr\u00e4fte bereiten sich auf Fu\u00dfball-EM vor", "url": "https://www.tagesschau.de/inland/regional/badenwuerttemberg/swr-grossuebung-im-stadion-polizei-und-rettungskraefte-bereiten-sich-auf-fussball-em-vor-100.html", "thumbnailUrl": "https://images.tagesschau.de/image/7546a1c4-e2e9-489f-a78b-33e86f5eeb15/AAABj3iwzBw/AAABjwnlKNc/16x9-512.jpg", "date": "2024-05-14T12:53:00.000+02:00", "lat": 48.7371, "lon": 9.9937, "intensity": 0.7, "source": "Tagesschau"}, {"title": "Nilg\u00e4nse kapern Storchennest - und br\u00fcten K\u00fcken aus", "url": "https://www.tagesschau.de/inland/regional/niedersachsen/ndr-nilgaense-kapern-strochennest-und-brueten-kueken-aus-100.html", "thumbnailUrl": "https://images.tagesschau.de/image/902e072d-aa21-4a1a-9046-d2b48242feda/AAABj3a3cXo/AAABjwnlKNc/16x9-512.jpg", "date": "2024-05-14T12:46:00.000+02:00", "lat": 52.1936, "lon": 10.4515, "intensity": 0.6, "source": "Tagesschau"}, {"title": "Mehrere Tote durch umst\u00fcrzende Werbetafel ", "url": "https://www.tagesschau.de/ausland/asien/indien-unglueck-werbetafel-100.html", "thumbnailUrl": "https://images.tagesschau.de/image/8f8adaa3-68e3-4d8f-82b9-0501c1069160/AAABj3XSeSU/AAABjwnlKNc/16x9-512.jpg", "date": "2024-05-14T12:43:42.657+02:00", "lat": 28.6139, "lon": 77.209, "intensity": 0.8, "source": "Tagesschau"}, {"title": "100.000 Besucher auf der Landesgartenschau", "url": "https://www.tagesschau.de/inland/regional/badenwuerttemberg/swr-100-000-besucher-auf-der-landesgartenschau-100.html", "thumbnailUrl": "https://images.tagesschau.de/image/d87ba8fd-5d50-451d-8e11-807da866ebdd/AAABj3ax6uM/AAABjwnlKNc/16x9-512.jpg", "date": "2024-05-14T12:33:46.000+02:00", "lat": 47.6889, "lon": 9.8376, "intensity": 0.8, "source": "Tagesschau"}, {"title": "Scholz fordert Mindestlohnanhebung auf 15 Euro", "url": "https://www.tagesschau.de/inland/innenpolitik/scholz-mindestlohn-108.html", "thumbnailUrl": "https://images.tagesschau.de/image/08ac10fa-a9d1-421d-9acc-908805a1ac8b/AAABiZB1Erg/AAABjwnlKNc/16x9-512.jpg", "date": "2024-05-14T12:24:41.361+02:00", "lat": 53.5511, "lon": 9.9937, "intensity": 0.8, "source": "Tagesschau"}, {"title": "Fu\u00dfball-EM: Bezirk schr\u00e4nkt Autoverkehr rund um Berliner Olympiastadion ein", "url": "https://www.tagesschau.de/inland/regional/berlin/rbb-europameisterschaft-bezirk-plant-verkehrssonderzone-rund-ums-olympiastadion-100.html", "thumbnailUrl": "https://images.tagesschau.de/image/e2aebe94-b4ee-497d-8987-d6eca96334be/AAABj3ahdIg/AAABjwnlKNc/16x9-512.jpg", "date": "2024-05-14T12:23:30.000+02:00", "lat": 52.5166, "lon": 13.2507, "intensity": 0.7, "source": "Tagesschau"}, {"title": "Geldautomaten in der Elbgaustra\u00dfe gesprengt", "url": "https://www.tagesschau.de/inland/regional/hamburg/ndr-geldautomaten-in-der-elbgaustrasse-gesprengt-100.html", "thumbnailUrl": "https://images.tagesschau.de/image/e3f9f8a9-0276-4416-a2d9-4e8c1ecca0ae/AAABj3aftAI/AAABjwnlKNc/16x9-512.jpg", "date": "2024-05-14T12:17:00.000+02:00", "lat": 53.6038, "lon": 9.9116, "intensity": 0.8, "source": "Tagesschau"}, {"title": "Neues ESA-Kontrollzentrum in Darmstadt soll 25 Millionen Euro kosten", "url": "https://www.tagesschau.de/inland/regional/hessen/hr-neues-esa-kontrollzentrum-in-darmstadt-soll-25-millionen-euro-kosten-100.html", "thumbnailUrl": "https://images.tagesschau.de/image/439056c1-c8b5-460b-a6be-89c28bbb8681/AAABj3aYUf0/AAABjwnlKNc/16x9-512.jpg", "date": "2024-05-14T12:13:42.240+02:00", "lat": 49.8728, "lon": 8.6524, "intensity": 0.8, "source": "Tagesschau"}, {"title": "Verunsicherte Lehrer: Wie politisch darf oder muss Schule sein?", "url": "https://www.tagesschau.de/inland/regional/sachsen/mdr-verunsicherte-lehrer-wie-politisch-darf-oder-muss-schule-sein-100.html", "thumbnailUrl": "https://images.tagesschau.de/image/e116c9de-36f9-46b0-9e86-95d625b6ad12/AAABj3kpqTM/AAABjwnlKNc/16x9-512.jpg", "date": "2024-05-14T12:05:40.000+02:00", "lat": 51.049328, "lon": 13.737262, "intensity": 0.5, "source": "Tagesschau"}, {"title": "Waffenlager in Frankfurt: Mutma\u00dflicher Rechtsextremist wegen Anschlagspl\u00e4nen vor Gericht", "url": "https://www.tagesschau.de/inland/regional/hessen/hr-waffenlager-in-frankfurt-mutmasslicher-rechtsextremist-wegen-anschlagsplaenen-vor-gericht-100.html", "thumbnailUrl": "https://images.tagesschau.de/image/a142b171-17dd-432f-a5ca-0bac261328e6/AAABj3aQ80o/AAABjwnlKNc/16x9-512.jpg", "date": "2024-05-14T12:04:25.571+02:00", "lat": 50.1109, "lon": 8.6821, "intensity": 0.8, "source": "Tagesschau"}, {"title": "\"Irreparable Sch\u00e4den\": Giftiger Asphalt illegal im Schwarzwald entsorgt", "url": "https://www.tagesschau.de/inland/regional/badenwuerttemberg/swr-irreparable-schaeden-giftiger-asphalt-illegal-im-schwarzwald-entsorgt-100.html", "thumbnailUrl": "https://images.tagesschau.de/image/3373bb46-1858-4a9e-a772-24f763833766/AAABj3e3x-Q/AAABjwnlKNc/16x9-512.jpg", "date": "2024-05-14T12:00:13.000+02:00", "lat": 47.9022, "lon": 8.2285, "intensity": 0.9, "source": "Tagesschau"}, {"title": "Rostock Seawolves trennen sich von Trainer Held", "url": "https://www.tagesschau.de/inland/regional/mecklenburgvorpommern/ndr-rostock-seawolves-trennen-sich-von-trainer-held-102.html", "thumbnailUrl": "https://images.tagesschau.de/image/89590bb3-320f-4e37-bd50-61edab0bf0f9/AAABj3h4FDk/AAABjwnlKNc/16x9-512.jpg", "date": "2024-05-14T12:00:00.000+02:00", "lat": 54.0924, "lon": 12.1407, "intensity": 0.4, "source": "Tagesschau"}, {"title": "Robin Koch von Eintracht Frankfurt f\u00e4hrt zur EM: Ein Teamplayer f\u00fcr die zweite Reihe", "url": "https://www.tagesschau.de/inland/regional/hessen/hr-robin-koch-von-eintracht-frankfurt-faehrt-zur-em-ein-teamplayer-fuer-die-zweite-reihe-102.html", "thumbnailUrl": "https://images.tagesschau.de/image/ea4bde43-a75e-488c-8ba8-4d2568330bed/AAABj3aBPVQ/AAABjwnlKNc/16x9-512.jpg", "date": "2024-05-14T11:43:34.542+02:00", "lat": 50.1109, "lon": 8.6819, "intensity": 0.6, "source": "Tagesschau"}, {"title": "Ex-Landesvorsitzender Pazderski verl\u00e4sst AfD", "url": "https://www.tagesschau.de/inland/regional/berlin/berlin-pazderski-afd-100.html", "thumbnailUrl": "https://images.tagesschau.de/image/cdd15315-c804-4cb6-a048-e79665e4b736/AAABj3ZrgvA/AAABjwnlKNc/16x9-512.jpg", "date": "2024-05-14T11:41:27.000+02:00", "lat": 52.520008, "lon": 13.404954, "intensity": 0.8, "source": "Tagesschau"}, {"title": "Warum das Trinity College den Pro-Pal\u00e4stina-Protesten nachgab", "url": "https://www.tagesschau.de/ausland/europa/trinity-college-proteste-100.html", "thumbnailUrl": "https://images.tagesschau.de/image/24cc9a8a-9aca-42f1-bab6-0a6e97c7ee08/AAABj3XBGqE/AAABjwnlKNc/16x9-512.jpg", "date": "2024-05-14T11:28:37.492+02:00", "lat": 53.3438, "lon": -6.2565, "intensity": 0.7, "source": "Tagesschau"}, {"title": "Hei\u00dfe Netz-Diskussion um Entwurf f\u00fcr die \"Neue Strandlust\"", "url": "https://www.tagesschau.de/inland/regional/bremen/rb-heisse-netz-diskussion-um-entwurf-fuer-die-neue-strandlust-100.html", "thumbnailUrl": "https://images.tagesschau.de/image/72350fb7-1296-472e-9cdd-4a81dee781fa/AAABj3Zx0ZA/AAABjwnlKNc/16x9-512.jpg", "date": "2024-05-14T11:25:00.000+02:00", "lat": 53.0793, "lon": 8.8017, "intensity": 0.8, "source": "Tagesschau"}, {"title": "Verw\u00fcstungen nach Hochwasser: Betroffene in Bisingen k\u00e4mpfen um Existenz", "url": "https://www.tagesschau.de/inland/regional/badenwuerttemberg/swr-wie-sich-bisingen-vom-hochwasser-erholt-100.html", "thumbnailUrl": "https://images.tagesschau.de/image/c5422623-a157-43ab-8708-c53048441ece/AAABj3eEf5c/AAABjwnlKNc/16x9-512.jpg", "date": "2024-05-14T11:24:36.000+02:00", "lat": 48.3458, "lon": 9.0154, "intensity": 0.8, "source": "Tagesschau"}, {"title": "Oft tankt es sich am Urlaubsziel billiger", "url": "https://www.tagesschau.de/wirtschaft/verbraucher/pfingstferien-urlaub-tanken-100.html", "thumbnailUrl": "https://images.tagesschau.de/image/be34fe25-e8fd-4cf4-8389-4df0159131b3/AAABjGOspHY/AAABjwnlKNc/16x9-512.jpg", "date": "2024-05-14T11:21:18.907+02:00", "lat": 53.5503, "lon": 9.9534, "intensity": 0.6, "source": "Tagesschau"}, {"title": "Prozess in Koblenz: Prostituierte gequ\u00e4lt und als Sklavin gehalten", "url": "https://www.tagesschau.de/inland/regional/rheinlandpfalz/swr-prozessbeginn-in-koblenz-prostituierte-gequaelt-und-getoetet-100.html", "thumbnailUrl": "https://images.tagesschau.de/image/57eb5c19-1226-423a-b873-4391d8d00722/AAABj3blQEI/AAABjwnlKNc/16x9-512.jpg", "date": "2024-05-14T11:14:00.000+02:00", "lat": 50.3569, "lon": 7.5614, "intensity": 0.9, "source": "Tagesschau"}, {"title": "Zahlen mit Bitcoins und Co. - Mannheim soll Kryptostadt werden", "url": "https://www.tagesschau.de/inland/regional/badenwuerttemberg/swr-zahlen-mit-bitcoins-und-co-mannheim-soll-kryptostadt-werden-100.html", "thumbnailUrl": "https://images.tagesschau.de/image/186e01d7-705d-492a-976a-8626b909e417/AAABj3ZsU-g/AAABjwnlKNc/16x9-512.jpg", "date": "2024-05-14T11:07:24.000+02:00", "lat": 49.4875, "lon": 8.4647, "intensity": 0.6, "source": "Tagesschau"}, {"title": "Union-Trainerin Ailien Poese: \"Wir haben den Profifu\u00dfball so sehr etabliert, dass er gelebt wird\"", "url": "https://www.tagesschau.de/inland/regional/berlin/rbb-union-trainerin-ailien-poese-wir-haben-den-profifussball-so-sehr-etabliert-dass-er-gelebt-wird-102.html", "thumbnailUrl": "https://images.tagesschau.de/image/4527482e-7184-45ae-9eac-1b1903993cdc/AAABj3ZaKwo/AAABjwnlKNc/16x9-512.jpg", "date": "2024-05-14T11:03:41.000+02:00", "lat": 52.52, "lon": 13.4074, "intensity": 0.8, "source": "Tagesschau"}, {"title": "Brokstedt - Protokoll des Versagens", "url": "https://www.tagesschau.de/inland/regional/hamburg/messerattacke-brokstedt-protokoll-100.html", "thumbnailUrl": "https://images.tagesschau.de/image/7d9090d8-bec5-4e85-a364-4f740bc2eb33/AAABj3hgRT0/AAABjwnlKNc/16x9-512.jpg", "date": "2024-05-14T10:56:46.786+02:00", "lat": 53.9693, "lon": 9.7646, "intensity": 0.8, "source": "Tagesschau"}, {"title": "Asylbewerber sollen in Brandenburg k\u00fcnftig 50 Euro in bar bekommen", "url": "https://www.tagesschau.de/inland/regional/brandenburg/rbb-brandenburg-plant-offenbar-50-euro-in-bar-fuer-asylbewerber-100.html", "thumbnailUrl": "https://images.tagesschau.de/image/c4ef3c26-97cc-490f-abed-e588c5449995/AAABj3LrI5M/AAABjwnlKNc/16x9-512.jpg", "date": "2024-05-14T10:51:10.000+02:00", "lat": 52.501165, "lon": 13.238281, "intensity": 0.6, "source": "Tagesschau"}, {"title": "Hessen am Morgen: +++ Waffen und Bomben f\u00fcr Umsturz gehortet - Prozess +++ ESA plant neues Raumkontrollzentrum in Darmstadt +++ Reiterin tot auf Feldweg gefunden +++", "url": "https://www.tagesschau.de/inland/regional/hessen/hr-hessen-am-morgen--spanplatten-laster-faengt-auf-a7-feuer-100.html", "thumbnailUrl": "https://images.tagesschau.de/image/a142b171-17dd-432f-a5ca-0bac261328e6/AAABj3aQ80o/AAABjwnlKNc/16x9-512.jpg", "date": "2024-05-14T10:50:29.269+02:00", "lat": 49.8709, "lon": 8.6553, "intensity": 0.8, "source": "Tagesschau"}, {"title": "Humor als Rettungsanker: Salman Rushdie in Hamburg", "url": "https://www.tagesschau.de/inland/regional/hamburg/ndr-humor-als-rettungsanker-salman-rushdie-in-hamburg-100.html", "thumbnailUrl": "https://images.tagesschau.de/image/f6274139-375e-498d-94a6-85501e4c04a6/AAABj3Y1MZw/AAABjwnlKNc/16x9-512.jpg", "date": "2024-05-14T10:50:00.000+02:00", "lat": 53.551085, "lon": 9.993682, "intensity": 0.7, "source": "Tagesschau"}, {"title": "Messerattacke in Brokstedt: Urteil f\u00fcr Mittwoch erwartet", "url": "https://www.tagesschau.de/inland/regional/schleswigholstein/ndr-messerattacke-in-brokstedt-urteil-fuer-mittwoch-erwartet-100.html", "thumbnailUrl": "https://images.tagesschau.de/image/6fa50561-cdb0-4e14-80d7-9883cc9f2bb3/AAABj3hgSVQ/AAABjwnlKNc/16x9-512.jpg", "date": "2024-05-14T10:49:00.000+02:00", "lat": 53.9561, "lon": 9.7425, "intensity": 0.9, "source": "Tagesschau"}, {"title": "Orcas versenken Jacht an der Stra\u00dfe von Gibraltar", "url": "https://www.tagesschau.de/ausland/afrika/orcas-versenken-jacht-vor-marokko-100.html", "thumbnailUrl": "https://images.tagesschau.de/image/c904cd83-bacb-4521-a871-3d9db4e31cd4/AAABj3YEBYc/AAABjwnlKNc/16x9-512.jpg", "date": "2024-05-14T10:45:17.331+02:00", "lat": 35.890821, "lon": -5.34918, "intensity": 0.8, "source": "Tagesschau"}, {"title": "Wenn Mensch auf Schlange trifft", "url": "https://www.tagesschau.de/wissen/klima/schlangen-australien-100.html", "thumbnailUrl": "https://images.tagesschau.de/image/11c830bf-4525-4a24-a2f7-ca4750cabcdb/AAABj3ZFQB0/AAABjwnlKNc/16x9-512.jpg", "date": "2024-05-14T10:43:21.545+02:00", "lat": -25.2744, "lon": 133.7751, "intensity": 0.8, "source": "Tagesschau"}, {"title": "Niedersachsens Wald z\u00e4hlt bundesweit zu den ges\u00fcndesten", "url": "https://www.tagesschau.de/inland/regional/niedersachsen/ndr-niedersachsens-wald-zaehlt-bundesweit-zu-den-gesuendesten-100.html", "thumbnailUrl": "https://images.tagesschau.de/image/ebee9109-fcc2-4361-a599-43f74870b9f6/AAABj3ZH1Z4/AAABjwnlKNc/16x9-512.jpg", "date": "2024-05-14T10:42:00.000+02:00", "lat": 52.6367, "lon": 9.7421, "intensity": 0.5, "source": "Tagesschau"}, {"title": "Mit NABU-Projekten V\u00f6gel entdecken und sch\u00fctzen", "url": "https://www.tagesschau.de/inland/regional/saarland/sr-mit-nabu-projekten-voegel-entdecken-und-schuetzen-100.html", "thumbnailUrl": "https://images.tagesschau.de/image/0d0d60db-a722-4d9e-b652-1a3272f95ddc/AAABj3aBKKc/AAABjwnlKNc/16x9-512.jpg", "date": "2024-05-14T10:40:00.000+02:00", "lat": 49.3964, "lon": 7.0, "intensity": 0.5, "source": "Tagesschau"}, {"title": "S-Bahn: Sperrungen in den Hamburger Maiferien", "url": "https://www.tagesschau.de/inland/regional/hamburg/ndr-s-bahn-sperrungen-in-den-hamburger-maiferien-104.html", "thumbnailUrl": "https://images.tagesschau.de/image/1819c813-4cdf-46ac-9f98-8efd7370ddda/AAABj3ascp0/AAABjwnlKNc/16x9-512.jpg", "date": "2024-05-14T10:35:00.000+02:00", "lat": 53.5511, "lon": 9.9937, "intensity": 0.6, "source": "Tagesschau"}, {"title": "Herzinfarkt durch Corona-Impfung? Richter am Landgericht Magdeburg skeptisch", "url": "https://www.tagesschau.de/inland/regional/sachsenanhalt/mdr-krank-wegen-corona-impfung-richter-am-landgericht-magdeburg-skeptisch-100.html", "thumbnailUrl": "https://images.tagesschau.de/image/9d31414c-ded3-4124-9b60-738e2684db6e/AAABj3Y5KCo/AAABjwnlKNc/16x9-512.jpg", "date": "2024-05-14T10:29:31.000+02:00", "lat": 52.1277, "lon": 11.626, "intensity": 0.7, "source": "Tagesschau"}, {"title": "Wetterlage und Temperaturen", "url": "https://www.tagesschau.de/wetter/europa-welt", "thumbnailUrl": "https://images.tagesschau.de/image/6e7d3b16-79c8-4308-822b-20c3035236b5/AAABj3Yr-BE/AAABjwnlKNc/16x9-512.jpg", "date": "2024-05-14T10:20:58.543+02:00", "lat": 51.1657, "lon": 10.4515, "intensity": 0.3, "source": "Tagesschau"}, {"title": "St\u00f6rchin aus dem Wendland wurde im Libanon angeschossen", "url": "https://www.tagesschau.de/inland/regional/niedersachsen/ndr-stoerchin-aus-dem-wendland-wurde-im-libanon-angeschossen-100.html", "thumbnailUrl": "https://images.tagesschau.de/image/ec091c5d-be63-469c-abe4-94781d9d22ec/AAABj3Y2TT4/AAABjwnlKNc/16x9-512.jpg", "date": "2024-05-14T10:14:00.000+02:00", "lat": 33.8547, "lon": 35.8434, "intensity": 0.6, "source": "Tagesschau"}, {"title": "Tarifabschluss: Mehr Geld f\u00fcr Besch\u00e4ftigte im Metallhandwerk", "url": "https://www.tagesschau.de/inland/regional/niedersachsen/ndr-tarifabschluss-mehr-geld-fuer-beschaeftigte-im-metallhandwerk-100.html", "thumbnailUrl": "https://images.tagesschau.de/image/154fd626-92f1-4820-bd90-cbd93d56157e/AAABj3Y2AqE/AAABjwnlKNc/16x9-512.jpg", "date": "2024-05-14T10:02:00.000+02:00", "lat": 51.1657, "lon": 10.4515, "intensity": 0.8, "source": "Tagesschau"}, {"title": "Vogelzuchtverein darf keine Spenden annehmen, Prozess wegen Mordes und Zwangsprostitution, Tiny Forests f\u00fcr k\u00fchle St\u00e4dte", "url": "https://www.tagesschau.de/inland/regional/rheinlandpfalz/swr-wahl-viele-ortsbuergermeister-treten-doch-an-prozess-wegen-mordes-und-zwangsprostitution-tiny-forests-fuer-kuehle-staedte-100.html", "thumbnailUrl": "https://images.tagesschau.de/image/65e15b1e-2a70-4150-9349-e5f8801d0d33/AAABj3VDyXc/AAABjwnlKNc/16x9-512.jpg", "date": "2024-05-14T10:00:00.000+02:00", "lat": 49.0486, "lon": 8.2711, "intensity": 0.6, "source": "Tagesschau"}, {"title": "Auto prallt in Wolfsburg gegen Baum: Mutter in Lebensgefahr", "url": "https://www.tagesschau.de/inland/regional/niedersachsen/ndr-auto-prallt-in-wolfsburg-gegen-baum-mutter-in-lebensgefahr-100.html", "thumbnailUrl": "https://images.tagesschau.de/image/bbe3a306-8fdf-4266-a76b-c880f588dfa4/AAABj3YHvP8/AAABjwnlKNc/16x9-512.jpg", "date": "2024-05-14T09:35:00.000+02:00", "lat": 52.4226, "lon": 10.75, "intensity": 0.8, "source": "Tagesschau"}, {"title": "Wechsel aufs Gymnasium: Ungleiche Chancen f\u00fcr Kinder in Hessen", "url": "https://www.tagesschau.de/inland/regional/hessen/hr-wechsel-aufs-gymnasium-ungleiche-chancen-fuer-kinder-in-hessen-100.html", "thumbnailUrl": "https://images.tagesschau.de/image/ba15e62c-c5c0-4d75-811f-3ca96c5afa8e/AAABj3YAZ6o/AAABjwnlKNc/16x9-512.jpg", "date": "2024-05-14T09:27:19.917+02:00", "lat": 50.6191, "lon": 9.2773, "intensity": 0.7, "source": "Tagesschau"}, {"title": "\"Es gibt Antr\u00e4ge f\u00fcr Antr\u00e4ge f\u00fcr Antr\u00e4ge\" \u2013 Deshalb will Sachsen-Anhalt B\u00fcrokratie abbauen", "url": "https://www.tagesschau.de/inland/regional/sachsenanhalt/mdr-es-gibt-antraege-fuer-antraege-fuer-antraege--deshalb-will-sachsen-anhalt-buerokratie-abbauen-100.html", "thumbnailUrl": "https://images.tagesschau.de/image/01a89338-308d-4fb7-8769-b346a374c1f3/AAABj3X8tEc/AAABjwnlKNc/16x9-512.jpg", "date": "2024-05-14T09:23:57.000+02:00", "lat": 52.1668, "lon": 11.8546, "intensity": 0.8, "source": "Tagesschau"}, {"title": "Berlin zahlt mehr als zehn Millionen Euro im Jahr f\u00fcr die Entsorgung von illegalem M\u00fcll ", "url": "https://www.tagesschau.de/inland/regional/berlin/rbb-berlin-zahlt-mehr-als-zehn-millionen-euro-im-jahr-fuer-die-entsorgung-von-illegalem-muell-100.html", "thumbnailUrl": "https://images.tagesschau.de/image/f0933021-6a1a-4a39-82a8-d703316a1620/AAABj3XwS_U/AAABjwnlKNc/16x9-512.jpg", "date": "2024-05-14T09:06:09.000+02:00", "lat": 52.520008, "lon": 13.404954, "intensity": 0.8, "source": "Tagesschau"}, {"title": "Waldbrandrisiko: H\u00f6chste Gefahrenstufe im S\u00fcden von MV", "url": "https://www.tagesschau.de/inland/regional/mecklenburgvorpommern/ndr-waldbrandrisiko-mehrere-forstaemter-rufen-gefahrenstufe-4-aus-100.html", "thumbnailUrl": "https://images.tagesschau.de/image/0f55af35-163c-4642-9cf9-234ce4a4554e/AAABj3invIQ/AAABjwnlKNc/16x9-512.jpg", "date": "2024-05-14T09:03:00.000+02:00", "lat": 53.6127, "lon": 13.2105, "intensity": 0.8, "source": "Tagesschau"}, {"title": "Von Kiew nach Stra\u00dfburg: \"Race4Europe\" f\u00e4hrt durch Heidekreis", "url": "https://www.tagesschau.de/inland/regional/niedersachsen/ndr-von-kiew-nach-strassburg-race4europe-faehrt-durch-heidekreis-100.html", "thumbnailUrl": "https://images.tagesschau.de/image/bb50e811-80b4-4191-ae9b-2bf68b57b617/AAABj3XjHVo/AAABjwnlKNc/16x9-512.jpg", "date": "2024-05-14T08:54:00.000+02:00", "lat": 52.9376, "lon": 9.8131, "intensity": 0.6, "source": "Tagesschau"}, {"title": "Tag der Entscheidung in Georgien", "url": "https://www.tagesschau.de/ausland/europa/georgien-gesetz-verabschiedung-100.html", "thumbnailUrl": "https://images.tagesschau.de/image/b9789a74-b377-4625-9d7a-7a4b342b32ab/AAABjyi9dYw/AAABjwnlKNc/16x9-512.jpg", "date": "2024-05-14T08:51:12.609+02:00", "lat": 41.7151, "lon": 44.793, "intensity": 0.8, "source": "Tagesschau"}, {"title": "Die Gr\u00fcnen feiern ein Urgestein - mit Merkel", "url": "https://www.tagesschau.de/inland/innenpolitik/trittin-abschied-gruene-bundestag-100.html", "thumbnailUrl": "https://images.tagesschau.de/image/e2296d1e-bd4b-46cb-8ac1-29fe81ab99e3/AAABj3XRIoA/AAABjwnlKNc/16x9-512.jpg", "date": "2024-05-14T08:48:27.758+02:00", "lat": 52.5159, "lon": 13.3761, "intensity": 0.7, "source": "Tagesschau"}, {"title": "Teil von eingest\u00fcrzter Br\u00fccke in Baltimore gesprengt", "url": "https://www.tagesschau.de/ausland/amerika/baltimore-brueckenteile-gesprengt-100.html", "thumbnailUrl": "https://images.tagesschau.de/image/33ca2958-bf5e-4714-b281-42a07765f00d/AAABj3XDkus/AAABjwnlKNc/16x9-512.jpg", "date": "2024-05-14T08:44:25.489+02:00", "lat": 39.2904, "lon": -76.6122, "intensity": 0.8, "source": "Tagesschau"}, {"title": "800.000 Euro Schaden: Gro\u00dffeuer zerst\u00f6rt G\u00e4rtnerei in Bleckede", "url": "https://www.tagesschau.de/inland/regional/niedersachsen/ndr-800-000-euro-schaden-grossfeuer-zerstoert-gaertnerei-in-bleckede-100.html", "thumbnailUrl": "https://images.tagesschau.de/image/d11c5f29-8d93-45f2-a8f4-37531fa362e8/AAABj3XaAAw/AAABjwnlKNc/16x9-512.jpg", "date": "2024-05-14T08:42:00.000+02:00", "lat": 53.264, "lon": 10.965, "intensity": 0.8, "source": "Tagesschau"}, {"title": "Waldbrandgefahr in fast ganz Brandenburg auf h\u00f6chster Stufe", "url": "https://www.tagesschau.de/inland/regional/berlin/rbb-waldbrandgefahr-in-fast-ganz-brandenburg-auf-hoechster-stufe-100.html", "thumbnailUrl": "https://images.tagesschau.de/image/a54e0901-6609-46bd-9d85-196e8d18284c/AAABj3XbsvU/AAABjwnlKNc/16x9-512.jpg", "date": "2024-05-14T08:42:00.000+02:00", "lat": 52.520008, "lon": 13.404954, "intensity": 0.8, "source": "Tagesschau"}, {"title": "Aufbruch in klimafreundliche Zeiten", "url": "https://www.tagesschau.de/wirtschaft/energie/maschinenbau-klimaschutz-100.html", "thumbnailUrl": "https://images.tagesschau.de/image/f7c4548b-49d1-4045-a481-7cf7cedbc7c8/AAABj12PCZE/AAABjwnlKNc/16x9-512.jpg", "date": "2024-05-14T08:18:15.361+02:00", "lat": 51.1657, "lon": 10.4515, "intensity": 0.7, "source": "Tagesschau"}, {"title": "AfD-Beobachtung: NRW-Urteil richtungsweisend f\u00fcr Bayern?", "url": "https://www.tagesschau.de/inland/regional/bayern/br-afd-beobachtung-nrw-urteil-richtungsweisend-fuer-bayern-102.html", "thumbnailUrl": "https://images.tagesschau.de/image/3acf8252-5ccf-4fd1-9411-99717693a7b2/AAABj3W-ZNk/AAABjwnlKNc/16x9-512.jpg", "date": "2024-05-14T08:14:59.880+02:00", "lat": 51.9607, "lon": 7.6299, "intensity": 0.7, "source": "Tagesschau"}, {"title": "Gl\u00fccksunterricht an Schulen: Warum das sinnvoll sein kann", "url": "https://www.tagesschau.de/inland/regional/bayern/br-gluecksunterricht-an-schulen-warum-das-sinnvoll-sein-kann-102.html", "thumbnailUrl": "https://images.tagesschau.de/image/2df44f6b-9e9d-430f-8833-7a0d9de4c0cf/AAABj3W8j6A/AAABjwnlKNc/16x9-512.jpg", "date": "2024-05-14T08:13:06.536+02:00", "lat": 48.669, "lon": 11.5333, "intensity": 0.6, "source": "Tagesschau"}, {"title": "Flut an Einb\u00fcrgerungsantr\u00e4gen: Amt kommt mit der Bearbeitung nicht hinterher", "url": "https://www.tagesschau.de/inland/regional/badenwuerttemberg/swr-flut-an-einbuergerungsantraegen-amt-kommt-mit-der-bearbeitung-nicht-hinterher-100.html", "thumbnailUrl": "https://images.tagesschau.de/image/c1ccd8d4-0374-45e5-a7e6-1b5593de036d/AAABj3YFzXQ/AAABjwnlKNc/16x9-512.jpg", "date": "2024-05-14T07:55:16.000+02:00", "lat": 49.1137, "lon": 9.7371, "intensity": 0.7, "source": "Tagesschau"}, {"title": "So tief hinab wie nie zuvor: Wie hessische Taucher Unterwasserh\u00f6hlen in Namibia erkunden", "url": "https://www.tagesschau.de/inland/regional/hessen/hr-so-tief-hinab-wie-nie-zuvor-wie-hessische-taucher-unterwasserhoehlen-in-namibia-erkunden-100.html", "thumbnailUrl": "https://images.tagesschau.de/image/fb104e33-a2dd-4d67-a1bc-d2a0468678dd/AAABj3Wvw0M/AAABjwnlKNc/16x9-512.jpg", "date": "2024-05-14T07:55:06.963+02:00", "lat": -17.7385, "lon": 15.2588, "intensity": 0.8, "source": "Tagesschau"}, {"title": "T\u00f6dlicher Unfall auf B268 bei Pellingen", "url": "https://www.tagesschau.de/inland/regional/rheinlandpfalz/swr-toedlicher-unfall-auf-b268-bei-pellingen-102.html", "thumbnailUrl": "https://images.tagesschau.de/image/b575ca9d-248a-4b92-9742-563328be2981/AAABj3KakPQ/AAABjwnlKNc/16x9-512.jpg", "date": "2024-05-14T07:49:00.000+02:00", "lat": 49.7218, "lon": 6.6227, "intensity": 0.8, "source": "Tagesschau"}, {"title": "Europapokal-Reform: Auf was sich Eintracht Frankfurt einstellen kann", "url": "https://www.tagesschau.de/inland/regional/hessen/hr-europapokal-reform-auf-was-sich-eintracht-frankfurt-einstellen-kann-102.html", "thumbnailUrl": "https://images.tagesschau.de/image/b864cb42-6b12-4636-acbc-57c609aa4867/AAABj3iTiiw/AAABjwnlKNc/16x9-512.jpg", "date": "2024-05-14T07:42:29.251+02:00", "lat": 50.1109, "lon": 8.6812, "intensity": 0.6, "source": "Tagesschau"}, {"title": "Brand am Gymnasium Oesede: Vorerst kein Pr\u00e4senzunterricht", "url": "https://www.tagesschau.de/inland/regional/niedersachsen/ndr-unterrichtsausfall-nach-feuer-in-schule-in-georgsmarienhuette-100.html", "thumbnailUrl": "https://images.tagesschau.de/image/4f390f3b-1cec-42e4-b70a-515205332b2b/AAABj3WYG1I/AAABjwnlKNc/16x9-512.jpg", "date": "2024-05-14T07:38:00.000+02:00", "lat": 52.1815, "lon": 8.0409, "intensity": 0.8, "source": "Tagesschau"}, {"title": "Northeim: Strafanzeige nach Insolvenz der Landesgartenschau?", "url": "https://www.tagesschau.de/inland/regional/niedersachsen/ndr-northeim-strafanzeige-nach-insolvenz-der-landesgartenschau-100.html", "thumbnailUrl": "https://images.tagesschau.de/image/014b61ae-d01c-47fe-be70-f2017270d481/AAABj3Wmn08/AAABjwnlKNc/16x9-512.jpg", "date": "2024-05-14T07:28:00.000+02:00", "lat": 51.7109, "lon": 10.0096, "intensity": 0.8, "source": "Tagesschau"}, {"title": "Marzahn-Hellersdorf: \"Der Zirkus hat mir geholfen, mich pers\u00f6nlich zu finden\"", "url": "https://www.tagesschau.de/inland/regional/berlin/rbb-kinder-und-jugendfreizeitangebote-in-marzahn-hellersdorf-haette-ich-den-zirkus-nicht-gehabt-waere-das-die-reinste-katastrophe-gewesen-100.html", "thumbnailUrl": "https://images.tagesschau.de/image/a93054aa-642f-40e0-b927-8597fb637bf3/AAABj3WNKGI/AAABjwnlKNc/16x9-512.jpg", "date": "2024-05-14T07:19:13.000+02:00", "lat": 52.5264, "lon": 13.5729, "intensity": 0.8, "source": "Tagesschau"}, {"title": "Zentrale Pr\u00fcfungen f\u00fcr Zehntkl\u00e4ssler in NRW starten", "url": "https://www.tagesschau.de/inland/regional/nordrheinwestfalen/wdr-zentrale-pruefungen-fuer-zehntklaessler-in-nrw-starten-102.html", "thumbnailUrl": "https://images.tagesschau.de/image/8d46dd5a-de7a-411f-8a68-c9d1014fb2ab/AAABj3bfqp0/AAABjwnlKNc/16x9-512.jpg", "date": "2024-05-14T07:15:00.000+02:00", "lat": 51.8133, "lon": 7.6261, "intensity": 0.6, "source": "Tagesschau"}, {"title": "Bezirkswahlen 2024: Das sind die Themen in Harburg", "url": "https://www.tagesschau.de/inland/regional/hamburg/ndr-bezirkswahlen-2024-das-sind-die-themen-in-harburg-100.html", "thumbnailUrl": "https://images.tagesschau.de/image/039ed1cb-8fbc-45c9-97da-82f145f6582f/AAABj3V8haw/AAABjwnlKNc/16x9-512.jpg", "date": "2024-05-14T07:01:00.000+02:00", "lat": 53.4767, "lon": 9.9762, "intensity": 0.5, "source": "Tagesschau"}, {"title": "Wetter in Hessen: Schauer, Gewitter und Starkregen m\u00f6glich", "url": "https://www.tagesschau.de/inland/regional/hessen/hr-wetter-in-hessen-schauer-gewitter-und-starkregen-moeglich-100.html", "thumbnailUrl": "https://images.tagesschau.de/image/b73f8e34-a62a-48f8-9509-d7f2ab0ff8ca/AAABj3V6yxI/AAABjwnlKNc/16x9-512.jpg", "date": "2024-05-14T07:00:13.832+02:00", "lat": 50.6521, "lon": 9.6939, "intensity": 0.6, "source": "Tagesschau"}, {"title": "Schiedsrichter angegriffen: Spielabbruch in der Kreisoberliga", "url": "https://www.tagesschau.de/inland/regional/mecklenburgvorpommern/ndr-schiedsrichter-angegriffen-spielabbruch-in-der-kreisoberliga-100.html", "thumbnailUrl": "https://images.tagesschau.de/image/9deb9fc0-2e50-4f56-a29a-fe778c66b9e6/AAABj3WsOgM/AAABjwnlKNc/16x9-512.jpg", "date": "2024-05-14T06:53:00.000+02:00", "lat": 53.6127, "lon": 12.6246, "intensity": 0.8, "source": "Tagesschau"}, {"title": "Guten Morgen, NRW!", "url": "https://www.tagesschau.de/inland/regional/nordrheinwestfalen/wdr-guten-morgen-nrw-478.html", "thumbnailUrl": "https://images.tagesschau.de/image/e89156ed-2ff3-42c6-9188-b03e7aaaaff2/AAABj3YO7pc/AAABjwnlKNc/16x9-512.jpg", "date": "2024-05-14T06:49:00.000+02:00", "lat": 51.492, "lon": 7.6261, "intensity": 0.7, "source": "Tagesschau"}, {"title": "Tag des Wanderns: Zentraler Aktionstag in Rotenburg", "url": "https://www.tagesschau.de/inland/regional/niedersachsen/ndr-tag-des-wanderns-zentraler-aktionstag-in-rotenburg-100.html", "thumbnailUrl": "https://images.tagesschau.de/image/1872ef90-f8ce-48ee-8af4-9c9f85cc1715/AAABj3iKYDg/AAABjwnlKNc/16x9-512.jpg", "date": "2024-05-14T06:48:00.000+02:00", "lat": 53.1143, "lon": 9.4055, "intensity": 0.8, "source": "Tagesschau"}, {"title": "Geht es weiter mit dem \"Green Deal\"?", "url": "https://www.tagesschau.de/europawahl/themen/green-deal-104.html", "thumbnailUrl": "https://images.tagesschau.de/image/561bc18d-3854-4e79-89f7-381c5f43cbe3/AAABj3VqCUc/AAABjwnlKNc/16x9-512.jpg", "date": "2024-05-14T06:43:54.950+02:00", "lat": 50.8503, "lon": 4.3517, "intensity": 0.7, "source": "Tagesschau"}, {"title": "Trotz Anfeindungen und Finanzproblemen - viele Ortsb\u00fcrgermeister treten bei Kommunalwahl in RLP wieder an", "url": "https://www.tagesschau.de/inland/regional/rheinlandpfalz/swr-viele-ortsbuergermeister-treten-doch-bei-kommunalwahl-in-rlp-an-100.html", "thumbnailUrl": "https://images.tagesschau.de/image/8bc1ef32-f152-45a0-9d49-0ae2f2007c94/AAABj3Y0DME/AAABjwnlKNc/16x9-512.jpg", "date": "2024-05-14T06:31:00.000+02:00", "lat": 49.9929, "lon": 7.8952, "intensity": 0.5, "source": "Tagesschau"}, {"title": "Baugewerbe: In Niedersachsen streiken 1.000 Arbeiter", "url": "https://www.tagesschau.de/inland/regional/niedersachsen/ndr-auftakt-zum-streik-der-baubeschaeftigten-in-osnabrueck-100.html", "thumbnailUrl": "https://images.tagesschau.de/image/402f7462-5422-4444-9540-d7d3773750bc/AAABj3Y2B6U/AAABjwnlKNc/16x9-512.jpg", "date": "2024-05-14T06:08:00.000+02:00", "lat": 52.3738, "lon": 9.7356, "intensity": 0.7, "source": "Tagesschau"}, {"title": "Islamistische Influencer: Zehn Millionen Likes auf TikTok", "url": "https://www.tagesschau.de/inland/regional/nordrheinwestfalen/wdr-islamistische-influencer-zehn-millionen-likes-auf-tiktok-102.html", "thumbnailUrl": "https://images.tagesschau.de/image/26162acc-8f6e-481c-ab8b-e3dcf6bda91b/AAABj3ZHsZ4/AAABjwnlKNc/16x9-512.jpg", "date": "2024-05-14T06:00:00.000+02:00", "lat": 51.4556, "lon": 7.0116, "intensity": 0.8, "source": "Tagesschau"}, {"title": "Autorin Sarah Levy \u00fcber Israel: \"Nie weiter entfernt vom Frieden als jetzt\"", "url": "https://www.tagesschau.de/inland/regional/hamburg/ndr-autorin-sarah-levy-ueber-israel-nie-weiter-entfernt-vom-frieden-als-jetzt-100.html", "thumbnailUrl": "https://images.tagesschau.de/image/2afaffcd-54fe-420c-8116-f9b3fa842812/AAABj3WANhE/AAABjwnlKNc/16x9-512.jpg", "date": "2024-05-14T06:00:00.000+02:00", "lat": 32.0853, "lon": 34.781768, "intensity": 0.7, "source": "Tagesschau"}, {"title": "Missbrauchsvorw\u00fcrfe: Erstmals Zivilprozesse gegen Bistum Aachen", "url": "https://www.tagesschau.de/inland/regional/nordrheinwestfalen/wdr-missbrauchsvorwuerfe-erstmals-zivilprozesse-gegen-bistum-aachen-102.html", "thumbnailUrl": "https://images.tagesschau.de/image/e7bea586-d67b-4a80-b500-4866d0863af3/AAABj3XfU40/AAABjwnlKNc/16x9-512.jpg", "date": "2024-05-14T06:00:00.000+02:00", "lat": 50.7753, "lon": 6.0836, "intensity": 0.8, "source": "Tagesschau"}, {"title": "Caspar David Friedrich: Kunst-Pilgerwege auf R\u00fcgen", "url": "https://www.tagesschau.de/inland/regional/mecklenburgvorpommern/ndr-caspar-david-friedrich-kunst-pilgerwege-auf-ruegen-100.html", "thumbnailUrl": "https://images.tagesschau.de/image/f67250c9-aefa-4bae-9c5d-6579b220451b/AAABj3dAuYM/AAABjwnlKNc/16x9-512.jpg", "date": "2024-05-14T06:00:00.000+02:00", "lat": 54.3561, "lon": 13.4067, "intensity": 0.6, "source": "Tagesschau"}, {"title": "Untersuchung zeigt: Viele Kinder in Baden-W\u00fcrttemberg sind nicht fit genug", "url": "https://www.tagesschau.de/inland/regional/badenwuerttemberg/swr-untersuchung-zeigt-viele-kinder-in-baden-wuerttemberg-sind-nicht-fit-genug-100.html", "thumbnailUrl": "https://images.tagesschau.de/image/7ae0b127-584a-4279-b1db-9cac7527c8f6/AAABj3X7FvY/AAABjwnlKNc/16x9-512.jpg", "date": "2024-05-14T05:31:48.000+02:00", "lat": 48.7758, "lon": 9.1448, "intensity": 0.8, "source": "Tagesschau"}, {"title": "Unbekannte graben Loch in Sch\u00e4ubles Grab", "url": "https://www.tagesschau.de/inland/regional/badenwuerttemberg/schaeubles-grab-geschaendet-100.html", "thumbnailUrl": "https://images.tagesschau.de/image/54dacad7-9ab5-45f3-a5ff-7d400b3cdf4f/AAABj3KeMqQ/AAABjwnlKNc/16x9-512.jpg", "date": "2024-05-14T05:30:00.000+02:00", "lat": 48.4775, "lon": 7.9481, "intensity": 0.8, "source": "Tagesschau"}, {"title": "Steuersch\u00e4tzung in schwierigen Zeiten", "url": "https://www.tagesschau.de/inland/faq-steuerschaetzung-100.html", "thumbnailUrl": "https://images.tagesschau.de/image/4a768aae-0b27-4ad0-b095-bb312b62cf9e/AAABiAsoPkg/AAABjwnlKNc/16x9-512.jpg", "date": "2024-05-14T04:12:41.277+02:00", "lat": 51.17057, "lon": 9.98762, "intensity": 0.8, "source": "Tagesschau"}, {"title": "Krankenhausreform st\u00f6\u00dft vor Kabinettssitzung auf breiten Widerstand", "url": "https://www.br.de/nachrichten/meldungen/index.html#n1", "thumbnailUrl": null, "date": "2024-05-15T02:53:17+02:00", "lat": 30.0444, "lon": 31.2357, "intensity": 0.8, "source": "Bayrischer Rundfunk"}, {"title": "Prozess um NS-Parole: AfD-Politiker H\u00f6cke zu Geldstrafe verurteilt", "url": "https://www.br.de/nachrichten/meldungen/index.html#n2", "thumbnailUrl": null, "date": "2024-05-15T02:53:17+02:00", "lat": 33.5138, "lon": 36.2021, "intensity": 0.8, "source": "Bayrischer Rundfunk"}, {"title": "Boeing k\u00f6nnte f\u00fcr t\u00f6dliche 737-Max-Abst\u00fcrze strafrechtlich verfolgt werden", "url": "https://www.br.de/nachrichten/meldungen/index.html#n3", "thumbnailUrl": null, "date": "2024-05-15T02:53:17+02:00", "lat": 39.9334, "lon": 32.8597, "intensity": 0.8, "source": "Bayrischer Rundfunk"}, {"title": "US-Regierung fordert Kurswechsel von Regierung in Georgien", "url": "https://www.br.de/nachrichten/meldungen/index.html#n4", "thumbnailUrl": null, "date": "2024-05-15T02:53:17+02:00", "lat": 52.520008, "lon": 13.404954, "intensity": 0.7, "source": "Bayrischer Rundfunk"}, {"title": "Strom-Notabschaltungen in der Ukraine wegen russischer Angriffe", "url": "https://www.br.de/nachrichten/meldungen/index.html#n5", "thumbnailUrl": null, "date": "2024-05-15T02:53:17+02:00", "lat": 52.520008, "lon": 13.404954, "intensity": 0.6, "source": "Bayrischer Rundfunk"}, {"title": "Tarifverhandlungen mit Verdi: Telekom bessert Angebot nach", "url": "https://www.br.de/nachrichten/meldungen/index.html#n6", "thumbnailUrl": null, "date": "2024-05-15T02:53:17+02:00", "lat": 48.135125, "lon": 11.581981, "intensity": 0.6, "source": "Bayrischer Rundfunk"}, {"title": "6800 Jahre alter Steinzeitmensch in Niederbayern entdeckt", "url": "https://www.br.de/nachrichten/meldungen/index.html#n7", "thumbnailUrl": null, "date": "2024-05-15T02:53:17+02:00", "lat": 50.110922, "lon": 8.682127, "intensity": 0.8, "source": "Bayrischer Rundfunk"}, {"title": "Filmfestival von Cannes beginnt mit Ehrenpalme f\u00fcr US-Schauspielerin Meryl Streep", "url": "https://www.br.de/nachrichten/meldungen/index.html#n8", "thumbnailUrl": null, "date": "2024-05-15T02:53:17+02:00", "lat": 47.8684, "lon": 12.6394, "intensity": 0.8, "source": "Bayrischer Rundfunk"}, {"title": "Fans fallen bei Eishockey-WM auf gef\u00e4lschte Tickets rein", "url": "https://www.br.de/nachrichten/meldungen/index.html#n9", "thumbnailUrl": null, "date": "2024-05-15T02:53:17+02:00", "lat": 48.5844, "lon": 13.6722, "intensity": 0.8, "source": "Bayrischer Rundfunk"}, {"title": "Das Wetter: In der Nacht in Schwaben einzelne Schauer", "url": "https://www.br.de/nachrichten/meldungen/index.html#n10", "thumbnailUrl": null, "date": "2024-05-15T02:53:17+02:00", "lat": 53.5396, "lon": 8.5761, "intensity": 0.4, "source": "Bayrischer Rundfunk"}, {"title": "Video | Villa Bogensee: Wie geht es weiter mit dem gro\u00dfen Gel\u00e4nde am Bogensee?", "url": "https://www.rbb24.de/panorama/beitrag/av7/video-villa-bogensee-sanierung-abriss-nutzung.html", "thumbnailUrl": null, "date": "Tue, 14 May 2024 22:13:34 +0200", "lat": 52.6308, "lon": 13.2791, "intensity": 0.5, "source": "RBB"}, {"title": "Video | Berliner Mieterbund: Mietgesetz\u00e4nderung gegen Wucher gefordert", "url": "https://www.rbb24.de/panorama/beitrag/av7/video-berlin-mieterbund-schutz-vor-mietwucher-gesetz-umkehr.html", "thumbnailUrl": null, "date": "Tue, 14 May 2024 21:07:06 +0200", "lat": 52.520008, "lon": 13.404954, "intensity": 0.7, "source": "RBB"}, {"title": "Video | Bewohner berichten \u00fcber Hygieneprobleme im Fl\u00fcchtlingslager Tegel", "url": "https://www.rbb24.de/panorama/beitrag/av7/video-berlin-fluechtlingslager-tegel-hygiene-probleme.html", "thumbnailUrl": null, "date": "Tue, 14 May 2024 20:53:41 +0200", "lat": 52.5565, "lon": 13.2739, "intensity": 0.7, "source": "RBB"}, {"title": "Anhaltende W\u00e4rme und Trockenheit: F\u00fcnf Waldbr\u00e4nde in Brandenburg ausgebrochen", "url": "https://www.rbb24.de/panorama/beitrag/2024/05/brandenburg-fuenf-waldbraende-am-dienstag-ausgebrochen-hoechste-waldbrandstufe.html", "thumbnailUrl": null, "date": "Tue, 14 May 2024 19:45:31 +0200", "lat": 52.4226, "lon": 13.4066, "intensity": 0.8, "source": "RBB"}, {"title": "Bezahlkarte f\u00fcr Gefl\u00fcchtete: Einigkeit in Brandenburg - nur nicht in der Koalition", "url": "https://www.rbb24.de/politik/beitrag/2024/05/brandenburg-bezahlkarte-gefluechtete-woidke-koalition.html", "thumbnailUrl": null, "date": "Tue, 14 May 2024 19:18:00 +0200", "lat": 52.412524, "lon": 12.431902, "intensity": 0.6, "source": "RBB"}, {"title": "Prignitz: Stalker bel\u00e4stigt und bedroht Dorf", "url": "https://www.rbb24.de/panorama/beitrag/2024/05/brandenburg-seddin-prignitz-polizei-stalker-dorf-bedroht.html", "thumbnailUrl": null, "date": "Tue, 14 May 2024 18:23:00 +0200", "lat": 53.0968, "lon": 11.8301, "intensity": 0.8, "source": "RBB"}, {"title": "Berlin-Kreuzberg: Drei Becken im Prinzenbad bleiben noch wochenlang geschlossen", "url": "https://www.rbb24.de/panorama/beitrag/2024/05/berlin-kreuzberg-prinzenbad-bauarbeiten-gesperrt.html", "thumbnailUrl": null, "date": "Tue, 14 May 2024 18:11:00 +0200", "lat": 52.4973, "lon": 13.4022, "intensity": 0.5, "source": "RBB"}, {"title": "A111 vor\u00fcbergehend stadtausw\u00e4rts gesperrt - langer R\u00fcckstau", "url": "https://www.rbb24.de/panorama/beitrag/2024/05/berlin-autobahn-a111-unfall-stadtauswaerts-gesperrt.html", "thumbnailUrl": null, "date": "Tue, 14 May 2024 17:24:10 +0200", "lat": 52.502306, "lon": 13.421601, "intensity": 0.7, "source": "RBB"}, {"title": "Viele Motorsch\u00e4den: Polnische Tankstelle hat Diesel statt Benzin verkauft", "url": "https://www.rbb24.de/panorama/beitrag/2024/05/polen-falsche-tankfuellung-motorschaden.html", "thumbnailUrl": null, "date": "Tue, 14 May 2024 17:24:00 +0200", "lat": 51.098418, "lon": 14.144996, "intensity": 0.8, "source": "RBB"}, {"title": "Geburtenr\u00fcckgang in Berlin: Vier Frauen, drei nicht geborene Wunschkinder", "url": "https://www.rbb24.de/panorama/beitrag/2024/05/geburtenrueckgang-berlin-gruende-frauen-fertilitaet-krisen.html", "thumbnailUrl": null, "date": "Tue, 14 May 2024 16:52:00 +0200", "lat": 52.52, "lon": 13.405, "intensity": 0.7, "source": "RBB"}, {"title": "Wie zwei Berliner aus West und Ost den Sound der Fu\u00dfball-WM vor 50 Jahren pr\u00e4gten", "url": "https://www.rbb24.de/sport/beitrag/2024/05/fussball-wm-1974-schlager-ost-west-frank-schoebel-jack-white.html", "thumbnailUrl": null, "date": "Tue, 14 May 2024 16:06:42 +0200", "lat": 52.52, "lon": 13.405, "intensity": 0.7, "source": "RBB"}, {"title": "Fu\u00dfball-EM: Berliner Mittelst\u00e4dt f\u00fcr DFB-Team nominiert - Dardai und Sch\u00e4fer f\u00fcr Ungarn", "url": "https://www.rbb24.de/sport/beitrag/2024/05/sport-fussball-hertha-bsc-union-berlin-maxi-mittelstaedt-andras-schaefer-marton-dardai-em-nominierung.html", "thumbnailUrl": null, "date": "Tue, 14 May 2024 16:03:50 +0200", "lat": 52.520008, "lon": 13.404954, "intensity": 0.5, "source": "RBB"}, {"title": "Versammlung bei der Mensa: Pro-pal\u00e4stinensische Demonstration auf dem Gel\u00e4nde der TU Berlin", "url": "https://www.rbb24.de/politik/beitrag/2024/05/berlin-tu-pro-palaestinensische-demonstration-dienstag.html", "thumbnailUrl": null, "date": "Tue, 14 May 2024 15:54:00 +0200", "lat": 52.5126, "lon": 13.3276, "intensity": 0.7, "source": "RBB"}, {"title": "Klimawandel: Senat will 2025 Hitzeaktionsplan f\u00fcr Berlin beschlie\u00dfen", "url": "https://www.rbb24.de/politik/beitrag/2024/05/berlin-senat-hitze-aktionsplan-sommer-klimawandel.html", "thumbnailUrl": null, "date": "Tue, 14 May 2024 15:46:14 +0200", "lat": 52.520008, "lon": 13.404954, "intensity": 0.7, "source": "RBB"}, {"title": "Neuruppin: Bezahlbarer Wohnraum f\u00fcr Senioren mit Pflegebedarf", "url": "https://www.rbb24.de/panorama/beitrag/2024/05/brandenburg-ostprignitz-ruppin-neuruppin-pflege-senioren-sozialwohnung-mietpreise.html", "thumbnailUrl": null, "date": "Tue, 14 May 2024 15:40:00 +0200", "lat": 52.9248, "lon": 12.8028, "intensity": 0.6, "source": "RBB"}, {"title": "Fr\u00fcherkennungssystem: 106 Kamerasensoren sp\u00fcren Waldbr\u00e4nde in Brandenburg auf", "url": "https://www.rbb24.de/panorama/beitrag/2024/05/brandenburg-wald-waldbrand-fire-watch-frueherkennung-kamerasensoren-engel.html", "thumbnailUrl": null, "date": "Tue, 14 May 2024 15:32:13 +0200", "lat": 52.4226, "lon": 13.6206, "intensity": 0.7, "source": "RBB"}, {"title": "Karstadt-Areal am Ku'damm bekommt laut Senat nur noch ein Hochhaus", "url": "https://www.rbb24.de/wirtschaft/beitrag/2024/05/berlin-kurfuerstendamm-karstadt-areal-plaene-nur-noch-ein-hochhaus-senat.html", "thumbnailUrl": null, "date": "Tue, 14 May 2024 15:14:00 +0200", "lat": 52.5034, "lon": 13.3272, "intensity": 0.3, "source": "RBB"}, {"title": "Bauplan f\u00fcr Besucherzentrum am Bundestag steht", "url": "https://www.rbb24.de/politik/beitrag/2024/05/berlin-bundestag-besucherzentrum-bebauungsplan.html", "thumbnailUrl": null, "date": "Tue, 14 May 2024 14:48:54 +0200", "lat": 52.5186, "lon": 13.3777, "intensity": 0.6, "source": "RBB"}, {"title": "Abschnitt der Sch\u00f6nhauser Allee f\u00fcr zwei Wochen stadtausw\u00e4rts gesperrt", "url": "https://www.rbb24.de/panorama/beitrag/2024/05/prenzlauer-berg-sperrung-abwasseranschluss-senefelder-platz.html", "thumbnailUrl": null, "date": "Tue, 14 May 2024 14:45:00 +0200", "lat": 52.5445, "lon": 13.4105, "intensity": 0.7, "source": "RBB"}, {"title": "\"Kita-Kollaps\": Etwa 200 Brandenburger Kitas am Mittwoch wegen Protests geschlossen", "url": "https://www.rbb24.de/politik/beitrag/2024/05/brandenburg-etwa-200-kitas-mittwoch-geschlossen-protesttag-kita-kollaps.html", "thumbnailUrl": null, "date": "Tue, 14 May 2024 14:22:00 +0200", "lat": 52.338234, "lon": 13.056179, "intensity": 0.8, "source": "RBB"}, {"title": "Tierpark: Berliner Tigernachwuchs wird nach DDR-Cartoonfiguren benannt", "url": "https://www.rbb24.de/panorama/beitrag/2024/05/berlin-tierpark-tigerbabys-namen-ddr-cartoons-ede-kuno.html", "thumbnailUrl": null, "date": "Tue, 14 May 2024 14:07:00 +0200", "lat": 52.5065, "lon": 13.6116, "intensity": 0.3, "source": "RBB"}, {"title": "Fl\u00fcchtlingsrat h\u00e4lt 50 Euro Bargeld bei Bezahlkarte f\u00fcr \"lebensfremd\"", "url": "https://www.rbb24.de/politik/beitrag/2024/05/asylbewerber-leistungen-brandenburg-bezahlkarte-fluechtlingsrat.html", "thumbnailUrl": null, "date": "Tue, 14 May 2024 13:56:00 +0200", "lat": 52.3226, "lon": 13.2894, "intensity": 0.7, "source": "RBB"}, {"title": "M\u00e4nner schlagen am Kottbusser Tor mit Kettenschloss aufeinander ein", "url": "https://www.rbb24.de/panorama/beitrag/2024/05/kottbusser-tor-berlin-streit-pruegelei-kettenschloss-verletzt.html", "thumbnailUrl": null, "date": "Tue, 14 May 2024 13:56:00 +0200", "lat": 52.4976, "lon": 13.4191, "intensity": 0.7, "source": "RBB"},