[{"title": "Kann Trump machen, was er will?", "url": "https://www.tagesschau.de/ausland/amerika/supreme-court-immunitaet-trump-100.html", "thumbnailUrl": "https://images.tagesschau.de/image/3cf0c4c3-3d5b-41a8-b371-f2d172a14c52/AAABjxLLW4Y/AAABjwnlKNc/16x9-512.jpg", "date": "2024-04-25T03:13:38.898+02:00", "lat": 38.9072, "lon": -77.0369, "intensity": 0.8, "source": "Tagesschau"}, {"title": "Venedig-Besucher zahlen jetzt f\u00fcnf Euro Eintritt", "url": "https://www.tagesschau.de/ausland/europa/italien-eintritt-fuer-venedig-100.html", "thumbnailUrl": "https://images.tagesschau.de/image/e77d9cf7-9a38-49d5-ad57-e8e348190228/AAABjxKrZbw/AAABjwnlKNc/16x9-512.jpg", "date": "2024-04-25T02:32:54.400+02:00", "lat": 45.4408, "lon": 12.3155, "intensity": 0.8, "source": "Tagesschau"}, {"title": "Weltkriegsbombe am Europakreisel in Mainz gefunden ", "url": "https://www.tagesschau.de/inland/regional/rheinlandpfalz/swr-weltkriegsbombe-am-europakreisel-in-mainz-gefunden-100.html", "thumbnailUrl": "https://images.tagesschau.de/image/480b3bff-5deb-40ca-a2db-7cdd5b6f5202/AAABjxJEHbY/AAABjwnlKNc/16x9-512.jpg", "date": "2024-04-25T00:33:29.000+02:00", "lat": 49.982008, "lon": 8.247599, "intensity": 0.8, "source": "Tagesschau"}, {"title": "++ Israel kritisiert deutsche UNRWA-Kooperation ++", "url": "https://www.tagesschau.de/newsticker/liveblog-nahost-mittwoch-124.html", "thumbnailUrl": "https://images.tagesschau.de/image/c314ac7f-97cd-4e36-a481-1be84781e288/AAABjnaBHXo/AAABjwnlKNc/16x9-512.jpg", "date": "2024-04-24T23:30:32.690+02:00", "lat": 31.7683, "lon": 35.214, "intensity": 0.8, "source": "Tagesschau"}, {"title": "++ Ukraine stoppt Ausgabe von Reisep\u00e4ssen an M\u00e4nner ++", "url": "https://www.tagesschau.de/newsticker/liveblog-ukraine-mittwoch-356.html", "thumbnailUrl": "https://images.tagesschau.de/image/5b073b67-29bf-4703-b6b1-71469e4c25bb/AAABizMn-kk/AAABjwnlKNc/16x9-512.jpg", "date": "2024-04-24T23:30:12.255+02:00", "lat": 50.4501, "lon": 30.5234, "intensity": 0.8, "source": "Tagesschau"}, {"title": "Entscheidung vertagt: SSC Schwerin unterliegt deutlich in Stuttgart", "url": "https://www.tagesschau.de/inland/regional/mecklenburgvorpommern/ndr-entscheidung-vertagt-ssc-schwerin-unterliegt-klar-in-stuttgart-102.html", "thumbnailUrl": "https://images.tagesschau.de/image/b6d21ef0-435e-48fb-a3c8-33e83e65bcf5/AAABjxGsFgs/AAABjwnlKNc/16x9-512.jpg", "date": "2024-04-24T23:01:00.000+02:00", "lat": 53.6291, "lon": 9.732, "intensity": 0.7, "source": "Tagesschau"}, {"title": "B\u00f6rsen kommen nicht mehr voran", "url": "https://www.tagesschau.de/wirtschaft/finanzen/marktberichte/marktbericht-dax-rally-tesla-dow-jones-nikkei-geldanlage-gold-oel-aktien-100.html", "thumbnailUrl": "https://images.tagesschau.de/image/4181f3cd-2754-4b47-9c45-c8a5bad59d65/AAABjZ0-DSY/AAABjwnlKNc/16x9-512.jpg", "date": "2024-04-24T22:11:18.182+02:00", "lat": 50.1109, "lon": 8.6697, "intensity": 0.7, "source": "Tagesschau"}, {"title": "Deutlicher Sieg gegen Rostock: Alba bleibt den Bayern auf den Fersen", "url": "https://www.tagesschau.de/inland/regional/berlin/rbb-deutlicher-sieg-gegen-rostock-alba-bleibt-den-bayern-auf-den-fersen-102.html", "thumbnailUrl": "https://images.tagesschau.de/image/bd18bbc8-9fc7-4ca7-81f7-69d16610e117/AAABjxG-dTQ/AAABjwnlKNc/16x9-512.jpg", "date": "2024-04-24T22:08:47.000+02:00", "lat": 52.520008, "lon": 13.404954, "intensity": 0.7, "source": "Tagesschau"}, {"title": "Bremerv\u00f6rde: Kamera best\u00e4tigt das Verschwinden des vermissten Arian", "url": "https://www.tagesschau.de/inland/regional/niedersachsen/ndr-sechsjaehriger-junge-vermisst-polizei-sucht-mit-grossaufgebot-100.html", "thumbnailUrl": "https://images.tagesschau.de/image/1a3daf3a-6870-4da2-a158-290ca61b2b82/AAABjxHJcAc/AAABjwnlKNc/16x9-512.jpg", "date": "2024-04-24T22:08:00.000+02:00", "lat": 53.4827, "lon": 9.1417, "intensity": 0.8, "source": "Tagesschau"}, {"title": "Brandstiftung im Freibad Emden: Zwei Angeklagte m\u00fcssen in Haft", "url": "https://www.tagesschau.de/inland/regional/niedersachsen/ndr-grossbrand-im-freibad-emden-urteil-soll-heute-fallen-100.html", "thumbnailUrl": "https://images.tagesschau.de/image/09d38411-578b-4293-99c8-cbd93cf7d639/AAABjw-KqRs/AAABjwnlKNc/16x9-512.jpg", "date": "2024-04-24T21:47:00.000+02:00", "lat": 53.3681, "lon": 7.2026, "intensity": 0.8, "source": "Tagesschau"}, {"title": "Erste Fabrik f\u00fcr klimapositiven Beton wird in Soltau er\u00f6ffnet", "url": "https://www.tagesschau.de/inland/regional/niedersachsen/ndr-erste-fabrik-fuer-klimapositiven-beton-wird-in-soltau-eroeffnet-100.html", "thumbnailUrl": "https://images.tagesschau.de/image/b4a183cf-a808-458b-a051-9f3097d4b1d0/AAABjw7KP58/AAABjwnlKNc/16x9-512.jpg", "date": "2024-04-24T21:45:00.000+02:00", "lat": 52.9838, "lon": 9.8282, "intensity": 0.8, "source": "Tagesschau"}, {"title": "Osnabr\u00fcck: European Media Art Festival zeigt KI in der Kunst", "url": "https://www.tagesschau.de/inland/regional/niedersachsen/ndr-osnabrueck-european-media-art-festival-zeigt-ki-in-der-kunst-100.html", "thumbnailUrl": "https://images.tagesschau.de/image/0d10ca5c-07c2-4e18-a7d2-ab9e746f8588/AAABjw9FHUY/AAABjwnlKNc/16x9-512.jpg", "date": "2024-04-24T21:41:00.000+02:00", "lat": 52.2799, "lon": 8.0467, "intensity": 0.8, "source": "Tagesschau"}, {"title": "ICE-Strecke zwischen Frankfurt und K\u00f6ln einen Monat gesperrt", "url": "https://www.tagesschau.de/inland/regional/hessen/hr-ice-strecke-zwischen-frankfurt-und-koeln-einen-monat-gesperrt-100.html", "thumbnailUrl": "https://images.tagesschau.de/image/29904fb8-b64d-4107-a5a3-b366e9beabb5/AAABjxHSjZI/AAABjwnlKNc/16x9-512.jpg", "date": "2024-04-24T21:38:06.294+02:00", "lat": 50.1109, "lon": 8.6821, "intensity": 0.8, "source": "Tagesschau"}, {"title": "\"Unsere Kurve\" nennt m\u00f6gliches G\u00e4steverbot \"populistisch\"", "url": "https://www.tagesschau.de/inland/regional/niedersachsen/ndr-pyro-einsatz-beim-niedersachsen-derby-was-sind-die-folgen-100.html", "thumbnailUrl": "https://images.tagesschau.de/image/6b163a6f-a289-4915-a112-0a35d2b84b23/AAABjxFD1nk/AAABjwnlKNc/16x9-512.jpg", "date": "2024-04-24T21:34:00.000+02:00", "lat": 51.1657, "lon": 10.4515, "intensity": 0.7, "source": "Tagesschau"}, {"title": "Polizei Hannover sprengt P\u00e4dophilen-Ring: 19 Festnahmen", "url": "https://www.tagesschau.de/inland/regional/niedersachsen/ndr-polizei-hannover-sprengt-paedophilen-ring-19-festnahmen-100.html", "thumbnailUrl": "https://images.tagesschau.de/image/d4b4141d-0cfe-40c8-8dc6-c55ca1d83a2c/AAABjw_n8-E/AAABjwnlKNc/16x9-512.jpg", "date": "2024-04-24T21:31:00.000+02:00", "lat": 52.3759, "lon": 9.7332, "intensity": 0.8, "source": "Tagesschau"}, {"title": "Wie geht es nach dem TikTok-Ultimatum weiter?", "url": "https://www.tagesschau.de/ausland/amerika/usa-verbot-tiktok-100.html", "thumbnailUrl": "https://images.tagesschau.de/image/d0c6d91c-b388-4e85-b115-3aa84b546f72/AAABjxBm_d4/AAABjwnlKNc/16x9-512.jpg", "date": "2024-04-24T21:29:58.707+02:00", "lat": 38.9072, "lon": -77.0369, "intensity": 0.8, "source": "Tagesschau"}, {"title": "Landkreis Northeim verzichtet im Mai auf das Rasenm\u00e4hen", "url": "https://www.tagesschau.de/inland/regional/niedersachsen/ndr-landkreis-northeim-verzichtet-im-mai-auf-das-rasenmaehen-100.html", "thumbnailUrl": "https://images.tagesschau.de/image/3d024870-a990-4872-94cb-39bb13c758a5/AAABjxEUQj4/AAABjwnlKNc/16x9-512.jpg", "date": "2024-04-24T21:25:00.000+02:00", "lat": 51.7242, "lon": 9.8292, "intensity": 0.6, "source": "Tagesschau"}, {"title": "Der neue Stra\u00dfenkampf: Tausende Falschparker privat gemeldet", "url": "https://www.tagesschau.de/inland/regional/niedersachsen/ndr-der-neue-strassenkampf-tausende-falschparker-privat-gemeldet-100.html", "thumbnailUrl": "https://images.tagesschau.de/image/92c0922a-e741-4567-884e-c39e3b0ae2a1/AAABjw8a3dQ/AAABjwnlKNc/16x9-512.jpg", "date": "2024-04-24T21:19:00.000+02:00", "lat": 52.2799, "lon": 8.2146, "intensity": 0.8, "source": "Tagesschau"}, {"title": "Vergessene Z\u00e4une: Todesfallen f\u00fcr Wildtiere in Aerzen", "url": "https://www.tagesschau.de/inland/regional/niedersachsen/ndr-vergessene-zaeune-todesfallen-fuer-wildtiere-in-aerzen-100.html", "thumbnailUrl": "https://images.tagesschau.de/image/f9988496-bef8-421f-94aa-227ab575cdb4/AAABjxDqDGU/AAABjwnlKNc/16x9-512.jpg", "date": "2024-04-24T21:04:00.000+02:00", "lat": 52.0142, "lon": 9.3469, "intensity": 0.7, "source": "Tagesschau"}, {"title": "Schlagl\u00f6cher in SH: Richter spricht von \"Land der Buckelpisten\" ", "url": "https://www.tagesschau.de/inland/regional/schleswigholstein/ndr-schlagloecher-in-sh-richter-spricht-von-land-der-buckelpisten-100.html", "thumbnailUrl": "https://images.tagesschau.de/image/233f5689-08c9-47ad-bda1-1a489ab7ffd9/AAABjxGD4nc/AAABjwnlKNc/16x9-512.jpg", "date": "2024-04-24T20:55:00.000+02:00", "lat": 54.5921, "lon": 9.5569, "intensity": 0.7, "source": "Tagesschau"}, {"title": "Neue Investoren steigen beim Hockenheimring ein", "url": "https://www.tagesschau.de/inland/regional/badenwuerttemberg/swr-neue-investoren-steigen-beim-hockenheimring-ein-102.html", "thumbnailUrl": "https://images.tagesschau.de/image/3340f33f-e605-4a54-bf8b-c3e78eed2383/AAABjxGDzAc/AAABjwnlKNc/16x9-512.jpg", "date": "2024-04-24T20:53:19.000+02:00", "lat": 49.3278, "lon": 8.5625, "intensity": 0.7, "source": "Tagesschau"}, {"title": "Herber D\u00e4mpfer f\u00fcr Saarbr\u00fccker Aufstiegstr\u00e4ume", "url": "https://www.tagesschau.de/inland/regional/saarland/sr-1-fc-saarbruecken-muss-erstes-endspiel-gegen-essen-bestehen-102.html", "thumbnailUrl": "https://images.tagesschau.de/image/6b42f937-acf7-4dfa-95d2-0bd792ff0b41/AAABjxF2-SQ/AAABjwnlKNc/16x9-512.jpg", "date": "2024-04-24T20:52:00.000+02:00", "lat": 49.2331, "lon": 6.9814, "intensity": 0.6, "source": "Tagesschau"}, {"title": "FC Homburg steht im Finale des Saarlandpokals", "url": "https://www.tagesschau.de/inland/regional/saarland/sr-fc-homburg-will-ins-saarlandpokal-finale-100.html", "thumbnailUrl": "https://images.tagesschau.de/image/d8064723-4997-445f-a2ad-95b39056d712/AAABjxF1JLg/AAABjwnlKNc/16x9-512.jpg", "date": "2024-04-24T20:50:00.000+02:00", "lat": 49.3167, "lon": 7.3333, "intensity": 0.7, "source": "Tagesschau"}, {"title": "Motorboot in Not: Seenotretter bergen zwei M\u00e4nner mit Hund", "url": "https://www.tagesschau.de/inland/regional/niedersachsen/ndr-motorboot-in-not-seenotretter-bergen-zwei-maenner-mit-hund-100.html", "thumbnailUrl": "https://images.tagesschau.de/image/7676df90-7f0a-4abc-9417-5f377d93bf8d/AAABjxFvxos/AAABjwnlKNc/16x9-512.jpg", "date": "2024-04-24T20:47:00.000+02:00", "lat": 52.6667, "lon": 8.4361, "intensity": 0.8, "source": "Tagesschau"}, {"title": "Boom-Region: Was Osthessen wirtschaftlich so erfolgreich macht ", "url": "https://www.tagesschau.de/inland/regional/hessen/hr-boom-region-was-osthessen-wirtschaftlich-so-erfolgreich-macht-100.html", "thumbnailUrl": "https://images.tagesschau.de/image/e2ec82ab-cb1e-42fa-a794-5b564210a5f3/AAABjxFt2dQ/AAABjwnlKNc/16x9-512.jpg", "date": "2024-04-24T20:45:37.056+02:00", "lat": 50.5, "lon": 9.7, "intensity": 0.8, "source": "Tagesschau"}, {"title": "Nachhaltige Sportmode: Frankfurter Mode-Start-up Vidar Sports setzt auf Algen", "url": "https://www.tagesschau.de/inland/regional/hessen/hr-nachhaltige-sportmode-frankfurter-mode-start-up-vidar-sports-setzt-auf-algen-100.html", "thumbnailUrl": "https://images.tagesschau.de/image/903ddc34-e532-44db-aa4d-e8651f2d16fa/AAABjxID_K8/AAABjwnlKNc/16x9-512.jpg", "date": "2024-04-24T20:45:33.273+02:00", "lat": 50.1109, "lon": 8.6821, "intensity": 0.6, "source": "Tagesschau"}, {"title": "Neuer Hospizdienst in Verden: Gro\u00dfes Interesse an Ehrenamt", "url": "https://www.tagesschau.de/inland/regional/niedersachsen/ndr-neuer-hospizdienst-in-verden-grosses-interesse-an-ehrenamt-100.html", "thumbnailUrl": "https://images.tagesschau.de/image/491ecbb8-a6c3-49ab-9758-b014b6077286/AAABjxBzBJ0/AAABjwnlKNc/16x9-512.jpg", "date": "2024-04-24T20:41:00.000+02:00", "lat": 52.9246, "lon": 9.2304, "intensity": 0.6, "source": "Tagesschau"}, {"title": "\"Fr\u00e4ulein Lieser\" in nur zweieinhalb Minuten versteigert", "url": "https://www.tagesschau.de/ausland/europa/klimt-portraet-versteigert-100.html", "thumbnailUrl": "https://images.tagesschau.de/image/fcd8fe55-acf9-49fe-b773-a3f9cdd9c271/AAABjxFFue0/AAABjwnlKNc/16x9-512.jpg", "date": "2024-04-24T20:35:37.293+02:00", "lat": 48.2082, "lon": 16.3738, "intensity": 0.8, "source": "Tagesschau"}, {"title": "Schwerer Unfall auf der A7: Beifahrerin gestorben", "url": "https://www.tagesschau.de/inland/regional/niedersachsen/ndr-schwerer-unfall-auf-der-a7-beifahrerin-gestorben-100.html", "thumbnailUrl": "https://images.tagesschau.de/image/830707a4-af74-432c-845e-61b0f412ee8b/AAABjxFdinE/AAABjwnlKNc/16x9-512.jpg", "date": "2024-04-24T20:27:00.000+02:00", "lat": 53.1, "lon": 9.988, "intensity": 0.8, "source": "Tagesschau"}, {"title": "Charit\u00e9-\u00c4rzte zum Warnstreik aufgerufen - Notdienst eingerichtet", "url": "https://www.tagesschau.de/inland/regional/berlin/rbb-charit-aerzte-zum-warnstreik-aufgerufen-notdienst-eingerichtet-100.html", "thumbnailUrl": "https://images.tagesschau.de/image/92e27024-1c04-4e95-a06e-c8f7b8fd568a/AAABjxFfPGE/AAABjwnlKNc/16x9-512.jpg", "date": "2024-04-24T20:26:58.000+02:00", "lat": 52.52, "lon": 13.405, "intensity": 0.7, "source": "Tagesschau"}, {"title": "E-Scooter: \"Genaue Regeln von Anfang an w\u00e4ren sinnvoller gewesen\"", "url": "https://www.tagesschau.de/inland/regional/niedersachsen/ndr-e-scooter-genaue-regeln-von-anfang-an-waeren-sinnvoller-gewesen-100.html", "thumbnailUrl": "https://images.tagesschau.de/image/0ac0098c-e5ae-486d-b08d-1b327d8fc2b0/AAABjxFZ2SI/AAABjwnlKNc/16x9-512.jpg", "date": "2024-04-24T20:22:00.000+02:00", "lat": 52.3759, "lon": 10.4515, "intensity": 0.3, "source": "Tagesschau"}, {"title": "Gegenseitige Vorw\u00fcrfe in Chefetage: Pr\u00e4sident des SC Potsdam tritt zur\u00fcck", "url": "https://www.tagesschau.de/inland/regional/brandenburg/rbb-gegenseitige-vorwuerfe-in-chefetage-praesident-des-sc-potsdam-tritt-zurueck-102.html", "thumbnailUrl": "https://images.tagesschau.de/image/a0e20c79-2206-4665-bf16-bc416190be6d/AAABjxFhDxk/AAABjwnlKNc/16x9-512.jpg", "date": "2024-04-24T20:21:50.000+02:00", "lat": 52.3906, "lon": 13.0645, "intensity": 0.8, "source": "Tagesschau"}, {"title": "Warum Schulen vor dem \"Vergewaltigungstag\" gewarnt wurden", "url": "https://www.tagesschau.de/inland/regional/nordrheinwestfalen/wdr-warum-schulen-vor-dem-vergewaltigungstag-gewarnt-wurden-100.html", "thumbnailUrl": "https://images.tagesschau.de/image/5245a646-f5dd-4f2e-a0df-31a0790d557d/AAABjxGi690/AAABjwnlKNc/16x9-512.jpg", "date": "2024-04-24T20:01:00.000+02:00", "lat": 51.8133, "lon": 7.6261, "intensity": 0.8, "source": "Tagesschau"}, {"title": "Zwischenfall in Pflegeheim in Bark: Beh\u00f6rden bleiben gelassen", "url": "https://www.tagesschau.de/inland/regional/schleswigholstein/ndr-pfleger-faellt-aus-rettungsdienst-springt-in-barker-pflegeheim-ein-100.html", "thumbnailUrl": "https://images.tagesschau.de/image/9e9bc0ec-c709-46e4-80bd-2b4656bd158c/AAABjxFFvVU/AAABjwnlKNc/16x9-512.jpg", "date": "2024-04-24T20:00:00.000+02:00", "lat": 53.7063, "lon": 9.9583, "intensity": 0.3, "source": "Tagesschau"}, {"title": "Vater get\u00f6tet - Sohn nach Fenstersturz in Trier zu neuneinhalb Jahren Haft verurteilt", "url": "https://www.tagesschau.de/inland/regional/rheinlandpfalz/swr-vater-getoetet-sohn-nach-fenstersturz-in-trier-zu-neuneinhalb-jahren-haft-verurteilt-100.html", "thumbnailUrl": "https://images.tagesschau.de/image/9ebaa497-b675-490d-b40e-6dd93c844a55/AAABjxFHaDE/AAABjwnlKNc/16x9-512.jpg", "date": "2024-04-24T19:57:03.000+02:00", "lat": 49.7493, "lon": 6.6416, "intensity": 0.8, "source": "Tagesschau"}, {"title": "3.500 Euro \"Aufstiegspr\u00e4mie\": Meisterbrief in Hessen wird (fast) kostenlos", "url": "https://www.tagesschau.de/inland/regional/hessen/hr-3-500-euro-aufstiegspraemie-meisterbrief-in-hessen-wird-fast-kostenlos-100.html", "thumbnailUrl": "https://images.tagesschau.de/image/e41bf45a-eef6-481f-8329-eca8dfff3108/AAABjxFFpwA/AAABjwnlKNc/16x9-512.jpg", "date": "2024-04-24T19:54:07.694+02:00", "lat": 51.3397, "lon": 9.9886, "intensity": 0.7, "source": "Tagesschau"}, {"title": "Th\u00fcringer Landtag beschlie\u00dft neues Schulgesetz", "url": "https://www.tagesschau.de/inland/regional/thueringen/mdr-thueringer-landtag-beschliesst-neues-schulgesetz-100.html", "thumbnailUrl": "https://images.tagesschau.de/image/1f037275-9bfb-4b92-8df9-fe5b74b1cf02/AAABjxJac_k/AAABjwnlKNc/16x9-512.jpg", "date": "2024-04-24T19:43:21.000+02:00", "lat": 50.8776, "lon": 11.582, "intensity": 0.8, "source": "Tagesschau"}, {"title": "Ist die Wahlrechtsreform verfassungsgem\u00e4\u00df?", "url": "https://www.tagesschau.de/inland/innenpolitik/wahlrechtsreform-verfassungsgericht-100.html", "thumbnailUrl": "https://images.tagesschau.de/image/31e758e9-0d7a-41cd-b123-b29f607dd56b/AAABjdWevTg/AAABjwnlKNc/16x9-512.jpg", "date": "2024-04-24T19:42:22.931+02:00", "lat": 53.5511, "lon": 9.9937, "intensity": 0.6, "source": "Tagesschau"}, {"title": "Wetterlage und Temperaturen", "url": "https://www.tagesschau.de/wetter/europa-welt", "thumbnailUrl": "https://images.tagesschau.de/image/6e7d3b16-79c8-4308-822b-20c3035236b5/AAABjw96sK0/AAABjwnlKNc/16x9-512.jpg", "date": "2024-04-24T19:42:07.967+02:00", "lat": 51.1657, "lon": 10.4515, "intensity": 0.3, "source": "Tagesschau"}, {"title": "71 Katzen aus Wohnung in Essen gerettet", "url": "https://www.tagesschau.de/inland/regional/nordrheinwestfalen/wdr-71-katzen-aus-wohnung-in-essen-gerettet-100.html", "thumbnailUrl": "https://images.tagesschau.de/image/53230fc0-5ae9-4f87-a268-94c9030fa2d4/AAABjxGCBRM/AAABjwnlKNc/16x9-512.jpg", "date": "2024-04-24T19:42:00.000+02:00", "lat": 51.4556, "lon": 7.0027, "intensity": 0.8, "source": "Tagesschau"}, {"title": "Jagd auf W\u00f6lfe: Entt\u00e4uschung nach Treffen mit Umweltminister", "url": "https://www.tagesschau.de/inland/regional/niedersachsen/ndr-jagd-auf-woelfe-enttaeuschung-nach-treffen-mit-umweltminister-102.html", "thumbnailUrl": "https://images.tagesschau.de/image/1feb76ac-cc73-494f-bcc3-f20df8994de0/AAABjxF45Pc/AAABjwnlKNc/16x9-512.jpg", "date": "2024-04-24T19:35:00.000+02:00", "lat": 52.9694, "lon": 10.5233, "intensity": 0.8, "source": "Tagesschau"}, {"title": "Rotenburg: Wolf stirbt nach Zusammensto\u00df mit Auto", "url": "https://www.tagesschau.de/inland/regional/niedersachsen/ndr-rotenburg-wolf-stirbt-nach-zusammenstoss-mit-auto-100.html", "thumbnailUrl": "https://images.tagesschau.de/image/dd14df6b-dcd1-4781-8077-0aad1d66c41a/AAABjxF44fc/AAABjwnlKNc/16x9-512.jpg", "date": "2024-04-24T19:33:00.000+02:00", "lat": 53.1386, "lon": 9.3976, "intensity": 0.7, "source": "Tagesschau"}, {"title": "Absprunggel\u00e4nde KSK: B\u00fcrgerinitiative aus Geislingen simuliert Flugl\u00e4rm", "url": "https://www.tagesschau.de/inland/regional/badenwuerttemberg/swr-absprunggelaende-ksk-buergerinitiative-aus-geislingen-simuliert-fluglaerm-100.html", "thumbnailUrl": "https://images.tagesschau.de/image/bf42fd93-6087-469b-9407-3d4b710583c6/AAABjxFmkEs/AAABjwnlKNc/16x9-512.jpg", "date": "2024-04-24T19:31:46.000+02:00", "lat": 48.6208, "lon": 9.8231, "intensity": 0.7, "source": "Tagesschau"}, {"title": "BerlinTrend: Schwarz-Rot verliert Mehrheit in Berlin - AfD ebenfalls mit Verlusten", "url": "https://www.tagesschau.de/inland/regional/berlin/rbb-berlintrend-schwarz-rot-verliert-mehrheit-in-berlin-afd-ebenfalls-mit-verlusten-100.html", "thumbnailUrl": "https://images.tagesschau.de/image/e908642d-fe85-4d56-bfa3-f6267f214222/AAABjxEkoB8/AAABjwnlKNc/16x9-512.jpg", "date": "2024-04-24T19:25:25.000+02:00", "lat": 52.520008, "lon": 13.404954, "intensity": 0.7, "source": "Tagesschau"}, {"title": "Buddenbrooks und Hollywood: Die n\u00e4chste Spielzeit im Ohnsorg", "url": "https://www.tagesschau.de/inland/regional/hamburg/ndr-buddenbrooks-und-hollywood-die-naechste-spielzeit-im-ohnsorg-100.html", "thumbnailUrl": "https://images.tagesschau.de/image/648b5bac-8c74-448c-b772-e6736037093a/AAABjxFDwH0/AAABjwnlKNc/16x9-512.jpg", "date": "2024-04-24T19:25:00.000+02:00", "lat": 53.5511, "lon": 9.9937, "intensity": 0.3, "source": "Tagesschau"}, {"title": "Bau des Hafencity-Einkaufszentrums: Mehr Unf\u00e4lle als bisher bekannt", "url": "https://www.tagesschau.de/inland/regional/hamburg/ndr-bau-des-hafencity-einkaufszentrums-mehr-unfaelle-als-bisher-bekannt-100.html", "thumbnailUrl": "https://images.tagesschau.de/image/9626fbf0-9f9d-44f3-8294-40aa945df150/AAABjxEbfQs/AAABjwnlKNc/16x9-512.jpg", "date": "2024-04-24T19:19:00.000+02:00", "lat": 53.5511, "lon": 9.9937, "intensity": 0.8, "source": "Tagesschau"}, {"title": "B402 nach Sch\u00e4den durch Hochwasser repariert und freigegeben", "url": "https://www.tagesschau.de/inland/regional/niedersachsen/ndr-b402-nach-schaeden-durch-hochwasser-repariert-und-freigegeben-100.html", "thumbnailUrl": "https://images.tagesschau.de/image/0fafe194-c5ef-4f51-8d08-ecc8f023a00c/AAABjxEfJs4/AAABjwnlKNc/16x9-512.jpg", "date": "2024-04-24T19:16:00.000+02:00", "lat": 52.6706, "lon": 7.5286, "intensity": 0.7, "source": "Tagesschau"}, {"title": "Wie Darmstadt 98 ein bisschen wie Heidenheim werden kann", "url": "https://www.tagesschau.de/inland/regional/hessen/hr-wie-darmstadt-98-ein-bisschen-wie-heidenheim-werden-kann-102.html", "thumbnailUrl": "https://images.tagesschau.de/image/51e70f19-094b-4930-bbd5-37c55dfaff2a/AAABjxEtymw/AAABjwnlKNc/16x9-512.jpg", "date": "2024-04-24T19:08:30.651+02:00", "lat": 49.87, "lon": 8.65, "intensity": 0.5, "source": "Tagesschau"}, {"title": "Heeresflieger aus Niederstetten \u00fcben an der NATO-Ostflanke den Ernstfall", "url": "https://www.tagesschau.de/inland/regional/badenwuerttemberg/swr-heeresflieger-aus-niederstetten-ueben-an-der-nato-ostflanke-den-ernstfall-100.html", "thumbnailUrl": "https://images.tagesschau.de/image/f2679299-4b76-44db-acc4-5a424745b3fb/AAABjxFSZuA/AAABjwnlKNc/16x9-512.jpg", "date": "2024-04-24T19:03:57.000+02:00", "lat": 49.3939, "lon": 9.96, "intensity": 0.6, "source": "Tagesschau"}, {"title": "D\u00f6ner und Differenzen", "url": "https://www.tagesschau.de/inland/steinmeier-tuerkei-126.html", "thumbnailUrl": "https://images.tagesschau.de/image/417c7a56-254d-436c-bab7-a515701c27c8/AAABjxEP7Zk/AAABjwnlKNc/16x9-512.jpg", "date": "2024-04-24T19:03:27.930+02:00", "lat": 51.1657, "lon": 9.5018, "intensity": 0.7, "source": "Tagesschau"}, {"title": "Deutlich mehr Datenschutzverst\u00f6\u00dfe im Saarland", "url": "https://www.tagesschau.de/inland/regional/saarland/sr-deutlich-mehr-datenschutzverstoesse-im-saarland-100.html", "thumbnailUrl": "https://images.tagesschau.de/image/493c8790-07bb-415e-ad87-c1557508d36e/AAABjxESRHM/AAABjwnlKNc/16x9-512.jpg", "date": "2024-04-24T18:50:00.000+02:00", "lat": 49.3964, "lon": 7.0, "intensity": 0.8, "source": "Tagesschau"}, {"title": "Dr\u00e4tschen, sch\u00fctten, pladdern: Was sagt man in NRW zu kr\u00e4ftigem Regen?", "url": "https://www.tagesschau.de/inland/regional/nordrheinwestfalen/wdr-draetsche-schuetten-pladdern-was-sagt-man-in-nrw-zu-kraeftigem-regen-100.html", "thumbnailUrl": "https://images.tagesschau.de/image/4a91bded-a1ff-47c7-a7ce-3ac100e4ddca/AAABjxGB-Ic/AAABjwnlKNc/16x9-512.jpg", "date": "2024-04-24T18:41:00.000+02:00", "lat": 51.4332, "lon": 7.6261, "intensity": 0.3, "source": "Tagesschau"}, {"title": "Podcast: \"Gerichtssaal 237. True Crime aus dem Strafgericht\"", "url": "https://www.tagesschau.de/inland/regional/hamburg/ndr-podcast-gerichtssaal-237-true-crime-aus-dem-strafgericht-100.html", "thumbnailUrl": "https://images.tagesschau.de/image/ee010d91-fa58-4eb6-9626-c4f664e52bc9/AAABjxD6gs0/AAABjwnlKNc/16x9-512.jpg", "date": "2024-04-24T18:38:08.865+02:00", "lat": 53.551086, "lon": 9.993682, "intensity": 0.5, "source": "Tagesschau"}, {"title": "300 Besucher mit Magen-Darm-Symptomen", "url": "https://www.tagesschau.de/inland/regional/badenwuerttemberg/stuttgart-fruehlingsfest-krankheitsfaelle-100.html", "thumbnailUrl": "https://images.tagesschau.de/image/9908fa62-341b-4dec-888d-d825ac770fb9/AAABjw-68sw/AAABjwnlKNc/16x9-512.jpg", "date": "2024-04-24T18:34:00.000+02:00", "lat": 48.7758, "lon": 9.1829, "intensity": 0.8, "source": "Tagesschau"}, {"title": "\"Kenia\"-Bilanz im Landtag: R\u00fcckblick auf Brandenburger Regierungsjahre - von d\u00fcster bis hell", "url": "https://www.tagesschau.de/inland/regional/brandenburg/rbb-kenia-bilanz-im-landtag-rueckblick-auf-brandenburger-regierungsjahre-von-duester-bis-hell-100.html", "thumbnailUrl": "https://images.tagesschau.de/image/d23b5da5-af80-40f8-a862-ef5718494438/AAABjxD8V7g/AAABjwnlKNc/16x9-512.jpg", "date": "2024-04-24T18:33:42.000+02:00", "lat": 52.4125, "lon": 13.0536, "intensity": 0.6, "source": "Tagesschau"}, {"title": "Uckermark: Der Krei\u00dfsaal in Templin schlie\u00dft endg\u00fcltig", "url": "https://www.tagesschau.de/inland/regional/brandenburg/rbb-uckermark-der-kreisssaal-in-templin-schliesst-endgueltig-100.html", "thumbnailUrl": "https://images.tagesschau.de/image/d7b78b45-744e-4889-840f-a7c654b7cd0f/AAABjxD26M8/AAABjwnlKNc/16x9-512.jpg", "date": "2024-04-24T18:30:55.000+02:00", "lat": 53.1209, "lon": 13.2929, "intensity": 0.6, "source": "Tagesschau"}, {"title": "Video zeigt vermissten Jungen aus Bremerv\u00f6rde am Tag des Verschwindens", "url": "https://www.tagesschau.de/inland/regional/bremen/rb-von-vermisstem-6-jaehrigen-aus-bremervoerde-fehlt-weiter-jede-spur-100.html", "thumbnailUrl": "https://images.tagesschau.de/image/12e655cc-6657-41d4-96d0-95b52a8d0c15/AAABjxDt8kU/AAABjwnlKNc/16x9-512.jpg", "date": "2024-04-24T18:24:00.000+02:00", "lat": 53.4869, "lon": 9.1317, "intensity": 0.8, "source": "Tagesschau"}, {"title": "Zu viel Regen: 2023 teils hohe Ernteverluste in Niedersachsen", "url": "https://www.tagesschau.de/inland/regional/niedersachsen/ndr-zu-viel-regen-2023-teils-hohe-ernteverluste-in-niedersachsen-100.html", "thumbnailUrl": "https://images.tagesschau.de/image/31d72e7b-d9e1-4ac4-829f-1d832d927baf/AAABjxEsDJo/AAABjwnlKNc/16x9-512.jpg", "date": "2024-04-24T18:06:00.000+02:00", "lat": 52.6367, "lon": 9.7521, "intensity": 0.8, "source": "Tagesschau"}, {"title": "AfD ist jetzt sicher: Corona-Untersuchungsausschuss kommt", "url": "https://www.tagesschau.de/inland/regional/hessen/hr-afd-ist-jetzt-sicher-corona-untersuchungsausschuss-kommt-100.html", "thumbnailUrl": "https://images.tagesschau.de/image/13941f7e-71cb-4c56-bf7c-d8951b87be94/AAABjxDZr70/AAABjwnlKNc/16x9-512.jpg", "date": "2024-04-24T18:02:26.089+02:00", "lat": 50.1109, "lon": 9.1486, "intensity": 0.7, "source": "Tagesschau"}, {"title": "Gefahr f\u00fcr die deutsche Wirtschaft", "url": "https://www.tagesschau.de/inland/innenpolitik/china-spionage-verfassungsschutz-100.html", "thumbnailUrl": "https://images.tagesschau.de/image/325673da-e0ff-4d95-817f-22700ab6c3d4/AAABjwl6Kzs/AAABjwnlKNc/16x9-512.jpg", "date": "2024-04-24T18:02:04.976+02:00", "lat": 48.135125, "lon": 11.58198, "intensity": 0.7, "source": "Tagesschau"}, {"title": "Analyse | BerlinTrend: Schwarz-Rot aktuell in Berlin ohne Mehrheit", "url": "https://www.tagesschau.de/inland/regional/berlin/rbb-analyse--berlintrend-schwarz-rot-aktuell-in-berlin-ohne-mehrheit-100.html", "thumbnailUrl": "https://images.tagesschau.de/image/8291585f-c207-4e10-9190-6dc72e8fadec/AAABjxDZ44c/AAABjwnlKNc/16x9-512.jpg", "date": "2024-04-24T18:01:58.000+02:00", "lat": 52.520008, "lon": 13.404954, "intensity": 0.8, "source": "Tagesschau"}, {"title": "Biden k\u00fcndigt sofortige Lieferung an", "url": "https://www.tagesschau.de/ausland/amerika/usa-biden-ukraine-hilfen-100.html", "thumbnailUrl": "https://images.tagesschau.de/image/4085220f-22cf-42ff-8185-a8770b8c4e5a/AAABjxDUWXU/AAABjwnlKNc/16x9-512.jpg", "date": "2024-04-24T17:58:23.423+02:00", "lat": 37.09024, "lon": -95.712891, "intensity": 0.8, "source": "Tagesschau"}, {"title": "B\u00fcrgerschaft debattiert \u00fcber Hamburgs Stadtentwicklung", "url": "https://www.tagesschau.de/inland/regional/hamburg/ndr-buergerschaft-debattiert-ueber-hamburgs-stadtentwicklung-100.html", "thumbnailUrl": "https://images.tagesschau.de/image/180a4f19-e3a6-4678-9bb7-16bb72c7e3c5/AAABjxCFV24/AAABjwnlKNc/16x9-512.jpg", "date": "2024-04-24T17:45:00.000+02:00", "lat": 53.5511, "lon": 9.9937, "intensity": 0.7, "source": "Tagesschau"}, {"title": "Was Gastarbeiter aus der T\u00fcrkei ihren Kindern hinterlassen haben", "url": "https://www.tagesschau.de/inland/regional/nordrheinwestfalen/wdr-was-gastarbeiter-aus-der-tuerkei-ihren-kindern-hinterlassen-haben-100.html", "thumbnailUrl": "https://images.tagesschau.de/image/317a480e-afc1-4d46-a020-bc272f7fefa6/AAABjxDZiWE/AAABjwnlKNc/16x9-512.jpg", "date": "2024-04-24T17:44:00.000+02:00", "lat": 51.9607, "lon": 7.6261, "intensity": 0.8, "source": "Tagesschau"}, {"title": "Nicht nur bei der HHLA: Reederei MSC weiter auf Einkaufstour", "url": "https://www.tagesschau.de/inland/regional/hamburg/ndr-nicht-nur-bei-der-hhla-reederei-msc-weiter-auf-einkaufstour-100.html", "thumbnailUrl": "https://images.tagesschau.de/image/6996e99e-7935-4b03-a425-272b64d49c5f/AAABjxCzKy4/AAABjwnlKNc/16x9-512.jpg", "date": "2024-04-24T17:41:00.000+02:00", "lat": 53.5511, "lon": 9.9937, "intensity": 0.7, "source": "Tagesschau"}, {"title": "Tausende zu schnell: Polizei mit Blitzermarathon dennoch sehr zufrieden", "url": "https://www.tagesschau.de/inland/regional/thueringen/mdr-tausende-zu-schnell-polizei-mit-blitzermarathon-dennoch-sehr-zufrieden-100.html", "thumbnailUrl": "https://images.tagesschau.de/image/c265d710-dfa8-4ff6-ac9f-96a7bd6a6cfb/AAABjxJaYaA/AAABjwnlKNc/16x9-512.jpg", "date": "2024-04-24T17:39:34.000+02:00", "lat": 51.011, "lon": 10.8453, "intensity": 0.7, "source": "Tagesschau"}, {"title": "Technische Probleme bei der BVG: Anzeigetafeln f\u00fcr die U-Bahn in Berlin fallen teilweise aus", "url": "https://www.tagesschau.de/inland/regional/berlin/rbb-technische-probleme-bei-der-bvg-anzeigetafeln-fuer-die-u-bahn-in-berlin-teilweise-ausgefallen-100.html", "thumbnailUrl": "https://images.tagesschau.de/image/267efd76-dbf7-4870-8c13-bd5f95d7b902/AAABjxC8P8s/AAABjwnlKNc/16x9-512.jpg", "date": "2024-04-24T17:28:19.000+02:00", "lat": 52.52, "lon": 13.405, "intensity": 0.5, "source": "Tagesschau"}, {"title": "Gemeinsame Pl\u00e4ne und unangenehme Fragen", "url": "https://www.tagesschau.de/ausland/europa/deutschland-grossbritannien-ruestungszusammenarbeit-100.html", "thumbnailUrl": "https://images.tagesschau.de/image/fdc71f28-746e-49fc-900c-e7e43630ebf7/AAABjxCPhNc/AAABjwnlKNc/16x9-512.jpg", "date": "2024-04-24T17:25:12.118+02:00", "lat": 51.1657, "lon": 9.9534, "intensity": 0.8, "source": "Tagesschau"}, {"title": "Bistum Osnabr\u00fcck: Untersuchung best\u00e4tigt Missbrauchsvorw\u00fcrfe", "url": "https://www.tagesschau.de/inland/regional/niedersachsen/ndr-bistum-osnabrueck-untersuchung-bestaetigt-missbrauchsvorwuerfe-100.html", "thumbnailUrl": "https://images.tagesschau.de/image/8d32c202-e6fc-453e-a14d-6749ae55e0ee/AAABjxCrzYA/AAABjwnlKNc/16x9-512.jpg", "date": "2024-04-24T17:25:00.000+02:00", "lat": 52.2799, "lon": 8.0476, "intensity": 0.8, "source": "Tagesschau"}, {"title": "Bezirksamt Friedrichshain-Kreuzberg schlie\u00dft Jugendzentren wegen Antisemitismus-Vorw\u00fcrfen", "url": "https://www.tagesschau.de/inland/regional/berlin/rbb-bezirksamt-schliesst-jugendzentren-wegen-antisemitismus-vorwuerfen-100.html", "thumbnailUrl": "https://images.tagesschau.de/image/c1afe13d-6123-48d9-a962-3d03b4fb7110/AAABjxCzQBg/AAABjwnlKNc/16x9-512.jpg", "date": "2024-04-24T17:23:31.000+02:00", "lat": 52.5036, "lon": 13.4294, "intensity": 0.8, "source": "Tagesschau"}, {"title": "Frankfurt, Wiesbaden, Gie\u00dfen: Das Wichtigste zum Busfahrer-Streik am Donnerstag", "url": "https://www.tagesschau.de/inland/regional/hessen/hr-frankfurt-wiesbaden-giessen-das-wichtigste-zum-busfahrer-streik-am-donnerstag-100.html", "thumbnailUrl": "https://images.tagesschau.de/image/80ec2e4c-03ee-47b3-935f-65d03c336111/AAABjxCzGFY/AAABjwnlKNc/16x9-512.jpg", "date": "2024-04-24T17:21:37.729+02:00", "lat": 50.1109, "lon": 8.6764, "intensity": 0.8, "source": "Tagesschau"}, {"title": "Krise bei Volocopter: Wie geht\u2019s weiter mit dem Flugtaxi aus Bruchsal?", "url": "https://www.tagesschau.de/inland/regional/badenwuerttemberg/swr-krise-bei-volocopter-wie-gehts-weiter-mit-dem-flugtaxi-aus-bruchsal-100.html", "thumbnailUrl": "https://images.tagesschau.de/image/71599ea2-9efc-4f10-a4ec-dd3d77a1a164/AAABjxDFaSg/AAABjwnlKNc/16x9-512.jpg", "date": "2024-04-24T17:17:24.000+02:00", "lat": 49.1211, "lon": 8.5976, "intensity": 0.7, "source": "Tagesschau"}, {"title": "Gutachter best\u00e4tigt Amokfahrer von Trier paranoide Schizophrenie", "url": "https://www.tagesschau.de/inland/regional/rheinlandpfalz/swr-gutachter-bestaetigt-amokfahrer-von-trier-paranoide-schizophrenie-100.html", "thumbnailUrl": "https://images.tagesschau.de/image/441a5ca7-435f-4a98-aa73-a08f17cd24e0/AAABjxC_9LE/AAABjwnlKNc/16x9-512.jpg", "date": "2024-04-24T17:11:49.000+02:00", "lat": 49.7596, "lon": 6.6414, "intensity": 0.8, "source": "Tagesschau"}, {"title": "Ukrainische Soldaten werden in Idar-Oberstein f\u00fcr den Krieg ausgebildet", "url": "https://www.tagesschau.de/inland/regional/rheinlandpfalz/swr-ukrainische-soldaten-werden-in-idar-oberstein-fuer-den-krieg-ausgebildet-100.html", "thumbnailUrl": "https://images.tagesschau.de/image/817e2a5b-353c-4666-bd4f-48ad121c10a3/AAABjxDAGqo/AAABjwnlKNc/16x9-512.jpg", "date": "2024-04-24T17:08:14.000+02:00", "lat": 49.7034, "lon": 7.3101, "intensity": 0.8, "source": "Tagesschau"}, {"title": "Northvolt-Fabrik: BUND klagt gegen Kreis Dithmarschen", "url": "https://www.tagesschau.de/inland/regional/schleswigholstein/ndr-bau-der-northvolt-fabrik-klage-gegen-kreis-dithmarschen-100.html", "thumbnailUrl": "https://images.tagesschau.de/image/88c53b02-003d-480e-ac57-f6b9295e9e8a/AAABjxDUDq8/AAABjwnlKNc/16x9-512.jpg", "date": "2024-04-24T17:08:00.000+02:00", "lat": 54.251, "lon": 9.0882, "intensity": 0.8, "source": "Tagesschau"}, {"title": "Bilanz zum B\u00fcrgergeld: Jobcenterbesch\u00e4ftigte sehen kaum Verbesserungen", "url": "https://www.tagesschau.de/inland/regional/nordrheinwestfalen/wdr-bilanz-zum-buergergeld-jobcenterbeschaeftigte-sehen-kaum-verbesserungen-100.html", "thumbnailUrl": "https://images.tagesschau.de/image/b0d5afb1-3110-48ae-9d09-478f994295c8/AAABjxFFiLE/AAABjwnlKNc/16x9-512.jpg", "date": "2024-04-24T17:03:00.000+02:00", "lat": 51.2524, "lon": 7.6261, "intensity": 0.7, "source": "Tagesschau"}, {"title": "Hackerangriff auf AWO im Kreis Recklinghausen und M\u00fcnsterland", "url": "https://www.tagesschau.de/inland/regional/nordrheinwestfalen/wdr-hackerangriff-auf-awo-im-kreis-recklinghausen-und-muensterland-102.html", "thumbnailUrl": "https://images.tagesschau.de/image/6c9f85a0-c985-4893-9ecd-2891cae94643/AAABjxC04ZE/AAABjwnlKNc/16x9-512.jpg", "date": "2024-04-24T17:02:00.000+02:00", "lat": 51.614627, "lon": 7.253238, "intensity": 0.8, "source": "Tagesschau"}, {"title": "K\u00fcnftig f\u00fcnf Tage bezahlter \"Bildungsurlaub\" im Saarland", "url": "https://www.tagesschau.de/inland/regional/saarland/sr-kuenftig-fuenf-tage-bezahlter-bildungsurlaub-im-saarland-100.html", "thumbnailUrl": "https://images.tagesschau.de/image/9c0ff951-81d9-46ff-bcb4-c0e8f35a38e6/AAABjxCiku0/AAABjwnlKNc/16x9-512.jpg", "date": "2024-04-24T16:59:00.000+02:00", "lat": 49.2389, "lon": 6.9108, "intensity": 0.7, "source": "Tagesschau"}, {"title": "Mathilden-Hospital in B\u00fcdingen schlie\u00dft Gro\u00dfteil der Stationen - 150 Mitarbeitende betroffen", "url": "https://www.tagesschau.de/inland/regional/hessen/hr-mathilden-hospital-in-buedingen-schliesst-grossteil-der-stationen-150-mitarbeitende-betroffen-100.html", "thumbnailUrl": "https://images.tagesschau.de/image/f864b91c-354f-4770-8014-51d085ae4ecd/AAABjxF6q5I/AAABjwnlKNc/16x9-512.jpg", "date": "2024-04-24T16:56:18.350+02:00", "lat": 50.2911, "lon": 9.0801, "intensity": 0.8, "source": "Tagesschau"}, {"title": "AfD klagt gegen Einstufung als \"gesichert rechtsextremistisch\"", "url": "https://www.tagesschau.de/inland/regional/sachsenanhalt/mdr-afd-klagt-gegen-einstufung-als-gesichert-rechtsextremistisch-100.html", "thumbnailUrl": "https://images.tagesschau.de/image/2bf23000-dcf6-4c05-87ad-6d72439cecd9/AAABjxJWabY/AAABjwnlKNc/16x9-512.jpg", "date": "2024-04-24T16:49:41.000+02:00", "lat": 52.1236, "lon": 11.6276, "intensity": 0.6, "source": "Tagesschau"}, {"title": "Soldaten starten an Saarbr\u00fccker Flughafen f\u00fcr NATO-Man\u00f6ver", "url": "https://www.tagesschau.de/inland/regional/saarland/sr-soldaten-starten-an-saarbruecker-flughafen-fuer-nato-manoever-100.html", "thumbnailUrl": "https://images.tagesschau.de/image/fe97ee6f-b9b3-49f3-b587-c3209f04f6c0/AAABjxAgkhw/AAABjwnlKNc/16x9-512.jpg", "date": "2024-04-24T16:40:51.753+02:00", "lat": 49.213, "lon": 6.6881, "intensity": 0.7, "source": "Tagesschau"}, {"title": "Slowakische Regierung will Sendeanstalt aufl\u00f6sen", "url": "https://www.tagesschau.de/ausland/europa/slowakei-rundfunkreform-100.html", "thumbnailUrl": "https://images.tagesschau.de/image/998dfb48-d79f-4835-bb65-20311920ec3b/AAABjxCAWCA/AAABjwnlKNc/16x9-512.jpg", "date": "2024-04-24T16:40:30.285+02:00", "lat": 48.669026, "lon": 19.699024, "intensity": 0.8, "source": "Tagesschau"}, {"title": "Neue Achterbahn im Europa-Park geht in Betrieb - mehrere Sekunden in der Schwerelosigkeit", "url": "https://www.tagesschau.de/inland/regional/badenwuerttemberg/swr-neue-achterbahn-im-europa-park-geht-in-betrieb-mehrere-sekunden-in-der-schwerelosigkeit-100.html", "thumbnailUrl": "https://images.tagesschau.de/image/8fd30fb3-a21c-48fa-b773-76121f2bdd1f/AAABjxCVylo/AAABjwnlKNc/16x9-512.jpg", "date": "2024-04-24T16:40:09.000+02:00", "lat": 48.2683, "lon": 9.0256, "intensity": 0.8, "source": "Tagesschau"}, {"title": "St. Pauli - Hansa Rostock: Brisantes Duell mit gro\u00dfen Sicherheitsma\u00dfnahmen", "url": "https://www.tagesschau.de/inland/regional/hamburg/ndr-st-pauli-hansa-rostock-brisantes-duell-mit-vielen-sicherheitsmassnahmen-102.html", "thumbnailUrl": "https://images.tagesschau.de/image/a3020e3a-8139-41cc-97f3-546479ca85f3/AAABjw__oCU/AAABjwnlKNc/16x9-512.jpg", "date": "2024-04-24T16:39:00.000+02:00", "lat": 53.55, "lon": 9.9667, "intensity": 0.8, "source": "Tagesschau"}, {"title": "BGH hebt Freispruch der Mutter im Hanauer Sektenmord-Prozess auf", "url": "https://www.tagesschau.de/inland/regional/hessen/hr-bgh-hebt-freispruch-der-mutter-im-hanauer-sektenmord-prozess-auf-100.html", "thumbnailUrl": "https://images.tagesschau.de/image/19136882-9c90-4867-b2ed-0ee1af238aba/AAABjxCHJp4/AAABjwnlKNc/16x9-512.jpg", "date": "2024-04-24T16:33:18.154+02:00", "lat": 50.1183, "lon": 8.9145, "intensity": 0.8, "source": "Tagesschau"}, {"title": "Cannabis-Verbot f\u00fcr Fahranf\u00e4nger im Gespr\u00e4ch", "url": "https://www.tagesschau.de/inland/innenpolitik/cannabis-strassenverkehr-100.html", "thumbnailUrl": "https://images.tagesschau.de/image/70dda671-09ca-45cd-9293-73b42e8d0964/AAABjq6Pl00/AAABjwnlKNc/16x9-512.jpg", "date": "2024-04-24T16:26:48.599+02:00", "lat": 51.5412, "lon": 9.9925, "intensity": 0.7, "source": "Tagesschau"}, {"title": "Krankenh\u00e4user in SH: AOK meldet wieder mehr Behandlungen", "url": "https://www.tagesschau.de/inland/regional/schleswigholstein/ndr-krankenhaeuser-in-sh-aok-meldet-wieder-mehr-behandlungen-100.html", "thumbnailUrl": "https://images.tagesschau.de/image/c2ad8a12-39a6-4ad0-a590-fd06e9735dfb/AAABjxCDgeU/AAABjwnlKNc/16x9-512.jpg", "date": "2024-04-24T16:25:00.000+02:00", "lat": 54.2194, "lon": 9.6978, "intensity": 0.5, "source": "Tagesschau"}, {"title": "Neue Kommunalverfassung: Tagen k\u00fcnftig auch per Videokonferenz", "url": "https://www.tagesschau.de/inland/regional/mecklenburgvorpommern/ndr-landtag-mv-verabschiedung-von-zwei-gesetzen-100.html", "thumbnailUrl": "https://images.tagesschau.de/image/b46079cd-6967-4819-86e3-062d479c4b59/AAABjxDt0YU/AAABjwnlKNc/16x9-512.jpg", "date": "2024-04-24T16:24:00.000+02:00", "lat": 53.7503, "lon": 13.3701, "intensity": 0.5, "source": "Tagesschau"}, {"title": "Mordprozess nach Unfallflucht: Angeklagter leugnet Tat", "url": "https://www.tagesschau.de/inland/regional/niedersachsen/ndr-unfallflucht-auf-a33-mordprozess-gegen-29-jaehrigen-startet-100.html", "thumbnailUrl": "https://images.tagesschau.de/image/b72fd3c5-261e-4cee-bd35-4277b00b0d09/AAABjxCB1dQ/AAABjwnlKNc/16x9-512.jpg", "date": "2024-04-24T16:20:00.000+02:00", "lat": 52.3796, "lon": 8.8379, "intensity": 0.8, "source": "Tagesschau"}, {"title": "Kita-Novelle: Landtag in MV stimmt f\u00fcr kleinere Kita-Gruppen", "url": "https://www.tagesschau.de/inland/regional/mecklenburgvorpommern/ndr-kita-novelle-landtag-in-mv-stimmt-fuer-kleinere-kita-gruppen-100.html", "thumbnailUrl": "https://images.tagesschau.de/image/c7c80df1-c986-4402-b7e8-07060a42712b/AAABjxDtu6w/AAABjwnlKNc/16x9-512.jpg", "date": "2024-04-24T16:20:00.000+02:00", "lat": 53.6127, "lon": 12.5715, "intensity": 0.8, "source": "Tagesschau"}, {"title": "Deutscher Klimasch\u00fctzer organisiert Gas aus Nigeria", "url": "https://www.tagesschau.de/wirtschaft/weltwirtschaft/gasfoerderung-deutschland-nigeria-import-100.html", "thumbnailUrl": "https://images.tagesschau.de/image/ed61d887-ea0d-49eb-9f99-2e492219f8f3/AAABjw9gvTE/AAABjwnlKNc/16x9-512.jpg", "date": "2024-04-24T16:14:11.811+02:00", "lat": 9.082, "lon": 7.4951, "intensity": 0.8, "source": "Tagesschau"}, {"title": "Erfolg im Kampf gegen die nigerianische Mafia", "url": "https://www.tagesschau.de/inland/nigerianische-mafia-razzia-festnahmen-100.html", "thumbnailUrl": "https://images.tagesschau.de/image/cff461d1-d768-4dac-87f0-a8eb9c3da97b/AAABjxBw7_U/AAABjwnlKNc/16x9-512.jpg", "date": "2024-04-24T16:09:48.370+02:00", "lat": 51.1657, "lon": 10.4515, "intensity": 0.8, "source": "Tagesschau"}, {"title": "Corona-Bu\u00dfgelder: Mehrheit im Landtag gegen AfD-Vorsto\u00df zu R\u00fcckzahlungen", "url": "https://www.tagesschau.de/inland/regional/thueringen/mdr-corona-bussgelder-mehrheit-im-landtag-gegen-afd-vorstoss-zu-rueckzahlungen-100.html", "thumbnailUrl": "https://images.tagesschau.de/image/b211dbe7-cd30-49a8-90c4-a3d27848697a/AAABjxJaDhE/AAABjwnlKNc/16x9-512.jpg", "date": "2024-04-24T16:07:14.000+02:00", "lat": 50.9778, "lon": 11.3297, "intensity": 0.6, "source": "Tagesschau"}, {"title": "Universit\u00e4t Mannheim: 31-J\u00e4hriger stirbt nach Schuss von Polizei", "url": "https://www.tagesschau.de/inland/regional/badenwuerttemberg/swr-universitaet-mannheim-polizei-schiesst-auf-mutmasslichen-randalierer-100.html", "thumbnailUrl": "https://images.tagesschau.de/image/33c3f9d0-c618-4c08-a8e1-f3e7e486055e/AAABjxBtgvk/AAABjwnlKNc/16x9-512.jpg", "date": "2024-04-24T16:03:00.000+02:00", "lat": 49.4883, "lon": 8.4611, "intensity": 0.8, "source": "Tagesschau"}, {"title": "Warum es in Frankfurt so viele neue Kioske gibt", "url": "https://www.tagesschau.de/inland/regional/hessen/hr-warum-es-in-frankfurt-so-viele-neue-kioske-gibt-100.html", "thumbnailUrl": "https://images.tagesschau.de/image/53858e11-e845-4fbd-8e52-5ac2ca908aa9/AAABjxBrtBA/AAABjwnlKNc/16x9-512.jpg", "date": "2024-04-24T16:02:34.278+02:00", "lat": 50.110922, "lon": 8.682127, "intensity": 0.6, "source": "Tagesschau"}, {"title": "Medienberichte: Getir und Gorillas stehen in Deutschland offenbar vor dem Aus", "url": "https://www.tagesschau.de/inland/regional/berlin/rbb-medienberichte-getir-und-gorillas-stehen-in-deutschland-offenbar-vor-dem-aus-100.html", "thumbnailUrl": "https://images.tagesschau.de/image/32290e6d-ce95-47f1-9241-a5e72fe13b55/AAABjxBUE0Q/AAABjwnlKNc/16x9-512.jpg", "date": "2024-04-24T16:01:36.000+02:00", "lat": 52.520008, "lon": 13.404954, "intensity": 0.8, "source": "Tagesschau"}, {"title": "Keuchhusten tritt im Saarland wieder h\u00e4ufiger auf", "url": "https://www.tagesschau.de/inland/regional/saarland/sr-keuchhusten-tritt-im-saarland-wieder-haeufiger-auf-100.html", "thumbnailUrl": "https://images.tagesschau.de/image/ed7fa72b-3608-49f3-8e0a-886c615e769c/AAABjxBgqFI/AAABjwnlKNc/16x9-512.jpg", "date": "2024-04-24T15:46:00.000+02:00", "lat": 49.3964, "lon": 7.0, "intensity": 0.7, "source": "Tagesschau"}, {"title": "Kommentar: Krah ist ein Desaster f\u00fcr die AfD", "url": "https://www.tagesschau.de/inland/regional/nordrheinwestfalen/wdr-kommentar-krah-ist-ein-desaster-fuer-die-afd-100.html", "thumbnailUrl": "https://images.tagesschau.de/image/ce4e2ea9-4eaa-4421-a685-697509e3c5c1/AAABjxBteAo/AAABjwnlKNc/16x9-512.jpg", "date": "2024-04-24T15:42:00.000+02:00", "lat": 51.9607, "lon": 7.6299, "intensity": 0.8, "source": "Tagesschau"}, {"title": "Zehnj\u00e4hriger ist j\u00fcngster Student der Uni M\u00fcnster", "url": "https://www.tagesschau.de/inland/regional/nordrheinwestfalen/wdr-zehnjaehriger-ist-juengster-student-der-uni-muenster-100.html", "thumbnailUrl": "https://images.tagesschau.de/image/8e74a95d-971e-404a-8758-92a428ba6e4e/AAABjxC-CuM/AAABjwnlKNc/16x9-512.jpg", "date": "2024-04-24T15:39:00.000+02:00", "lat": 51.9607, "lon": 7.6352, "intensity": 0.8, "source": "Tagesschau"}, {"title": "Bundesregierung rechnet mit etwas mehr Wachstum", "url": "https://www.tagesschau.de/wirtschaft/konjunktur/fruehjahrsprognose-bundesregierung-wachstum-100.html", "thumbnailUrl": "https://images.tagesschau.de/image/d5307818-d732-4dd3-a1aa-7249de8162d2/AAABjxAifQQ/AAABjwnlKNc/16x9-512.jpg", "date": "2024-04-24T15:38:54.527+02:00", "lat": 51.341256, "lon": 9.993682, "intensity": 0.5, "source": "Tagesschau"}, {"title": "Konjunkturprognosen f\u00fcr Deutschland", "url": "https://www.tagesschau.de/wirtschaft/konjunktur/konjunkturprognose-ts-112.html", "thumbnailUrl": "https://images.tagesschau.de/image/883c5a85-9ce4-40ce-abdb-cacee1622b31/AAABhnkaPQA/AAABjwnlKNc/16x9-512.jpg", "date": "2024-04-24T15:28:23.234+02:00", "lat": 51.3397, "lon": 9.9937, "intensity": 0.3, "source": "Tagesschau"}, {"title": "Kyrill straft Priester nach Nawalny-Gedenkfeier ab", "url": "https://www.tagesschau.de/ausland/europa/moskau-priester-suspendiert-100.html", "thumbnailUrl": "https://images.tagesschau.de/image/95d96475-05cd-4282-b3e0-35820bdc9cd0/AAABjxAV55o/AAABjwnlKNc/16x9-512.jpg", "date": "2024-04-24T15:25:58.188+02:00", "lat": 55.7558, "lon": 37.6176, "intensity": 0.8, "source": "Tagesschau"}, {"title": "Wohnen im Tourismus-Hotspot: R\u00fcgen und Usedom fordern bezahlbare Mieten", "url": "https://www.tagesschau.de/inland/regional/mecklenburgvorpommern/ndr-teure-mieten-gemeinden-auf-ruegen-und-usedom-fordern-bezahlbaren-wohnraum-100.html", "thumbnailUrl": "https://images.tagesschau.de/image/51129afc-1ef4-4b19-aba8-7bd65fc2ef5f/AAABjxCp6bU/AAABjwnlKNc/16x9-512.jpg", "date": "2024-04-24T15:23:00.000+02:00", "lat": 54.3836, "lon": 13.4593, "intensity": 0.8, "source": "Tagesschau"}, {"title": "M\u00e4rkisch-Oderland: Gemeindevertreter wollen B\u00fcrgermeister von Hoppegarten beurlauben", "url": "https://www.tagesschau.de/inland/regional/brandenburg/rbb-maerkisch-oderland-gemeindevertreter-wollen-buergermeister-von-hoppegarten-beurlauben-100.html", "thumbnailUrl": "https://images.tagesschau.de/image/0240f2b6-8fd9-4667-86dd-fc0dd2e830fa/AAABjxD8XTI/AAABjwnlKNc/16x9-512.jpg", "date": "2024-04-24T15:19:52.000+02:00", "lat": 52.5295, "lon": 13.6686, "intensity": 0.6, "source": "Tagesschau"}, {"title": "Schule in Greifswald evakuiert: Lehrer nach Brand verletzt", "url": "https://www.tagesschau.de/inland/regional/mecklenburgvorpommern/ndr-schule-in-greifswald-evakuiert-verletzte-nach-brand-100.html", "thumbnailUrl": "https://images.tagesschau.de/image/a0a21f23-0132-428a-a845-75fe08bf38e4/AAABjxBI3MI/AAABjwnlKNc/16x9-512.jpg", "date": "2024-04-24T15:15:00.000+02:00", "lat": 54.0924, "lon": 13.3936, "intensity": 0.7, "source": "Tagesschau"}, {"title": "FSV Frankfurt in der Regionalliga: Mutig den Super-GAU vermeiden", "url": "https://www.tagesschau.de/inland/regional/hessen/hr-fsv-frankfurt-in-der-regionalliga-mutig-den-super-gau-vermeiden-102.html", "thumbnailUrl": "https://images.tagesschau.de/image/e032efc7-f03b-4064-9203-11382762caba/AAABjxBQPAU/AAABjwnlKNc/16x9-512.jpg", "date": "2024-04-24T15:12:55.025+02:00", "lat": 50.110922, "lon": 8.669747, "intensity": 0.6, "source": "Tagesschau"}, {"title": "Bundesverfassungsgericht angerufen: Ex-Justizsenator Heilmann beantragt Stopp des Klimaschutzgesetzes", "url": "https://www.tagesschau.de/inland/regional/berlin/rbb-bundesverfassungsgericht-angerufen-ex-justizsenator-heilmann-beantragt-stopp-des-klimaschutzgesetzes-100.html", "thumbnailUrl": "https://images.tagesschau.de/image/46c36def-dc51-4ef5-a303-a342cb8bfadb/AAABjxA_xMQ/AAABjwnlKNc/16x9-512.jpg", "date": "2024-04-24T15:12:18.000+02:00", "lat": 52.520008, "lon": 13.404954, "intensity": 0.8, "source": "Tagesschau"}, {"title": "Bremerhaven: Mutma\u00dflicher Dieb mit 84 Kilo Peperoni erwischt", "url": "https://www.tagesschau.de/inland/regional/niedersachsen/ndr-bremerhaven-mutmasslicher-dieb-mit-84-kilo-peperoni-erwischt-100.html", "thumbnailUrl": "https://images.tagesschau.de/image/25b5a407-7774-4a86-9ab2-50730d1d8138/AAABjxBQWjs/AAABjwnlKNc/16x9-512.jpg", "date": "2024-04-24T15:12:00.000+02:00", "lat": 53.55, "lon": 8.58333, "intensity": 0.2, "source": "Tagesschau"}, {"title": "Darmstadt 98: +++ Bericht: SV98 an weiterem 1860-Profi dran +++ Leihgabe Stojilkovic beim FCK au\u00dfen vor +++ Beckenprellung bei Gjasula +++", "url": "https://www.tagesschau.de/inland/regional/hessen/hr--tietz-vermisst-fehlende-gier--lilien-fans-liefern-sich-raststaetten-pruegelei--die-niederlage-der-lilien-in-der-video-zusammenfassung-102.html", "thumbnailUrl": "https://images.tagesschau.de/image/0787ec2d-86fa-4ec6-a838-3e65a873cf2c/AAABjxA6VNI/AAABjwnlKNc/16x9-512.jpg", "date": "2024-04-24T15:08:36.899+02:00", "lat": 49.8667, "lon": 8.65, "intensity": 0.6, "source": "Tagesschau"}, {"title": "Gemeinden in Sachsen-Anhalt sollen Geld f\u00fcr Windr\u00e4der und Solaranlagen bekommen", "url": "https://www.tagesschau.de/inland/regional/sachsenanhalt/mdr-gemeinden-in-sachsen-anhalt-sollen-geld-fuer-windraeder-und-solaranlagen-bekommen-100.html", "thumbnailUrl": "https://images.tagesschau.de/image/0c245b10-5318-49be-8e8c-a40f8285c40a/AAABjxJWjGw/AAABjwnlKNc/16x9-512.jpg", "date": "2024-04-24T15:05:29.000+02:00", "lat": 52.1155, "lon": 11.6276, "intensity": 0.6, "source": "Tagesschau"}, {"title": "Toter aus der Primstalsperre wurde seit Januar vermisst", "url": "https://www.tagesschau.de/inland/regional/saarland/sr-toter-aus-der-primstalsperre-wurde-seit-januar-vermisst-100.html", "thumbnailUrl": "https://images.tagesschau.de/image/e24d1a16-13ec-4c26-b2d7-89a1e5256e61/AAABjxA8CIg/AAABjwnlKNc/16x9-512.jpg", "date": "2024-04-24T15:00:00.000+02:00", "lat": 49.4487, "lon": 7.0424, "intensity": 0.8, "source": "Tagesschau"}, {"title": "Gewerkschaft f\u00fcr Tarifabschluss bei Lufthansa", "url": "https://www.tagesschau.de/wirtschaft/unternehmen/lufthansa-flugbegleiter-tarifvertrag-100.html", "thumbnailUrl": "https://images.tagesschau.de/image/b82796b3-40fc-4091-b65c-6e6b318bf1ff/AAABjiSvd0c/AAABjwnlKNc/16x9-512.jpg", "date": "2024-04-24T14:56:54.830+02:00", "lat": 50.033893, "lon": 8.570752, "intensity": 0.5, "source": "Tagesschau"}, {"title": "Erste Fabrik f\u00fcr \"klimapositiven\" Beton er\u00f6ffnet", "url": "https://www.tagesschau.de/wirtschaft/energie/beton-bton-klimaneutral-soltau-100.html", "thumbnailUrl": "https://images.tagesschau.de/image/bdf2db3d-1fbb-4b8c-a61a-1cafc86e26f8/AAABjw_yeec/AAABjwnlKNc/16x9-512.jpg", "date": "2024-04-24T14:53:46.640+02:00", "lat": 52.9836, "lon": 9.8252, "intensity": 0.7, "source": "Tagesschau"}, {"title": "Kultur: +++ Alice Springs Retrospektive in R\u00fcsselsheim +++ Aus dem M\u00fcll gerettet - Museum zeigt Werke von Fuldaer Maler +++ Neuer Schauspieldirektor am Staatstheater Darmstadt +++ ", "url": "https://www.tagesschau.de/inland/regional/hessen/hr--schauspiel-frankfurt-bringt-putin-und-macbeth-zusammen--die-filmfestival-saison-2023-startet--lichter-filmfest-zum-thema-liebe-startet-am-dienstag-100.html", "thumbnailUrl": "https://images.tagesschau.de/image/9ab184d8-ae7a-4d7d-b95c-453095ad55a0/AAABjxAp2NI/AAABjwnlKNc/16x9-512.jpg", "date": "2024-04-24T14:50:42.684+02:00", "lat": 50.110922, "lon": 8.682127, "intensity": 0.7, "source": "Tagesschau"}, {"title": "Gewerkschaft Ufo: Lufthansa-Flugbegleiter nehmen Tarifabschluss an", "url": "https://www.tagesschau.de/inland/regional/hessen/hr-tarifkonflikt-beendet-lufthansa-flugbegleiter-bekommen-mehr-geld-100.html", "thumbnailUrl": "https://images.tagesschau.de/image/8a50133b-bf69-46ca-a9bd-f5b7d6898ec1/AAABjxAn_BQ/AAABjwnlKNc/16x9-512.jpg", "date": "2024-04-24T14:48:07.085+02:00", "lat": 50.121127, "lon": 8.676435, "intensity": 0.3, "source": "Tagesschau"}, {"title": "Regierung will Wohnungslosigkeit beenden", "url": "https://www.tagesschau.de/inland/wohnungslosigkeit-aktionsplan-bundesregierung-100.html", "thumbnailUrl": "https://images.tagesschau.de/image/96f09599-a7df-4414-a99e-9805db7d1b8c/AAABhoCUJf8/AAABjwnlKNc/16x9-512.jpg", "date": "2024-04-24T14:45:52.432+02:00", "lat": 53.5511, "lon": 9.9937, "intensity": 0.8, "source": "Tagesschau"}, {"title": "Eintracht: +++ Chandler: Neue Hierarchie \"nicht per Knopfdruck\" +++ Eintracht will FCB \"auf den Sack gehen\" +++ N'Dicka darf wieder trainieren +++", "url": "https://www.tagesschau.de/inland/regional/hessen/hr--eintracht-wohl-mit-chaibi-einig--glasner-fast-nur-kolo-muani-der-tore-erzielt--bericht-eintracht-sagt-aouar-ab-100.html", "thumbnailUrl": "https://images.tagesschau.de/image/17ba4928-4f5e-48c2-98d2-7483ca84bb99/AAABjxAg3QQ/AAABjwnlKNc/16x9-512.jpg", "date": "2024-04-24T14:40:28.589+02:00", "lat": 50.110922, "lon": 8.682127, "intensity": 0.6, "source": "Tagesschau"}, {"title": "CDU-Politiker will Klimaschutzgesetz stoppen", "url": "https://www.tagesschau.de/inland/innenpolitik/cdu-heilmann-klimaschutzgesetz-bundesverfassungsgericht-100.html", "thumbnailUrl": "https://images.tagesschau.de/image/2b2e9cf1-6385-44ea-ae27-b96afbce4635/AAABjxAbLjU/AAABjwnlKNc/16x9-512.jpg", "date": "2024-04-24T14:37:15.289+02:00", "lat": 51.531, "lon": 9.9937, "intensity": 0.6, "source": "Tagesschau"}, {"title": "Hamburger Flughafen: 13,6 Millionen Passagiere im vergangenen Jahr", "url": "https://www.tagesschau.de/inland/regional/hamburg/ndr-hamburger-flughafen-136-millionen-passagiere-im-vergangenen-jahr-100.html", "thumbnailUrl": "https://images.tagesschau.de/image/c07a6882-b677-4117-9ae7-d36fe429585f/AAABjxAkieE/AAABjwnlKNc/16x9-512.jpg", "date": "2024-04-24T14:33:00.000+02:00", "lat": 53.63, "lon": 9.988, "intensity": 0.8, "source": "Tagesschau"}, {"title": "F\u00e4hrhafen Sassnitz-Mukran: Suche nach neuem Chef verz\u00f6gert", "url": "https://www.tagesschau.de/inland/regional/mecklenburgvorpommern/ndr-faehrhafen-sassnitz-mukran-suche-nach-neuem-chef-verzoegert-100.html", "thumbnailUrl": "https://images.tagesschau.de/image/d02d43bc-d60d-417e-ae09-fe1ee06e187b/AAABjxAZXFY/AAABjwnlKNc/16x9-512.jpg", "date": "2024-04-24T14:29:00.000+02:00", "lat": 54.4167, "lon": 13.6105, "intensity": 0.4, "source": "Tagesschau"}, {"title": "Berlin kauft 4.500 Wohnungen und Fl\u00e4chen in Lichtenberg von Vonovia ", "url": "https://www.tagesschau.de/inland/regional/berlin/rbb-berlin-kauft-4-500-wohnungen-und-flaechen-in-lichtenberg-von-vonovia-100.html", "thumbnailUrl": "https://images.tagesschau.de/image/a4f1c93f-32fd-4276-b684-1f1d13e4e63d/AAABjw_tl6k/AAABjwnlKNc/16x9-512.jpg", "date": "2024-04-24T14:25:08.000+02:00", "lat": 52.52, "lon": 13.5007, "intensity": 0.7, "source": "Tagesschau"}, {"title": "39-J\u00e4hrige aus Schmelz wegen T\u00f6tung ihrer Mitbewohnerin vor Gericht", "url": "https://www.tagesschau.de/inland/regional/saarland/sr-prozessauftakt-frau-soll-mitbewohnerin-in-schmelz-getoetet-haben-100.html", "thumbnailUrl": "https://images.tagesschau.de/image/b315d190-5415-4d86-8c19-ddb361d94759/AAABjw5j2_4/AAABjwnlKNc/16x9-512.jpg", "date": "2024-04-24T14:04:00.000+02:00", "lat": 49.375, "lon": 6.9247, "intensity": 0.8, "source": "Tagesschau"}, {"title": "Pflanzensch\u00fctzer in MV warnen: Gefahren bei privatem Samentausch", "url": "https://www.tagesschau.de/inland/regional/mecklenburgvorpommern/ndr-pflanzenschuetzer-in-mv-warnen-gefahren-bei-privatem-samentausch-100.html", "thumbnailUrl": "https://images.tagesschau.de/image/701d7408-4b82-4d2d-bad8-877cf42523a7/AAABjxAIx5U/AAABjwnlKNc/16x9-512.jpg", "date": "2024-04-24T13:59:00.000+02:00", "lat": 53.68, "lon": 13.37, "intensity": 0.5, "source": "Tagesschau"}, {"title": "Frau in Bad Kreuznach erstochen - Polizei nimmt Ehemann fest", "url": "https://www.tagesschau.de/inland/regional/rheinlandpfalz/swr-frau-in-bad-kreuznach-erstochen-100.html", "thumbnailUrl": "https://images.tagesschau.de/image/d72c0296-4231-4232-9baa-e5829ba09cd2/AAABjw-4TF0/AAABjwnlKNc/16x9-512.jpg", "date": "2024-04-24T13:58:00.000+02:00", "lat": 49.8419, "lon": 7.8662, "intensity": 0.8, "source": "Tagesschau"}, {"title": "Senden: K\u00fcnstliche Intelligenz durchleuchtet Eier", "url": "https://www.tagesschau.de/inland/regional/nordrheinwestfalen/wdr-senden-kuenstliche-intelligenz-durchleuchtet-eier-100.html", "thumbnailUrl": "https://images.tagesschau.de/image/b4b546a0-dc67-4d30-b4c6-0714aab12391/AAABjxAn5bg/AAABjwnlKNc/16x9-512.jpg", "date": "2024-04-24T13:56:00.000+02:00", "lat": 51.9624, "lon": 7.5955, "intensity": 0.8, "source": "Tagesschau"}, {"title": "Berlin-Niedersch\u00f6neweide: Frau nach Streit um Seidenh\u00fchner in Handtasche zu Geldstrafe verurteilt", "url": "https://www.tagesschau.de/inland/regional/berlin/rbb-berlin-niederschoeneweide-frau-nach-streit-um-seidenhuehner-in-handtasche-zu-geldstrafe-verurteilt-100.html", "thumbnailUrl": "https://images.tagesschau.de/image/a1f3a044-9864-4581-8602-2af577865e2c/AAABjxABhdk/AAABjwnlKNc/16x9-512.jpg", "date": "2024-04-24T13:53:32.000+02:00", "lat": 52.4711, "lon": 13.5264, "intensity": 0.7, "source": "Tagesschau"}, {"title": "Nach Fettes-Brot-Ende: K\u00f6nig Boris ver\u00f6ffentlicht Soloalbum", "url": "https://www.tagesschau.de/inland/regional/hamburg/ndr-nach-fettes-brot-ende-koenig-boris-veroeffentlicht-soloalbum-100.html", "thumbnailUrl": "https://images.tagesschau.de/image/9c470c03-5d99-4b1b-9f64-b138101c2cc9/AAABjw_6MtY/AAABjwnlKNc/16x9-512.jpg", "date": "2024-04-24T13:37:00.000+02:00", "lat": 53.5511, "lon": 9.9937, "intensity": 0.8, "source": "Tagesschau"}, {"title": "Frauen-Teams von Hertha und Union: Duell der Zeitreisenden", "url": "https://www.tagesschau.de/inland/regional/berlin/rbb-frauen-teams-von-hertha-und-union-duell-der-zeitreisenden-102.html", "thumbnailUrl": "https://images.tagesschau.de/image/3b31ed88-50ba-450e-afd4-71d0ad062dd2/AAABjw_Kjt4/AAABjwnlKNc/16x9-512.jpg", "date": "2024-04-24T13:32:57.000+02:00", "lat": 52.52, "lon": 13.4073, "intensity": 0.7, "source": "Tagesschau"}, {"title": "Mittelrhein und Mosel: Frostsch\u00e4den an Weinreben und Obstb\u00e4umen ", "url": "https://www.tagesschau.de/inland/regional/rheinlandpfalz/swr-mittelrhein-und-mosel-frostschaeden-an-weinreben-und-obstbaeumen-100.html", "thumbnailUrl": "https://images.tagesschau.de/image/d3817cfe-8326-4b4c-80f3-b8d9472f8942/AAABjw_gheg/AAABjwnlKNc/16x9-512.jpg", "date": "2024-04-24T13:19:29.000+02:00", "lat": 50.3297, "lon": 7.5433, "intensity": 0.8, "source": "Tagesschau"}, {"title": "Gewaltexzess in Unterkunft f\u00fcr Monteure: Neuer Prozess", "url": "https://www.tagesschau.de/inland/regional/hamburg/ndr-gewaltexzess-in-unterkunft-fuer-monteure-neuer-prozess-100.html", "thumbnailUrl": "https://images.tagesschau.de/image/bee2c23c-7703-4075-9bb2-8526b8001c49/AAABjw8RqhQ/AAABjwnlKNc/16x9-512.jpg", "date": "2024-04-24T13:13:00.000+02:00", "lat": 53.55, "lon": 10.0, "intensity": 0.8, "source": "Tagesschau"}, {"title": "Kiffen auf Volksfesten - So ist die Lage in Rheinland-Pfalz", "url": "https://www.tagesschau.de/inland/regional/rheinlandpfalz/swr-kiffen-auf-volksfesten-so-ist-die-lage-in-rheinland-pfalz-100.html", "thumbnailUrl": "https://images.tagesschau.de/image/82f9d47d-0d82-47f8-bfe4-13f42dac7f2d/AAABjw_n0o8/AAABjwnlKNc/16x9-512.jpg", "date": "2024-04-24T13:11:54.000+02:00", "lat": 50.4547, "lon": 7.62, "intensity": 0.4, "source": "Tagesschau"}, {"title": "Berlin-Mitte: Geldabholer nach sogenannten Schockanruf festgenommen", "url": "https://www.tagesschau.de/inland/regional/berlin/rbb-berlin-mitte-geldabholer-nach-sogenannten-schockanruf-festgenommen-100.html", "thumbnailUrl": "https://images.tagesschau.de/image/be9074cc-497a-412d-bd7e-62d96099392d/AAABjw_KuKg/AAABjwnlKNc/16x9-512.jpg", "date": "2024-04-24T13:06:25.000+02:00", "lat": 52.5166, "lon": 13.3777, "intensity": 0.7, "source": "Tagesschau"}, {"title": "Fahrraddiebst\u00e4hle werden teurer - f\u00fcr Versicherungen", "url": "https://www.tagesschau.de/wirtschaft/verbraucher/fahrraeder-diebe-schaden-gdv-100.html", "thumbnailUrl": "https://images.tagesschau.de/image/72966f9f-9336-4058-abda-0e128c97017e/AAABjw-E4SA/AAABjwnlKNc/16x9-512.jpg", "date": "2024-04-24T13:02:26.566+02:00", "lat": 51.165691, "lon": 9.993682, "intensity": 0.8, "source": "Tagesschau"}, {"title": "Bergung der \"S\u00e4ntis\" aus dem Bodensee geht weiter", "url": "https://www.tagesschau.de/inland/regional/badenwuerttemberg/swr-bergung-der-saentis-aus-dem-bodensee-geht-weiter-100.html", "thumbnailUrl": "https://images.tagesschau.de/image/ab10fe17-b14a-4966-b005-23f495cb5a31/AAABjxAkT2A/AAABjwnlKNc/16x9-512.jpg", "date": "2024-04-24T12:58:35.000+02:00", "lat": 47.5574, "lon": 9.3727, "intensity": 0.7, "source": "Tagesschau"}, {"title": "Landtag beschlie\u00dft Tariferh\u00f6hung f\u00fcr Saar-Beamte", "url": "https://www.tagesschau.de/inland/regional/saarland/sr-landtag-beschliesst-tariferhoehung-fuer-saar-beamte-100.html", "thumbnailUrl": "https://images.tagesschau.de/image/3b19878e-6a5d-40be-bb72-af5a224e8e41/AAABjxHANrQ/AAABjwnlKNc/16x9-512.jpg", "date": "2024-04-24T12:56:00.000+02:00", "lat": 49.3964, "lon": 7.0, "intensity": 0.6, "source": "Tagesschau"}, {"title": "Lotto: Mittelhesse sahnt Millionengewinn im Eurojackpot ab ", "url": "https://www.tagesschau.de/inland/regional/hessen/hr-lotto-mittelhesse-sahnt-millionengewinn-im-eurojackpot-ab-100.html", "thumbnailUrl": "https://images.tagesschau.de/image/821fe59b-8afc-4f7f-8e35-23b9f4600492/AAABjw-_nDU/AAABjwnlKNc/16x9-512.jpg", "date": "2024-04-24T12:54:34.099+02:00", "lat": 50.7538, "lon": 8.3986, "intensity": 0.8, "source": "Tagesschau"}, {"title": "Israel schickt weitere Reservisten nach Gaza", "url": "https://www.tagesschau.de/ausland/israel-gaza-reservisten-100.html", "thumbnailUrl": "https://images.tagesschau.de/image/5f13d3f1-8ac8-401c-aa76-75064b11df35/AAABjw-6psw/AAABjwnlKNc/16x9-512.jpg", "date": "2024-04-24T12:52:26.110+02:00", "lat": 31.5058, "lon": 34.4453, "intensity": 0.8, "source": "Tagesschau"}, {"title": "Peine: Unfallschwerpunkt an A2 soll entsch\u00e4rft werden", "url": "https://www.tagesschau.de/inland/regional/niedersachsen/ndr-peine-unfallschwerpunkt-an-a2-soll-entschaerft-werden-100.html", "thumbnailUrl": "https://images.tagesschau.de/image/ee96c967-f538-4359-8e04-7d0f2ef4c09e/AAABjxCxScY/AAABjwnlKNc/16x9-512.jpg", "date": "2024-04-24T12:46:00.000+02:00", "lat": 52.319, "lon": 10.221, "intensity": 0.6, "source": "Tagesschau"}, {"title": "Kritik aus Hamburg an nationalem Aktionsplan gegen Wohnungslosigkeit", "url": "https://www.tagesschau.de/inland/regional/hamburg/ndr-kritik-aus-hamburg-an-nationalem-aktionsplan-gegen-wohnungslosigkeit-100.html", "thumbnailUrl": "https://images.tagesschau.de/image/b3c13ec5-0a13-48e8-bf8a-4b372d17ccc9/AAABjw_Ivws/AAABjwnlKNc/16x9-512.jpg", "date": "2024-04-24T12:44:00.000+02:00", "lat": 53.551086, "lon": 9.993682, "intensity": 0.6, "source": "Tagesschau"}, {"title": "Star-Wars-Fans trainieren in Laubach: Hier lernen Jedi-Ritter den Lichtschwert-Kampf", "url": "https://www.tagesschau.de/inland/regional/hessen/hr-hier-lernen-jedis-das-kaempfen-mit-dem-lichtschwert-100.html", "thumbnailUrl": "https://images.tagesschau.de/image/c77cf78a-f3cf-43e3-9685-be7305b89051/AAABjw-0n7s/AAABjwnlKNc/16x9-512.jpg", "date": "2024-04-24T12:42:04.838+02:00", "lat": 50.566284, "lon": 8.999833, "intensity": 0.7, "source": "Tagesschau"}, {"title": "Weiter getr\u00fcbte Stimmung in der Saarwirtschaft", "url": "https://www.tagesschau.de/inland/regional/saarland/sr-weiter-getruebte-stimmung-in-der-saarwirtschaft-100.html", "thumbnailUrl": "https://images.tagesschau.de/image/0f66989e-04ef-40e8-b106-93e544252322/AAABjw-6Bqs/AAABjwnlKNc/16x9-512.jpg", "date": "2024-04-24T12:33:00.000+02:00", "lat": 49.3964, "lon": 6.9538, "intensity": 0.4, "source": "Tagesschau"}, {"title": "Tag gegen L\u00e4rm: Auf der Suche nach mehr Ruhe", "url": "https://www.tagesschau.de/inland/regional/nordrheinwestfalen/wdr-tag-gegen-laerm-auf-der-suche-nach-mehr-ruhe-100.html", "thumbnailUrl": "https://images.tagesschau.de/image/c2471cf9-1eb8-434b-a941-abefd864f015/AAABjxAkPXA/AAABjwnlKNc/16x9-512.jpg", "date": "2024-04-24T12:26:00.000+02:00", "lat": 51.9607, "lon": 7.6261, "intensity": 0.2, "source": "Tagesschau"}, {"title": "Fl\u00fcssige Teewurst f\u00e4rbt Autobahn 61 bei Ludwigshafen rosa", "url": "https://www.tagesschau.de/inland/regional/rheinlandpfalz/swr-fluessige-teewurst-faerbt-autobahn-61-bei-ludwigshafen-rosa-100.html", "thumbnailUrl": "https://images.tagesschau.de/image/dc43f3d0-178c-48ca-860f-83cc2f9eb270/AAABjw_2eV0/AAABjwnlKNc/16x9-512.jpg", "date": "2024-04-24T12:23:26.000+02:00", "lat": 49.4657, "lon": 8.4281, "intensity": 0.7, "source": "Tagesschau"}, {"title": "Mehr Abschiebungen in Hamburg im ersten Quartal ", "url": "https://www.tagesschau.de/inland/regional/hamburg/ndr-mehr-abschiebungen-in-hamburg-im-ersten-quartal-100.html", "thumbnailUrl": "https://images.tagesschau.de/image/1f580997-b5c9-4258-9c73-f07f2a4fac6c/AAABjw-l7p8/AAABjwnlKNc/16x9-512.jpg", "date": "2024-04-24T12:20:00.000+02:00", "lat": 53.551085, "lon": 9.993682, "intensity": 0.7, "source": "Tagesschau"}, {"title": "Zehn Jahre nach der Tat: Juwelierraub-Prozess in Duisburg beginnt", "url": "https://www.tagesschau.de/inland/regional/nordrheinwestfalen/wdr-zehn-jahre-nach-der-tat-juwelierraub-prozess-in-duisburg-beginnt-100.html", "thumbnailUrl": "https://images.tagesschau.de/image/4d9ad7dd-5e85-4ec4-b983-6527413a11e9/AAABjw_XVQo/AAABjwnlKNc/16x9-512.jpg", "date": "2024-04-24T12:15:00.000+02:00", "lat": 51.4344, "lon": 6.7735, "intensity": 0.8, "source": "Tagesschau"}, {"title": "Kein Joint auf Sch\u00fctzenfesten", "url": "https://www.tagesschau.de/inland/regional/nordrheinwestfalen/wdr-kein-joint-auf-schuetzenfesten-104.html", "thumbnailUrl": "https://images.tagesschau.de/image/9e73fcaf-5990-48c8-ab07-bbe0f630b066/AAABjxAkY70/AAABjwnlKNc/16x9-512.jpg", "date": "2024-04-24T12:13:00.000+02:00", "lat": 51.367077, "lon": 8.801694, "intensity": 0.7, "source": "Tagesschau"}, {"title": "So wirbt SPD-Spitzenkandidatin Barley in Freiburg f\u00fcr Europa", "url": "https://www.tagesschau.de/inland/regional/badenwuerttemberg/swr-so-wirbt-spd-spitzenkandidatin-barley-in-freiburg-fuer-europa-100.html", "thumbnailUrl": "https://images.tagesschau.de/image/01dae039-e1ee-4477-b2d6-de27b376b496/AAABjw_erzc/AAABjwnlKNc/16x9-512.jpg", "date": "2024-04-24T12:11:56.000+02:00", "lat": 47.996, "lon": 7.849, "intensity": 0.6, "source": "Tagesschau"}, {"title": "Pumpenhersteller KSB investiert in Frankenthal 60 Millionen Euro ", "url": "https://www.tagesschau.de/inland/regional/rheinlandpfalz/swr-pumpenhersteller-ksb-investiert-in-frankenthal-60-millionen-euro-100.html", "thumbnailUrl": "https://images.tagesschau.de/image/b06b45d4-e878-4017-92bc-8358f8ca8553/AAABjw-0jgA/AAABjwnlKNc/16x9-512.jpg", "date": "2024-04-24T12:09:50.000+02:00", "lat": 49.5323, "lon": 8.3665, "intensity": 0.8, "source": "Tagesschau"}, {"title": "Keine antisemitischen \u00dcbergriffe an Bremer Hochschulen gemeldet", "url": "https://www.tagesschau.de/inland/regional/bremen/rb-keine-antisemitischen-uebergriffe-an-bremer-hochschulen-gemeldet-100.html", "thumbnailUrl": "https://images.tagesschau.de/image/eeb35a07-fc42-40e2-9f55-e314744e4378/AAABjw-74SE/AAABjwnlKNc/16x9-512.jpg", "date": "2024-04-24T12:00:00.000+02:00", "lat": 53.0793, "lon": 8.8017, "intensity": 0.3, "source": "Tagesschau"}, {"title": "Zwei Schwerverletzte nach Unfall mit Bus und E-Scooter", "url": "https://www.tagesschau.de/inland/regional/badenwuerttemberg/swr-zwei-schwerverletzte-nach-unfall-mit-bus-und-e-scooter-100.html", "thumbnailUrl": "https://images.tagesschau.de/image/46dd6868-af04-401c-9409-9a88a61817d6/AAABjxC6YX8/AAABjwnlKNc/16x9-512.jpg", "date": "2024-04-24T11:54:11.000+02:00", "lat": 48.6616, "lon": 9.9937, "intensity": 0.8, "source": "Tagesschau"}, {"title": "M\u00f6nchengladbach: Polizeieins\u00e4tze an vier Gesamtschulen", "url": "https://www.tagesschau.de/inland/regional/nordrheinwestfalen/wdr-moenchengladbach-polizeieinsaetze-an-zwei-gesamtschulen-100.html", "thumbnailUrl": "https://images.tagesschau.de/image/d901d9ed-fd9e-4bee-be08-f468a74de302/AAABjxCKxN4/AAABjwnlKNc/16x9-512.jpg", "date": "2024-04-24T11:54:00.000+02:00", "lat": 51.1805, "lon": 6.435, "intensity": 0.7, "source": "Tagesschau"}, {"title": "USA stellen TikTok ein Ultimatum", "url": "https://www.tagesschau.de/ausland/amerika/us-senat-tiktok-verbot-100.html", "thumbnailUrl": "https://images.tagesschau.de/image/3b833870-7f56-4944-8219-cce349c4ef2f/AAABjw4PGCM/AAABjwnlKNc/16x9-512.jpg", "date": "2024-04-24T11:51:32.653+02:00", "lat": 38.9072, "lon": -77.0369, "intensity": 0.8, "source": "Tagesschau"}, {"title": "Saarland bekommt Beauftragten gegen Rassismus", "url": "https://www.tagesschau.de/inland/regional/saarland/sr-saarland-bekommt-beauftragten-gegen-rassismus-100.html", "thumbnailUrl": "https://images.tagesschau.de/image/eadc1716-1ac6-43de-874f-d04b3649cba0/AAABjxHAOB8/AAABjwnlKNc/16x9-512.jpg", "date": "2024-04-24T11:39:00.000+02:00", "lat": 49.3964, "lon": 6.9344, "intensity": 0.7, "source": "Tagesschau"}, {"title": "Kaum Nachwuchs: Saarland droht \u00c4rztemangel", "url": "https://www.tagesschau.de/inland/regional/saarland/sr-kaum-nachwuchs-saarland-droht-aerztemangel-100.html", "thumbnailUrl": "https://images.tagesschau.de/image/bc242467-7ea8-4fdc-a64b-d4e6a2c3f14b/AAABjw-MQII/AAABjwnlKNc/16x9-512.jpg", "date": "2024-04-24T11:30:00.000+02:00", "lat": 49.3964, "lon": 6.9811, "intensity": 0.8, "source": "Tagesschau"}, {"title": "Wahl im Landtag: Sachsen-Anhalt hat neue Landesdatenschutzbeauftragte", "url": "https://www.tagesschau.de/inland/regional/sachsenanhalt/mdr-wahl-im-landtag-sachsen-anhalt-hat-neue-landesdatenschutzbeauftragte-100.html", "thumbnailUrl": "https://images.tagesschau.de/image/e8774a98-be71-4aa8-ada8-96cb27656ea9/AAABjxJWzMA/AAABjwnlKNc/16x9-512.jpg", "date": "2024-04-24T11:28:39.000+02:00", "lat": 52.120533, "lon": 11.625411, "intensity": 0.3, "source": "Tagesschau"}, {"title": "Viele Lehrkr\u00e4fte sehen Gewalt an ihrer Schule", "url": "https://www.tagesschau.de/inland/schulbarometer-2024-lehrkraefte-schule-befragung-robert-bosch-stiftung-gewalt-100.html", "thumbnailUrl": "https://images.tagesschau.de/image/f894aaec-e009-4af2-8d2d-1a73a0136797/AAABix59kQw/AAABjwnlKNc/16x9-512.jpg", "date": "2024-04-24T11:26:30.373+02:00", "lat": 51.1657, "lon": 10.4515, "intensity": 0.8, "source": "Tagesschau"}, {"title": "Aufstieg verpasst: Die gro\u00dfe Leere bei den Kassel Huskies", "url": "https://www.tagesschau.de/inland/regional/hessen/hr-aufstieg-verpasst-die-grosse-leere-bei-den-kassel-huskies-102.html", "thumbnailUrl": "https://images.tagesschau.de/image/9d7fa4c0-a423-41e9-b6d5-e3ba0ab1f220/AAABjxAKnbk/AAABjwnlKNc/16x9-512.jpg", "date": "2024-04-24T11:23:53.512+02:00", "lat": 51.3127, "lon": 9.4895, "intensity": 0.8, "source": "Tagesschau"}, {"title": "Auto-Unfall mit zwei Kindern in Garbsen: Vater war alkoholisiert", "url": "https://www.tagesschau.de/inland/regional/niedersachsen/ndr-schwerer-unfall-in-garbsen-zwei-kinder-unter-den-verletzten-100.html", "thumbnailUrl": "https://images.tagesschau.de/image/15c13d3e-0c7d-487a-921d-1e5fa8142f78/AAABjw9nuuU/AAABjwnlKNc/16x9-512.jpg", "date": "2024-04-24T11:19:00.000+02:00", "lat": 52.4176, "lon": 9.6152, "intensity": 0.8, "source": "Tagesschau"}, {"title": "Wechselstimmung Richtung rechts", "url": "https://www.tagesschau.de/ausland/europa/wahl-nordmazedonien-102.html", "thumbnailUrl": "https://images.tagesschau.de/image/8f5fd3be-24d8-4be3-aa13-bedf20d15077/AAABjw9lYTQ/AAABjwnlKNc/16x9-512.jpg", "date": "2024-04-24T11:17:33.658+02:00", "lat": 41.6086, "lon": 21.7453, "intensity": 0.7, "source": "Tagesschau"}, {"title": "Etienne Kinsinger erh\u00e4lt weitere Chance auf Olympia-Qualifikation", "url": "https://www.tagesschau.de/inland/regional/saarland/sr-etienne-kinsinger-erhaelt-weitere-chance-auf-olympia-qualifikation-102.html", "thumbnailUrl": "https://images.tagesschau.de/image/bb6957a0-8ade-4494-8395-180e928582c5/AAABjw9wyRg/AAABjwnlKNc/16x9-512.jpg", "date": "2024-04-24T11:11:00.000+02:00", "lat": 49.3964, "lon": 7.0, "intensity": 0.6, "source": "Tagesschau"}, {"title": "Rentenantrag \u2013 so geht\u2019s", "url": "https://www.tagesschau.de/inland/regional/saarland/sr-rentenantrag--so-gehts-100.html", "thumbnailUrl": "https://images.tagesschau.de/image/2f2c3fd6-8652-4729-89fb-fdd30ca1a349/AAABjw_rd3Q/AAABjwnlKNc/16x9-512.jpg", "date": "2024-04-24T11:01:00.000+02:00", "lat": 49.3964, "lon": 6.9964, "intensity": 0.7, "source": "Tagesschau"}, {"title": "Wie China in Deutschland spioniert", "url": "https://www.tagesschau.de/investigativ/wdr/spionage-china-deutschland-100.html", "thumbnailUrl": "https://images.tagesschau.de/image/4800ca9c-f2d7-4871-aa07-01ac7cadd000/AAABjw9dxS8/AAABjwnlKNc/16x9-512.jpg", "date": "2024-04-24T11:00:00.943+02:00", "lat": 51.1657, "lon": 10.4515, "intensity": 0.8, "source": "Tagesschau"}, {"title": "Studie: Region Hannover verfehlt eigene Klimaziele um mehrere Jahre", "url": "https://www.tagesschau.de/inland/regional/niedersachsen/ndr-studie-region-hannover-verfehlt-eigene-klimaziele-um-mehrere-jahre-100.html", "thumbnailUrl": "https://images.tagesschau.de/image/73fc096f-f99d-42b0-978c-cf8ac3793cfd/AAABjw9ZZGU/AAABjwnlKNc/16x9-512.jpg", "date": "2024-04-24T11:00:00.000+02:00", "lat": 52.3759, "lon": 9.7376, "intensity": 0.8, "source": "Tagesschau"}, {"title": "Hessen am Morgen: +++ Meisterausbildung soll kostenlos werden +++ 75 Jahre hr \u2013 Jetzt bewerben f\u00fcr einen Besuch hinter den Kulissen +++ Ex-Sozialminister Klose \u00fcbernimmt G\u00e4stehaus in Italien +++", "url": "https://www.tagesschau.de/inland/regional/hessen/hr-hessen-am-morgen--vier-verletzte-auf-der-a3-am-offenbacher-kreuz-100.html", "thumbnailUrl": "https://images.tagesschau.de/image/6c9d7c70-6f04-4fbb-82f9-771fc0109f61/AAABjxAFHzA/AAABjwnlKNc/16x9-512.jpg", "date": "2024-04-24T10:49:17.711+02:00", "lat": 50.5151, "lon": 9.6615, "intensity": 0.5, "source": "Tagesschau"}, {"title": "Kupferkabel aus Windkraftanlage gestohlen: 300.000 Euro Schaden", "url": "https://www.tagesschau.de/inland/regional/niedersachsen/ndr-erneut-kupferkabel-aus-windkraftanlagen-in-meppen-gestohlen-100.html", "thumbnailUrl": "https://images.tagesschau.de/image/4f6e1dcc-474b-4f43-a5a3-26785b0501ff/AAABjw9Zae4/AAABjwnlKNc/16x9-512.jpg", "date": "2024-04-24T10:39:00.000+02:00", "lat": 52.6367, "lon": 10.7456, "intensity": 0.8, "source": "Tagesschau"}, {"title": "Verkehrsgesellschaft Frankfurt \u00fcberwacht Schienennetz mit Drohnen", "url": "https://www.tagesschau.de/inland/regional/hessen/hr-verkehrsgesellschaft-frankfurt-ueberwacht-schienennetz-mit-drohnen-100.html", "thumbnailUrl": "https://images.tagesschau.de/image/c45b18d1-0ddb-4cd3-be32-f0ca3cb0adc9/AAABjw9E6lA/AAABjwnlKNc/16x9-512.jpg", "date": "2024-04-24T10:37:30.485+02:00", "lat": 50.1109, "lon": 8.6821, "intensity": 0.6, "source": "Tagesschau"}, {"title": "Auto auf B41 bei R\u00fcdesheim in Brand geraten", "url": "https://www.tagesschau.de/inland/regional/rheinlandpfalz/swr-auto-auf-b41-bei-ruedesheim-in-brand-geraten-100.html", "thumbnailUrl": "https://images.tagesschau.de/image/4998bab4-f3de-4c89-88fb-bc3c520fec47/AAABjw9KXA0/AAABjwnlKNc/16x9-512.jpg", "date": "2024-04-24T10:37:25.000+02:00", "lat": 49.9933, "lon": 7.904, "intensity": 0.7, "source": "Tagesschau"}, {"title": "Sonde schl\u00e4gt an: Schatzsucher finden 400 Jahre alte M\u00fcnzen", "url": "https://www.tagesschau.de/inland/regional/niedersachsen/ndr-sonde-schlaegt-an-schatzsucher-finden-400-jahre-alte-muenzen-100.html", "thumbnailUrl": "https://images.tagesschau.de/image/392f333c-ff82-4068-ad39-e2f6ee8ff35b/AAABjwlN3x4/AAABjwnlKNc/16x9-512.jpg", "date": "2024-04-24T10:37:00.000+02:00", "lat": 51.709533, "lon": 9.994667, "intensity": 0.4, "source": "Tagesschau"}, {"title": "Fu\u00dfball-Regionalliga: Energie Cottbus muss hohe Pyro-Geldstrafe zahlen", "url": "https://www.tagesschau.de/inland/regional/brandenburg/rbb-fussball-regionalliga-energie-cottbus-muss-hohe-pyro-geldstrafe-zahlen-102.html", "thumbnailUrl": "https://images.tagesschau.de/image/d2204daf-e697-446e-899b-d89f9fdecc42/AAABjw84El4/AAABjwnlKNc/16x9-512.jpg", "date": "2024-04-24T10:26:11.000+02:00", "lat": 51.7746, "lon": 14.3044, "intensity": 0.7, "source": "Tagesschau"}, {"title": "Aufstiegsrennen: Der BFC Dynamo zwischen Frust, Hoffnung und Zweckoptimismus", "url": "https://www.tagesschau.de/inland/regional/berlin/rbb-aufstiegsrennen-der-bfc-dynamo-zwischen-frust-hoffnung-und-zweckoptimismus-102.html", "thumbnailUrl": "https://images.tagesschau.de/image/396b8457-ee93-4a5e-9bd9-adff4c3c6382/AAABjw84Ig0/AAABjwnlKNc/16x9-512.jpg", "date": "2024-04-24T10:24:57.000+02:00", "lat": 52.520008, "lon": 13.404954, "intensity": 0.7, "source": "Tagesschau"}, {"title": "Deutschland nimmt UNRWA-Unterst\u00fctzung wieder auf", "url": "https://www.tagesschau.de/inland/innenpolitik/deutschland-unrwa-100.html", "thumbnailUrl": "https://images.tagesschau.de/image/c314ac7f-97cd-4e36-a481-1be84781e288/AAABjnaBHXo/AAABjwnlKNc/16x9-512.jpg", "date": "2024-04-24T10:17:19.951+02:00", "lat": 31.52037, "lon": 34.344574, "intensity": 0.7, "source": "Tagesschau"}, {"title": "Jens Harzer verl\u00e4sst Thalia Theater: \"Muss diesen Schritt wagen\"", "url": "https://www.tagesschau.de/inland/regional/hamburg/ndr-jens-harzer-verlaesst-thalia-theater-muss-diesen-schritt-wagen-100.html", "thumbnailUrl": "https://images.tagesschau.de/image/100383c9-c0f8-4ce0-9b8f-d251e5fdd3fc/AAABjw7pZm4/AAABjwnlKNc/16x9-512.jpg", "date": "2024-04-24T10:14:00.000+02:00", "lat": 53.55, "lon": 10.0, "intensity": 0.8, "source": "Tagesschau"}, {"title": "Russlands Vize-Verteidigungsminister festgenommen", "url": "https://www.tagesschau.de/ausland/europa/iwanow-festnahme-100.html", "thumbnailUrl": "https://images.tagesschau.de/image/8eb77707-364a-4e0e-b8b3-5337180112db/AAABjw8X5Mg/AAABjwnlKNc/16x9-512.jpg", "date": "2024-04-24T10:11:27.978+02:00", "lat": 55.7558, "lon": 37.6175, "intensity": 0.8, "source": "Tagesschau"}, {"title": "Nach SEK-Einsatz in Vieritz: Tatverd\u00e4chtiger aus Untersuchungshaft entlassen - Haftbefehl au\u00dfer Vollzug gesetzt: ", "url": "https://www.tagesschau.de/inland/regional/brandenburg/rbb-nach-sek-einsatz-in-vieritz-tatverdaechtiger-aus-untersuchungshaft-entlassen-haftbefehl-ausser-vollzug-gesetzt-100.html", "thumbnailUrl": "https://images.tagesschau.de/image/3931c3cd-ec09-4c00-a479-2437e9d27489/AAABjw8paeQ/AAABjwnlKNc/16x9-512.jpg", "date": "2024-04-24T10:08:54.000+02:00", "lat": 52.4125, "lon": 12.5093, "intensity": 0.8, "source": "Tagesschau"}, {"title": "Haftbefehl gegen AfD-Mitarbeiter Jian G.", "url": "https://www.tagesschau.de/inland/innenpolitik/haftbefehl-jian-g-afd-100.html", "thumbnailUrl": "https://images.tagesschau.de/image/d278d42d-a023-4698-a954-ac66b19a6c9d/AAABjw7bB5Q/AAABjwnlKNc/16x9-512.jpg", "date": "2024-04-24T10:06:41.315+02:00", "lat": 53.5511, "lon": 9.9937, "intensity": 0.8, "source": "Tagesschau"}, {"title": "Polizeieinsatz mit Nachspiel: Mutter aus Ribnitz-Damgarten klagt", "url": "https://www.tagesschau.de/inland/regional/mecklenburgvorpommern/ndr-polizeieinsatz-mit-nachspiel-mutter-aus-ribnitz-damgarten-klagt-100.html", "thumbnailUrl": "https://images.tagesschau.de/image/5b3480f8-eac0-46f8-b6f6-70aa4fe567fa/AAABjwvQjt4/AAABjwnlKNc/16x9-512.jpg", "date": "2024-04-24T10:02:00.000+02:00", "lat": 54.24, "lon": 12.653, "intensity": 0.3, "source": "Tagesschau"}, {"title": "SpVg Aurich: DFB-Reform tr\u00fcbt Zukunfts-Tr\u00e4ume der U17-Juniorinnen", "url": "https://www.tagesschau.de/inland/regional/niedersachsen/ndr-spvg-aurich-dfb-reform-truebt-zukunfts-traeume-der-u17-juniorinnen-102.html", "thumbnailUrl": "https://images.tagesschau.de/image/31bf9d86-a1c2-44b1-ab96-1c2b12735092/AAABjw8tWKk/AAABjwnlKNc/16x9-512.jpg", "date": "2024-04-24T10:02:00.000+02:00", "lat": 53.4746, "lon": 7.4879, "intensity": 0.7, "source": "Tagesschau"}, {"title": "BW-Newsticker am Morgen: Weitere Einzelheiten nach Schuss in Uni Mannheim, Fr\u00fchlingsfest-Besucher in Stuttgart leiden an \u00dcbelkeit", "url": "https://www.tagesschau.de/inland/regional/badenwuerttemberg/swr-bw-newsticker-am-morgen-114.html", "thumbnailUrl": "https://images.tagesschau.de/image/c75cde26-5bcd-4453-9ef1-fbdc3fdc6e7d/AAABjw9rUe4/AAABjwnlKNc/16x9-512.jpg", "date": "2024-04-24T10:00:00.000+02:00", "lat": 49.4875, "lon": 8.7011, "intensity": 0.7, "source": "Tagesschau"}, {"title": "Pflegebed\u00fcrftige landen in RLP oft unn\u00f6tig im Krankenhaus", "url": "https://www.tagesschau.de/inland/regional/rheinlandpfalz/swr-pflegebeduerftige-landen-in-rlp-oft-unnoetig-im-krankenhaus-100.html", "thumbnailUrl": "https://images.tagesschau.de/image/d505934b-30e8-49b3-b071-168192037fa5/AAABjw9ZCW0/AAABjwnlKNc/16x9-512.jpg", "date": "2024-04-24T10:00:00.000+02:00", "lat": 50.375456, "lon": 7.588576, "intensity": 0.8, "source": "Tagesschau"}, {"title": "Deutschland attraktiv f\u00fcr ausl\u00e4ndische Arbeitnehmer", "url": "https://www.tagesschau.de/wirtschaft/arbeitsmarkt/arbeitnehmer-ausland-migration-100.html", "thumbnailUrl": "https://images.tagesschau.de/image/957a4f19-07ee-4e14-8c5c-52a48e882ae8/AAABjw8Uq_c/AAABjwnlKNc/16x9-512.jpg", "date": "2024-04-24T09:54:19.526+02:00", "lat": 51.1657, "lon": 10.4515, "intensity": 0.6, "source": "Tagesschau"}, {"title": "Streik bei privaten Unternehmen: Hier sollen am Donnerstag in Hessen die Busse stillstehen", "url": "https://www.tagesschau.de/inland/regional/hessen/hr-busfahrer-streik-am-donnerstag-bei-privaten-unternehmen-in-hessen-100.html", "thumbnailUrl": "https://images.tagesschau.de/image/b21094a4-6fd6-4d08-a290-84daff1e84a3/AAABjw8P7Lc/AAABjwnlKNc/16x9-512.jpg", "date": "2024-04-24T09:42:40.682+02:00", "lat": 50.5833, "lon": 9.3167, "intensity": 0.8, "source": "Tagesschau"}, {"title": "Explosion in Ochtrup: Polizei nimmt 52-J\u00e4hrigen fest", "url": "https://www.tagesschau.de/inland/regional/nordrheinwestfalen/wdr-explosion-in-ochtrup-polizei-nimmt-52-jaehrigen-fest-102.html", "thumbnailUrl": "https://images.tagesschau.de/image/c9fa0a1d-bf09-4fb7-800d-53b30c44f3db/AAABjw94H8M/AAABjwnlKNc/16x9-512.jpg", "date": "2024-04-24T09:41:00.000+02:00", "lat": 52.2012, "lon": 7.1787, "intensity": 0.8, "source": "Tagesschau"}, {"title": "Schulbarometer: Fast jeder zweite Lehrer sieht Gewalt an Schulen", "url": "https://www.tagesschau.de/inland/regional/badenwuerttemberg/swr-schulbarometer-fast-jeder-zweite-lehrer-sieht-gewalt-an-schulen-100.html", "thumbnailUrl": "https://images.tagesschau.de/image/b26b12a9-b97f-4f7b-b627-545ff787bee0/AAABjw8MSfg/AAABjwnlKNc/16x9-512.jpg", "date": "2024-04-24T09:38:53.000+02:00", "lat": 48.6617, "lon": 9.1425, "intensity": 0.8, "source": "Tagesschau"}, {"title": "Harzer Wandernadel mit neuen Stempelstellen", "url": "https://www.tagesschau.de/inland/regional/sachsenanhalt/mdr-harzer-wandernadel-mit-neuen-stempelstellen-100.html", "thumbnailUrl": "https://images.tagesschau.de/image/cf7b5db9-dc7b-44d5-b212-1a02862626a7/AAABjw8DMGY/AAABjwnlKNc/16x9-512.jpg", "date": "2024-04-24T09:28:11.000+02:00", "lat": 51.8487, "lon": 10.7832, "intensity": 0.3, "source": "Tagesschau"}, {"title": "\"Die Frage meiner Schuld belastet mich\": T\u00f6dlicher Bob-Unfall in Oberhof wird verhandelt", "url": "https://www.tagesschau.de/inland/regional/thueringen/mdr-prozessauftakt-helferin-bedauert-toedlichen-bob-unfall-in-oberhof-100.html", "thumbnailUrl": "https://images.tagesschau.de/image/12ef6dd6-03c6-4c10-9270-642be070b9a0/AAABjw8tGgA/AAABjwnlKNc/16x9-512.jpg", "date": "2024-04-24T09:00:00.000+02:00", "lat": 50.7063, "lon": 10.7009, "intensity": 0.7, "source": "Tagesschau"}, {"title": "Friedensangebot im K\u00f6lner Grillrauch-Streit", "url": "https://www.tagesschau.de/inland/regional/nordrheinwestfalen/wdr-friedensangebot-im-koelner-grillrauch-streit-102.html", "thumbnailUrl": "https://images.tagesschau.de/image/b7c3af8c-dfd6-4516-ba9c-0007a108339c/AAABjxArjy0/AAABjwnlKNc/16x9-512.jpg", "date": "2024-04-24T08:52:00.000+02:00", "lat": 50.9413, "lon": 6.9538, "intensity": 0.7, "source": "Tagesschau"}, {"title": "Anne Vonnemann - eine K\u00fcnstlerin und Erfinderin auf der Suche", "url": "https://www.tagesschau.de/inland/regional/schleswigholstein/ndr-anne-vonnemann-eine-kuenstlerin-und-erfinderin-auf-der-suche-100.html", "thumbnailUrl": "https://images.tagesschau.de/image/ce3144f2-3c66-4a4b-99e7-0e320d0d9729/AAABjxBmNts/AAABjwnlKNc/16x9-512.jpg", "date": "2024-04-24T08:51:00.000+02:00", "lat": 54.3167, "lon": 9.8167, "intensity": 0.5, "source": "Tagesschau"}, {"title": "Region Hannover: Ruf-Bus \"Sprinti\" bleibt", "url": "https://www.tagesschau.de/inland/regional/niedersachsen/ndr-region-hannover-ruf-bus-sprinti-bleibt-100.html", "thumbnailUrl": "https://images.tagesschau.de/image/7b0eb2e9-7c29-43d3-8a49-2f1ffa9ce68e/AAABjxB6Wpg/AAABjwnlKNc/16x9-512.jpg", "date": "2024-04-24T08:48:00.000+02:00", "lat": 52.3759, "lon": 9.7376, "intensity": 0.6, "source": "Tagesschau"}, {"title": "Volleyball-Finale: Meister-Matchball f\u00fcr SSC Schwerin in Stuttgart", "url": "https://www.tagesschau.de/inland/regional/mecklenburgvorpommern/ndr-volleyball-finale-meister-matchball-fuer-ssc-schwerin-in-stuttgart-102.html", "thumbnailUrl": "https://images.tagesschau.de/image/73c03c1e-8425-455e-8cde-bea91c0202a3/AAABjw9j-0M/AAABjwnlKNc/16x9-512.jpg", "date": "2024-04-24T08:34:00.000+02:00", "lat": 53.63878, "lon": 9.73322, "intensity": 0.8, "source": "Tagesschau"}, {"title": "Champions League: THW Kiel in Montpellier vor \"brutaler Herausforderung\"", "url": "https://www.tagesschau.de/inland/regional/schleswigholstein/ndr-champions-league-thw-kiel-in-montpellier-vor-brutaler-herausforderung-102.html", "thumbnailUrl": "https://images.tagesschau.de/image/4e95f95e-5194-4dfb-8b35-1ff9f83aace6/AAABjwrZX9I/AAABjwnlKNc/16x9-512.jpg", "date": "2024-04-24T08:31:00.000+02:00", "lat": 43.6114, "lon": 3.8793, "intensity": 0.8, "source": "Tagesschau"}, {"title": "Destabilisierung nach au\u00dfen, Machterhalt nach innen", "url": "https://www.tagesschau.de/ausland/asien/china-spionage-100.html", "thumbnailUrl": "https://images.tagesschau.de/image/57a7b481-bd8d-43f5-8328-e1ba48677cb4/AAABjw63QcU/AAABjwnlKNc/16x9-512.jpg", "date": "2024-04-24T08:26:36.304+02:00", "lat": 39.9042, "lon": 116.4074, "intensity": 0.8, "source": "Tagesschau"}, {"title": "Kreistag Kleve will keinen Nationalpark", "url": "https://www.tagesschau.de/inland/regional/nordrheinwestfalen/wdr-entscheidung-ueber-nationalpark-bewerbung-fuer-klever-reichswald-102.html", "thumbnailUrl": "https://images.tagesschau.de/image/f5c83a95-db03-4bb1-9f63-503ee8db1608/AAABjw7s-Fo/AAABjwnlKNc/16x9-512.jpg", "date": "2024-04-24T08:21:00.000+02:00", "lat": 51.8, "lon": 6.2, "intensity": 0.5, "source": "Tagesschau"}, {"title": "Uni Mannheim: Mit Machete bewaffneter geb\u00fcrtiger Saarbr\u00fccker erschossen", "url": "https://www.tagesschau.de/inland/regional/saarland/sr-uni-mannheim-mit-machete-bewaffneter-gebuertiger-saarbruecker-erschossen-100.html", "thumbnailUrl": "https://images.tagesschau.de/image/d46f02d3-7938-4c03-a9d9-4ae23b9db6f2/AAABjw7ndM4/AAABjwnlKNc/16x9-512.jpg", "date": "2024-04-24T08:19:00.000+02:00", "lat": 49.48833, "lon": 8.45997, "intensity": 0.8, "source": "Tagesschau"}, {"title": "An diesen Orten ist Bremen besonders laut", "url": "https://www.tagesschau.de/inland/regional/bremen/rb-an-diesen-orten-ist-bremen-besonders-laut-100.html", "thumbnailUrl": "https://images.tagesschau.de/image/ee6fcbd0-cc52-4d32-8e6a-97904e4d8bfc/AAABjw7IXOM/AAABjwnlKNc/16x9-512.jpg", "date": "2024-04-24T08:11:00.000+02:00", "lat": 53.0793, "lon": 8.8017, "intensity": 0.7, "source": "Tagesschau"}, {"title": "Abziehende K\u00e4lte: Wetterdienst warnt vor Gl\u00e4tte am Mittwoch - doch am Wochenende 20 Grad m\u00f6glich", "url": "https://www.tagesschau.de/inland/regional/brandenburg/rbb-abziehende-kaelte-wetterdienst-warnt-vor-glaette-am-mittwoch-doch-am-wochenende-20-grad-moeglich-100.html", "thumbnailUrl": "https://images.tagesschau.de/image/22918290-1c9a-4674-afb9-91fd7c6feac6/AAABjw60iwg/AAABjwnlKNc/16x9-512.jpg", "date": "2024-04-24T07:59:24.000+02:00", "lat": 52.52, "lon": 13.405, "intensity": 0.3, "source": "Tagesschau"}, {"title": "E-Autohersteller: Umsatz und Gewinn von Tesla gehen deutlich zur\u00fcck", "url": "https://www.tagesschau.de/inland/regional/brandenburg/rbb-e-autohersteller-umsatz-und-gewinn-von-tesla-gehen-deutlich-zurueck-100.html", "thumbnailUrl": "https://images.tagesschau.de/image/aa7cae28-afe4-4918-a6bd-90c179cca917/AAABjxB-BwU/AAABjwnlKNc/16x9-512.jpg", "date": "2024-04-24T07:55:45.000+02:00", "lat": 52.3028, "lon": 13.6637, "intensity": 0.8, "source": "Tagesschau"}, {"title": "Eintracht Frankfurt in der Crunchtime: Die Erfahrenen \u00fcbernehmen", "url": "https://www.tagesschau.de/inland/regional/hessen/hr-eintracht-frankfurt-in-der-crunchtime-die-erfahrenen-uebernehmen-102.html", "thumbnailUrl": "https://images.tagesschau.de/image/0daff987-194b-4697-bef4-702ed60e4347/AAABjw79hEI/AAABjwnlKNc/16x9-512.jpg", "date": "2024-04-24T07:37:09.067+02:00", "lat": 48.2188, "lon": 11.5761, "intensity": 0.7, "source": "Tagesschau"}, {"title": "Krieg in der Ukraine - Probe f\u00fcr Polens Bauern", "url": "https://www.tagesschau.de/multimedia/podcast/11km-polen-protest-importe-ukraine-100.html", "thumbnailUrl": "https://images.tagesschau.de/image/dee8f204-d6ae-49ee-b3b8-19e8083ba9cc/AAABjw6LhFg/AAABjwnlKNc/16x9-512.jpg", "date": "2024-04-24T07:19:35.800+02:00", "lat": 49.8209, "lon": 23.8813, "intensity": 0.8, "source": "Tagesschau"}, {"title": "Interview | Karl Bartos zu \"Das Cabinet des Dr. Caligari\": \"Ich habe nat\u00fcrlich ein Tabu gebrochen\"", "url": "https://www.tagesschau.de/inland/regional/berlin/rbb-interview--karl-bartos-zu-das-cabinet-des-dr-caligari-ich-habe-natuerlich-ein-tabu-gebrochen-100.html", "thumbnailUrl": "https://images.tagesschau.de/image/0073cf52-5e10-469b-950e-4c1692ed9789/AAABjw6IWvA/AAABjwnlKNc/16x9-512.jpg", "date": "2024-04-24T07:12:27.000+02:00", "lat": 52.520008, "lon": 13.404954, "intensity": 0.8, "source": "Tagesschau"}, {"title": "Immobilienpreise in SH weiterhin auf hohem Niveau", "url": "https://www.tagesschau.de/inland/regional/schleswigholstein/ndr-immobilienpreise-in-sh-weiterhin-auf-hohem-niveau-100.html", "thumbnailUrl": "https://images.tagesschau.de/image/85ea32e6-c69c-47fa-bb5b-e05d7f97bb23/AAABjw9rhZs/AAABjwnlKNc/16x9-512.jpg", "date": "2024-04-24T07:11:00.000+02:00", "lat": 54.4584, "lon": 9.6961, "intensity": 0.8, "source": "Tagesschau"}, {"title": "Camphauser Stra\u00dfe wegen Saarbr\u00fccken-Spiel heute Nachmittag voll gesperrt", "url": "https://www.tagesschau.de/inland/regional/saarland/sr-camphauser-strasse-wegen-saarbruecken-spiel-heute-nachmittag-voll-gesperrt-100.html", "thumbnailUrl": "https://images.tagesschau.de/image/6e597c58-abf6-4582-a2ef-2ece4bfb3d00/AAABjwlNvTU/AAABjwnlKNc/16x9-512.jpg", "date": "2024-04-24T06:51:00.000+02:00", "lat": 49.2346, "lon": 6.9806, "intensity": 0.7, "source": "Tagesschau"}, {"title": "Expresskreuz Bremen/Niedersachsen: Ab 2025 fahren neue Z\u00fcge", "url": "https://www.tagesschau.de/inland/regional/niedersachsen/ndr-ab-2025-neue-zuege-fuer-expresskreuz-bremenniedersachsen-100.html", "thumbnailUrl": "https://images.tagesschau.de/image/ee022783-3ef0-44a0-ab49-2c6b5e857768/AAABjw55px8/AAABjwnlKNc/16x9-512.jpg", "date": "2024-04-24T06:37:00.000+02:00", "lat": 52.3759, "lon": 8.8017, "intensity": 0.7, "source": "Tagesschau"}, {"title": "Guten Morgen, NRW!", "url": "https://www.tagesschau.de/inland/regional/nordrheinwestfalen/wdr-guten-morgen-nrw-458.html", "thumbnailUrl": "https://images.tagesschau.de/image/6553e85d-4bb5-4ec0-b009-13adc8310f7c/AAABjw6L6R4/AAABjwnlKNc/16x9-512.jpg", "date": "2024-04-24T06:33:00.000+02:00", "lat": 51.9607, "lon": 7.6261, "intensity": 0.8, "source": "Tagesschau"}, {"title": "Pl\u00e4ne f\u00fcr neue K\u00f6hlbrandbr\u00fccke nehmen n\u00e4chste H\u00fcrde", "url": "https://www.tagesschau.de/inland/regional/hamburg/ndr-plaene-fuer-neu-koehlbrandbruecke-nehmen-naechste-huerde-100.html", "thumbnailUrl": "https://images.tagesschau.de/image/c2f4b273-3b13-435d-aa07-e1791747085a/AAABjw5gG7o/AAABjwnlKNc/16x9-512.jpg", "date": "2024-04-24T06:23:00.000+02:00", "lat": 53.546449, "lon": 9.989208, "intensity": 0.8, "source": "Tagesschau"}, {"title": "Kreisfeuerwehr Northeim bekommt vier neue Einsatzfahrzeuge", "url": "https://www.tagesschau.de/inland/regional/niedersachsen/ndr-kreisfeuerwehr-northeim-bekommt-vier-neue-einsatzfahrzeuge-100.html", "thumbnailUrl": "https://images.tagesschau.de/image/c8d6dec5-1223-4c4c-b70e-53d935a272f5/AAABjxAxSpw/AAABjwnlKNc/16x9-512.jpg", "date": "2024-04-24T06:15:00.000+02:00", "lat": 51.728, "lon": 9.9784, "intensity": 0.6, "source": "Tagesschau"}, {"title": "Frostige N\u00e4chte im April: f\u00fcr Heilbronner Obdachlose ein Problem", "url": "https://www.tagesschau.de/inland/regional/badenwuerttemberg/swr-frostige-naechte-im-april-fuer-heilbronner-obdachlose-ein-problem-100.html", "thumbnailUrl": "https://images.tagesschau.de/image/0a55805a-ccb7-4afc-8a7c-297c5b510809/AAABjw9IlN0/AAABjwnlKNc/16x9-512.jpg", "date": "2024-04-24T06:13:35.000+02:00", "lat": 49.14, "lon": 9.221, "intensity": 0.6, "source": "Tagesschau"}, {"title": "Wie ein Dachdecker von der Mosel die Vier-Tage-Woche umsetzt", "url": "https://www.tagesschau.de/inland/regional/rheinlandpfalz/swr-wie-ein-dachdecker-von-der-mosel-die-vier-tage-woche-umsetzt-102.html", "thumbnailUrl": "https://images.tagesschau.de/image/4104b2c1-0d6b-4fb4-ae17-d732d8c07a2d/AAABjw8rSEo/AAABjwnlKNc/16x9-512.jpg", "date": "2024-04-24T06:08:57.000+02:00", "lat": 49.9618, "lon": 7.1607, "intensity": 0.4, "source": "Tagesschau"}, {"title": "Interview | Historikerin Daniela M\u00fcnkel \u00fcber Spion-Doku: \"Dieser Aufstieg Guillaumes war ein Traum, der sich zum Albtraum entwickeln sollte\"", "url": "https://www.tagesschau.de/inland/regional/brandenburg/rbb-interview--historikerin-daniela-muenkel-ueber-spion-doku-dieser-aufstieg-guillaumes-war-ein-traum-der-sich-zum-albtraum-entwickeln-sollte-100.html", "thumbnailUrl": "https://images.tagesschau.de/image/353d997c-fb63-4572-b18a-160c732c517c/AAABjw5NyxU/AAABjwnlKNc/16x9-512.jpg", "date": "2024-04-24T06:08:51.000+02:00", "lat": 52.52, "lon": 13.405, "intensity": 0.8, "source": "Tagesschau"}, {"title": "Einsturzgef\u00e4hrdetes Wohnhaus in Sch\u00f6neberg bekommt erste Stahlst\u00fctzen", "url": "https://www.tagesschau.de/inland/regional/berlin/rbb-einsturzgefaehrdetes-wohnhaus-in-schoeneberg-bekommt-erste-stahlstuetzen-100.html", "thumbnailUrl": "https://images.tagesschau.de/image/0eecf6b3-5aac-4c4b-8d4f-ee5c9c08b589/AAABjw5N2NU/AAABjwnlKNc/16x9-512.jpg", "date": "2024-04-24T06:08:31.000+02:00", "lat": 52.489873, "lon": 13.341032, "intensity": 0.7, "source": "Tagesschau"}, {"title": "Selbstfahrende Busse bald in Friedrichshafen unterwegs", "url": "https://www.tagesschau.de/inland/regional/badenwuerttemberg/swr-selbstfahrende-busse-bald-in-friedrichshafen-unterwegs-100.html", "thumbnailUrl": "https://images.tagesschau.de/image/3d444efc-f60f-401b-83ce-484be3e1a248/AAABjw9rWkg/AAABjwnlKNc/16x9-512.jpg", "date": "2024-04-24T06:01:47.000+02:00", "lat": 47.6541, "lon": 9.4806, "intensity": 0.7, "source": "Tagesschau"}, {"title": "Eigene Tochter entf\u00fchrt - Eltern in D\u00fcsseldorf vor Gericht", "url": "https://www.tagesschau.de/inland/regional/nordrheinwestfalen/wdr-eigene-tochter-entfuehrt-eltern-in-duesseldorf-vor-gericht-100.html", "thumbnailUrl": "https://images.tagesschau.de/image/5731ea4c-99a8-4dfa-8106-7a9312150ea3/AAABjw5f-S4/AAABjwnlKNc/16x9-512.jpg", "date": "2024-04-24T06:00:00.000+02:00", "lat": 51.2277, "lon": 6.7735, "intensity": 0.7, "source": "Tagesschau"}, {"title": "Was die Fr\u00fchjahrsprojektion f\u00fcr den Haushalt bedeutet", "url": "https://www.tagesschau.de/inland/innenpolitik/fruehjahrsprojektion-bundesregierung-100.html", "thumbnailUrl": "https://images.tagesschau.de/image/8b0fdafb-35cc-4ab8-96a1-9e127fbadd0d/AAABjmWnxRA/AAABjwnlKNc/16x9-512.jpg", "date": "2024-04-24T05:32:11.161+02:00", "lat": 53.5511, "lon": 9.9869, "intensity": 0.3, "source": "Tagesschau"}, {"title": "SPD wirft CDU-Chef Peters Rechtsruck vor", "url": "https://www.tagesschau.de/inland/regional/mecklenburgvorpommern/ndr-spd-wirft-cdu-chef-peters-rechtsruck-vor-100.html", "thumbnailUrl": "https://images.tagesschau.de/image/4b6f09df-7b76-46d6-903b-358974fa1c44/AAABjw9iJKw/AAABjwnlKNc/16x9-512.jpg", "date": "2024-04-24T05:14:00.000+02:00", "lat": 54.089914, "lon": 12.142733, "intensity": 0.7, "source": "Tagesschau"}, {"title": "Deutsches Schulbarometer: Viele Lehrkr\u00e4fte emotional ersch\u00f6pft", "url": "https://www.tagesschau.de/inland/regional/nordrheinwestfalen/wdr-deutsches-schulbarometer-viele-lehrkraefte-emotional-erschoepft-100.html", "thumbnailUrl": "https://images.tagesschau.de/image/96a492c0-a654-4c6a-958b-345ccc79c9cc/AAABjw_l-hA/AAABjwnlKNc/16x9-512.jpg", "date": "2024-04-24T05:00:00.000+02:00", "lat": 51.9607, "lon": 7.5954, "intensity": 0.8, "source": "Tagesschau"}, {"title": "Heiraten in SH: Kaum noch Termine im Sommer 2024", "url": "https://www.tagesschau.de/inland/regional/schleswigholstein/ndr-heiraten-in-sh-100.html", "thumbnailUrl": "https://images.tagesschau.de/image/ee7a618b-0a1e-426d-b81c-8b74a8f700b6/AAABjw4LzEE/AAABjwnlKNc/16x9-512.jpg", "date": "2024-04-24T05:00:00.000+02:00", "lat": 54.3326, "lon": 9.6962, "intensity": 0.6, "source": "Tagesschau"}, {"title": "Wall-Street-Anleger kehren zur\u00fcck", "url": "https://www.tagesschau.de/wirtschaft/finanzen/marktberichte/marktbericht-dax-dow-boerse-100.html", "thumbnailUrl": "https://images.tagesschau.de/image/944b7fbd-ff5c-474f-86e0-061ac1ad50b3/AAABi_E78a4/AAABjwnlKNc/16x9-512.jpg", "date": "2024-04-24T04:51:12.287+02:00", "lat": 40.7128, "lon": -74.006, "intensity": 0.7, "source": "Tagesschau"}, {"title": "Fluten sp\u00fclen radioaktive Stoffe aus stillgelegten Minen", "url": "https://www.tagesschau.de/ausland/europa/russland-ural-ueberschwemmungen-verseuchung-100.html", "thumbnailUrl": "https://images.tagesschau.de/image/bdbce2b0-551c-4263-b5ac-b2d6858c41e9/AAABjwv2qTE/AAABjwnlKNc/16x9-512.jpg", "date": "2024-04-24T04:51:10.758+02:00", "lat": 57.153871, "lon": 75.667268, "intensity": 0.9, "source": "Tagesschau"}, {"title": "Bis Donnerstag bleibt das Wetter winterlich in Rheinland-Pfalz", "url": "https://www.tagesschau.de/inland/regional/rheinlandpfalz/swr-weiterhin-teils-winterliches-wetter-in-rheinland-pfalz-100.html", "thumbnailUrl": "https://images.tagesschau.de/image/539686be-9766-4f0c-a2cb-1dce97d3dff1/AAABjw_gkTQ/AAABjwnlKNc/16x9-512.jpg", "date": "2024-04-24T03:20:00.000+02:00", "lat": 49.7923, "lon": 7.3189, "intensity": 0.6, "source": "Tagesschau"}, {"title": "Schwierige Gespr\u00e4che in schwierigen Zeiten", "url": "https://www.tagesschau.de/ausland/europa/steinmeier-erdogan-treffen-tuerkei-100.html", "thumbnailUrl": "https://images.tagesschau.de/image/14e7bad9-7e2f-4ed1-b815-de1c8dd7e1bb/AAABjw2qgbM/AAABjwnlKNc/16x9-512.jpg", "date": "2024-04-24T03:19:21.111+02:00", "lat": 39.9334, "lon": 32.8597, "intensity": 0.8, "source": "Tagesschau"},