[{"title": "++ Kiew und USA diskutieren Milit\u00e4rhilfe und Front ++", "url": "https://www.tagesschau.de/newsticker/liveblog-ukraine-dienstag-350.html", "thumbnailUrl": "https://images.tagesschau.de/image/7262eed0-99bd-4d9d-898e-fd814a7e56e7/AAABjRhaPSA/AAABjwnlKNc/16x9-512.jpg", "date": "2024-05-14T02:58:40.198+02:00", "lat": 50.4501, "lon": 30.5234, "intensity": 0.8, "source": "Tagesschau"}, {"title": "Wetter in RLP: Gewitter am Dienstag m\u00f6glich", "url": "https://www.tagesschau.de/inland/regional/rheinlandpfalz/swr-gewitter-und-unwetterartiger-starkregen-ab-montagnachmittag-moeglich-100.html", "thumbnailUrl": "https://images.tagesschau.de/image/34852c45-934f-48c4-adda-9a319ab3af46/AAABj3JVB5w/AAABjwnlKNc/16x9-512.jpg", "date": "2024-05-14T00:33:00.000+02:00", "lat": 50.3735, "lon": 7.6129, "intensity": 0.7, "source": "Tagesschau"}, {"title": "Krank wegen Corona-Impfung: Richter am Landgericht Magdeburg skeptisch", "url": "https://www.tagesschau.de/inland/regional/sachsenanhalt/mdr-krank-wegen-corona-impfung-richter-am-landgericht-magdeburg-skeptisch-100.html", "thumbnailUrl": "https://images.tagesschau.de/image/5eb47b1e-a78d-46a2-8a03-280d2bbf8ee6/AAABj3P7-j8/AAABjwnlKNc/16x9-512.jpg", "date": "2024-05-13T23:23:33.000+02:00", "lat": 52.1277, "lon": 11.626, "intensity": 0.7, "source": "Tagesschau"}, {"title": "Nach Bombenfund: Autobahndreieck K\u00f6ln-Heumar wieder frei", "url": "https://www.tagesschau.de/inland/regional/nordrheinwestfalen/wdr-nach-bombenfund-autobahndreieck-koeln-heumar-gesperrt-100.html", "thumbnailUrl": "https://images.tagesschau.de/image/e889ef52-7c1f-4d6b-b291-5b63afdb684c/AAABj3PTqe4/AAABjwnlKNc/16x9-512.jpg", "date": "2024-05-13T23:15:00.000+02:00", "lat": 50.938775, "lon": 7.123788, "intensity": 0.8, "source": "Tagesschau"}, {"title": "Eishockey: Deutschland kassiert gegen Schweden deutliche WM-Niederlage", "url": "https://www.tagesschau.de/inland/regional/berlin/rbb-eishockey-deutschland-kassiert-gegen-schweden-deutliche-wm-niederlage-102.html", "thumbnailUrl": "https://images.tagesschau.de/image/0422d985-ad25-45e9-a19f-d1c97b7294a8/AAABj3PONPY/AAABjwnlKNc/16x9-512.jpg", "date": "2024-05-13T23:13:41.000+02:00", "lat": 52.520008, "lon": 13.404954, "intensity": 0.8, "source": "Tagesschau"}, {"title": "++ Internationaler UN-Mitarbeiter in Gaza get\u00f6tet ++", "url": "https://www.tagesschau.de/newsticker/liveblog-nahost-montag-138.html", "thumbnailUrl": "https://images.tagesschau.de/image/24245a80-14a9-494c-8aa9-0f320f5de870/AAABjVhRZBo/AAABjwnlKNc/16x9-512.jpg", "date": "2024-05-13T23:02:49.431+02:00", "lat": 31.5103, "lon": 34.4532, "intensity": 0.8, "source": "Tagesschau"}, {"title": "Riedbahn-Sanierung zwischen Frankfurt und Mannheim: Bahn hat gen\u00fcgend Busfahrer gefunden", "url": "https://www.tagesschau.de/inland/regional/hessen/hr-riedbahn-sanierung-zwischen-frankfurt-und-mannheim-bahn-hat-genuegend-busfahrer-gefunden-100.html", "thumbnailUrl": "https://images.tagesschau.de/image/05e7e670-1c8d-4d75-a336-dca74500aa2f/AAABj3Ol4O4/AAABjwnlKNc/16x9-512.jpg", "date": "2024-05-13T22:28:21.386+02:00", "lat": 49.4026, "lon": 8.6821, "intensity": 0.6, "source": "Tagesschau"}, {"title": "Wetter in Hessen: Schauer, Gewitter und Starkregen m\u00f6glich", "url": "https://www.tagesschau.de/inland/regional/hessen/hr-wetter-in-hessen-schauer-gewitter-und-starkregen-moeglich-100.html", "thumbnailUrl": "https://images.tagesschau.de/image/b73f8e34-a62a-48f8-9509-d7f2ab0ff8ca/AAABj3Oa7hQ/AAABjwnlKNc/16x9-512.jpg", "date": "2024-05-13T22:17:58.234+02:00", "lat": 50.6521, "lon": 9.6939, "intensity": 0.6, "source": "Tagesschau"}, {"title": "Baugewerbe: In Niedersachsen streiken 1.000 Arbeiter", "url": "https://www.tagesschau.de/inland/regional/niedersachsen/ndr-auftakt-zum-streik-der-baubeschaeftigten-in-osnabrueck-100.html", "thumbnailUrl": "https://images.tagesschau.de/image/402f7462-5422-4444-9540-d7d3773750bc/AAABj3MGnfc/AAABjwnlKNc/16x9-512.jpg", "date": "2024-05-13T21:41:00.000+02:00", "lat": 52.3738, "lon": 9.7356, "intensity": 0.7, "source": "Tagesschau"}, {"title": "Politisch motivierte Kriminalit\u00e4t in Niedersachsen auf hohem Niveau", "url": "https://www.tagesschau.de/inland/regional/niedersachsen/ndr-politisch-motivierte-kriminalitaet-gibt-es-mehr-gewalt-100.html", "thumbnailUrl": "https://images.tagesschau.de/image/e05cf5d6-c9a6-4400-9418-fcff4a476140/AAABj3FYWf4/AAABjwnlKNc/16x9-512.jpg", "date": "2024-05-13T21:38:00.000+02:00", "lat": 52.6367, "lon": 10.4515, "intensity": 0.8, "source": "Tagesschau"}, {"title": "Missbrauchs-Netzwerk: Uni L\u00fcneburg startet Aufkl\u00e4rung um Professor", "url": "https://www.tagesschau.de/inland/regional/niedersachsen/ndr-missbrauchs-netzwerk-uni-lueneburg-startet-aufklaerung-um-professor-100.html", "thumbnailUrl": "https://images.tagesschau.de/image/8e13ff37-e231-481e-9188-73d6b190a07f/AAABj3CFxLQ/AAABjwnlKNc/16x9-512.jpg", "date": "2024-05-13T21:34:00.000+02:00", "lat": 53.2459, "lon": 10.5319, "intensity": 0.8, "source": "Tagesschau"}, {"title": "Eintracht Frankfurt Frauen machen Champions-League-Quali perfekt", "url": "https://www.tagesschau.de/inland/regional/hessen/hr-eintracht-frankfurt-frauen-machen-champions-league-quali-perfekt-102.html", "thumbnailUrl": "https://images.tagesschau.de/image/23d69441-1271-4dd4-a6e0-49ca22600a63/AAABj3Nyqrg/AAABjwnlKNc/16x9-512.jpg", "date": "2024-05-13T21:28:30.624+02:00", "lat": 50.1109, "lon": 8.6821, "intensity": 0.8, "source": "Tagesschau"}, {"title": "Fu\u00dfball-Europameisterschaft: Rotes Kreuz stellt sich auf Einsatz von Tausenden Rettern ein", "url": "https://www.tagesschau.de/inland/regional/berlin/rbb-fussball-europameisterschaft-rotes-kreuz-stellt-sich-auf-einsatz-von-tausenden-rettern-ein-102.html", "thumbnailUrl": "https://images.tagesschau.de/image/b5b2a4a2-60c5-4cb0-91e4-751973d9391d/AAABj3NiNlo/AAABjwnlKNc/16x9-512.jpg", "date": "2024-05-13T21:12:01.000+02:00", "lat": 52.520008, "lon": 13.404954, "intensity": 0.8, "source": "Tagesschau"}, {"title": "Strandkai in der Hamburger Hafencity ab Freitag zug\u00e4nglich", "url": "https://www.tagesschau.de/inland/regional/hamburg/ndr-strandkai-in-der-hamburger-hafencity-ab-freitag-zugaenglich-100.html", "thumbnailUrl": "https://images.tagesschau.de/image/da8d6725-f83e-4a13-a6e9-e0458bd5fddb/AAABj3NiJ_o/AAABjwnlKNc/16x9-512.jpg", "date": "2024-05-13T21:08:00.000+02:00", "lat": 53.5411, "lon": 9.9977, "intensity": 0.4, "source": "Tagesschau"}, {"title": "Jost bef\u00fcrwortet AfD-Einstufung als Verdachtsfall", "url": "https://www.tagesschau.de/inland/regional/saarland/sr-innenminister-jost-befuerwortet-afd-einstufung-als-verdachtsfall-100.html", "thumbnailUrl": "https://images.tagesschau.de/image/f0b603d8-f177-4dca-b63f-67d3291dc106/AAABj3E3TLs/AAABjwnlKNc/16x9-512.jpg", "date": "2024-05-13T20:56:00.000+02:00", "lat": 49.3964, "lon": 6.9734, "intensity": 0.8, "source": "Tagesschau"}, {"title": "Kein Vertrauen mehr in Schoigus Kriegsf\u00fchrung", "url": "https://www.tagesschau.de/ausland/europa/schoigu-absetzung-100.html", "thumbnailUrl": "https://images.tagesschau.de/image/8850d530-7168-4d12-8efe-446209f4fa1a/AAABj3Jb3Hs/AAABjwnlKNc/16x9-512.jpg", "date": "2024-05-13T20:48:44.575+02:00", "lat": 55.7522, "lon": 37.6156, "intensity": 0.6, "source": "Tagesschau"}, {"title": "Gegen den Trend: Frauen \u00fcbernehmen l\u00e4ndliche Gro\u00dftierpraxis", "url": "https://www.tagesschau.de/inland/regional/niedersachsen/ndr-gegen-den-trend-frauen-uebernehmen-laendliche-grosstierpraxis-100.html", "thumbnailUrl": "https://images.tagesschau.de/image/b2046355-4fbe-4216-8d05-180c092e152b/AAABj3NKZto/AAABjwnlKNc/16x9-512.jpg", "date": "2024-05-13T20:48:00.000+02:00", "lat": 53.167, "lon": 8.0204, "intensity": 0.6, "source": "Tagesschau"}, {"title": "Buchsbaumz\u00fcnsler richtet in Th\u00fcringer G\u00e4rten und Parks gro\u00dfe Sch\u00e4den an", "url": "https://www.tagesschau.de/inland/regional/thueringen/mdr-buchsbaumzuensler-richtet-in-thueringer-gaerten-und-parks-grosse-schaeden-an-100.html", "thumbnailUrl": "https://images.tagesschau.de/image/944468d5-a286-4c11-a335-33010f3d4cf0/AAABj3QAAC4/AAABjwnlKNc/16x9-512.jpg", "date": "2024-05-13T20:46:24.000+02:00", "lat": 50.977354, "lon": 11.342637, "intensity": 0.6, "source": "Tagesschau"}, {"title": "Brand in Essener Autowerkstatt offenbar gel\u00f6scht", "url": "https://www.tagesschau.de/inland/regional/nordrheinwestfalen/wdr-autowerkstatt-in-essen-bergeborbeck-brennt-100.html", "thumbnailUrl": "https://images.tagesschau.de/image/23e8cb19-5e0d-4ccc-9142-2c2b6ee07a20/AAABj3NMJOk/AAABjwnlKNc/16x9-512.jpg", "date": "2024-05-13T20:43:00.000+02:00", "lat": 51.4993, "lon": 7.0353, "intensity": 0.8, "source": "Tagesschau"}, {"title": "Hessen: Beratungsstelle meldet Rekord bei Anfragen wegen Rechtsextremismus", "url": "https://www.tagesschau.de/inland/regional/hessen/hr-hessen-beratungsstelle-meldet-rekord-bei-anfragen-wegen-rechtsextremismus-100.html", "thumbnailUrl": "https://images.tagesschau.de/image/aa17ab04-379d-4f7a-bd20-d74778e7bcf4/AAABj3NDA7w/AAABjwnlKNc/16x9-512.jpg", "date": "2024-05-13T20:41:22.180+02:00", "lat": 50.5257, "lon": 9.6939, "intensity": 0.8, "source": "Tagesschau"}, {"title": "St. Pauli vor \"Charakterfrage\": H\u00fcrzeler will Hansa Rostock helfen ", "url": "https://www.tagesschau.de/inland/regional/hamburg/ndr-st-pauli-vor-charakterfrage-huerzeler-will-hansa-rostock-helfen-102.html", "thumbnailUrl": "https://images.tagesschau.de/image/e7353628-a624-4ebd-9413-65f4d96106d0/AAABj3NE5V8/AAABjwnlKNc/16x9-512.jpg", "date": "2024-05-13T20:41:00.000+02:00", "lat": 53.5526, "lon": 9.965, "intensity": 0.8, "source": "Tagesschau"}, {"title": "Union-Trainerin Ailien Poese: \"Wir haben den Profifu\u00dfball so sehr etabliert, dass er gelebt wird\"", "url": "https://www.tagesschau.de/inland/regional/berlin/rbb-union-trainerin-ailien-poese-wir-haben-den-profifussball-so-sehr-etabliert-dass-er-gelebt-wird-102.html", "thumbnailUrl": "https://images.tagesschau.de/image/4527482e-7184-45ae-9eac-1b1903993cdc/AAABj3M57Zk/AAABjwnlKNc/16x9-512.jpg", "date": "2024-05-13T20:28:49.000+02:00", "lat": 52.52, "lon": 13.4074, "intensity": 0.8, "source": "Tagesschau"}, {"title": "Wetterumschwung in Sicht: Wieder Starkregen und Gewitter m\u00f6glich", "url": "https://www.tagesschau.de/inland/regional/nordrheinwestfalen/wdr-wetterumschwung-in-sicht-wieder-starkregen-und-gewitter-moeglich-100.html", "thumbnailUrl": "https://images.tagesschau.de/image/a6c96801-ce55-4063-a54b-083d3dda4afa/AAABj3N0ddk/AAABjwnlKNc/16x9-512.jpg", "date": "2024-05-13T20:25:00.000+02:00", "lat": 51.4332, "lon": 7.6261, "intensity": 0.7, "source": "Tagesschau"}, {"title": "Hamburger Hafen: Containerschiffe k\u00f6nnen jetzt Landstrom bekommen", "url": "https://www.tagesschau.de/inland/regional/hamburg/ndr-startschuss-fuer-die-landstromversorgung-von-containerschiffen-100.html", "thumbnailUrl": "https://images.tagesschau.de/image/432590a7-c1e4-4382-bfcf-9c3db68f1afd/AAABj3HYe9A/AAABjwnlKNc/16x9-512.jpg", "date": "2024-05-13T20:12:00.000+02:00", "lat": 53.5511, "lon": 9.9936, "intensity": 0.8, "source": "Tagesschau"}, {"title": "T\u00f6dlicher Unfall auf B268 bei Pellingen", "url": "https://www.tagesschau.de/inland/regional/rheinlandpfalz/swr-toedlicher-unfall-auf-b268-bei-pellingen-102.html", "thumbnailUrl": "https://images.tagesschau.de/image/b575ca9d-248a-4b92-9742-563328be2981/AAABj3KakPQ/AAABjwnlKNc/16x9-512.jpg", "date": "2024-05-13T20:09:00.000+02:00", "lat": 49.7218, "lon": 6.6227, "intensity": 0.8, "source": "Tagesschau"}, {"title": "Schweres Gewitter: \u00dcberschwemmungen in Gemmingen", "url": "https://www.tagesschau.de/inland/regional/badenwuerttemberg/swr-warnung-vor-starkem-gewitter-ueberschwemmungen-in-gemmingen-100.html", "thumbnailUrl": "https://images.tagesschau.de/image/25e0b41f-3225-4ea6-9cd5-5a1c3dc69c02/AAABj3L2HRM/AAABjwnlKNc/16x9-512.jpg", "date": "2024-05-13T20:03:00.000+02:00", "lat": 49.0842, "lon": 8.9147, "intensity": 0.8, "source": "Tagesschau"}, {"title": "Notfall in L\u00fcbeck: Lebensretter schildert dramatische Szenen ", "url": "https://www.tagesschau.de/inland/regional/schleswigholstein/ndr-luebeck-bus-geraet-ausser-kontrolle-und-faehrt-auf-buergersteig-100.html", "thumbnailUrl": "https://images.tagesschau.de/image/8b7c6a27-4553-4e6e-9a4a-b4601fc27880/AAABj3Mj6Dw/AAABjwnlKNc/16x9-512.jpg", "date": "2024-05-13T20:01:00.000+02:00", "lat": 53.8655, "lon": 10.6866, "intensity": 0.8, "source": "Tagesschau"}, {"title": "Illegales Autorennen? Raser in Bremerhaven von Polizei gestoppt", "url": "https://www.tagesschau.de/inland/regional/niedersachsen/ndr-illegales-autorennen-raser-in-bremerhaven-von-polizei-gestoppt-100.html", "thumbnailUrl": "https://images.tagesschau.de/image/8cd67a82-cf4b-4ba3-beae-70f5fb670b3c/AAABj3MeaiY/AAABjwnlKNc/16x9-512.jpg", "date": "2024-05-13T19:58:00.000+02:00", "lat": 53.53958, "lon": 8.58063, "intensity": 0.8, "source": "Tagesschau"}, {"title": "Yeboah-Prozess: Anklage und Verteidigung sehen sich auf Zielgeraden", "url": "https://www.tagesschau.de/inland/regional/saarland/sr-yeboah-prozess-anklage-und-verteidigung-sehen-sich-auf-zielgeraden-100.html", "thumbnailUrl": "https://images.tagesschau.de/image/c3de9fe0-76ce-49df-b9ca-50b54d0fbcf8/AAABj3MY31Q/AAABjwnlKNc/16x9-512.jpg", "date": "2024-05-13T19:44:00.000+02:00", "lat": 49.2461, "lon": 6.9992, "intensity": 0.8, "source": "Tagesschau"}, {"title": "AfA Bitburg geschlossen: Rund 429 Gefl\u00fcchtete m\u00fcssen umziehen ", "url": "https://www.tagesschau.de/inland/regional/rheinlandpfalz/swr-afa-bitburg-geschlossen-rund-400-gefluechtete-muessen-umziehen-100.html", "thumbnailUrl": "https://images.tagesschau.de/image/e934e04b-1762-4e27-a096-e06b3312ac83/AAABj3GEa3I/AAABjwnlKNc/16x9-512.jpg", "date": "2024-05-13T19:43:00.000+02:00", "lat": 49.9459, "lon": 6.5469, "intensity": 0.8, "source": "Tagesschau"}, {"title": "Riedbahnsanierung Mannheim-Frankfurt: Bahn nennt weitere Details", "url": "https://www.tagesschau.de/inland/regional/badenwuerttemberg/swr-riedbahnsanierung-mannheim-frankfurt-bahn-nennt-weitere-details-100.html", "thumbnailUrl": "https://images.tagesschau.de/image/102f33cb-73a4-4083-9afa-cf65acf7c8f6/AAABj3MMGHQ/AAABjwnlKNc/16x9-512.jpg", "date": "2024-05-13T19:39:34.000+02:00", "lat": 49.4875, "lon": 8.455, "intensity": 0.7, "source": "Tagesschau"}, {"title": "Katharina Wagner bleibt Festspielleiterin", "url": "https://www.br.de/nachrichten/kultur/bayreuth-katharina-wagner-bleibt-festspielchefin,UCey9kc", "thumbnailUrl": "https://images.tagesschau.de/image/cc354da6-5ef7-41f8-81c3-d6796e87f32a/AAABj3MBfC8/AAABjwnlKNc/16x9-512.jpg", "date": "2024-05-13T19:32:37.056+02:00", "lat": 49.954387, "lon": 11.581981, "intensity": 0.6, "source": "Tagesschau"}, {"title": "Centre Pompidou nach \u201eMeToo\u201c-Anschlag wieder offen", "url": "https://www.tagesschau.de/inland/regional/saarland/sr-centre-pompidou-nach-metoo-anschlag-wieder-offen-100.html", "thumbnailUrl": "https://images.tagesschau.de/image/25db1a47-2aa7-4298-b892-19cea76e6640/AAABj3MVNM8/AAABjwnlKNc/16x9-512.jpg", "date": "2024-05-13T19:20:00.000+02:00", "lat": 49.2323, "lon": 7.4961, "intensity": 0.8, "source": "Tagesschau"}, {"title": "Asylbewerber sollen in Brandenburg k\u00fcnftig 50 Euro in bar bekommen", "url": "https://www.tagesschau.de/inland/regional/brandenburg/rbb-brandenburg-plant-offenbar-50-euro-in-bar-fuer-asylbewerber-100.html", "thumbnailUrl": "https://images.tagesschau.de/image/c4ef3c26-97cc-490f-abed-e588c5449995/AAABj3LrI5M/AAABjwnlKNc/16x9-512.jpg", "date": "2024-05-13T19:13:00.000+02:00", "lat": 52.501165, "lon": 13.238281, "intensity": 0.6, "source": "Tagesschau"}, {"title": "Sechs Waldbr\u00e4nde in Brandenburg ausgebrochen", "url": "https://www.tagesschau.de/inland/regional/brandenburg/rbb-sechs-waldbraende-in-brandenburg-ausgebrochen-100.html", "thumbnailUrl": "https://images.tagesschau.de/image/a257fa52-d0d2-4eb8-929e-f932cdee1bbc/AAABj3LrNzI/AAABjwnlKNc/16x9-512.jpg", "date": "2024-05-13T19:04:30.000+02:00", "lat": 52.640063, "lon": 12.431907, "intensity": 0.8, "source": "Tagesschau"}, {"title": "\u00dcberraschender Wolfsnachwuchs in der Alten Fasanerie", "url": "https://www.tagesschau.de/inland/regional/hessen/hr-ueberraschender-wolfsnachwuchs-in-der-alten-fasanerie-100.html", "thumbnailUrl": "https://images.tagesschau.de/image/90711cee-0a8d-4c0f-b3eb-ca4431264e7c/AAABj3LiGlk/AAABjwnlKNc/16x9-512.jpg", "date": "2024-05-13T18:54:24.256+02:00", "lat": 50.1333, "lon": 8.9047, "intensity": 0.7, "source": "Tagesschau"}, {"title": "Unbekannte graben Loch in Sch\u00e4ubles Grab", "url": "https://www.tagesschau.de/inland/regional/badenwuerttemberg/schaeubles-grab-geschaendet-100.html", "thumbnailUrl": "https://images.tagesschau.de/image/54dacad7-9ab5-45f3-a5ff-7d400b3cdf4f/AAABj3KeMqQ/AAABjwnlKNc/16x9-512.jpg", "date": "2024-05-13T18:44:00.000+02:00", "lat": 48.4775, "lon": 7.9481, "intensity": 0.8, "source": "Tagesschau"}, {"title": "Bauern unter Druck: Psychische Probleme nehmen zu", "url": "https://www.tagesschau.de/inland/regional/sachsenanhalt/mdr-bauern-unter-druck-psychische-probleme-nehmen-zu-100.html", "thumbnailUrl": "https://images.tagesschau.de/image/a7296773-03ea-4470-ae87-eeca032bf183/AAABj3P8Prc/AAABjwnlKNc/16x9-512.jpg", "date": "2024-05-13T18:37:58.000+02:00", "lat": 52.1614, "lon": 11.6276, "intensity": 0.8, "source": "Tagesschau"}, {"title": "Eintracht: +++ Neue Folge FUSSBALL2000 +++ Eintracht testet gegen Valencia +++ Kr\u00f6sche zieht die Z\u00fcgel an +++", "url": "https://www.tagesschau.de/inland/regional/hessen/hr--eintracht-wohl-mit-chaibi-einig--glasner-fast-nur-kolo-muani-der-tore-erzielt--bericht-eintracht-sagt-aouar-ab-100.html", "thumbnailUrl": "https://images.tagesschau.de/image/a1ab5138-5096-443c-b1e7-089fc765245b/AAABj3LN4NA/AAABjwnlKNc/16x9-512.jpg", "date": "2024-05-13T18:32:15.966+02:00", "lat": 50.110922, "lon": 8.682127, "intensity": 0.6, "source": "Tagesschau"}, {"title": "Panne bei Tor-Umbau am Feuerwehrhaus in Rinteln", "url": "https://www.tagesschau.de/inland/regional/niedersachsen/ndr-panne-bei-tor-umbau-am-feuerwehrhaus-in-rinteln-100.html", "thumbnailUrl": "https://images.tagesschau.de/image/a44aba2c-b434-44a8-8ec1-f84cb22cd26c/AAABj3LKNmw/AAABjwnlKNc/16x9-512.jpg", "date": "2024-05-13T18:27:00.000+02:00", "lat": 52.1906, "lon": 9.0765, "intensity": 0.4, "source": "Tagesschau"}, {"title": "Long Covid: Welche Hilfen gibt es f\u00fcr Betroffene in MV?", "url": "https://www.tagesschau.de/inland/regional/mecklenburgvorpommern/ndr-long-covid-welche-hilfen-gibt-es-fuer-betroffene-in-mv-100.html", "thumbnailUrl": "https://images.tagesschau.de/image/9c4a0892-8b31-4f04-899a-14be4310e66c/AAABj3LW94s/AAABjwnlKNc/16x9-512.jpg", "date": "2024-05-13T18:26:00.000+02:00", "lat": 53.61265, "lon": 12.568337, "intensity": 0.7, "source": "Tagesschau"}, {"title": "T\u00f6dlicher Unfall bei Langenselbold - Langer Stau auf A66", "url": "https://www.tagesschau.de/inland/regional/hessen/hr-toedlicher-unfall-bei-langenselbold-sperrung-der-a66-100.html", "thumbnailUrl": "https://images.tagesschau.de/image/adb5af36-eb55-4f27-b060-2d57a14ff408/AAABj3LGgAA/AAABjwnlKNc/16x9-512.jpg", "date": "2024-05-13T18:24:48.342+02:00", "lat": 50.1397, "lon": 9.0601, "intensity": 0.8, "source": "Tagesschau"}, {"title": "Celle: Bundeswehr bekommt Brief mit unbekannter Fl\u00fcssigkeit", "url": "https://www.tagesschau.de/inland/regional/niedersachsen/ndr-celle-bundeswehr-bekommt-brief-mit-unbekannter-fluessigkeit-100.html", "thumbnailUrl": "https://images.tagesschau.de/image/3749e67c-678a-4fff-b51a-4650ce093891/AAABj3OToak/AAABjwnlKNc/16x9-512.jpg", "date": "2024-05-13T18:22:00.000+02:00", "lat": 52.6226, "lon": 10.0807, "intensity": 0.7, "source": "Tagesschau"}, {"title": "Bildungschancen in SH: Kein Geld, kein Gymnasium", "url": "https://www.tagesschau.de/inland/regional/schleswigholstein/ndr-bildungschancen-in-sh-kein-geld-kein-gymnasium-100.html", "thumbnailUrl": "https://images.tagesschau.de/image/4d80a387-ba9a-4789-a211-071e440aab13/AAABj3Lj3dw/AAABjwnlKNc/16x9-512.jpg", "date": "2024-05-13T18:19:00.000+02:00", "lat": 54.4583, "lon": 9.5569, "intensity": 0.7, "source": "Tagesschau"}, {"title": "Hamburger Pflegekr\u00e4fte protestieren gegen Personalnot", "url": "https://www.tagesschau.de/inland/regional/hamburg/ndr-hamburger-pflegekraefte-protestieren-gegen-personalnot-100.html", "thumbnailUrl": "https://images.tagesschau.de/image/40e224f4-a497-4123-b82f-e3a269188e57/AAABj3Lydfg/AAABjwnlKNc/16x9-512.jpg", "date": "2024-05-13T18:16:00.000+02:00", "lat": 53.55, "lon": 10.0, "intensity": 0.7, "source": "Tagesschau"}, {"title": "Protest gegen Tesla: IHK Ostbrandenburg sieht Gefahren f\u00fcr die Wirtschaft", "url": "https://www.tagesschau.de/inland/regional/brandenburg/rbb-protest-gegen-tesla-ihk-ostbrandenburg-sieht-gefahren-fuer-die-wirtschaft-100.html", "thumbnailUrl": "https://images.tagesschau.de/image/9fc53237-cf52-4e6f-9764-e7038fe7c29f/AAABj3K_NLk/AAABjwnlKNc/16x9-512.jpg", "date": "2024-05-13T18:13:33.000+02:00", "lat": 52.4125, "lon": 13.6268, "intensity": 0.6, "source": "Tagesschau"}, {"title": "Abk\u00fchlung gef\u00e4llig? Diese 2 Bremer Freib\u00e4der \u00f6ffnen am Mittwoch", "url": "https://www.tagesschau.de/inland/regional/bremen/rb-bis-zu-26-grad-bremen-startet-morgen-in-die-freibad-saison-100.html", "thumbnailUrl": "https://images.tagesschau.de/image/e129f3cc-eec3-414e-8cae-b6c40fbd10fd/AAABj3Lh9tI/AAABjwnlKNc/16x9-512.jpg", "date": "2024-05-13T18:07:00.000+02:00", "lat": 53.0793, "lon": 8.8017, "intensity": 0.3, "source": "Tagesschau"}, {"title": "Studie: Brandenburg hat genug Wasser zur Wasserstoff-Produktion ", "url": "https://www.tagesschau.de/inland/regional/brandenburg/rbb-studie-brandenburg-hat-genug-wasser-zur-wasserstoff-produktion-102.html", "thumbnailUrl": "https://images.tagesschau.de/image/c4360a48-c4e5-455f-b212-13b0ebde837e/AAABj3K7hd8/AAABjwnlKNc/16x9-512.jpg", "date": "2024-05-13T18:01:22.000+02:00", "lat": 52.520008, "lon": 13.404954, "intensity": 0.6, "source": "Tagesschau"}, {"title": "Reaktionen auf AfD-Urteil: von \"Fehlentscheidung\" bis \"schallende Ohrfeige\"", "url": "https://www.tagesschau.de/inland/regional/brandenburg/rbb-reaktionen-auf-afd-urteil-fehlentscheidung-oder-schallende-ohrfeige-100.html", "thumbnailUrl": "https://images.tagesschau.de/image/344bf30d-81b0-4b9c-94e6-fe2a4bff53d9/AAABj3I2ES8/AAABjwnlKNc/16x9-512.jpg", "date": "2024-05-13T17:47:53.000+02:00", "lat": 52.520008, "lon": 13.404954, "intensity": 0.8, "source": "Tagesschau"}, {"title": "Ex-IS-Deutschland-Chef scheitert mit Antrag gegen Ausweisung", "url": "https://www.tagesschau.de/inland/regional/niedersachsen/ndr-ex-is-deutschland-chef-scheitert-mit-antrag-gegen-ausweisung-100.html", "thumbnailUrl": "https://images.tagesschau.de/image/1a409d4c-f0b0-4b8e-a7b5-4ee82a69a122/AAABj3KjxKg/AAABjwnlKNc/16x9-512.jpg", "date": "2024-05-13T17:44:00.000+02:00", "lat": 52.3759, "lon": 10.4515, "intensity": 0.7, "source": "Tagesschau"}, {"title": "Lingen: Ministerium pr\u00fcft Arbeiten in Brennelementefabrik", "url": "https://www.tagesschau.de/inland/regional/niedersachsen/ndr-lingen-aktivisten-fordern-atomaufsicht-zum-einschreiten-auf-100.html", "thumbnailUrl": "https://images.tagesschau.de/image/99fb2baa-3890-4739-a351-20b28f9f825d/AAABj3L0UHU/AAABjwnlKNc/16x9-512.jpg", "date": "2024-05-13T17:42:00.000+02:00", "lat": 52.5225, "lon": 7.3189, "intensity": 0.7, "source": "Tagesschau"}, {"title": "Anwohnerin geht gegen Erweiterung der Saarbr\u00fccker Fu\u00dfg\u00e4ngerzone vor", "url": "https://www.tagesschau.de/inland/regional/saarland/sr-anwohnerin-geht-gegen-erweiterung-der-saarbruecker-fussgaengerzone-vor-100.html", "thumbnailUrl": "https://images.tagesschau.de/image/148244dc-bf65-44c9-9142-74b1c833fbea/AAABj3J5kSI/AAABjwnlKNc/16x9-512.jpg", "date": "2024-05-13T17:36:00.000+02:00", "lat": 49.2329, "lon": 6.9715, "intensity": 0.6, "source": "Tagesschau"}, {"title": "Ludwigslust: \"Reitende Alexandrine\" bei Unfall zerst\u00f6rt", "url": "https://www.tagesschau.de/inland/regional/mecklenburgvorpommern/ndr-ludwigslust-auto-bringt-denkmal-reitende-alexandrine-zu-fall-100.html", "thumbnailUrl": "https://images.tagesschau.de/image/36bf8b9a-ab8c-477f-9ffd-51ac0789a096/AAABj3FAeKk/AAABjwnlKNc/16x9-512.jpg", "date": "2024-05-13T17:32:00.000+02:00", "lat": 53.3239, "lon": 11.4978, "intensity": 0.7, "source": "Tagesschau"}, {"title": "Neue Balkanroute: Zahl der illegalen Einreisen \u00fcber Polen steigt ", "url": "https://www.tagesschau.de/inland/regional/mecklenburgvorpommern/ndr-neue-balkanroute-zahl-der-illegalen-einreisen-ueber-polen-steigt-100.html", "thumbnailUrl": "https://images.tagesschau.de/image/d4f8eaea-660b-421e-9556-9d9ba61e3e14/AAABj3KPjV8/AAABjwnlKNc/16x9-512.jpg", "date": "2024-05-13T17:22:00.000+02:00", "lat": 53.6127, "lon": 13.6447, "intensity": 0.7, "source": "Tagesschau"}, {"title": "Studie: Warum Bildungschancen f\u00fcr Kinder noch immer ungerecht verteilt sind - und was helfen k\u00f6nnte", "url": "https://www.tagesschau.de/inland/regional/badenwuerttemberg/swr-studie-warum-bildungschancen-fuer-kinder-noch-immer-ungerecht-verteilt-sind-und-was-helfen-koennte-100.html", "thumbnailUrl": "https://images.tagesschau.de/image/cc8ac854-904b-48fa-95d7-12cb15d7cd53/AAABj3EELP0/AAABjwnlKNc/16x9-512.jpg", "date": "2024-05-13T17:21:00.000+02:00", "lat": 48.7934, "lon": 9.9937, "intensity": 0.65, "source": "Tagesschau"}, {"title": "Gerichtsurteil: Umwelthilfe muss Akteneinsicht in Berliner Radwegepl\u00e4ne bekommen", "url": "https://www.tagesschau.de/inland/regional/berlin/rbb-gerichtsurteil-umwelthilfe-muss-akteneinsicht-in-berliner-radwegeplaene-bekommen-100.html", "thumbnailUrl": "https://images.tagesschau.de/image/50cdeddd-6860-469b-93bc-096b2a0b6de0/AAABj3KasCQ/AAABjwnlKNc/16x9-512.jpg", "date": "2024-05-13T17:19:00.000+02:00", "lat": 52.520008, "lon": 13.404954, "intensity": 0.7, "source": "Tagesschau"}, {"title": "Klimawandel: BUND beobachtet teils massiven Wasserverlust in Brandenburger Seen", "url": "https://www.tagesschau.de/inland/regional/brandenburg/rbb-klimawandel-bund-beobachtet-teils-massiven-wasserverlust-in-brandenburger-seen-100.html", "thumbnailUrl": "https://images.tagesschau.de/image/fd5ef6bd-37d0-450f-8dda-107cdda02392/AAABj3KIaS4/AAABjwnlKNc/16x9-512.jpg", "date": "2024-05-13T17:13:43.000+02:00", "lat": 52.3008, "lon": 13.1655, "intensity": 0.8, "source": "Tagesschau"}, {"title": "Klimawandel in Bingen: TH forscht mit Pflanzen", "url": "https://www.tagesschau.de/inland/regional/rheinlandpfalz/swr-klimawandel-in-bingen-th-forscht-mit-pflanzen-100.html", "thumbnailUrl": "https://images.tagesschau.de/image/5f410955-3442-444f-9c1e-e986a48a5795/AAABj3Kh4vY/AAABjwnlKNc/16x9-512.jpg", "date": "2024-05-13T17:13:17.000+02:00", "lat": 49.967772, "lon": 7.904316, "intensity": 0.6, "source": "Tagesschau"}, {"title": "SST stellt Spielplan f\u00fcr die neue Theatersaison vor", "url": "https://www.tagesschau.de/inland/regional/saarland/sr-sst-stellt-spielplan-fuer-die-neue-theatersaison-vor-100.html", "thumbnailUrl": "https://images.tagesschau.de/image/c47b4ab4-dced-4597-879b-41d32eca30c7/AAABj3KGYyc/AAABjwnlKNc/16x9-512.jpg", "date": "2024-05-13T17:12:00.000+02:00", "lat": 49.3964, "lon": 6.9497, "intensity": 0.7, "source": "Tagesschau"}, {"title": "AfD-Einstufung als Verdachtsfall ist rechtens - Reaktionen aus BW", "url": "https://www.tagesschau.de/inland/regional/badenwuerttemberg/swr-afd-einstufung-als-verdachtsfall-ist-rechtens-reaktionen-aus-bw-100.html", "thumbnailUrl": "https://images.tagesschau.de/image/5312cb7d-5d3d-47e6-9e33-d8b387e3761e/AAABj3HCeXo/AAABjwnlKNc/16x9-512.jpg", "date": "2024-05-13T17:00:00.000+02:00", "lat": 48.77584, "lon": 9.73322, "intensity": 0.8, "source": "Tagesschau"}, {"title": "Massenschl\u00e4gerei bei Kreisligaspiel in Essen - Verdacht auf Clan-Bezug", "url": "https://www.tagesschau.de/inland/regional/nordrheinwestfalen/wdr-polizei-rueckt-mit-grossaufgebot-zu-kreisligaspiel-in-essen-aus-102.html", "thumbnailUrl": "https://images.tagesschau.de/image/0b6deeb4-ae89-408b-a5cb-0df280bb2dc0/AAABj3J5oW4/AAABjwnlKNc/16x9-512.jpg", "date": "2024-05-13T16:54:00.000+02:00", "lat": 51.4556, "lon": 7.0111, "intensity": 0.8, "source": "Tagesschau"}, {"title": "T\u00f6dlicher Unfall zwischen Zerf und Pellingen", "url": "https://www.tagesschau.de/inland/regional/saarland/sr-toedlicher-unfall-zwischen-zerf-und-pellingen-100.html", "thumbnailUrl": "https://images.tagesschau.de/image/4b71ccc4-6822-42cf-9d05-7c772d3b0729/AAABj3J0E9Q/AAABjwnlKNc/16x9-512.jpg", "date": "2024-05-13T16:51:00.000+02:00", "lat": 49.7715, "lon": 6.6611, "intensity": 0.8, "source": "Tagesschau"}, {"title": "Ex-Manager von Steinhoff aus Westerstede muss sechs Jahre in Haft", "url": "https://www.tagesschau.de/inland/regional/niedersachsen/ndr-ex-manager-von-steinhoff-aus-westerstede-muss-sechs-jahre-in-haft-100.html", "thumbnailUrl": "https://images.tagesschau.de/image/c01b1e4a-b839-46bc-8309-fea76c415269/AAABj3JuzwU/AAABjwnlKNc/16x9-512.jpg", "date": "2024-05-13T16:48:00.000+02:00", "lat": 53.2509, "lon": 7.9308, "intensity": 0.7, "source": "Tagesschau"}, {"title": "Schussserie Stuttgart: Nach Fund von Handgranaten gibt es weitere Anklagen", "url": "https://www.tagesschau.de/inland/regional/badenwuerttemberg/swr-schussserie-stuttgart-nach-fund-von-handgranaten-gibt-es-weitere-anklagen-100.html", "thumbnailUrl": "https://images.tagesschau.de/image/dd1da438-af3e-417e-a11c-32b50e4a49fd/AAABj3KPnFQ/AAABjwnlKNc/16x9-512.jpg", "date": "2024-05-13T16:46:46.000+02:00", "lat": 48.7758, "lon": 9.1829, "intensity": 0.7, "source": "Tagesschau"}, {"title": "Kultur: +++ Architektenentwurf f\u00fcr neues Forschungszentrum Keltenwelt +++ Ulrich Wickert erh\u00e4lt Fuldaer Winfriedpreis +++", "url": "https://www.tagesschau.de/inland/regional/hessen/hr--schauspiel-frankfurt-bringt-putin-und-macbeth-zusammen--die-filmfestival-saison-2023-startet--lichter-filmfest-zum-thema-liebe-startet-am-dienstag-100.html", "thumbnailUrl": "https://images.tagesschau.de/image/c6822e44-39e5-4624-b217-b9558ea7043b/AAABj3JpL0M/AAABjwnlKNc/16x9-512.jpg", "date": "2024-05-13T16:43:54.202+02:00", "lat": 50.1109, "lon": 8.5683, "intensity": 0.4, "source": "Tagesschau"}, {"title": "Polizeigewalt: Freispruch f\u00fcr angeklagten Trierer Polizisten ", "url": "https://www.tagesschau.de/inland/regional/rheinlandpfalz/swr-polizeigewalt-warum-ein-beamter-wegen-koerperverletzung-angeklagt-ist-100.html", "thumbnailUrl": "https://images.tagesschau.de/image/179ce220-ef17-4aa6-ab58-30405e97c880/AAABj3Fb7wU/AAABjwnlKNc/16x9-512.jpg", "date": "2024-05-13T16:35:00.000+02:00", "lat": 49.75, "lon": 6.6417, "intensity": 0.7, "source": "Tagesschau"}, {"title": "Wie die Parteien die Zukunft der EU sehen", "url": "https://www.tagesschau.de/europawahl/parteien_und_programme/zukunft-eu-100.html", "thumbnailUrl": "https://images.tagesschau.de/image/fd78c06e-3c33-497c-97af-c03038180a6c/AAABj3JgGMA/AAABjwnlKNc/16x9-512.jpg", "date": "2024-05-13T16:34:11.824+02:00", "lat": 52.3759, "lon": 9.732, "intensity": 0.6, "source": "Tagesschau"}, {"title": "Abgeordneten-Di\u00e4ten steigen um sechs Prozent", "url": "https://www.tagesschau.de/inland/innenpolitik/bundestag-abgeordnete-diaeten-100.html", "thumbnailUrl": "https://images.tagesschau.de/image/834875d3-9a72-4b62-903e-966af9316f9f/AAABj3JBfkw/AAABjwnlKNc/16x9-512.jpg", "date": "2024-05-13T16:32:36.278+02:00", "lat": 52.5166, "lon": 13.3769, "intensity": 0.8, "source": "Tagesschau"}, {"title": "Polizei sucht T\u00e4ter nach Angriff auf selbsternannten \"Anzeigenhauptmeister\"", "url": "https://www.tagesschau.de/inland/regional/sachsen/mdr-polizei-sucht-taeter-nach-angriff-auf-selbsternannten-anzeigenhauptmeister-100.html", "thumbnailUrl": "https://images.tagesschau.de/image/bcccc73a-57a8-487a-87ab-14e60305f1da/AAABj3Jcb6Q/AAABjwnlKNc/16x9-512.jpg", "date": "2024-05-13T16:29:39.000+02:00", "lat": 51.15083, "lon": 14.99167, "intensity": 0.6, "source": "Tagesschau"}, {"title": "Innenminister Ebling: Urteil zur Beobachtung der AfD ist ein Wendepunkt", "url": "https://www.tagesschau.de/inland/regional/rheinlandpfalz/swr-innenminister-ebling-urteil-zur-beobachtung-der-afd-ist-richtungsweisend-100.html", "thumbnailUrl": "https://images.tagesschau.de/image/5cbacd4e-d819-4fcd-88b3-641eacc27e3a/AAABj3GEVrk/AAABjwnlKNc/16x9-512.jpg", "date": "2024-05-13T16:26:00.000+02:00", "lat": 50.0, "lon": 7.2663, "intensity": 0.7, "source": "Tagesschau"}, {"title": "M\u00f6gliches Abwahlverfahren: Wie geht es mit dem Potsdamer Oberb\u00fcrgermeister Schubert weiter? ", "url": "https://www.tagesschau.de/inland/regional/brandenburg/rbb-moegliches-abwahlverfahren-wie-geht-es-mit-dem-potsdamer-oberbuergermeister-schubert-weiter-100.html", "thumbnailUrl": "https://images.tagesschau.de/image/e9b8d175-9daa-4a70-a519-c06b7e877163/AAABj3Jjq10/AAABjwnlKNc/16x9-512.jpg", "date": "2024-05-13T16:23:00.000+02:00", "lat": 52.3906, "lon": 13.0645, "intensity": 0.7, "source": "Tagesschau"}, {"title": "Nach zw\u00f6lf Jahren Flucht: Polizei fasst brutalen Einbrecher", "url": "https://www.tagesschau.de/inland/regional/saarland/sr-nach-zwoelf-jahren-flucht-polizei-fasst-brutalen-einbrecher-100.html", "thumbnailUrl": "https://images.tagesschau.de/image/adfa775c-b04f-4f1a-8858-3feb9021466f/AAABj3J0FV0/AAABjwnlKNc/16x9-512.jpg", "date": "2024-05-13T16:23:00.000+02:00", "lat": 49.2354, "lon": 6.9754, "intensity": 0.8, "source": "Tagesschau"}, {"title": "Saar-Fraktionen kritisieren FDP-Rentenpl\u00e4ne", "url": "https://www.tagesschau.de/inland/regional/saarland/sr-saar-fraktionen-kritisieren-fdp-rentenplaene-100.html", "thumbnailUrl": "https://images.tagesschau.de/image/c02310a5-feb3-4ac9-b6c4-32a66161b6f5/AAABj3JlbWg/AAABjwnlKNc/16x9-512.jpg", "date": "2024-05-13T16:21:00.000+02:00", "lat": 49.2463, "lon": 6.9599, "intensity": 0.7, "source": "Tagesschau"}, {"title": "Hamburger Feuerwehr holt toten Schweinswal aus der Elbe", "url": "https://www.tagesschau.de/inland/regional/hamburg/ndr-hamburger-feuerwehr-holt-toten-schweinswal-aus-der-elbe-100.html", "thumbnailUrl": "https://images.tagesschau.de/image/eedd7fef-e2f9-4e8e-ae94-552ff644bdce/AAABj3JYta4/AAABjwnlKNc/16x9-512.jpg", "date": "2024-05-13T16:15:00.000+02:00", "lat": 53.5511, "lon": 9.9937, "intensity": 0.6, "source": "Tagesschau"}, {"title": "Urteil zu Verfassungsschutz-\u00dcberwachung: Hessen-AfD klagt \u00fcber \"Wettbewerbsverzerrung\", ihre Gegner sehen sich best\u00e4tigt", "url": "https://www.tagesschau.de/inland/regional/hessen/hr-urteil-zu-verfassungsschutz-ueberwachung-hessen-afd-klagt-ueber-wettbewerbsverzerrung-ihre-gegner-sehen-sich-bestaetigt-100.html", "thumbnailUrl": "https://images.tagesschau.de/image/20d0231f-7738-4225-be1c-00e4fc85bf23/AAABj3N_b40/AAABjwnlKNc/16x9-512.jpg", "date": "2024-05-13T16:14:16.542+02:00", "lat": 51.2704, "lon": 9.4295, "intensity": 0.8, "source": "Tagesschau"}, {"title": "Hebamme wegen Totgeburt erneut vor Gericht - Prozess vertagt", "url": "https://www.tagesschau.de/inland/regional/niedersachsen/ndr-revisionsverfahren-hebamme-wegen-totgeburt-erneut-vor-gericht-100.html", "thumbnailUrl": "https://images.tagesschau.de/image/38184836-c3ab-42fc-8d7e-3cc00c42e250/AAABj3Jakns/AAABjwnlKNc/16x9-512.jpg", "date": "2024-05-13T16:14:00.000+02:00", "lat": 52.9242, "lon": 9.2354, "intensity": 0.6, "source": "Tagesschau"}, {"title": "Unterlagen f\u00fcr Wasserstoff-Anlage in Lubmin liegen aus", "url": "https://www.tagesschau.de/inland/regional/mecklenburgvorpommern/ndr-unterlagen-fuer-wasserstoff-anlage-in-lubmin-liegen-aus-100.html", "thumbnailUrl": "https://images.tagesschau.de/image/d15305f2-c2eb-41fc-89cd-24f5ee33788b/AAABj3Jf9Cw/AAABjwnlKNc/16x9-512.jpg", "date": "2024-05-13T15:49:00.000+02:00", "lat": 54.1082, "lon": 13.8063, "intensity": 0.8, "source": "Tagesschau"}, {"title": "Autofahrer verursacht mehrere Unf\u00e4lle mit gestohlenem Wagen und flieht", "url": "https://www.tagesschau.de/inland/regional/brandenburg/rbb-25-jaehriger-verursacht-mehrere-unfaelle-mit-gestohlenem-auto-in-oder-spree-und-flieht-100.html", "thumbnailUrl": "https://images.tagesschau.de/image/949734d3-52fe-4d9f-8cd2-d06b2f91b0c7/AAABj3FJvn4/AAABjwnlKNc/16x9-512.jpg", "date": "2024-05-13T15:45:03.000+02:00", "lat": 52.4125, "lon": 13.1673, "intensity": 0.8, "source": "Tagesschau"}, {"title": "In und um Oeversee: Giftschlange offenbar wieder gesehen", "url": "https://www.tagesschau.de/inland/regional/schleswigholstein/ndr-in-und-um-oeversee-giftschlange-offenbar-wieder-gesehen-100.html", "thumbnailUrl": "https://images.tagesschau.de/image/df8c961f-4f74-464d-9c07-fc5e9f9b8bf8/AAABj3KKYbQ/AAABjwnlKNc/16x9-512.jpg", "date": "2024-05-13T15:42:00.000+02:00", "lat": 54.6253, "lon": 9.4781, "intensity": 0.8, "source": "Tagesschau"}, {"title": "Raser mit 183 Stundenkilometern auf Berliner Avus geblitzt", "url": "https://www.tagesschau.de/inland/regional/berlin/rbb-raser-mit-183-stundenkilometern-auf-berliner-avus-geblitzt-100.html", "thumbnailUrl": "https://images.tagesschau.de/image/b2ebaf20-c1d2-4eb2-a63e-2ac30bf01324/AAABj3I0DFE/AAABjwnlKNc/16x9-512.jpg", "date": "2024-05-13T15:41:53.000+02:00", "lat": 52.471426, "lon": 13.199082, "intensity": 0.8, "source": "Tagesschau"}, {"title": "Wer kennt die verstorbene Frau aus Malstatt?", "url": "https://www.tagesschau.de/inland/regional/saarland/sr-wer-kennt-die-verstorbene-frau-aus-malstatt-100.html", "thumbnailUrl": "https://images.tagesschau.de/image/ea7cb74a-e7c9-4cdb-b180-f127a78048bb/AAABj3J0Flk/AAABjwnlKNc/16x9-512.jpg", "date": "2024-05-13T15:41:00.000+02:00", "lat": 49.2402, "lon": 6.9754, "intensity": 0.5, "source": "Tagesschau"}, {"title": "Warum ist die Europa\u00b7wahl wichtig?", "url": "https://www.tagesschau.de/europawahl/leichtesprache/europawahl-in-leichter-sprache-110.html", "thumbnailUrl": "https://images.tagesschau.de/image/f04a6dd7-2a89-4974-8382-a86132a3fab3/AAABj0OFzeE/AAABjwnlKNc/16x9-512.jpg", "date": "2024-05-13T15:31:05.524+02:00", "lat": 52.3759, "lon": 9.732, "intensity": 0.7, "source": "Tagesschau"}, {"title": "Knapp 200 Menschen in Th\u00fcringen nutzen anonymen Krankenschein", "url": "https://www.tagesschau.de/inland/regional/thueringen/mdr-knapp-200-menschen-in-thueringen-nutzen-anonymen-krankenschein-100.html", "thumbnailUrl": "https://images.tagesschau.de/image/68b0585f-b1bb-4311-ab46-f65333f26920/AAABj3P_0as/AAABjwnlKNc/16x9-512.jpg", "date": "2024-05-13T15:28:32.000+02:00", "lat": 50.9787, "lon": 11.3426, "intensity": 0.6, "source": "Tagesschau"}, {"title": "Campen f\u00fcr bezahlbaren Bauplatz im Kreis Biberach", "url": "https://www.tagesschau.de/inland/regional/badenwuerttemberg/swr-campen-fuer-bezahlbaren-bauplatz-im-kreis-biberach-102.html", "thumbnailUrl": "https://images.tagesschau.de/image/60740f39-d070-4843-81b7-f52a6344ecf1/AAABj3MPuV8/AAABjwnlKNc/16x9-512.jpg", "date": "2024-05-13T15:21:00.000+02:00", "lat": 48.1044, "lon": 9.8612, "intensity": 0.7, "source": "Tagesschau"}, {"title": "Sirenengeheul kann die Wut nicht \u00fcberdecken", "url": "https://www.tagesschau.de/ausland/asien/israel-gedenken-gefallene-soldaten-100.html", "thumbnailUrl": "https://images.tagesschau.de/image/5c57fb5a-6c5f-4dee-96d5-fc15a73c2970/AAABj3MZCsI/AAABjwnlKNc/16x9-512.jpg", "date": "2024-05-13T15:17:56.268+02:00", "lat": 31.7717, "lon": 35.2137, "intensity": 0.8, "source": "Tagesschau"}, {"title": "Unabh\u00e4ngigkeit ade?", "url": "https://www.tagesschau.de/ausland/europa/katalonien-wahl-116.html", "thumbnailUrl": "https://images.tagesschau.de/image/4714ba70-0b34-47c3-b679-1cd98bb46894/AAABj3MXrlI/AAABjwnlKNc/16x9-512.jpg", "date": "2024-05-13T15:15:53.544+02:00", "lat": 41.3851, "lon": 2.1774, "intensity": 0.8, "source": "Tagesschau"}, {"title": "Unterrichtsausfall nach Feuer in Schule in Georgsmarienh\u00fctte", "url": "https://www.tagesschau.de/inland/regional/niedersachsen/ndr-unterrichtsausfall-nach-feuer-in-schule-in-georgsmarienhuette-100.html", "thumbnailUrl": "https://images.tagesschau.de/image/3749e67c-678a-4fff-b51a-4650ce093891/AAABj3OToak/AAABjwnlKNc/16x9-512.jpg", "date": "2024-05-13T15:13:00.000+02:00", "lat": 52.1815, "lon": 8.0409, "intensity": 0.8, "source": "Tagesschau"}, {"title": "Medienberichte: Fast-Food-Ketten Taco Bell und Krispy Kreme sollen nach Berlin kommen", "url": "https://www.tagesschau.de/inland/regional/berlin/rbb-medienberichte-fast-food-ketten-taco-bell-und-krispy-kreme-sollen-nach-berlin-kommen-100.html", "thumbnailUrl": "https://images.tagesschau.de/image/2c9ced7a-579d-421a-9ab7-5e1e9dc81948/AAABj3IWyTc/AAABjwnlKNc/16x9-512.jpg", "date": "2024-05-13T15:09:56.000+02:00", "lat": 52.520008, "lon": 13.404954, "intensity": 0.8, "source": "Tagesschau"}, {"title": "Zwei Tote bei Motorradunfall auf L232 zwischen Merxheim und Meddersheim", "url": "https://www.tagesschau.de/inland/regional/rheinlandpfalz/swr-zwei-tote-bei-motorradunfall-auf-l232-zwischen-merxheim-und-meddersheim-100.html", "thumbnailUrl": "https://images.tagesschau.de/image/0c0dbaf6-a854-47a5-a973-515309e971b2/AAABj3JcScg/AAABjwnlKNc/16x9-512.jpg", "date": "2024-05-13T15:09:00.000+02:00", "lat": 49.8764, "lon": 7.5765, "intensity": 0.8, "source": "Tagesschau"}, {"title": "Tarifverhandlungen: Tausende Telekom-Mitarbeiter demonstrieren f\u00fcr h\u00f6heres Gehalt ", "url": "https://www.tagesschau.de/inland/regional/brandenburg/rbb-tarifverhandlungen-tausende-telekom-mitarbeiter-demonstrieren-fuer-hoeheres-gehalt-100.html", "thumbnailUrl": "https://images.tagesschau.de/image/13418230-6886-4592-9f50-4c12ea31c2b3/AAABj3ITKTY/AAABjwnlKNc/16x9-512.jpg", "date": "2024-05-13T15:06:42.000+02:00", "lat": 52.520008, "lon": 13.404954, "intensity": 0.8, "source": "Tagesschau"}, {"title": "Mann rutscht vom Bahnsteig - und bel\u00e4stigt danach Frau im Zug", "url": "https://www.tagesschau.de/inland/regional/niedersachsen/ndr-mann-rutscht-vom-bahnsteig-und-belaestigt-danach-frau-im-zug-100.html", "thumbnailUrl": "https://images.tagesschau.de/image/51f10f08-67c0-4ff3-9c7a-eb429f31846e/AAABj3IRYJQ/AAABjwnlKNc/16x9-512.jpg", "date": "2024-05-13T15:04:00.000+02:00", "lat": 52.3759, "lon": 9.5068, "intensity": 0.7, "source": "Tagesschau"}, {"title": "Mindestens 43 Tote nach Schlammlawinen auf Sumatra", "url": "https://www.tagesschau.de/ausland/asien/indonesien-sumatra-schlammflut-vulkan-100.html", "thumbnailUrl": "https://images.tagesschau.de/image/6a524193-14ac-4fe9-9cf6-1dfcdf06d6a3/AAABj3HCN5g/AAABjwnlKNc/16x9-512.jpg", "date": "2024-05-13T15:02:37.061+02:00", "lat": -0.11381, "lon": 102.330694, "intensity": 0.9, "source": "Tagesschau"}, {"title": "Verdachtsfall AfD: Pegel sieht Verfassungsschutz best\u00e4tigt", "url": "https://www.tagesschau.de/inland/regional/mecklenburgvorpommern/ndr-verdachtsfall-afd-pegel-sieht-verfassungsschutz-bestaetigt-100.html", "thumbnailUrl": "https://images.tagesschau.de/image/61d9a158-6115-4304-aa4e-2e4bee2c8265/AAABj3I15Dw/AAABjwnlKNc/16x9-512.jpg", "date": "2024-05-13T15:01:00.000+02:00", "lat": 53.6127, "lon": 12.4135, "intensity": 0.8, "source": "Tagesschau"}, {"title": "Hamburg spendet Minenr\u00e4umfahrzeuge an die Ukraine", "url": "https://www.tagesschau.de/inland/regional/hamburg/ndr-hamburg-spendet-minenraeumfahrzeuge-an-die-ukraine-100.html", "thumbnailUrl": "https://images.tagesschau.de/image/e7c15a68-3ba4-4825-84fb-81bd175af042/AAABj3IYkyA/AAABjwnlKNc/16x9-512.jpg", "date": "2024-05-13T15:00:00.000+02:00", "lat": 53.551086, "lon": 9.993682, "intensity": 0.8, "source": "Tagesschau"}, {"title": "Waldzustanderhebung f\u00fcr 2023: Deutsche W\u00e4lder in schlechtem Zustand", "url": "https://www.tagesschau.de/inland/regional/brandenburg/rbb-waldzustanderhebung-fuer-2023-regionale-waelder-in-schlechtem-zustand-100.html", "thumbnailUrl": "https://images.tagesschau.de/image/2dca7629-a706-4ec6-8e66-f01682aba53c/AAABj3IIIAI/AAABjwnlKNc/16x9-512.jpg", "date": "2024-05-13T14:59:00.000+02:00", "lat": 52.520008, "lon": 13.404954, "intensity": 0.8, "source": "Tagesschau"}, {"title": "Brandenburg: Lotto-Spieler aus Oder-Spree gewinnt fast zwei Millionen Euro", "url": "https://www.tagesschau.de/inland/regional/brandenburg/rbb-brandenburg-lotto-spieler-aus-oder-spree-gewinnt-fast-zwei-millionen-euro-100.html", "thumbnailUrl": "https://images.tagesschau.de/image/cfdac051-07b1-484e-a06e-b135888b23a4/AAABj3ICquk/AAABjwnlKNc/16x9-512.jpg", "date": "2024-05-13T14:49:27.000+02:00", "lat": 52.4125, "lon": 13.8886, "intensity": 0.8, "source": "Tagesschau"}, {"title": "Baby im Glascontainer: Mutter muss zehn Jahre ins Gef\u00e4ngnis", "url": "https://www.tagesschau.de/inland/regional/badenwuerttemberg/swr-baby-im-glascontainer-urteil-gegen-mutter-erwartet-100.html", "thumbnailUrl": "https://images.tagesschau.de/image/733e127f-4f41-49a2-af51-e0a8d8d50262/AAABj3Ih5i4/AAABjwnlKNc/16x9-512.jpg", "date": "2024-05-13T14:34:00.000+02:00", "lat": 48.4011, "lon": 9.9937, "intensity": 0.8, "source": "Tagesschau"}, {"title": "Schwere Vorw\u00fcrfe gegen freigestellten Inspekteur: Willk\u00fcr bei Austausch der SEK-Spitze", "url": "https://www.tagesschau.de/inland/regional/badenwuerttemberg/swr-austausch-der-sek-fuehrung-u-ausschuss-tagt-erneut-zum-inspekteur-der-polizei-100.html", "thumbnailUrl": "https://images.tagesschau.de/image/17cb54ad-eee6-42e6-9a38-d793ba6d1e61/AAABj2_8XwM/AAABjwnlKNc/16x9-512.jpg", "date": "2024-05-13T14:32:00.000+02:00", "lat": 48.7836, "lon": 9.9937, "intensity": 0.8, "source": "Tagesschau"}, {"title": "Cyberkriminalit\u00e4t verursacht Sch\u00e4den von \u00fcber 150 Milliarden Euro", "url": "https://www.tagesschau.de/inland/regional/nordrheinwestfalen/wdr-cyberkriminalitaet-verursacht-schaeden-von-ueber-150-milliarden-euro-100.html", "thumbnailUrl": "https://images.tagesschau.de/image/5f7df0dd-9dc4-4d27-aa24-66a6946b77ac/AAABj3IRNaQ/AAABjwnlKNc/16x9-512.jpg", "date": "2024-05-13T14:30:00.000+02:00", "lat": 51.458423, "lon": 7.588576, "intensity": 0.8, "source": "Tagesschau"}, {"title": "Haupt- und Realsch\u00fcler in Hessen starten in Abschlusspr\u00fcfungen", "url": "https://www.tagesschau.de/inland/regional/hessen/hr-haupt-und-realschueler-in-hessen-starten-in-abschlusspruefungen-100.html", "thumbnailUrl": "https://images.tagesschau.de/image/0d9ed7c1-17bb-48b7-bb21-a59d9ab1df48/AAABj3HudYA/AAABjwnlKNc/16x9-512.jpg", "date": "2024-05-13T14:29:23.740+02:00", "lat": 50.6521, "lon": 9.6752, "intensity": 0.6, "source": "Tagesschau"}, {"title": "Will Mercedes an E-Autos sparen?", "url": "https://www.tagesschau.de/inland/regional/badenwuerttemberg/swr-will-mercedes-an-e-autos-sparen-100.html", "thumbnailUrl": "https://images.tagesschau.de/image/661763dc-206c-4a5c-8c55-8cd44c049ab8/AAABj3H5frw/AAABjwnlKNc/16x9-512.jpg", "date": "2024-05-13T14:26:00.000+02:00", "lat": 48.7758, "lon": 9.1829, "intensity": 0.7, "source": "Tagesschau"}, {"title": "Lage in Domicil-Pflegeheim in Berlin-Lichtenberg laut Aufsichtsbeh\u00f6rde stabilisiert ", "url": "https://www.tagesschau.de/inland/regional/berlin/rbb-lage-in-domicil-pflegeheim-in-berlin-lichtenberg-laut-aufsichtsbehoerde-stabilisiert-100.html", "thumbnailUrl": "https://images.tagesschau.de/image/6d023eff-b4ce-4870-bf1f-761ecbda5c5c/AAABj3Huhvs/AAABjwnlKNc/16x9-512.jpg", "date": "2024-05-13T14:24:38.000+02:00", "lat": 52.532528, "lon": 13.49892, "intensity": 0.5, "source": "Tagesschau"}, {"title": "Aufstieg perfekt! St. Pauli ist zur\u00fcck in der Bundesliga", "url": "https://www.tagesschau.de/inland/regional/hamburg/ndr-aufstieg-perfekt-st-pauli-ist-zurueck-in-der-bundesliga-100.html", "thumbnailUrl": "https://images.tagesschau.de/image/2d7de170-6a1c-4a03-8104-01bd0f3fc4ef/AAABj3NE78A/AAABjwnlKNc/16x9-512.jpg", "date": "2024-05-13T13:43:00.000+02:00", "lat": 53.5587, "lon": 10.0067, "intensity": 0.9, "source": "Tagesschau"}, {"title": "Live-Blog 2. Liga: St. Pauli ist Bundesligist! Eintracht Braunschweig gerettet!", "url": "https://www.tagesschau.de/inland/regional/hamburg/ndr-live-blog-2-liga-hsv-oder-st-pauli-wer-gewinnt-das-stadtderby-102.html", "thumbnailUrl": "https://images.tagesschau.de/image/6595394d-cf19-448c-93cf-5f503331780c/AAABj3NE-84/AAABjwnlKNc/16x9-512.jpg", "date": "2024-05-13T13:40:00.000+02:00", "lat": 53.5511, "lon": 9.9937, "intensity": 0.7, "source": "Tagesschau"}, {"title": "Angriff auf Haus von AfD-Stadtrat in Halle", "url": "https://www.tagesschau.de/inland/gesellschaft/halle-afd-politiker-angriff-haus-100.html", "thumbnailUrl": "https://images.tagesschau.de/image/97124da5-db2a-4f9b-9c64-0e47d0d63f1b/AAABjrII6Qk/AAABjwnlKNc/16x9-512.jpg", "date": "2024-05-13T13:39:54.613+02:00", "lat": 51.4828, "lon": 11.9619, "intensity": 0.8, "source": "Tagesschau"}, {"title": "AfD-Einstufung als Verdachtsfall ist rechtens", "url": "https://www.tagesschau.de/inland/innenpolitik/afd-ovg-verdachtsfall-100.html", "thumbnailUrl": "https://images.tagesschau.de/image/c0205533-70fe-44e5-be57-b95609911505/AAABjq8H0TM/AAABjwnlKNc/16x9-512.jpg", "date": "2024-05-13T13:30:47.495+02:00", "lat": 51.9607, "lon": 7.6261, "intensity": 0.8, "source": "Tagesschau"}, {"title": "Potsdam: Fr\u00fcheres Landtagsgeb\u00e4ude dient nach Brand als Filmkulisse", "url": "https://www.tagesschau.de/inland/regional/brandenburg/rbb-potsdam-frueheres-landtagsgebaeude-dient-nach-brand-als-filmkulisse-100.html", "thumbnailUrl": "https://images.tagesschau.de/image/3dafff27-b062-4c48-87b8-8751a89cf68a/AAABj3G-_JI/AAABjwnlKNc/16x9-512.jpg", "date": "2024-05-13T13:30:18.000+02:00", "lat": 52.3906, "lon": 13.0645, "intensity": 0.5, "source": "Tagesschau"}, {"title": "Ex-Gesch\u00e4ftsf\u00fchrer der Lebenshilfe Rhein-Lahn gesteht Untreue", "url": "https://www.tagesschau.de/inland/regional/rheinlandpfalz/swr-ex-geschaeftsfuehrer-der-lebenshilfe-rhein-lahn-vor-gericht-100.html", "thumbnailUrl": "https://images.tagesschau.de/image/47c69fec-a6fa-4b52-9628-0958e1ff74e3/AAABj3HyFl8/AAABjwnlKNc/16x9-512.jpg", "date": "2024-05-13T13:29:00.000+02:00", "lat": 50.1183, "lon": 7.6251, "intensity": 0.8, "source": "Tagesschau"}, {"title": "St. Paulis Jackson Irvine: Aufstiegs-Kapit\u00e4n und Identifikationsfigur", "url": "https://www.tagesschau.de/inland/regional/hamburg/ndr-st-paulis-jackson-irvine-aufstiegs-kapitaen-und-identifikationsfigur-106.html", "thumbnailUrl": "https://images.tagesschau.de/image/f3a795ea-ec2d-4648-8725-34cdca4cacdb/AAABj3KCx4k/AAABjwnlKNc/16x9-512.jpg", "date": "2024-05-13T13:29:00.000+02:00", "lat": 53.551086, "lon": 9.993682, "intensity": 0.7, "source": "Tagesschau"}, {"title": "Wer ist Andrej Beloussow?", "url": "https://www.tagesschau.de/ausland/europa/nachfolger-schoigu-100.html", "thumbnailUrl": "https://images.tagesschau.de/image/b8ccc457-11c6-42f6-a73e-cafb2c19e7ad/AAABj3IVb6o/AAABjwnlKNc/16x9-512.jpg", "date": "2024-05-13T13:10:56.660+02:00", "lat": 55.7558, "lon": 37.6176, "intensity": 0.8, "source": "Tagesschau"}, {"title": "Nach Beinahe-Tauchunfall: Neues Tauchteam soll \"S\u00e4ntis\"-Bergung erm\u00f6glichen", "url": "https://www.tagesschau.de/inland/regional/badenwuerttemberg/swr-nach-beinahe-tauchunfall-neues-tauchteam-soll-saentis-bergung-ermoeglichen-100.html", "thumbnailUrl": "https://images.tagesschau.de/image/a00ef756-ef7a-432b-85bd-e85d3db941eb/AAABj3MtBJw/AAABjwnlKNc/16x9-512.jpg", "date": "2024-05-13T13:09:58.000+02:00", "lat": 47.4917, "lon": 9.0222, "intensity": 0.8, "source": "Tagesschau"}, {"title": "Eintracht Frankfurt Frauen: Nur noch ein Schrittchen nach Europa", "url": "https://www.tagesschau.de/inland/regional/hessen/hr-eintracht-frankfurt-frauen-nur-noch-ein-schrittchen-nach-europa-102.html", "thumbnailUrl": "https://images.tagesschau.de/image/cd5131b3-4f9d-4783-b1f5-e7d3f0de79bf/AAABj3GjaJE/AAABjwnlKNc/16x9-512.jpg", "date": "2024-05-13T13:07:42.087+02:00", "lat": 50.052918, "lon": 8.682127, "intensity": 0.8, "source": "Tagesschau"}, {"title": "Pass abholen ohne Termin? In Bremen ist das jetzt m\u00f6glich", "url": "https://www.tagesschau.de/inland/regional/bremen/rb-pass-abholen-ohne-termin-in-bremen-ist-das-jetzt-moeglich-100.html", "thumbnailUrl": "https://images.tagesschau.de/image/f481f7df-a36d-4ca3-82a0-dcf7ab70cb5e/AAABj3KXBO4/AAABjwnlKNc/16x9-512.jpg", "date": "2024-05-13T13:07:00.000+02:00", "lat": 53.0793, "lon": 8.8017, "intensity": 0.7, "source": "Tagesschau"}, {"title": "Vermisstenfall in K\u00f6ln: 70-J\u00e4hriger will Kind f\u00fcr Enkelin gehalten haben", "url": "https://www.tagesschau.de/inland/regional/nordrheinwestfalen/wdr-dreijaehrige-in-koeln-verschwunden-suche-nach-helin-geht-weiter-100.html", "thumbnailUrl": "https://images.tagesschau.de/image/16edefde-6243-4175-876f-30047fca5dc7/AAABj3J_EoI/AAABjwnlKNc/16x9-512.jpg", "date": "2024-05-13T13:01:00.000+02:00", "lat": 50.9331, "lon": 7.0314, "intensity": 0.8, "source": "Tagesschau"}, {"title": "Verfolgungsjagd in Oldenburg: Motorradfahrer fl\u00fcchtet vor Polizei", "url": "https://www.tagesschau.de/inland/regional/niedersachsen/ndr-verfolgungsjagd-in-oldenburg-motorradfahrer-fluechtet-vor-polizei-100.html", "thumbnailUrl": "https://images.tagesschau.de/image/b2f519ce-db58-4624-83df-a8d8b1799f67/AAABj3GhmGw/AAABjwnlKNc/16x9-512.jpg", "date": "2024-05-13T13:00:00.000+02:00", "lat": 53.1435, "lon": 8.2151, "intensity": 0.7, "source": "Tagesschau"}, {"title": "Anlage mit Schlie\u00dff\u00e4chern f\u00fcr Obdachlose in Kreuzberg er\u00f6ffnet", "url": "https://www.tagesschau.de/inland/regional/berlin/rbb-anlage-mit-schliessfaechern-fuer-obdachlose-in-kreuzberg-eroeffnet-100.html", "thumbnailUrl": "https://images.tagesschau.de/image/650cb4cf-0513-45fa-8358-7ae478818e78/AAABj3Gd-1U/AAABjwnlKNc/16x9-512.jpg", "date": "2024-05-13T12:58:56.000+02:00", "lat": 52.52001, "lon": 13.38886, "intensity": 0.7, "source": "Tagesschau"}, {"title": "Gesichtsverh\u00fcllung an Hamburger Schulen soll verboten werden", "url": "https://www.tagesschau.de/inland/regional/hamburg/ndr-gesichtsverhuellung-an-hamburger-schulen-soll-verboten-werden-100.html", "thumbnailUrl": "https://images.tagesschau.de/image/aea58b06-ed3d-4528-bf30-e0466a55e2cc/AAABj3GlUdU/AAABjwnlKNc/16x9-512.jpg", "date": "2024-05-13T12:58:00.000+02:00", "lat": 53.5511, "lon": 9.9937, "intensity": 0.7, "source": "Tagesschau"}, {"title": "So oder so? Wie sieht die Strandlust in Bremen-Nord in Zukunft aus?", "url": "https://www.tagesschau.de/inland/regional/bremen/rb-so-oder-so-wie-sieht-die-strandlust-in-bremen-nord-in-zukunft-aus-100.html", "thumbnailUrl": "https://images.tagesschau.de/image/c8ed00da-0b0f-4fbc-9f19-15847f496a24/AAABj3Gd4qg/AAABjwnlKNc/16x9-512.jpg", "date": "2024-05-13T12:57:00.000+02:00", "lat": 53.1778, "lon": 8.6154, "intensity": 0.7, "source": "Tagesschau"}, {"title": "Mini-Pony ausgeb\u00fcxt: \"John Boy\" galoppiert durch Innenstadt", "url": "https://www.tagesschau.de/inland/regional/niedersachsen/ndr-mini-pony-ausgebuext-john-boy-galoppiert-durch-innenstadt-100.html", "thumbnailUrl": "https://images.tagesschau.de/image/9518eb30-f6c4-4846-ab78-5e79f73f6a65/AAABj3GWmoU/AAABjwnlKNc/16x9-512.jpg", "date": "2024-05-13T12:52:00.000+02:00", "lat": 52.37589, "lon": 9.73322, "intensity": 0.7, "source": "Tagesschau"}, {"title": "Hilfe f\u00fcr die Menschen in der Ukraine", "url": "https://www.tagesschau.de/spendenkonten/spendenkonten-133.html", "thumbnailUrl": "https://images.tagesschau.de/image/af005073-bb3d-428a-b6f8-a685c725811f/AAABh4VRChA/AAABjwnlKNc/16x9-512.jpg", "date": "2024-05-13T12:49:00.488+02:00", "lat": 50.4501, "lon": 30.5234, "intensity": 0.7, "source": "Tagesschau"}, {"title": "Zwei Tote - Br\u00e4nde in Ubstadt-Weiher, Untergrombach und Gaggenau ", "url": "https://www.tagesschau.de/inland/regional/badenwuerttemberg/swr-zwei-tote-braende-in-ubstadt-weiher-untergrombach-und-gaggenau-100.html", "thumbnailUrl": "https://images.tagesschau.de/image/8480474e-3f2e-4ad3-b6c6-5c714f7262b0/AAABj3GPNek/AAABjwnlKNc/16x9-512.jpg", "date": "2024-05-13T12:44:00.000+02:00", "lat": 49.1233, "lon": 8.5911, "intensity": 0.8, "source": "Tagesschau"}, {"title": "Wetterlage und Temperaturen", "url": "https://www.tagesschau.de/wetter/europa-welt", "thumbnailUrl": "https://images.tagesschau.de/image/6e7d3b16-79c8-4308-822b-20c3035236b5/AAABj3GFYQE/AAABjwnlKNc/16x9-512.jpg", "date": "2024-05-13T12:40:51.851+02:00", "lat": 51.1657, "lon": 10.4515, "intensity": 0.3, "source": "Tagesschau"}, {"title": "DFB: Saskia Bartusiak wird Assistenztrainerin der Frauen-Nationalmannschaft", "url": "https://www.tagesschau.de/inland/regional/hessen/hr-dfb-saskia-bartusiak-wird-assistenztrainerin-der-frauen-nationalmannschaft-102.html", "thumbnailUrl": "https://images.tagesschau.de/image/df3be379-2eda-4125-b778-c122fc59a506/AAABj3Hd8-k/AAABjwnlKNc/16x9-512.jpg", "date": "2024-05-13T12:27:16.458+02:00", "lat": 50.1109, "lon": 8.6821, "intensity": 0.7, "source": "Tagesschau"}, {"title": "Zirkusshow von trans Frau Diana Salles: H\u00f6henfl\u00fcge und Wunden einer Transition", "url": "https://www.tagesschau.de/inland/regional/berlin/rbb-zirkusshow-von-trans-frau-diana-salles-hoehenfluege-und-wunden-einer-transition-100.html", "thumbnailUrl": "https://images.tagesschau.de/image/aea200eb-8719-4148-a1cb-76b13208796d/AAABj3GeD6M/AAABjwnlKNc/16x9-512.jpg", "date": "2024-05-13T12:26:00.000+02:00", "lat": 52.520008, "lon": 13.404954, "intensity": 0.7, "source": "Tagesschau"}, {"title": "Auch Leichtathletin Sofia Benfares nach Doping-Vorw\u00fcrfen gesperrt", "url": "https://www.tagesschau.de/inland/regional/saarland/sr-auch-leichtathletin-sofia-benfares-nach-doping-vorwuerfen-gesperrt-102.html", "thumbnailUrl": "https://images.tagesschau.de/image/949f9609-1089-428a-b8fc-aeeebb6167a6/AAABj3GNXG0/AAABjwnlKNc/16x9-512.jpg", "date": "2024-05-13T12:26:00.000+02:00", "lat": 49.3964, "lon": 7.0, "intensity": 0.8, "source": "Tagesschau"}, {"title": "Arlinger Tunnel ist er\u00f6ffnet - Entlastung f\u00fcr Verkehr in Pforzheim", "url": "https://www.tagesschau.de/inland/regional/badenwuerttemberg/swr-arlinger-tunnel-wird-eroeffnet-entlastung-fuer-verkehr-in-pforzheim-100.html", "thumbnailUrl": "https://images.tagesschau.de/image/9e8f5f31-d2ec-42e5-92ad-dedc04b2203c/AAABj3F5RAY/AAABjwnlKNc/16x9-512.jpg", "date": "2024-05-13T12:19:00.000+02:00", "lat": 48.8942, "lon": 8.6986, "intensity": 0.7, "source": "Tagesschau"}, {"title": "AfD ist Verdachtsfall: Urteil st\u00f6\u00dft in NRW auf Erleichterung", "url": "https://www.tagesschau.de/inland/regional/nordrheinwestfalen/wdr-urteil-afd-zu-recht-als-rechtsextremistischer-verdachtsfall-eingestuft-100.html", "thumbnailUrl": "https://images.tagesschau.de/image/bd384e27-83ee-4e82-b3b1-7e6bd0ee0336/AAABj3G7JR8/AAABjwnlKNc/16x9-512.jpg", "date": "2024-05-13T12:18:00.000+02:00", "lat": 51.9607, "lon": 7.6261, "intensity": 0.8, "source": "Tagesschau"}, {"title": "Hamburg-Altona: St. Pauli-Fan l\u00f6st Gro\u00dfeinsatz aus", "url": "https://www.tagesschau.de/inland/regional/hamburg/ndr-hamburg-altona-st-pauli-fan-loest-grosseinsatz-aus-100.html", "thumbnailUrl": "https://images.tagesschau.de/image/069af463-b03f-4988-9d37-d394d26dc9f9/AAABj3D1q-4/AAABjwnlKNc/16x9-512.jpg", "date": "2024-05-13T12:13:00.000+02:00", "lat": 53.5511, "lon": 9.9312, "intensity": 0.8, "source": "Tagesschau"}, {"title": "\u00c4rger um Ausbau der Kita in Gondershausen", "url": "https://www.tagesschau.de/inland/regional/rheinlandpfalz/swr-aerger-um-ausbau-der-kita-in-gondershausen-100.html", "thumbnailUrl": "https://images.tagesschau.de/image/39ee1192-3dbc-420c-888f-42379134eab2/AAABj3HGOOM/AAABjwnlKNc/16x9-512.jpg", "date": "2024-05-13T12:12:29.000+02:00", "lat": 50.2162, "lon": 7.6004, "intensity": 0.8, "source": "Tagesschau"}, {"title": "Wie lange Bremer auf Dokumente und Termine im Amt warten m\u00fcssen", "url": "https://www.tagesschau.de/inland/regional/bremen/rb-wie-lange-bremer-auf-dokumente-und-termine-im-amt-warten-muessen-100.html", "thumbnailUrl": "https://images.tagesschau.de/image/51f2621a-267d-4041-a548-ee05d6422030/AAABj3KXB6s/AAABjwnlKNc/16x9-512.jpg", "date": "2024-05-13T12:11:00.000+02:00", "lat": 53.0793, "lon": 8.8017, "intensity": 0.6, "source": "Tagesschau"}, {"title": "Schockanrufe in Braunschweig: Neun von zehn Taten gescheitert", "url": "https://www.tagesschau.de/inland/regional/niedersachsen/ndr-schockanrufe-in-braunschweig-neun-von-zehn-taten-gescheitert-100.html", "thumbnailUrl": "https://images.tagesschau.de/image/fc95024a-64db-4f2b-a2cf-9962cb8ed75f/AAABj3Fsf1U/AAABjwnlKNc/16x9-512.jpg", "date": "2024-05-13T12:04:00.000+02:00", "lat": 52.268874, "lon": 10.52677, "intensity": 0.8, "source": "Tagesschau"}, {"title": "So soll das Handynetz in Deutschland besser werden", "url": "https://www.tagesschau.de/wirtschaft/digitales/netzausbau-handynetz-bundesnetzagentur-funkloch-100.html", "thumbnailUrl": "https://images.tagesschau.de/image/92b52cc4-3019-443e-9158-4d238b225f1a/AAABj3ByZwM/AAABjwnlKNc/16x9-512.jpg", "date": "2024-05-13T11:59:38.805+02:00", "lat": 51.1657, "lon": 10.4515, "intensity": 0.6, "source": "Tagesschau"}, {"title": "Ganztag an der Grundschule: Kommunen f\u00fchlen sich im Stich gelassen", "url": "https://www.tagesschau.de/inland/regional/niedersachsen/ndr-ganztag-an-der-grundschule-kommunen-fuehlen-sich-im-stich-gelassen-100.html", "thumbnailUrl": "https://images.tagesschau.de/image/63a30b4b-8da9-419e-bd35-b77bc879d1ae/AAABj3FwJK4/AAABjwnlKNc/16x9-512.jpg", "date": "2024-05-13T11:57:00.000+02:00", "lat": 51.1657, "lon": 10.4515, "intensity": 0.7, "source": "Tagesschau"}, {"title": "Bildungschancen in Bundesl\u00e4ndern ungleich verteilt", "url": "https://www.tagesschau.de/inland/gesellschaft/bildung-ifo-studie-chancengleichheit-100.html", "thumbnailUrl": "https://images.tagesschau.de/image/2305eeb8-4949-4497-87d8-7fc1cf2bf4a6/AAABj3I5Gzs/AAABjwnlKNc/16x9-512.jpg", "date": "2024-05-13T11:56:29.694+02:00", "lat": 51.1657, "lon": 10.4515, "intensity": 0.8, "source": "Tagesschau"}, {"title": "Dreij\u00e4hrige in K\u00f6lner Wohnung entdeckt: 70-J\u00e4hriger will Kind aus Kassel mit seiner Enkelin verwechselt haben", "url": "https://www.tagesschau.de/inland/regional/hessen/hr-in-koeln-polizei-findet-vermisste-dreijaehrige-aus-kassel-bei-70-jaehrigem-100.html", "thumbnailUrl": "https://images.tagesschau.de/image/1f337ad2-cb63-4ff7-901d-7ecf03a016e3/AAABj3HAxig/AAABjwnlKNc/16x9-512.jpg", "date": "2024-05-13T11:51:49.910+02:00", "lat": 51.3397, "lon": 7.6015, "intensity": 0.8, "source": "Tagesschau"}, {"title": "Gro\u00dfprojekt Klimaneutralit\u00e4t: Wiedervern\u00e4ssung im Mannhagener Moor", "url": "https://www.tagesschau.de/inland/regional/mecklenburgvorpommern/ndr-grossprojekt-klimaneutralitaet-wiedervernaessung-im-mannshagener-moor-100.html", "thumbnailUrl": "https://images.tagesschau.de/image/66dea2f5-1cd6-4cff-b439-fa38c78559dd/AAABj3HpBPY/AAABjwnlKNc/16x9-512.jpg", "date": "2024-05-13T11:48:00.000+02:00", "lat": 53.6604, "lon": 13.4885, "intensity": 0.7, "source": "Tagesschau"}, {"title": "Wie gut ist unser Grundgesetz?", "url": "https://www.tagesschau.de/inland/gesellschaft/grundgesetz-zustimmung-100.html", "thumbnailUrl": "https://images.tagesschau.de/image/75c8639c-5dbe-45c4-98a8-d92b1a8ccd1b/AAABjY53m9Y/AAABjwnlKNc/16x9-512.jpg", "date": "2024-05-13T11:38:22.691+02:00", "lat": 51.501364, "lon": 9.993682, "intensity": 0.8, "source": "Tagesschau"}, {"title": "Acht Gr\u00fcnde, warum die EU wichtig ist f\u00fcr Baden-W\u00fcrttemberg", "url": "https://www.tagesschau.de/inland/regional/badenwuerttemberg/swr-acht-gruende-warum-die-eu-wichtig-ist-fuer-baden-wuerttemberg-100.html", "thumbnailUrl": "https://images.tagesschau.de/image/5b0f8423-3783-4953-974c-e31b7f7aaf0d/AAABj3GEPmk/AAABjwnlKNc/16x9-512.jpg", "date": "2024-05-13T11:35:59.000+02:00", "lat": 48.6616, "lon": 9.0107, "intensity": 0.7, "source": "Tagesschau"}, {"title": "\"Der Wald entwickelt sich zum Dauerpatienten\"", "url": "https://www.tagesschau.de/wissen/klima/wald-hitze-oezdemir-100.html", "thumbnailUrl": "https://images.tagesschau.de/image/d94cd097-7fef-4249-9188-5426f559ead4/AAABj3E-Ve0/AAABjwnlKNc/16x9-512.jpg", "date": "2024-05-13T11:35:22.109+02:00", "lat": 51.1657, "lon": 10.4515, "intensity": 0.8, "source": "Tagesschau"}, {"title": "Tausende Menschen fliehen vor Waldbr\u00e4nden in Kanada", "url": "https://www.tagesschau.de/ausland/amerika/kanada-waldbrand-112.html", "thumbnailUrl": "https://images.tagesschau.de/image/252369a5-d1a6-4e1b-9a4a-53dd5d7bc46f/AAABj3EfHak/AAABjwnlKNc/16x9-512.jpg", "date": "2024-05-13T11:33:39.399+02:00", "lat": 56.1304, "lon": -106.3468, "intensity": 0.8, "source": "Tagesschau"}, {"title": "Sternenkinder: Trauerorte wie in L\u00fcbeck sollen Eltern helfen", "url": "https://www.tagesschau.de/inland/regional/schleswigholstein/ndr-sternenkinder-trauerorte-wie-in-luebeck-sollen-eltern-helfen-100.html", "thumbnailUrl": "https://images.tagesschau.de/image/6b2c360b-82f7-4da2-bece-14c6b26e02d6/AAABj3FNX7k/AAABjwnlKNc/16x9-512.jpg", "date": "2024-05-13T11:24:00.000+02:00", "lat": 53.865467, "lon": 10.686559, "intensity": 0.7, "source": "Tagesschau"}, {"title": "Studie sieht Bildungschancen in Berlin und Brandenburg am wenigsten ungerecht", "url": "https://www.tagesschau.de/inland/regional/berlin/rbb-studie-sieht-bildungschancen-in-berlin-und-brandenburg-am-wenigsten-ungerecht-100.html", "thumbnailUrl": "https://images.tagesschau.de/image/defe924b-e99f-4509-a7dd-49d7f291feca/AAABj3FJriM/AAABjwnlKNc/16x9-512.jpg", "date": "2024-05-13T11:23:35.000+02:00", "lat": 52.520008, "lon": 13.404954, "intensity": 0.8, "source": "Tagesschau"}, {"title": "Rekordquartal f\u00fcr Deutschland-Tourismus", "url": "https://www.tagesschau.de/wirtschaft/verbraucher/tourismus-corona-rekord-uebernachtungen-pensionen-hotels-reise-deutschland-100.html", "thumbnailUrl": "https://images.tagesschau.de/image/48d07c47-c312-4f2b-baef-7b817708ccc9/AAABj3EAVVk/AAABjwnlKNc/16x9-512.jpg", "date": "2024-05-13T11:19:03.151+02:00", "lat": 51.1657, "lon": 10.4515, "intensity": 0.7, "source": "Tagesschau"}, {"title": "Gro\u00dfeinsatz der Feuerwehr wegen Wohnungsbrand im Bremer Viertel", "url": "https://www.tagesschau.de/inland/regional/bremen/rb-grosseinsatz-der-feuerwehr-wegen-wohnungsbrand-im-bremer-viertel-100.html", "thumbnailUrl": "https://images.tagesschau.de/image/21c1efb0-403d-4d8c-a099-005498e76bcb/AAABj3E-r1Q/AAABjwnlKNc/16x9-512.jpg", "date": "2024-05-13T11:16:00.000+02:00", "lat": 53.079, "lon": 8.809, "intensity": 0.8, "source": "Tagesschau"}, {"title": "Filmhaus an der Karl-Marx-Allee: Kino International legt zweij\u00e4hrige Sanierungspause ein", "url": "https://www.tagesschau.de/inland/regional/berlin/rbb-filmhaus-an-der-karl-marx-allee-kino-international-legt-zweijaehrige-sanierungspause-ein-100.html", "thumbnailUrl": "https://images.tagesschau.de/image/bbd638fe-b5b7-41d1-ada2-b6ec71bc7b86/AAABj3FApVU/AAABjwnlKNc/16x9-512.jpg", "date": "2024-05-13T11:15:25.000+02:00", "lat": 52.52, "lon": 13.4333, "intensity": 0.7, "source": "Tagesschau"}, {"title": "500 Jahre alte Eiche in Hude muss gef\u00e4llt werden", "url": "https://www.tagesschau.de/inland/regional/niedersachsen/ndr-500-jahre-alte-eiche-in-hude-muss-gefaellt-werden-100.html", "thumbnailUrl": "https://images.tagesschau.de/image/f5844f66-3136-4ee1-882e-964bd9b44211/AAABj3E84ks/AAABjwnlKNc/16x9-512.jpg", "date": "2024-05-13T11:14:00.000+02:00", "lat": 53.0773, "lon": 8.3937, "intensity": 0.8, "source": "Tagesschau"}, {"title": "Per Haftbefehl gesucht: Mutma\u00dflicher Drogenschmuggler festgenommen", "url": "https://www.tagesschau.de/inland/regional/niedersachsen/ndr-per-haftbefehl-gesucht-mutmasslicher-drogenschmuggler-festgenommen-100.html", "thumbnailUrl": "https://images.tagesschau.de/image/92c45fed-31a4-4662-ac74-958241105f6c/AAABj3E7CIg/AAABjwnlKNc/16x9-512.jpg", "date": "2024-05-13T11:10:00.000+02:00", "lat": 52.3101, "lon": 7.1597, "intensity": 0.8, "source": "Tagesschau"}, {"title": "Polizeieinsatz wegen Liebeskummer: Junge Niederl\u00e4nderin l\u00e4uft in Ulm von Eltern weg", "url": "https://www.tagesschau.de/inland/regional/badenwuerttemberg/swr-polizeieinsatz-wegen-liebeskummer-junge-niederlaenderin-laeuft-in-ulm-seligweiler-von-eltern-weg-100.html", "thumbnailUrl": "https://images.tagesschau.de/image/9ab64625-442e-4215-b8b0-6c512d25d3e2/AAABj3J5w6o/AAABjwnlKNc/16x9-512.jpg", "date": "2024-05-13T10:58:28.000+02:00", "lat": 48.4011, "lon": 9.9937, "intensity": 0.7, "source": "Tagesschau"}, {"title": "Europawahl: Was macht eigentlich der bayerische Europaminister?", "url": "https://www.tagesschau.de/inland/regional/bayern/br-europawahl-was-macht-eigentlich-der-bayerische-europaminister-102.html", "thumbnailUrl": "https://images.tagesschau.de/image/42242382-fd53-4025-8655-0eb6e5b1a64c/AAABj3DYH2c/AAABjwnlKNc/16x9-512.jpg", "date": "2024-05-13T10:56:18.075+02:00", "lat": 48.1351, "lon": 11.582, "intensity": 0.5, "source": "Tagesschau"}, {"title": "Tarifkonflikt bei Telekom: Ver.di ruft in Oldenburg zur Demo auf", "url": "https://www.tagesschau.de/inland/regional/niedersachsen/ndr-tarifkonflikt-bei-telekom-ver-di-ruft-in-oldenburg-zur-demo-auf-100.html", "thumbnailUrl": "https://images.tagesschau.de/image/353e6bf6-80d2-4168-a8ae-abef61ebb4cc/AAABj3EsZF4/AAABjwnlKNc/16x9-512.jpg", "date": "2024-05-13T10:52:00.000+02:00", "lat": 53.1435, "lon": 8.2159, "intensity": 0.6, "source": "Tagesschau"}, {"title": "Ballermann: Kein Alkohol mehr auf Mallorcas Stra\u00dfen und Str\u00e4nden erlaubt", "url": "https://www.tagesschau.de/inland/regional/saarland/sr-ballermann-kein-alkohol-mehr-auf-mallorcas-strassen-und-straenden-erlaubt-100.html", "thumbnailUrl": "https://images.tagesschau.de/image/735ae86e-e1e3-432a-9799-cd6d513b1a88/AAABj3FWbtE/AAABjwnlKNc/16x9-512.jpg", "date": "2024-05-13T10:48:00.000+02:00", "lat": 39.5696, "lon": 2.650668, "intensity": 0.7, "source": "Tagesschau"}, {"title": "St.-Pauli-Aufstieg: Live-Fu\u00dfball vertont in der Laeiszhalle", "url": "https://www.tagesschau.de/inland/regional/hamburg/ndr-st-pauli-auftstieg-live-fussball-vertont-in-der-laeiszhalle-100.html", "thumbnailUrl": "https://images.tagesschau.de/image/28843f3f-9cd3-4f9b-85a5-84ad7a882188/AAABj3F-w8c/AAABjwnlKNc/16x9-512.jpg", "date": "2024-05-13T10:45:00.000+02:00", "lat": 53.5511, "lon": 9.9784, "intensity": 0.7, "source": "Tagesschau"}, {"title": "Diese Literatur-Festivals \u00fcberbr\u00fccken die Zeit bis zum B\u00fccherherbst", "url": "https://www.tagesschau.de/inland/regional/hessen/hr-diese-literatur-festivals-ueberbruecken-die-zeit-bis-zum-buecherherbst-100.html", "thumbnailUrl": "https://images.tagesschau.de/image/4582e15b-694c-4707-a745-8f60901a83a4/AAABj3EhaV8/AAABjwnlKNc/16x9-512.jpg", "date": "2024-05-13T10:44:44.212+02:00", "lat": 50.1109, "lon": 8.6769, "intensity": 0.3, "source": "Tagesschau"}, {"title": "Trockenheit und Sch\u00e4dlinge: Waldbrandgefahr in Brandenburg steigt", "url": "https://www.tagesschau.de/inland/regional/berlin/rbb-trockenheit-und-schaedlinge-waldbrandgefahr-in-brandenburg-steigt-100.html", "thumbnailUrl": "https://images.tagesschau.de/image/e7246562-7285-4039-a9aa-6061a86f3442/AAABj3LrOb4/AAABjwnlKNc/16x9-512.jpg", "date": "2024-05-13T10:43:00.000+02:00", "lat": 52.52, "lon": 13.3986, "intensity": 0.8, "source": "Tagesschau"}, {"title": "Zehn Verletzte bei Unfall auf der A1: Auto f\u00e4hrt in Stauende", "url": "https://www.tagesschau.de/inland/regional/niedersachsen/ndr-auto-faehrt-in-stauende-auf-der-a1-zehn-verletzte-bei-rade-100.html", "thumbnailUrl": "https://images.tagesschau.de/image/f41a97ff-313b-4cae-94e9-487296620677/AAABj3DQ5vQ/AAABjwnlKNc/16x9-512.jpg", "date": "2024-05-13T10:42:00.000+02:00", "lat": 52.79992, "lon": 9.61563, "intensity": 0.8, "source": "Tagesschau"}, {"title": "Kokain-Boom - Einblicke in die Welt der Drogenbanden", "url": "https://www.tagesschau.de/multimedia/podcast/11km/11km-feed-100.html", "thumbnailUrl": "https://images.tagesschau.de/image/deb3ee1d-00ff-4123-8eaf-c45c98899421/AAABj3Ao2Ok/AAABjwnlKNc/16x9-512.jpg", "date": "2024-05-13T10:40:44.205+02:00", "lat": 53.5534, "lon": 9.9876, "intensity": 0.9, "source": "Tagesschau"}, {"title": "Neubau von Max-Planck-Institut wird in Bahrenfeld eingeweiht", "url": "https://www.tagesschau.de/inland/regional/hamburg/ndr-neubau-von-max-planck-institut-wird-in-bahrenfeld-eingeweiht-100.html", "thumbnailUrl": "https://images.tagesschau.de/image/9e0569f2-a806-4088-a471-adc0c90b34dd/AAABj3D7jkI/AAABjwnlKNc/16x9-512.jpg", "date": "2024-05-13T10:33:00.000+02:00", "lat": 53.5753, "lon": 9.8994, "intensity": 0.7, "source": "Tagesschau"}, {"title": "Unternehmen frustriert \u00fcber Stromausf\u00e4lle ", "url": "https://www.tagesschau.de/inland/regional/bayern/br-unternehmen-frustriert-ueber-stromausfaelle-102.html", "thumbnailUrl": "https://images.tagesschau.de/image/b6494e37-98f1-4bb2-ba8c-ed05540fc7b8/AAABj3DZ9dk/AAABjwnlKNc/16x9-512.jpg", "date": "2024-05-13T10:31:00.854+02:00", "lat": 48.7518, "lon": 10.4515, "intensity": 0.7, "source": "Tagesschau"}, {"title": "Fake News, Hass, Antisemitismus - was macht das mit unserer Gesellschaft?", "url": "https://www.tagesschau.de/inland/regional/rheinlandpfalz/swr-fake-news-hass-antisemitismus-was-macht-das-mit-unserer-gesellschaft-100.html", "thumbnailUrl": "https://images.tagesschau.de/image/ef6aa9a4-6639-4dfe-839a-65329677b3ef/AAABj3EH2K0/AAABjwnlKNc/16x9-512.jpg", "date": "2024-05-13T10:17:00.000+02:00", "lat": 49.992862, "lon": 8.239761, "intensity": 0.7, "source": "Tagesschau"}, {"title": "Fassade st\u00fcrzt auf Fahrradschuppen in Wilhelmshaven", "url": "https://www.tagesschau.de/inland/regional/niedersachsen/ndr-fassadenteil-stuerzt-auf-fahrradschuppen-in-wilhelmshaven-100.html", "thumbnailUrl": "https://images.tagesschau.de/image/42481f65-c960-4194-bc44-d14916a689e1/AAABj3EAfw8/AAABjwnlKNc/16x9-512.jpg", "date": "2024-05-13T10:09:00.000+02:00", "lat": 53.5226, "lon": 8.1378, "intensity": 0.7, "source": "Tagesschau"}, {"title": "Verdacht auf Brandstiftung: Festnahme nach Feuer unter Bahngleisen am Alexanderplatz", "url": "https://www.tagesschau.de/inland/regional/berlin/rbb-brand-unter-bahngleisen-am-alexanderplatz-zugverkehr-zeitweise-eingestellt-100.html", "thumbnailUrl": "https://images.tagesschau.de/image/5e93a059-0b76-45da-aaec-9658a577dc3d/AAABj3D-mKo/AAABjwnlKNc/16x9-512.jpg", "date": "2024-05-13T10:04:06.000+02:00", "lat": 52.5219, "lon": 13.4132, "intensity": 0.8, "source": "Tagesschau"}, {"title": "Hessen am Morgen: +++ 25-J\u00e4hriger aus Riedsee gerettet +++ Isaak vom ESC beim Schlossgrabenfest +++ Pl\u00fcschtier-Schlange l\u00f6st Polizeieinsatz aus +++", "url": "https://www.tagesschau.de/inland/regional/hessen/hr-hessen-am-morgen--25-jaehriger-aus-riedsee-gerettet-und-reanimiert-100.html", "thumbnailUrl": "https://images.tagesschau.de/image/7e96567f-1554-449f-8ec2-124c5f71e90d/AAABj3CxtsE/AAABjwnlKNc/16x9-512.jpg", "date": "2024-05-13T10:03:13.500+02:00", "lat": 50.6333, "lon": 9.05, "intensity": 0.3, "source": "Tagesschau"}, {"title": "Abstieg, Relegation oder Rettung? So rechnet der 1. FC Union vor dem Saisonfinale", "url": "https://www.tagesschau.de/inland/regional/berlin/rbb-klassenerhalt-relegation-direkter-abstieg-die-rechenspiele-des-1-fc-union-vor-dem-bundesliga-saisonfinale-102.html", "thumbnailUrl": "https://images.tagesschau.de/image/277311e5-9512-4d16-beb7-c61c6b276e46/AAABj3D5QPI/AAABjwnlKNc/16x9-512.jpg", "date": "2024-05-13T09:57:25.000+02:00", "lat": 52.52, "lon": 13.405, "intensity": 0.8, "source": "Tagesschau"}, {"title": "Rostock: Vermisster F\u00fcnfj\u00e4hriger wohlbehalten aufgefunden", "url": "https://www.tagesschau.de/inland/regional/mecklenburgvorpommern/ndr-rostock-vermisster-vierjaehriger-wohlbehalten-aufgefunden-100.html", "thumbnailUrl": "https://images.tagesschau.de/image/54f2a69c-ba44-4f62-b0fc-b543d5dfa96e/AAABj3FAj90/AAABjwnlKNc/16x9-512.jpg", "date": "2024-05-13T09:49:00.000+02:00", "lat": 54.0834, "lon": 12.0991, "intensity": 0.7, "source": "Tagesschau"}, {"title": "AfD zu Recht Verdachtsfall: Was das bedeutet", "url": "https://www.tagesschau.de/inland/afd-verfassungsschutz-verdachtsfall-gerichtsurteil-100.html", "thumbnailUrl": "https://images.tagesschau.de/image/1fe0201f-299a-4bad-a780-c2c26e16adeb/AAABj29Y_lw/AAABjwnlKNc/16x9-512.jpg", "date": "2024-05-13T09:45:50.258+02:00", "lat": 51.9607, "lon": 7.6261, "intensity": 0.7, "source": "Tagesschau"}, {"title": "Immer weniger Referendare an Schulen in Niedersachsen", "url": "https://www.tagesschau.de/inland/regional/niedersachsen/ndr-immer-weniger-referendare-an-niedersachsens-schulen-100.html", "thumbnailUrl": "https://images.tagesschau.de/image/e376b6c1-473f-4898-b990-b23aba0458c4/AAABj3Dk9ms/AAABjwnlKNc/16x9-512.jpg", "date": "2024-05-13T09:39:00.000+02:00", "lat": 52.3759, "lon": 9.7533, "intensity": 0.6, "source": "Tagesschau"}, {"title": "Separatisten in Katalonien verlieren absolute Mehrheit", "url": "https://www.tagesschau.de/ausland/europa/katalonien-wahl-112.html", "thumbnailUrl": "https://images.tagesschau.de/image/853779b2-15e9-4c15-9f20-5def3b546c02/AAABj26WoC8/AAABjwnlKNc/16x9-512.jpg", "date": "2024-05-13T09:38:55.189+02:00", "lat": 41.3851, "lon": 2.1774, "intensity": 0.8, "source": "Tagesschau"}, {"title": "ESC: Landesbischof Meister kritisiert Proteste gegen Israel", "url": "https://www.tagesschau.de/inland/regional/niedersachsen/ndr-esc-landesbischof-meister-kritisiert-proteste-gegen-israel-100.html", "thumbnailUrl": "https://images.tagesschau.de/image/3d28755b-ef0f-4c4e-9306-e3ce9db16bb3/AAABj3DfmKI/AAABjwnlKNc/16x9-512.jpg", "date": "2024-05-13T09:31:00.000+02:00", "lat": 52.3738, "lon": 9.7356, "intensity": 0.6, "source": "Tagesschau"}, {"title": "Datenanalyse: Darum ist der HSV jetzt der Zweitliga-Dino", "url": "https://www.tagesschau.de/inland/regional/hamburg/ndr-datenanalyse-darum-ist-der-hsv-auf-dem-weg-zum-zweitliga-dino-106.html", "thumbnailUrl": "https://images.tagesschau.de/image/5e2738a7-2887-4d8a-9b9a-745a6b926f5b/AAABj2yWsm0/AAABjwnlKNc/16x9-512.jpg", "date": "2024-05-13T09:26:00.000+02:00", "lat": 53.5511, "lon": 9.9937, "intensity": 0.8, "source": "Tagesschau"}, {"title": "Wo blitzt es am meisten?", "url": "https://www.tagesschau.de/wetter/wetterthema/blitzhaeufigkeit-100.html", "thumbnailUrl": "https://images.tagesschau.de/image/ebbdeee9-c8ed-45d4-ab2e-b52f159e46c3/AAABiEfjpZo/AAABjwnlKNc/16x9-512.jpg", "date": "2024-05-13T09:25:24.591+02:00", "lat": 51.1657, "lon": 10.4515, "intensity": 0.8, "source": "Tagesschau"}, {"title": "Suche nach Bomben in G\u00f6ttingen geht weiter", "url": "https://www.tagesschau.de/inland/regional/niedersachsen/ndr-suche-nach-bomben-in-goettingen-geht-weiter-100.html", "thumbnailUrl": "https://images.tagesschau.de/image/3893340f-0b6f-4f7e-ab6d-0d94e14f352b/AAABj3DYaXU/AAABjwnlKNc/16x9-512.jpg", "date": "2024-05-13T09:24:00.000+02:00", "lat": 51.5413, "lon": 9.9357, "intensity": 0.8, "source": "Tagesschau"}, {"title": "Luisa Neubauer er\u00f6ffnet Zukunftskongress in L\u00fcneburg", "url": "https://www.tagesschau.de/inland/regional/niedersachsen/ndr-luisa-neubauer-eroeffnet-zukunftskongress-in-lueneburg-100.html", "thumbnailUrl": "https://images.tagesschau.de/image/e36c02c8-3b41-4811-a2f6-8435783b37e3/AAABj3DWT-g/AAABjwnlKNc/16x9-512.jpg", "date": "2024-05-13T09:22:00.000+02:00", "lat": 53.249581, "lon": 10.406795, "intensity": 0.6, "source": "Tagesschau"}, {"title": "Salzgitter AG sp\u00fcrt Wirtschaftsflaute: Umsatz und Gewinn gesunken", "url": "https://www.tagesschau.de/inland/regional/niedersachsen/ndr-salzgitter-ag-spuert-wirtschaftsflaute-umsatz-und-gewinn-gesunken-100.html", "thumbnailUrl": "https://images.tagesschau.de/image/7b68a1d5-1f1d-40a1-a934-9382462deb36/AAABj3DQ9iU/AAABjwnlKNc/16x9-512.jpg", "date": "2024-05-13T09:16:00.000+02:00", "lat": 52.1475, "lon": 10.3333, "intensity": 0.8, "source": "Tagesschau"}, {"title": "Ist Russlands Offensive ein\u00a0Ablenkungsman\u00f6ver?", "url": "https://www.tagesschau.de/ausland/amerika/ukraine-charkiw-offensive-100.html", "thumbnailUrl": "https://images.tagesschau.de/image/4255e77c-d6ca-449b-9f7e-47f3126d4025/AAABj3C8GIo/AAABjwnlKNc/16x9-512.jpg", "date": "2024-05-13T09:13:58.594+02:00", "lat": 49.9935, "lon": 36.230383, "intensity": 0.7, "source": "Tagesschau"}, {"title": "1. FC Saarbr\u00fccken verabschiedet Pokalhelden Kerber, Gaus und Schreiber ", "url": "https://www.tagesschau.de/inland/regional/saarland/sr-1-fc-saarbruecken-verabschiedet-pokalhelden-kerber-gaus-und-schreiber-100.html", "thumbnailUrl": "https://images.tagesschau.de/image/c1e0bc07-c8c3-4fd5-9005-e922ab30e5a2/AAABj3DNGgk/AAABjwnlKNc/16x9-512.jpg", "date": "2024-05-13T09:12:00.000+02:00", "lat": 49.2402, "lon": 7.0, "intensity": 0.4, "source": "Tagesschau"}, {"title": "Polizei plant neue Suche nach vermisstem Arian aus Bremerv\u00f6rde", "url": "https://www.tagesschau.de/inland/regional/bremen/rb-polizei-plant-neue-suche-nach-vermisstem-arian-aus-bremervoerde-100.html", "thumbnailUrl": "https://images.tagesschau.de/image/a16b4067-ac2a-47c7-b8a1-6a9db9636869/AAABj3G3iJE/AAABjwnlKNc/16x9-512.jpg", "date": "2024-05-13T09:07:00.000+02:00", "lat": 53.478, "lon": 9.124, "intensity": 0.8, "source": "Tagesschau"}, {"title": "Darmstadt 98: +++ Fernie fehlen selbst die \"Basics\" +++ Klare Worte nach klarer Niederlage +++ Lieberknecht will mit Klarer und Schuhen reden +++", "url": "https://www.tagesschau.de/inland/regional/hessen/hr--tietz-vermisst-fehlende-gier--lilien-fans-liefern-sich-raststaetten-pruegelei--die-niederlage-der-lilien-in-der-video-zusammenfassung-102.html", "thumbnailUrl": "https://images.tagesschau.de/image/865ba993-677b-452b-9b92-2e41ec6d4b5e/AAABj3DHpew/AAABjwnlKNc/16x9-512.jpg", "date": "2024-05-13T09:06:39.362+02:00", "lat": 49.8717, "lon": 8.6553, "intensity": 0.5, "source": "Tagesschau"}, {"title": "Migration: Neuer Forschungsbereich startet an Uni Osnabr\u00fcck", "url": "https://www.tagesschau.de/inland/regional/niedersachsen/ndr-migration-neuer-forschungsbereich-startet-an-uni-osnabrueck-100.html", "thumbnailUrl": "https://images.tagesschau.de/image/28caf8c9-5ee5-482c-9274-28acbe4d05dd/AAABj3DGHGo/AAABjwnlKNc/16x9-512.jpg", "date": "2024-05-13T09:00:00.000+02:00", "lat": 52.2799, "lon": 8.0478, "intensity": 0.5, "source": "Tagesschau"}, {"title": "Einfamilienhaus-Keller in Flammen: Toter bei Brand in Stockstadt", "url": "https://www.tagesschau.de/inland/regional/hessen/hr-einfamilienhaus-keller-in-flammen-toter-bei-brand-in-stockstadt-100.html", "thumbnailUrl": "https://images.tagesschau.de/image/1c0b035d-4ce7-4b8d-b89b-13ecc1959375/AAABj3C4_as/AAABjwnlKNc/16x9-512.jpg", "date": "2024-05-13T08:50:51.085+02:00", "lat": 49.8958, "lon": 8.425, "intensity": 0.8, "source": "Tagesschau"}, {"title": "Rund 26.000 Liter G\u00fclle ausgelaufen - Lkw-Fahrer war zu schnell", "url": "https://www.tagesschau.de/inland/regional/niedersachsen/ndr-rund-26-000-liter-guelle-ausgelaufen-lkw-fahrer-zu-schnell-100.html", "thumbnailUrl": "https://images.tagesschau.de/image/6dd2fd98-754d-4f14-b6ff-a1e2536ea30f/AAABj3Cv8B4/AAABjwnlKNc/16x9-512.jpg", "date": "2024-05-13T08:39:00.000+02:00", "lat": 52.729351, "lon": 8.278799, "intensity": 0.7, "source": "Tagesschau"}, {"title": "Angriffe auf Politiker: Sch\u00e4rferes Strafrecht f\u00fcr Giffey \"nicht die einzige Antwort\"", "url": "https://www.tagesschau.de/inland/regional/berlin/rbb-angriffe-auf-politiker-schaerferes-strafrecht-fuer-giffey-nicht-die-einzige-antwort-100.html", "thumbnailUrl": "https://images.tagesschau.de/image/9bc5d587-1c84-4ae4-b11a-43e9da7703bd/AAABj3Cds7M/AAABjwnlKNc/16x9-512.jpg", "date": "2024-05-13T08:11:15.000+02:00", "lat": 52.52001, "lon": 13.40495, "intensity": 0.8, "source": "Tagesschau"}, {"title": "\"23 Stunden Fu\u00dfball\" am Tag: Der Triumph von St.-Pauli-Trainer H\u00fcrzeler", "url": "https://www.tagesschau.de/inland/regional/hamburg/ndr-23-stunden-fussball-am-tag-der-triumph-von-st-pauli-trainer-huerzeler-106.html", "thumbnailUrl": "https://images.tagesschau.de/image/a466ad26-1baa-47e8-b4a2-520ba71223c5/AAABj3NE9Y8/AAABjwnlKNc/16x9-512.jpg", "date": "2024-05-13T08:04:00.000+02:00", "lat": 53.5511, "lon": 9.9937, "intensity": 0.8, "source": "Tagesschau"}, {"title": "Eintracht Frankfurt f\u00fcr Europa qualifiziert: So kann's nicht weitergehen", "url": "https://www.tagesschau.de/inland/regional/hessen/hr-eintracht-frankfurt-in-der-europa-league-so-kanns-nicht-weitergehen-102.html", "thumbnailUrl": "https://images.tagesschau.de/image/cc14459f-9d45-442b-8cb6-dabe666d9e97/AAABj3CWO1I/AAABjwnlKNc/16x9-512.jpg", "date": "2024-05-13T08:01:02.838+02:00", "lat": 50.049683, "lon": 8.682127, "intensity": 0.8, "source": "Tagesschau"}, {"title": "USA fordern \"glaubhaften Plan\" f\u00fcr Zivilbev\u00f6lkerung", "url": "https://www.tagesschau.de/ausland/amerika/usa-rafah-schutz-zivilbevoelkerung-100.html", "thumbnailUrl": "https://images.tagesschau.de/image/04b31a42-565d-443d-a451-cf7c65bbcf65/AAABj3HCq34/AAABjwnlKNc/16x9-512.jpg", "date": "2024-05-13T08:00:23.073+02:00", "lat": 31.5226, "lon": 34.4536, "intensity": 0.8, "source": "Tagesschau"}, {"title": "Demo gegen A39-Ausbau: 140 Kilometer von Wolfsburg nach L\u00fcneburg", "url": "https://www.tagesschau.de/inland/regional/niedersachsen/ndr-demo-gegen-a39-ausbau-140-kilometer-von-wolfsburg-nach-lueneburg-100.html", "thumbnailUrl": "https://images.tagesschau.de/image/d30a8882-0e37-45dd-af35-e6dd2bbc86b6/AAABj3CQv_A/AAABjwnlKNc/16x9-512.jpg", "date": "2024-05-13T07:54:00.000+02:00", "lat": 52.6367, "lon": 10.7413, "intensity": 0.8, "source": "Tagesschau"}, {"title": "Mehr als nur Parken: Wie ein Parkhaus Heilbronn zur \"Pionierstadt\" machen soll", "url": "https://www.tagesschau.de/inland/regional/badenwuerttemberg/swr-mehr-als-nur-parken-wie-ein-parkhaus-heilbronn-zur-pionierstadt-machen-soll-100.html", "thumbnailUrl": "https://images.tagesschau.de/image/b196c90f-6d22-4452-bb17-ec6819c41f4e/AAABj3D1baE/AAABjwnlKNc/16x9-512.jpg", "date": "2024-05-13T07:51:23.000+02:00", "lat": 49.1427, "lon": 9.2223, "intensity": 0.6, "source": "Tagesschau"}, {"title": "Saarbr\u00fccken gewinnt gegen Freiburg II mit 2:1", "url": "https://www.tagesschau.de/inland/regional/saarland/sr-fcs-empfaengt-sc-freiburg-ii-102.html", "thumbnailUrl": "https://images.tagesschau.de/image/87fe8434-1921-4b01-b362-969c99c37510/AAABj3DNHfo/AAABjwnlKNc/16x9-512.jpg", "date": "2024-05-13T07:46:00.000+02:00", "lat": 49.2331, "lon": 6.9611, "intensity": 0.8, "source": "Tagesschau"}, {"title": "E-Bike Fahrerin in L\u00f6ningen bei Sturz lebensgef\u00e4hrlich verletzt", "url": "https://www.tagesschau.de/inland/regional/niedersachsen/ndr-e-bike-fahrerin-in-loeningen-bei-sturz-lebensgefaehrlich-verletzt-100.html", "thumbnailUrl": "https://images.tagesschau.de/image/43b76780-159b-4401-8838-633de7b98158/AAABj3CCEv4/AAABjwnlKNc/16x9-512.jpg", "date": "2024-05-13T07:43:00.000+02:00", "lat": 52.6611, "lon": 7.7981, "intensity": 0.8, "source": "Tagesschau"}, {"title": "Bahnstrecke zwischen Saarbr\u00fccken nach Mannheim an vier Wochenenden gesperrt", "url": "https://www.tagesschau.de/inland/regional/saarland/sr-bahnstrecke-zwischen-saarbruecken-nach-mannheim-an-vier-wochenenden-gesperrt-100.html", "thumbnailUrl": "https://images.tagesschau.de/image/3d1606f4-5df4-4242-8b3b-887034c782e7/AAABj3CJWi8/AAABjwnlKNc/16x9-512.jpg", "date": "2024-05-13T07:37:00.000+02:00", "lat": 49.2402, "lon": 7.0, "intensity": 0.7, "source": "Tagesschau"}, {"title": "Ernter\u00fcckgang erwartet: Erdbeer-Saison beginnt in Brandenburg", "url": "https://www.tagesschau.de/inland/regional/brandenburg/rbb-ernterueckgang-erwartet-erdbeer-saison-beginnt-in-brandenburg-100.html", "thumbnailUrl": "https://images.tagesschau.de/image/caa8c942-34ff-4f86-97bf-9e9fa1ba951f/AAABj3CD6_g/AAABjwnlKNc/16x9-512.jpg", "date": "2024-05-13T07:34:00.000+02:00", "lat": 52.52, "lon": 13.438, "intensity": 0.7, "source": "Tagesschau"}, {"title": "Guten Morgen, NRW!", "url": "https://www.tagesschau.de/inland/regional/nordrheinwestfalen/wdr-guten-morgen-nrw-476.html", "thumbnailUrl": "https://images.tagesschau.de/image/666c452e-2e4b-4679-b29d-393822cff0f9/AAABj3BkvMQ/AAABjwnlKNc/16x9-512.jpg", "date": "2024-05-13T07:17:00.000+02:00", "lat": 51.9607, "lon": 7.6261, "intensity": 0.4, "source": "Tagesschau"}, {"title": "Unfall mit drei Fahrzeugen auf der A1: Zwei Verletzte", "url": "https://www.tagesschau.de/inland/regional/niedersachsen/ndr-unfall-mit-drei-fahrzeugen-auf-der-a1-zwei-verletzte-100.html", "thumbnailUrl": "https://images.tagesschau.de/image/9829e806-a4f4-4fec-ab96-4615f9f3e602/AAABj3BfTe0/AAABjwnlKNc/16x9-512.jpg", "date": "2024-05-13T07:04:00.000+02:00", "lat": 52.724, "lon": 8.2763, "intensity": 0.8, "source": "Tagesschau"}, {"title": "Unfall auf L47 bei Klausen: 18-J\u00e4hrige verletzt ", "url": "https://www.tagesschau.de/inland/regional/rheinlandpfalz/swr-unfall-auf-l47-bei-klausen-18-jaehrige-verletzt-100.html", "thumbnailUrl": "https://images.tagesschau.de/image/5ca924a1-d24d-4088-a7ab-dc728b40fcc7/AAABj3KaoRg/AAABjwnlKNc/16x9-512.jpg", "date": "2024-05-13T06:50:24.000+02:00", "lat": 49.9183, "lon": 6.9628, "intensity": 0.7, "source": "Tagesschau"}, {"title": "Staugefahr wegen Bauarbeiten auf B74 in Bremen-Nord", "url": "https://www.tagesschau.de/inland/regional/bremen/rb-verkehr-auf-b74-in-bremen-nord-wird-wegen-bauarbeiten-umgeleitet-100.html", "thumbnailUrl": "https://images.tagesschau.de/image/6ce1f5a6-9991-4200-9215-c06e8a305b8c/AAABj3A-Zf8/AAABjwnlKNc/16x9-512.jpg", "date": "2024-05-13T06:33:00.000+02:00", "lat": 53.1435, "lon": 8.8406, "intensity": 0.6, "source": "Tagesschau"}, {"title": "Spitzenforscher arbeiten k\u00fcnftig in Braunschweig und Hannover", "url": "https://www.tagesschau.de/inland/regional/niedersachsen/ndr-spitzenforscher-arbeiten-kuenftig-in-braunschweig-und-hannover-100.html", "thumbnailUrl": "https://images.tagesschau.de/image/91c1dd10-43e7-4ed8-a980-884fcf5a96c2/AAABj3DYSIU/AAABjwnlKNc/16x9-512.jpg", "date": "2024-05-13T06:30:00.000+02:00", "lat": 52.268874, "lon": 10.52677, "intensity": 0.6, "source": "Tagesschau"}, {"title": "Saarbr\u00fccken von bundesweitem Telekom-Warnstreik betroffen", "url": "https://www.tagesschau.de/inland/regional/saarland/sr-saarbruecken-von-bundesweiten-telekom-warnstreik-betroffen-100.html", "thumbnailUrl": "https://images.tagesschau.de/image/a1be3b3d-bf71-497d-b2e5-8c7157bd2e07/AAABj3A6noo/AAABjwnlKNc/16x9-512.jpg", "date": "2024-05-13T06:27:00.000+02:00", "lat": 49.2354, "lon": 6.9814, "intensity": 0.7, "source": "Tagesschau"}, {"title": "Hafengeburtstag 2024 endet mit der gro\u00dfen Auslaufparade", "url": "https://www.tagesschau.de/inland/regional/hamburg/ndr-hamburger-hafengeburtstag-heute-grosse-auslaufparade-102.html", "thumbnailUrl": "https://images.tagesschau.de/image/7bbe207a-d64a-403c-9417-b1b181ff01ad/AAABj236mHk/AAABjwnlKNc/16x9-512.jpg", "date": "2024-05-13T06:21:00.000+02:00", "lat": 53.551086, "lon": 9.993682, "intensity": 1, "source": "Tagesschau"}, {"title": "Tag der Pflegenden: Pflegerat fordert 4.000 Euro f\u00fcr Fachkr\u00e4fte", "url": "https://www.tagesschau.de/inland/regional/niedersachsen/ndr-tag-der-pflegenden-pflegerat-fordert-4-000-euro-fuer-fachkraefte-100.html", "thumbnailUrl": "https://images.tagesschau.de/image/91d67209-703a-4e2e-a03c-fec0e8e08c6b/AAABj2zcdo8/AAABjwnlKNc/16x9-512.jpg", "date": "2024-05-13T06:18:00.000+02:00", "lat": 52.3759, "lon": 10.4515, "intensity": 0.8, "source": "Tagesschau"}, {"title": "Reise nach Tokio: Wegner mit BVG und Charit\u00e9 bei Mitsubishi und Fujitsu", "url": "https://www.tagesschau.de/inland/regional/berlin/rbb-reise-nach-tokio-wegner-mit-bvg-und-charit-bei-mitsubishi-und-fujitsu-100.html", "thumbnailUrl": "https://images.tagesschau.de/image/3ca82bd5-28e4-4d20-a475-47d4e7aa7051/AAABj3AktLA/AAABjwnlKNc/16x9-512.jpg", "date": "2024-05-13T06:06:25.000+02:00", "lat": 35.6895, "lon": 139.6917, "intensity": 0.6, "source": "Tagesschau"}, {"title": "Gesch\u00e4ftsmann aus Afghanistan unter Korruptionsverdacht", "url": "https://www.tagesschau.de/investigativ/swr/geschaeftsmann-afghanistan-deutschland-100.html", "thumbnailUrl": "https://images.tagesschau.de/image/6cf8c6c9-28bd-46da-9e31-5810edf7c7b1/AAABj3AbWVs/AAABjwnlKNc/16x9-512.jpg", "date": "2024-05-13T05:59:52.106+02:00", "lat": 34.5553, "lon": 69.2075, "intensity": 0.7, "source": "Tagesschau"}, {"title": "M\u00fcritz-Sail erstmals in drei Orten - Veranstalter zufrieden", "url": "https://www.tagesschau.de/inland/regional/mecklenburgvorpommern/ndr-mueritz-sail-erstmals-in-drei-orten-veranstalter-zufrieden-100.html", "thumbnailUrl": "https://images.tagesschau.de/image/79dbb232-b6b2-4106-bbde-cc3bf1d1644a/AAABj3A4zgA/AAABjwnlKNc/16x9-512.jpg", "date": "2024-05-13T05:51:00.000+02:00", "lat": 53.5504, "lon": 12.6765, "intensity": 0.7, "source": "Tagesschau"}, {"title": "Studierende entwickeln \"Wahl-O-Mat\" f\u00fcr Th\u00fcringer Kommunalwahlen mit", "url": "https://www.tagesschau.de/inland/regional/thueringen/mdr-studierende-entwickeln-wahl-o-mat-fuer-thueringer-kommunalwahlen-mit-100.html", "thumbnailUrl": "https://images.tagesschau.de/image/a4c84445-7689-416c-ac8d-2d4419d36ba6/AAABj3P_n8o/AAABjwnlKNc/16x9-512.jpg", "date": "2024-05-13T05:00:07.000+02:00", "lat": 50.92705, "lon": 11.58037, "intensity": 0.5, "source": "Tagesschau"}, {"title": "Ticketalarm: Mit NDR SH Die Fantastischen Vier live erleben", "url": "https://www.tagesschau.de/inland/regional/schleswigholstein/ndr-ticketalarm-mit-ndr-sh-die-fantastischen-vier-live-erleben-100.html", "thumbnailUrl": "https://images.tagesschau.de/image/1efd6a0d-bed3-4052-9e4a-88f00a89e15d/AAABj2_mc1s/AAABjwnlKNc/16x9-512.jpg", "date": "2024-05-13T05:00:00.000+02:00", "lat": 54.1286, "lon": 8.8572, "intensity": 0.5, "source": "Tagesschau"}, {"title": "Mobilfunkl\u00f6chern auf der Spur", "url": "https://www.tagesschau.de/inland/regional/nordrheinwestfalen/wdr-mobilfunkloechern-auf-der-spur-102.html", "thumbnailUrl": "https://images.tagesschau.de/image/80cb7d3d-d3c0-4bd9-bb68-d8a6b565df60/AAABj3I10WI/AAABjwnlKNc/16x9-512.jpg", "date": "2024-05-13T05:00:00.000+02:00", "lat": 51.4332, "lon": 7.6261, "intensity": 0.6, "source": "Tagesschau"}, {"title": "Neuer Regen, weitere Todesopfer", "url": "https://www.tagesschau.de/ausland/amerika/brasilien-flut-106.html", "thumbnailUrl": "https://images.tagesschau.de/image/9da5fcdb-f231-4cb3-94be-fa9cc28ff013/AAABj28VqwI/AAABjwnlKNc/16x9-512.jpg", "date": "2024-05-13T04:29:11.518+02:00", "lat": -15.780148, "lon": -47.929722, "intensity": 0.8, "source": "Tagesschau"}, {"title": "Nauseda und Simonyte in der Stichwahl", "url": "https://www.tagesschau.de/ausland/europa/litauen-148.html", "thumbnailUrl": "https://images.tagesschau.de/image/a1c20562-2987-49d2-9ae7-20e0d2eebb4b/AAABj2-_4xM/AAABjwnlKNc/16x9-512.jpg", "date": "2024-05-13T04:25:09.808+02:00", "lat": 54.6872, "lon": 25.2797, "intensity": 0.8, "source": "Tagesschau"}, {"title": "Scholz stellt sich im Haushaltsstreit an Lindners Seite", "url": "https://www.br.de/nachrichten/meldungen/index.html#n1", "thumbnailUrl": null, "date": "2024-05-14T03:07:42+02:00", "lat": 30.0444, "lon": 31.2357, "intensity": 0.8, "source": "Bayrischer Rundfunk"}, {"title": "Politiker sehen im AfD-Urteil Zeichen wehrhafter Demokratie", "url": "https://www.br.de/nachrichten/meldungen/index.html#n2", "thumbnailUrl": null, "date": "2024-05-14T03:07:42+02:00", "lat": 33.5138, "lon": 36.2021, "intensity": 0.8, "source": "Bayrischer Rundfunk"}, {"title": "Cyber-Kriminalit\u00e4t wird ein immer gr\u00f6\u00dferes Problem", "url": "https://www.br.de/nachrichten/meldungen/index.html#n3", "thumbnailUrl": null, "date": "2024-05-14T03:07:42+02:00", "lat": 39.9334, "lon": 32.8597, "intensity": 0.8, "source": "Bayrischer Rundfunk"}, {"title": "EU-Au\u00dfenminister besorgt \u00fcber umstrittenes Agenten-Gesetz in Georgien", "url": "https://www.br.de/nachrichten/meldungen/index.html#n4", "thumbnailUrl": null, "date": "2024-05-14T03:07:42+02:00", "lat": 52.520008, "lon": 13.404954, "intensity": 0.7, "source": "Bayrischer Rundfunk"}, {"title": "US-Regierung sieht keine Hinweise auf V\u00f6lkermord in Gaza", "url": "https://www.br.de/nachrichten/meldungen/index.html#n5", "thumbnailUrl": null, "date": "2024-05-14T03:07:42+02:00", "lat": 52.520008, "lon": 13.404954, "intensity": 0.6, "source": "Bayrischer Rundfunk"}, {"title": "Pro-Pal\u00e4stina-Demonstranten d\u00fcrfen vor M\u00fcnchner Uni campen", "url": "https://www.br.de/nachrichten/meldungen/index.html#n6", "thumbnailUrl": null, "date": "2024-05-14T03:07:42+02:00", "lat": 48.135125, "lon": 11.581981, "intensity": 0.6, "source": "Bayrischer Rundfunk"}, {"title": "Trumps Ex-Anwalt Cohen berichtet \u00fcber Schweigegeldzahlungen", "url": "https://www.br.de/nachrichten/meldungen/index.html#n7", "thumbnailUrl": null, "date": "2024-05-14T03:07:42+02:00", "lat": 50.110922, "lon": 8.682127, "intensity": 0.8, "source": "Bayrischer Rundfunk"}, {"title": "Katharina Wagner bleibt Festspielleiterin in Bayreuth", "url": "https://www.br.de/nachrichten/meldungen/index.html#n8", "thumbnailUrl": null, "date": "2024-05-14T03:07:42+02:00", "lat": 47.8684, "lon": 12.6394, "intensity": 0.8, "source": "Bayrischer Rundfunk"}, {"title": "Joost Klein muss nach Ausschluss vom ESC auch mit Anklage rechnen", "url": "https://www.br.de/nachrichten/meldungen/index.html#n9", "thumbnailUrl": null, "date": "2024-05-14T03:07:42+02:00", "lat": 48.5844, "lon": 13.6722, "intensity": 0.8, "source": "Bayrischer Rundfunk"}, {"title": "Eishockey-Nationalmannschaft verliert WM-Gruppenspiel gegen Schweden", "url": "https://www.br.de/nachrichten/meldungen/index.html#n10", "thumbnailUrl": null, "date": "2024-05-14T03:07:42+02:00", "lat": 53.5396, "lon": 8.5761, "intensity": 0.4, "source": "Bayrischer Rundfunk"}, {"title": "Das Wetter in Bayern: Nachts meist sternenklar, Tiefstwerte 6 bis 12 Grad", "url": "https://www.br.de/nachrichten/meldungen/index.html#n11", "thumbnailUrl": null, "date": "2024-05-14T03:07:42+02:00", "lat": 48.1351, "lon": 11.582, "intensity": 0.3, "source": "Bayrischer Rundfunk"}, {"title": "Eishockey: Deutschland kassiert gegen Schweden deutliche WM-Niederlage", "url": "https://www.rbb24.de/sport/beitrag/2024/05/eishockey-weltmeisterschaft-wm-deutschland-schweden-niederlage.html", "thumbnailUrl": null, "date": "Mon, 13 May 2024 23:13:41 +0200", "lat": 59.3293, "lon": 15.2551, "intensity": 0.8, "source": "RBB"}, {"title": "Video | Brandenburg: Private Initiative organisiert Neubau einer Kita in Brieselang", "url": "https://www.rbb24.de/panorama/beitrag/av7/video-brandenburg-kita-neubau-brieselang.html", "thumbnailUrl": null, "date": "Mon, 13 May 2024 21:28:00 +0200", "lat": 52.6384, "lon": 13.0764, "intensity": 0.6, "source": "RBB"}, {"title": "Video | Sinkende Urlauberzahlen: Wie angesagt ist die Hauptstadt noch bei Touristen?", "url": "https://www.rbb24.de/panorama/beitrag/av7/video-berlin-tourismus.html", "thumbnailUrl": null, "date": "Mon, 13 May 2024 21:14:31 +0200", "lat": 52.520008, "lon": 13.404954, "intensity": 0.6, "source": "RBB"}, {"title": "Union-Trainerin Ailien Poese: \"Wir haben den Profifu\u00dfball so sehr etabliert, dass er gelebt wird\"", "url": "https://www.rbb24.de/sport/beitrag/2024/05/fussball-frauen-ailien-poese-union-berlin-koepenick-interview.html", "thumbnailUrl": null, "date": "Mon, 13 May 2024 20:28:49 +0200", "lat": 52.5093, "lon": 13.4829, "intensity": 0.8, "source": "RBB"}, {"title": "Asylbewerber sollen in Brandenburg k\u00fcnftig 50 Euro in bar bekommen", "url": "https://www.rbb24.de/politik/beitrag/2024/05/brandenburg-landesregierung-asylbewerber-bezahlkarte-50-euro-bar.html", "thumbnailUrl": null, "date": "Mon, 13 May 2024 19:19:24 +0200", "lat": 52.6506, "lon": 13.0772, "intensity": 0.6, "source": "RBB"}, {"title": "Protest gegen Tesla: IHK Ostbrandenburg sieht Gefahren f\u00fcr die Wirtschaft", "url": "https://www.rbb24.de/panorama/beitrag/2024/05/tesla-proteste-folge-ihk.html", "thumbnailUrl": null, "date": "Mon, 13 May 2024 18:13:33 +0200", "lat": 52.52, "lon": 13.4167, "intensity": 0.7, "source": "RBB"}, {"title": "Reaktionen auf AfD-Urteil: von \"Fehlentscheidung\" bis \"schallende Ohrfeige\"", "url": "https://www.rbb24.de/politik/beitrag/2024/05/afd-verfassungsschutz-urteil-reaktionen-berlin-brandenburg.html", "thumbnailUrl": null, "date": "Mon, 13 May 2024 17:47:00 +0200", "lat": 53.5511, "lon": 9.9937, "intensity": 0.8, "source": "RBB"},