[{"title": "++ USA verst\u00e4rken Milit\u00e4rpr\u00e4senz im Nahen Osten ++", "url": "https://www.tagesschau.de/newsticker/liveblog-nahost-freitag-126.html", "thumbnailUrl": "https://images.tagesschau.de/image/c88e0de3-a41f-4214-b846-6cb8916a98cc/AAABh3O4er8/AAABjcWesUg/16x9-512.jpg", "date": "2024-04-13T02:01:28.164+02:00", "lat": 31.0461, "lon": 35.8439, "intensity": 0.9, "source": "Tagesschau"}, {"title": "Millionen Menschen im Sudan droht der Hungertod", "url": "https://www.tagesschau.de/ausland/afrika/sudan-kamepfe-100.html", "thumbnailUrl": "https://images.tagesschau.de/image/740c092a-a9a5-48dc-931a-f1aa8401f954/AAABjtS6wrw/AAABjcWesUg/16x9-512.jpg", "date": "2024-04-13T01:57:29.067+02:00", "lat": 12.8628, "lon": 30.2176, "intensity": 0.8, "source": "Tagesschau"}, {"title": "Biden erwartet baldigen Angriff des Irans", "url": "https://www.tagesschau.de/ausland/amerika/biden-warnung-iran-100.html", "thumbnailUrl": "https://images.tagesschau.de/image/2005ded8-860b-45f4-9302-c232746126ee/AAABjtRzaCI/AAABjcWesUg/16x9-512.jpg", "date": "2024-04-13T00:35:17.222+02:00", "lat": 35.689506, "lon": 51.183884, "intensity": 0.8, "source": "Tagesschau"}, {"title": "A7 bei Rendsburg bis Montag gesperrt - heute in beide Richtungen", "url": "https://www.tagesschau.de/inland/regional/schleswigholstein/ndr-a7-im-april-an-zwei-wochenenden-teilweise-voll-gesperrt-100.html", "thumbnailUrl": "https://images.tagesschau.de/image/c94e1b76-ddf3-408c-b9fd-92bae2df40ee/AAABjtRVaG4/AAABjcWesUg/16x9-512.jpg", "date": "2024-04-13T00:01:00.000+02:00", "lat": 54.2994, "lon": 9.6477, "intensity": 0.7, "source": "Tagesschau"}, {"title": "Neubrandenburg: Streit in Tiefgarage eskaliert", "url": "https://www.tagesschau.de/inland/regional/mecklenburgvorpommern/ndr-neubrandenburg-streit-in-tiefgarage-eskaliert-100.html", "thumbnailUrl": "https://images.tagesschau.de/image/0502325b-b9ea-4f30-a7f2-1ac6f1c375ff/AAABjtJt7F4/AAABjcWesUg/16x9-512.jpg", "date": "2024-04-12T22:47:00.000+02:00", "lat": 53.5579, "lon": 13.2664, "intensity": 0.8, "source": "Tagesschau"}, {"title": "Feuer in Germendorf (Oberhavel) f\u00fchrt zu starker Rauchentwicklung", "url": "https://www.tagesschau.de/inland/regional/brandenburg/rbb-feuer-in-germendorf-oberhavel-fuehrt-zu-starker-rauchentwicklung-100.html", "thumbnailUrl": "https://images.tagesschau.de/image/c90ff911-5444-4be2-8f0c-f4c8b452e1dc/AAABjtQRfYY/AAABjcWesUg/16x9-512.jpg", "date": "2024-04-12T22:46:15.000+02:00", "lat": 52.7976, "lon": 13.1688, "intensity": 0.8, "source": "Tagesschau"}, {"title": "Lohau und Efler bei Heim-EM in Saarbr\u00fccken ausgeschieden ", "url": "https://www.tagesschau.de/inland/regional/saarland/sr-lohau-und-efler-bei-heim-em-in-saarbruecken-ausgeschieden-100.html", "thumbnailUrl": "https://images.tagesschau.de/image/e9dbe027-3041-43e2-ad44-e3b16e7c86c7/AAABjtQWwO0/AAABjcWesUg/16x9-512.jpg", "date": "2024-04-12T22:45:00.000+02:00", "lat": 49.2402, "lon": 6.9814, "intensity": 0.8, "source": "Tagesschau"}, {"title": "0:2-Niederlage: Union Berlin entt\u00e4uscht beim FC Augsburg auf ganzer Linie", "url": "https://www.tagesschau.de/inland/regional/berlin/rbb-jetzt-live-hoeren-und-im-ticker-gelingt-union-berlin-der-dritte-auswaertssieg-der-saison-102.html", "thumbnailUrl": "https://images.tagesschau.de/image/f2920ba6-51b4-431d-864f-89c487b5c7ad/AAABjtP9fgM/AAABjcWesUg/16x9-512.jpg", "date": "2024-04-12T22:23:33.000+02:00", "lat": 48.37054, "lon": 10.89833, "intensity": 0.7, "source": "Tagesschau"}, {"title": "DEL 2-Playoffs: Kassel Huskies gewinnen erstes Spiel gegen Regensburg", "url": "https://www.tagesschau.de/inland/regional/hessen/hr-del-2-playoffs-kassel-huskies-gewinnen-erstes-spiel-gegen-regensburg-102.html", "thumbnailUrl": "https://images.tagesschau.de/image/d1084653-0d66-406f-9071-6c2ac4a52469/AAABjtP9ScE/AAABjcWesUg/16x9-512.jpg", "date": "2024-04-12T22:18:51.291+02:00", "lat": 51.3107, "lon": 9.4836, "intensity": 0.8, "source": "Tagesschau"}, {"title": "Fehlstart in die Berichtssaison", "url": "https://www.tagesschau.de/wirtschaft/finanzen/marktberichte/marktbericht-dax-dow-jones-gold-rekordhoch-oel-zinsen-ki-aktien-boerse-100.html", "thumbnailUrl": "https://images.tagesschau.de/image/d8efa7a4-17c1-414b-a6f1-5ab2f61b50ab/AAABjNoGUIg/AAABjcWesUg/16x9-512.jpg", "date": "2024-04-12T22:15:44.435+02:00", "lat": 50.1109, "lon": 8.6821, "intensity": 0.6, "source": "Tagesschau"}, {"title": "Basketball-Playoffs: Alba-Frauen erk\u00e4mpfen sich zweiten Halbfinal-Sieg", "url": "https://www.tagesschau.de/inland/regional/berlin/rbb-basketball-playoffs-alba-frauen-erkaempfen-sich-zweiten-halbfinal-sieg-102.html", "thumbnailUrl": "https://images.tagesschau.de/image/d61ed839-5e40-4b1f-add5-09d621bb4307/AAABjtP37g4/AAABjcWesUg/16x9-512.jpg", "date": "2024-04-12T22:10:00.000+02:00", "lat": 52.520008, "lon": 13.404954, "intensity": 0.7, "source": "Tagesschau"}, {"title": "HSV Hamburg holt Last-Minute-Punkt gegen den THW Kiel ", "url": "https://www.tagesschau.de/inland/regional/schleswigholstein/ndr-bitter-und-andersen-hsv-hamburg-holt-last-minute-punkt-gegen-thw-kiel-100.html", "thumbnailUrl": "https://images.tagesschau.de/image/ff35436b-e0ce-4602-a66c-2642fc208ff4/AAABjtPndSM/AAABjcWesUg/16x9-512.jpg", "date": "2024-04-12T21:55:00.000+02:00", "lat": 54.3233, "lon": 9.9485, "intensity": 0.8, "source": "Tagesschau"}, {"title": "Nach Brandanschlag: Weil besucht Synagoge in Oldenburg", "url": "https://www.tagesschau.de/inland/regional/niedersachsen/ndr-nach-brandanschlag-weil-besucht-synagoge-in-oldenburg-100.html", "thumbnailUrl": "https://images.tagesschau.de/image/05bab72c-d141-45b5-a168-39cf5fde6537/AAABjtPckyY/AAABjcWesUg/16x9-512.jpg", "date": "2024-04-12T21:48:00.000+02:00", "lat": 53.1435, "lon": 8.2145, "intensity": 0.8, "source": "Tagesschau"}, {"title": "4:0 gegen Hansa Rostock: Spielfreudige Hertha siegt und schielt doch noch nach oben", "url": "https://www.tagesschau.de/inland/regional/berlin/rbb-40-gegen-hansa-rostock-spielfreudige-hertha-siegt-und-schielt-doch-noch-nach-oben-102.html", "thumbnailUrl": "https://images.tagesschau.de/image/20a6cf5d-04af-47f1-bc88-739dafd7521c/AAABjtOwr2o/AAABjcWesUg/16x9-512.jpg", "date": "2024-04-12T21:43:14.000+02:00", "lat": 52.52, "lon": 13.405, "intensity": 0.8, "source": "Tagesschau"}, {"title": "Final Four: SG Flensburg-Handewitt tr\u00e4umt vom f\u00fcnften DHB-Pokal-Triumph", "url": "https://www.tagesschau.de/inland/regional/schleswigholstein/ndr-final-four-sg-flensburg-handewitt-traeumt-vom-fuenften-dhb-pokal-triumph-102.html", "thumbnailUrl": "https://images.tagesschau.de/image/9b3bd904-5059-4eb1-a8c4-c8e1c723a764/AAABjtIUq5A/AAABjcWesUg/16x9-512.jpg", "date": "2024-04-12T21:42:00.000+02:00", "lat": 54.3233, "lon": 6.9603, "intensity": 0.8, "source": "Tagesschau"}, {"title": "Regionaltangente West um Frankfurt braucht frisches Geld und mehr Tempo", "url": "https://www.tagesschau.de/inland/regional/hessen/hr-stadtbahnprojekt-rund-um-frankfurt-regionaltangente-west-braucht-frisches-geld-und-mehr-tempo-100.html", "thumbnailUrl": "https://images.tagesschau.de/image/3168d407-679f-4a14-9eb8-3439b7441271/AAABjtPTOtk/AAABjcWesUg/16x9-512.jpg", "date": "2024-04-12T21:39:09.875+02:00", "lat": 50.1109, "lon": 8.6821, "intensity": 0.6, "source": "Tagesschau"}, {"title": "EU will Verst\u00f6\u00dfe gegen Russland-Sanktionen eind\u00e4mmen", "url": "https://www.tagesschau.de/ausland/europa/eu-sanktionen-russland-162.html", "thumbnailUrl": "https://images.tagesschau.de/image/4468e314-ec00-49f2-9c16-ac41ce086a81/AAABjtO1EpA/AAABjcWesUg/16x9-512.jpg", "date": "2024-04-12T21:33:05.657+02:00", "lat": 51.4818, "lon": 9.9869, "intensity": 0.7, "source": "Tagesschau"}, {"title": "Energie Cottbus erobert mit einem 2:1 im Topspiel gegen Greifswald die Tabellenspitze der Regionalliga Nordost", "url": "https://www.tagesschau.de/inland/regional/brandenburg/rbb-energie-cottbus-erobert-mit-einem-21-im-topspiel-gegen-greifswald-die-tabellenspitze-der-regionalliga-nordost-102.html", "thumbnailUrl": "https://images.tagesschau.de/image/88b0cf35-b562-4857-b1b8-2f1e182b148f/AAABjtO9RLE/AAABjcWesUg/16x9-512.jpg", "date": "2024-04-12T21:31:22.000+02:00", "lat": 51.768072, "lon": 14.335274, "intensity": 0.8, "source": "Tagesschau"}, {"title": "Entgleiste Lok: Strecke zwischen Oranienburg und Berlin bleibt bis Mittwoch unterbrochen", "url": "https://www.tagesschau.de/inland/regional/brandenburg/rbb-entgleiste-lok-strecke-zwischen-oranienburg-und-berlin-bleibt-bis-mittwoch-unterbrochen-100.html", "thumbnailUrl": "https://images.tagesschau.de/image/0107479c-0c13-4044-95f1-5fec43613cc5/AAABjtPNsC0/AAABjcWesUg/16x9-512.jpg", "date": "2024-04-12T21:29:43.000+02:00", "lat": 52.7546, "lon": 13.2506, "intensity": 0.8, "source": "Tagesschau"}, {"title": "FC Homburg bei Torfestival in Offenbach erfolgreich ", "url": "https://www.tagesschau.de/inland/regional/saarland/sr-fc-homburg-bei-torfestival-in-offenbach-erfolgreich-102.html", "thumbnailUrl": "https://images.tagesschau.de/image/55bc495a-cf83-40ab-8019-36a5e95f097b/AAABjtPYdms/AAABjcWesUg/16x9-512.jpg", "date": "2024-04-12T21:25:00.000+02:00", "lat": 49.443266, "lon": 8.766444, "intensity": 0.8, "source": "Tagesschau"}, {"title": "H\u00f6chste Saisonpleite: Hansa Rostock geht bei Hertha BSC unter", "url": "https://www.tagesschau.de/inland/regional/mecklenburgvorpommern/ndr-hoechste-saisonpleite-hansa-rostock-geht-bei-hertha-bsc-unter-100.html", "thumbnailUrl": "https://images.tagesschau.de/image/8189b89b-78aa-41af-af4d-e11509303794/AAABjtOYbus/AAABjcWesUg/16x9-512.jpg", "date": "2024-04-12T21:21:00.000+02:00", "lat": 52.5219, "lon": 13.3087, "intensity": 0.8, "source": "Tagesschau"}, {"title": "Flughafen Frankfurt: 40 Jahre Startbahn West - wie der Protest bis heute nachwirkt", "url": "https://www.tagesschau.de/inland/regional/hessen/hr-frankfurter-flughafen-40-jahre-startbahn-west-das-lange-nachleben-des-protests-100.html", "thumbnailUrl": "https://images.tagesschau.de/image/8cf68072-a6e1-449e-8fb5-c80728f7975f/AAABjtO0A48/AAABjcWesUg/16x9-512.jpg", "date": "2024-04-12T21:05:39.012+02:00", "lat": 50.034444, "lon": 8.570556, "intensity": 0.8, "source": "Tagesschau"}, {"title": "Torspektakel in Regionalliga: Kickers Offenbach verliert trotz 3:0-F\u00fchrung gegen Homburg", "url": "https://www.tagesschau.de/inland/regional/hessen/hr-torspektakel-in-regionalliga-kickers-offenbach-verliert-trotz-30-fuehrung-gegen-homburg-102.html", "thumbnailUrl": "https://images.tagesschau.de/image/3a618b6e-74ae-4e80-b325-8cc2455e5fdd/AAABjtO5mFw/AAABjcWesUg/16x9-512.jpg", "date": "2024-04-12T21:00:46.618+02:00", "lat": 50.1018, "lon": 8.7448, "intensity": 0.9, "source": "Tagesschau"}, {"title": "Namensrecht: Traditionelle Nachnamen f\u00fcr Minderheiten bald erlaubt", "url": "https://www.tagesschau.de/inland/regional/schleswigholstein/ndr-namensrecht-traditionelle-nachnamen-fuer-minderheiten-bald-erlaubt-100.html", "thumbnailUrl": "https://images.tagesschau.de/image/04ec53a6-8a49-4f5b-898f-aac3b8128556/AAABjtO2D9Y/AAABjcWesUg/16x9-512.jpg", "date": "2024-04-12T21:00:00.000+02:00", "lat": 54.3233, "lon": 9.6869, "intensity": 0.7, "source": "Tagesschau"}, {"title": "1:2 bei Energie Cottbus: Greifswalder FC verliert die Tabellenf\u00fchrung", "url": "https://www.tagesschau.de/inland/regional/mecklenburgvorpommern/ndr-12-bei-energie-cottbus-greifswald-verliert-die-tabellenfuehrung-102.html", "thumbnailUrl": "https://images.tagesschau.de/image/4779fe39-a00d-45ae-82e4-c3a6ce4e6ebc/AAABjtOz2bs/AAABjcWesUg/16x9-512.jpg", "date": "2024-04-12T20:59:00.000+02:00", "lat": 53.050525, "lon": 14.328579, "intensity": 0.8, "source": "Tagesschau"}, {"title": "Mannheim: Farbattacke auf Fotoausstellung \u00fcber Terrorangriff der Hamas ", "url": "https://www.tagesschau.de/inland/regional/badenwuerttemberg/swr-mannheim-farbattacke-auf-fotoausstellung-ueber-terrorangriff-der-hamas-100.html", "thumbnailUrl": "https://images.tagesschau.de/image/addcce14-f743-4af7-8c8b-c036b06d899b/AAABjtOo6Jc/AAABjcWesUg/16x9-512.jpg", "date": "2024-04-12T20:53:00.000+02:00", "lat": 49.4875, "lon": 8.4599, "intensity": 0.8, "source": "Tagesschau"}, {"title": "Schaden von 645 Millionen Euro: Zwei M\u00e4nner bei Razzia gegen Cannabis-Plattform \"Juicy Fields\" verhaftet", "url": "https://www.tagesschau.de/inland/regional/berlin/rbb-schaden-von-645-millionen-euro-zwei-maenner-bei-razzia-gegen-cannabis-plattform-juicy-fields-verhaftet-100.html", "thumbnailUrl": "https://images.tagesschau.de/image/cefec750-430e-4a82-87ea-e734768955e8/AAABjtOnlzU/AAABjcWesUg/16x9-512.jpg", "date": "2024-04-12T20:51:04.000+02:00", "lat": 52.52, "lon": 13.405, "intensity": 0.8, "source": "Tagesschau"}, {"title": "Abipr\u00fcfungen in Niedersachsen unterbrochen", "url": "https://www.tagesschau.de/inland/regional/niedersachsen/abitur-niedersachsen-100.html", "thumbnailUrl": "https://images.tagesschau.de/image/58d8e3a9-40a1-4c3f-b955-7165d043c30d/AAABjtMf7z8/AAABjcWesUg/16x9-512.jpg", "date": "2024-04-12T20:50:00.000+02:00", "lat": 51.8503, "lon": 10.6109, "intensity": 0.8, "source": "Tagesschau"}, {"title": "Niedersachsen: Hochwasser verursacht Sch\u00e4den von 161 Millionen Euro", "url": "https://www.tagesschau.de/inland/regional/niedersachsen/ndr-niedersachsen-161-millionen-euro-schaden-durch-hochwasser-100.html", "thumbnailUrl": "https://images.tagesschau.de/image/e9ad6895-8d87-491a-b6f7-d926d5ca9239/AAABjtN_Lnw/AAABjcWesUg/16x9-512.jpg", "date": "2024-04-12T20:49:00.000+02:00", "lat": 52.6367, "lon": 10.4515, "intensity": 0.8, "source": "Tagesschau"}, {"title": "Ver.di will AfD-Politiker Mitgliedschaft entziehen", "url": "https://www.tagesschau.de/inland/regional/niedersachsen/ndr-ver-di-will-afd-politiker-mitgliedschaft-entziehen-100.html", "thumbnailUrl": "https://images.tagesschau.de/image/f0382ce5-11b8-4dec-bf78-be42714f27e9/AAABjtO2OPE/AAABjcWesUg/16x9-512.jpg", "date": "2024-04-12T20:40:00.000+02:00", "lat": 52.3759, "lon": 9.7439, "intensity": 0.4, "source": "Tagesschau"}, {"title": "Messe in Homburg informiert \u00fcber Lebensqualit\u00e4t im Alter", "url": "https://www.tagesschau.de/inland/regional/saarland/sr-messe-in-homburg-informiert-ueber-lebensqualitaet-im-alter-100.html", "thumbnailUrl": "https://images.tagesschau.de/image/47e4710e-23c3-422d-8ccf-5b81e9150666/AAABjtOd3os/AAABjcWesUg/16x9-512.jpg", "date": "2024-04-12T20:38:00.000+02:00", "lat": 49.322013, "lon": 7.314857, "intensity": 0.6, "source": "Tagesschau"}, {"title": "Schwerer Unfall auf der A6 an der Goldenen Bremm", "url": "https://www.tagesschau.de/inland/regional/saarland/sr-schwerer-unfall-auf-der-a6-an-der-goldenen-bremm-100.html", "thumbnailUrl": "https://images.tagesschau.de/image/78a99a7e-e9d6-4f3b-929f-6b6c9a0ddaa9/AAABjtMaCPM/AAABjcWesUg/16x9-512.jpg", "date": "2024-04-12T20:35:00.000+02:00", "lat": 49.2342, "lon": 6.9915, "intensity": 0.8, "source": "Tagesschau"}, {"title": "Fahrsicherheitstrainings f\u00fcr E-Bikes", "url": "https://www.tagesschau.de/inland/regional/rheinlandpfalz/swr-fahrsicherheitstrainings-fuer-e-bikes-102.html", "thumbnailUrl": "https://images.tagesschau.de/image/9cd9d048-b50b-44e1-b789-f486748e28ec/AAABjtOREeo/AAABjcWesUg/16x9-512.jpg", "date": "2024-04-12T20:25:11.000+02:00", "lat": 49.7938, "lon": 7.6692, "intensity": 0.6, "source": "Tagesschau"}, {"title": "S\u00e4nger Frank Zander feiert R\u00fcckkehr ins Berliner Olympiastadion ", "url": "https://www.tagesschau.de/inland/regional/berlin/rbb-saenger-frank-zander-feiert-rueckkehr-ins-berliner-olympiastadion-100.html", "thumbnailUrl": "https://images.tagesschau.de/image/f37c9a4c-3938-421a-b93a-e37dce11150f/AAABjtOP_IU/AAABjcWesUg/16x9-512.jpg", "date": "2024-04-12T20:22:08.000+02:00", "lat": 52.5075, "lon": 13.2502, "intensity": 0.7, "source": "Tagesschau"}, {"title": "Polizei beendet \"Pal\u00e4stina-Kongress\"", "url": "https://www.tagesschau.de/inland/regional/berlin/palaestina-kongress-berlin-100.html", "thumbnailUrl": "https://images.tagesschau.de/image/55d77320-7477-4b6c-9e27-979bef8d9a2d/AAABjtN4PuY/AAABjcWesUg/16x9-512.jpg", "date": "2024-04-12T19:57:11.000+02:00", "lat": 52.52, "lon": 13.405, "intensity": 0.8, "source": "Tagesschau"}, {"title": "Lindner will verschuldeten St\u00e4dten und Gemeinden helfen ", "url": "https://www.tagesschau.de/inland/regional/saarland/sr-lindner-will-verschuldeten-staedte-und-gemeinden-helfen-100.html", "thumbnailUrl": "https://images.tagesschau.de/image/f50c45f0-005d-4bdd-a0ff-55fc2f05fd0d/AAABjtOEO7k/AAABjcWesUg/16x9-512.jpg", "date": "2024-04-12T19:57:00.000+02:00", "lat": 49.2354, "lon": 6.9814, "intensity": 0.7, "source": "Tagesschau"}, {"title": "Thailands sorgenvoller Blick auf Myanmar", "url": "https://www.tagesschau.de/ausland/asien/myanmar-590.html", "thumbnailUrl": "https://images.tagesschau.de/image/ce17a837-5148-4867-842b-e11654b2c7e3/AAABjtNYHOg/AAABjcWesUg/16x9-512.jpg", "date": "2024-04-12T19:55:56.971+02:00", "lat": 16.052743, "lon": 98.656013, "intensity": 0.8, "source": "Tagesschau"}, {"title": "Streik bei Deutscher Telekom in Saarbr\u00fccken am Montag", "url": "https://www.tagesschau.de/inland/regional/saarland/sr-streik-bei-deutscher-telekom-in-saarbruecken-am-montag-100.html", "thumbnailUrl": "https://images.tagesschau.de/image/ed63191e-af54-410b-ac3f-fdab01f6a2ec/AAABjtN1m5Q/AAABjcWesUg/16x9-512.jpg", "date": "2024-04-12T19:55:00.000+02:00", "lat": 49.2354, "lon": 6.9814, "intensity": 0.8, "source": "Tagesschau"}, {"title": "FCS will gegen Sandhausen weiteren Dreier eint\u00fcten ", "url": "https://www.tagesschau.de/inland/regional/saarland/sr-fcs-will-gegen-sandhausen-weiteren-dreier-eintueten-102.html", "thumbnailUrl": "https://images.tagesschau.de/image/3121779e-9d98-4c8a-b802-65b0024807ed/AAABjtNzw44/AAABjcWesUg/16x9-512.jpg", "date": "2024-04-12T19:52:00.000+02:00", "lat": 49.2334, "lon": 6.9746, "intensity": 0.6, "source": "Tagesschau"}, {"title": "Wetterlage und Temperaturen", "url": "https://www.tagesschau.de/wetter/europa-welt", "thumbnailUrl": "https://images.tagesschau.de/image/6e7d3b16-79c8-4308-822b-20c3035236b5/AAABjtNucP4/AAABjcWesUg/16x9-512.jpg", "date": "2024-04-12T19:50:49.714+02:00", "lat": 51.1657, "lon": 10.4515, "intensity": 0.3, "source": "Tagesschau"}, {"title": "Schleif\u00e4hre \"Missunde II\": Frust statt Freude nach F\u00e4hrstart", "url": "https://www.tagesschau.de/inland/regional/schleswigholstein/ndr-schleifaehre-missunde-2-frust-statt-freude-nach-faehrstart-100.html", "thumbnailUrl": "https://images.tagesschau.de/image/8953d9b1-242b-4ded-8940-7c8bf49a13be/AAABjtOMFVo/AAABjcWesUg/16x9-512.jpg", "date": "2024-04-12T19:41:00.000+02:00", "lat": 54.6056, "lon": 9.6205, "intensity": 0.4, "source": "Tagesschau"}, {"title": "Ab Montag neue Streiks im \u00d6PNV", "url": "https://www.tagesschau.de/inland/regional/nordrheinwestfalen/wdr-ab-montag-neue-streiks-im-oepnv-100.html", "thumbnailUrl": "https://images.tagesschau.de/image/1932194a-5a49-4a68-aa39-e7749d1d1b00/AAABjtPd_PI/AAABjcWesUg/16x9-512.jpg", "date": "2024-04-12T19:39:00.000+02:00", "lat": 51.8133, "lon": 7.6261, "intensity": 0.8, "source": "Tagesschau"}, {"title": "Teressa-Platz in Hamburg eingeweiht", "url": "https://www.tagesschau.de/inland/regional/hamburg/ndr-teressa-platz-in-hamburg-eingeweiht-100.html", "thumbnailUrl": "https://images.tagesschau.de/image/21f0742b-90f8-4044-b663-8b14727923c2/AAABjtNsxuk/AAABjcWesUg/16x9-512.jpg", "date": "2024-04-12T19:37:00.000+02:00", "lat": 53.5576, "lon": 10.0086, "intensity": 0.7, "source": "Tagesschau"}, {"title": "Erste Auswilderung vor 90 Jahren: Wie der Waschb\u00e4r in Nordhessen zu einer Plage wurde", "url": "https://www.tagesschau.de/inland/regional/hessen/hr-erste-auswilderung-vor-90-jahren-wie-der-waschbaer-in-nordhessen-zu-einer-plage-wurde-100.html", "thumbnailUrl": "https://images.tagesschau.de/image/fbf84671-647f-4eb1-b6ad-fd735a9d6bcf/AAABjtNhoD4/AAABjcWesUg/16x9-512.jpg", "date": "2024-04-12T19:36:07.756+02:00", "lat": 51.3528, "lon": 9.2159, "intensity": 0.8, "source": "Tagesschau"}, {"title": "Landesparteitag in Wahlkampfzeiten: Die Brandenburger SPD will mit ihrem Ministerpr\u00e4sidenten punkten", "url": "https://www.tagesschau.de/inland/regional/brandenburg/rbb-landesparteitag-in-wahlkampfzeiten-die-brandenburger-spd-will-mit-ihrem-ministerpraesidenten-punkten-100.html", "thumbnailUrl": "https://images.tagesschau.de/image/d940fd36-45af-43f3-a06e-4b9d788ab0f2/AAABjtNhtJ0/AAABjcWesUg/16x9-512.jpg", "date": "2024-04-12T19:32:17.000+02:00", "lat": 52.3824, "lon": 13.0561, "intensity": 0.7, "source": "Tagesschau"}, {"title": "FDP in BW kann sich R\u00fcckkehr zur Kernkraft vorstellen ", "url": "https://www.tagesschau.de/inland/regional/badenwuerttemberg/swr-fdp-bw-kann-sich-rueckkehr-zur-kernkraft-vorstellen-100.html", "thumbnailUrl": "https://images.tagesschau.de/image/d43d5b34-a883-432a-9c6d-424b29191a45/AAABjtNb9VQ/AAABjcWesUg/16x9-512.jpg", "date": "2024-04-12T19:28:00.000+02:00", "lat": 49.2755, "lon": 9.1237, "intensity": 0.7, "source": "Tagesschau"}, {"title": "Wo\u00a0Klimaschutz und Landwirtschaft aufeinandertreffen", "url": "https://www.tagesschau.de/inland/mittendrin/wiedervernaessung-moore-100.html", "thumbnailUrl": "https://images.tagesschau.de/image/be931bb7-fc46-452e-89f2-bca9fba1290e/AAABjtLLr-U/AAABjcWesUg/16x9-512.jpg", "date": "2024-04-12T19:07:24.761+02:00", "lat": 51.1657, "lon": 10.4515, "intensity": 0.8, "source": "Tagesschau"}, {"title": "Unfall im Einsatz: Polizeiwagen kollidiert mit Auto", "url": "https://www.tagesschau.de/inland/regional/niedersachsen/ndr-unfall-im-einsatz-streifenwagen-kollidiert-mit-auto-100.html", "thumbnailUrl": "https://images.tagesschau.de/image/b4374961-8b7b-42d2-8288-dd655f8f3116/AAABjtNTeRM/AAABjcWesUg/16x9-512.jpg", "date": "2024-04-12T19:07:00.000+02:00", "lat": 52.8475, "lon": 7.9937, "intensity": 0.8, "source": "Tagesschau"}, {"title": "Dorfanwohner protestieren gegen Pl\u00e4ne f\u00fcr 250 Meter hohe Windr\u00e4der", "url": "https://www.tagesschau.de/inland/regional/brandenburg/rbb-dorfanwohner-protestieren-gegen-plaene-fuer-250-meter-hohe-windraeder-102.html", "thumbnailUrl": "https://images.tagesschau.de/image/f72f5995-ad61-42bf-bdd4-4f134d6643da/AAABjtNIK_M/AAABjcWesUg/16x9-512.jpg", "date": "2024-04-12T19:06:12.000+02:00", "lat": 52.3292, "lon": 13.2877, "intensity": 0.7, "source": "Tagesschau"}, {"title": "\"Ein historischer Tag\"", "url": "https://www.tagesschau.de/inland/innenpolitik/selbstbestimmungsgesetz-108.html", "thumbnailUrl": "https://images.tagesschau.de/image/6d1d2650-a2a4-4a55-8a5f-4723d7c300de/AAABjtNAgLU/AAABjcWesUg/16x9-512.jpg", "date": "2024-04-12T19:00:03.945+02:00", "lat": 52.5186, "lon": 13.3766, "intensity": 0.8, "source": "Tagesschau"}, {"title": "Darmst\u00e4dter Lungenarzt \u00c7elik erh\u00e4lt Bundesverdienstkreuz", "url": "https://www.tagesschau.de/inland/regional/hessen/hr-darmstaedter-lungenarzt-elik-erhaelt-bundesverdienstkreuz-100.html", "thumbnailUrl": "https://images.tagesschau.de/image/9d6406dd-fa6a-42c7-a13f-05e89e69e627/AAABjtMskbU/AAABjcWesUg/16x9-512.jpg", "date": "2024-04-12T18:36:42.963+02:00", "lat": 49.8728, "lon": 8.6693, "intensity": 0.6, "source": "Tagesschau"}, {"title": "Gro\u00dfteil der W\u00e4rmekraftwerke zerst\u00f6rt", "url": "https://www.tagesschau.de/ausland/europa/ukraine-kraftwerke-angriffe-100.html", "thumbnailUrl": "https://images.tagesschau.de/image/457f1cb2-6bda-4ddf-8e42-1d7ab20e488c/AAABjtKBbHg/AAABjcWesUg/16x9-512.jpg", "date": "2024-04-12T18:36:14.529+02:00", "lat": 50.4501, "lon": 30.5234, "intensity": 0.8, "source": "Tagesschau"}, {"title": "Berlin-Charlottenburg: Putzschicht des \"Happy Go Lucky\" wird entfernt - neuer Streit eskaliert", "url": "https://www.tagesschau.de/inland/regional/berlin/rbb-berlin-charlottenburg-putzschicht-des-happy-go-lucky-wird-entfernt-neuer-streit-eskaliert-100.html", "thumbnailUrl": "https://images.tagesschau.de/image/e141a8cc-57ea-4533-8a8f-27abf364e124/AAABjtMlVys/AAABjcWesUg/16x9-512.jpg", "date": "2024-04-12T18:23:56.000+02:00", "lat": 52.5166, "lon": 13.3074, "intensity": 0.6, "source": "Tagesschau"}, {"title": "Wie die Politik in Hessen zur Corona-Aufarbeitung steht", "url": "https://www.tagesschau.de/inland/regional/hessen/hr-wie-die-politik-in-hessen-zur-corona-aufarbeitung-steht-100.html", "thumbnailUrl": "https://images.tagesschau.de/image/a821fa4e-93a3-46b3-b304-10dc1f987fca/AAABjtMNaag/AAABjcWesUg/16x9-512.jpg", "date": "2024-04-12T18:02:46.270+02:00", "lat": 50.562817, "lon": 8.674201, "intensity": 0.4, "source": "Tagesschau"}, {"title": "BrandenburgTrend: Bev\u00f6lkerung ist beim Thema Wachstum der Tesla-Fabrik in Gr\u00fcnheide gespalten", "url": "https://www.tagesschau.de/inland/regional/brandenburg/rbb-brandenburgtrend-bevoelkerung-ist-beim-thema-wachstum-der-tesla-fabrik-in-gruenheide-gespalten-100.html", "thumbnailUrl": "https://images.tagesschau.de/image/27ce0c4b-41ac-43c2-a262-9098b094965c/AAABjtMWoC4/AAABjcWesUg/16x9-512.jpg", "date": "2024-04-12T18:00:21.000+02:00", "lat": 52.3356, "lon": 13.6194, "intensity": 0.7, "source": "Tagesschau"}, {"title": "Terrorverdacht: Haftbefehl gegen 16-J\u00e4hrigen aus Ostfildern", "url": "https://www.tagesschau.de/inland/regional/badenwuerttemberg/swr-terrorverdacht-haftbefehl-gegen-16-jaehrigen-aus-bw-100.html", "thumbnailUrl": "https://images.tagesschau.de/image/0ac847da-1c3e-47f8-87d5-cd1a303e1b7a/AAABjtJi8CA/AAABjcWesUg/16x9-512.jpg", "date": "2024-04-12T17:50:00.000+02:00", "lat": 48.6811, "lon": 9.2386, "intensity": 0.8, "source": "Tagesschau"}, {"title": "Marathon am Sonntag: Zahlreiche Stra\u00dfen in Hannover gesperrt", "url": "https://www.tagesschau.de/inland/regional/niedersachsen/ndr-marathon-am-sonntag-zahlreiche-strassen-in-hannover-gesperrt-100.html", "thumbnailUrl": "https://images.tagesschau.de/image/de19f775-3426-4719-821d-08ba2ca7a3e5/AAABjtL-_n0/AAABjcWesUg/16x9-512.jpg", "date": "2024-04-12T17:46:00.000+02:00", "lat": 52.3759, "lon": 9.7332, "intensity": 0.5, "source": "Tagesschau"}, {"title": "Saar-Mieterbund pl\u00e4diert f\u00fcr Mietpreisbremse in Saarbr\u00fccken ", "url": "https://www.tagesschau.de/inland/regional/saarland/sr-saar-mieterbund-plaediert-fuer-mietpreisbremse-in-saarbruecken-100.html", "thumbnailUrl": "https://images.tagesschau.de/image/4ed92810-001c-4619-b337-b6bcb82ff5f5/AAABjtMUirc/AAABjcWesUg/16x9-512.jpg", "date": "2024-04-12T17:46:00.000+02:00", "lat": 49.2354, "lon": 6.9704, "intensity": 0.8, "source": "Tagesschau"}, {"title": "Heilig-Rock-Tage in Trier: Gegen Rassismus und mit queeren Angeboten", "url": "https://www.tagesschau.de/inland/regional/rheinlandpfalz/swr-heilig-rock-tage-in-trier-gegen-rassismus-und-mit-queeren-angeboten-100.html", "thumbnailUrl": "https://images.tagesschau.de/image/27693f9b-ff02-4092-a22e-0646c27604fe/AAABjtIURiE/AAABjcWesUg/16x9-512.jpg", "date": "2024-04-12T17:44:00.000+02:00", "lat": 49.7497, "lon": 6.6496, "intensity": 0.8, "source": "Tagesschau"}, {"title": "So unterst\u00fctzt KI Sportler in Heide und Elmshorn", "url": "https://www.tagesschau.de/inland/regional/schleswigholstein/ndr-so-unterstuetzt-ki-sportler-in-heide-und-elmshorn-100.html", "thumbnailUrl": "https://images.tagesschau.de/image/cd1d413d-4c12-4e27-b7d6-0d7b34e59c9e/AAABjtL-6AQ/AAABjcWesUg/16x9-512.jpg", "date": "2024-04-12T17:42:00.000+02:00", "lat": 54.3139, "lon": 9.7492, "intensity": 0.7, "source": "Tagesschau"}, {"title": "Wegen Bauarbeiten: Z\u00fcge des RE1 zwischen Frankfurt (Oder) und Cottbus fallen drei Wochen aus", "url": "https://www.tagesschau.de/inland/regional/brandenburg/rbb-wegen-bauarbeiten-zuege-des-re1-zwischen-frankfurt-oder-und-cottbus-fallen-drei-wochen-aus-100.html", "thumbnailUrl": "https://images.tagesschau.de/image/385960ab-4e5b-4836-a52b-afd58b6c41cb/AAABjtMWuic/AAABjcWesUg/16x9-512.jpg", "date": "2024-04-12T17:40:24.000+02:00", "lat": 52.52, "lon": 14.3896, "intensity": 0.7, "source": "Tagesschau"}, {"title": "Ermittler halten sich bedeckt: Hintergr\u00fcnde zur mutma\u00dflichen Bohnsdorfer \"Drogenk\u00fcche\" immer noch unbekannt", "url": "https://www.tagesschau.de/inland/regional/berlin/rbb-ermittler-halten-sich-bedeckt-hintergruende-zur-mutmasslichen-bohnsdorfer-drogenkueche-immer-noch-unbekannt-100.html", "thumbnailUrl": "https://images.tagesschau.de/image/be3a82c1-e849-4cac-93e9-6832f1533e68/AAABjtL5d0E/AAABjcWesUg/16x9-512.jpg", "date": "2024-04-12T17:39:43.000+02:00", "lat": 52.4008, "lon": 13.5384, "intensity": 0.8, "source": "Tagesschau"}, {"title": "Neue Enth\u00fcllungen in der CDU-Spendenaff\u00e4re?", "url": "https://www.tagesschau.de/inland/innenpolitik/schaeuble-biographie-100.html", "thumbnailUrl": "https://images.tagesschau.de/image/d94d8c83-9ef1-4729-a338-3cbcd3f3575b/AAABjtLRpg8/AAABjcWesUg/16x9-512.jpg", "date": "2024-04-12T17:33:27.140+02:00", "lat": 53.5653, "lon": 9.9475, "intensity": 0.8, "source": "Tagesschau"}, {"title": "Til Schweiger offenbar erkrankt: So l\u00e4sst sich eine Sepsis erkennen", "url": "https://www.tagesschau.de/inland/regional/nordrheinwestfalen/wdr-til-schweiger-offenbar-erkrankt-so-laesst-sich-eine-sepsis-erkennen-100.html", "thumbnailUrl": "https://images.tagesschau.de/image/4678a228-63da-4676-9b58-b6283a1b89f6/AAABjtOo1a4/AAABjcWesUg/16x9-512.jpg", "date": "2024-04-12T17:33:00.000+02:00", "lat": 51.9607, "lon": 7.6261, "intensity": 0.7, "source": "Tagesschau"}, {"title": "Illegales Autorennen? Zwei Schwerverletzte in Bad Pyrmont", "url": "https://www.tagesschau.de/inland/regional/niedersachsen/ndr-illegales-autorennen-zwei-schwerverletzte-in-bad-pyrmont-100.html", "thumbnailUrl": "https://images.tagesschau.de/image/94d180d4-ea89-4a78-a400-ec7ff90a4932/AAABjtLulEc/AAABjcWesUg/16x9-512.jpg", "date": "2024-04-12T17:28:00.000+02:00", "lat": 51.9804, "lon": 9.2612, "intensity": 0.8, "source": "Tagesschau"}, {"title": "Bundestag beschlie\u00dft Bezahlkarte: NRW-St\u00e4dte haben Fragen", "url": "https://www.tagesschau.de/inland/regional/nordrheinwestfalen/wdr-bundestag-beschliesst-bezahlkarte-nrw-staedte-haben-fragen-100.html", "thumbnailUrl": "https://images.tagesschau.de/image/0c0da261-d954-48d0-a219-2d22523379f5/AAABjtL1aMU/AAABjcWesUg/16x9-512.jpg", "date": "2024-04-12T17:19:00.000+02:00", "lat": 51.4556, "lon": 9.982, "intensity": 0.6, "source": "Tagesschau"}, {"title": "Foto-Fahndung nach Shisha-Bar-Mord: Wer ist Mansour Ismail?", "url": "https://www.tagesschau.de/inland/regional/hamburg/ndr-foto-fahndung-nach-shisha-bar-mord-wer-ist-mansour-ismail-100.html", "thumbnailUrl": "https://images.tagesschau.de/image/c7f12a25-a4fb-44a4-9775-af33d5335604/AAABjtLo__M/AAABjcWesUg/16x9-512.jpg", "date": "2024-04-12T17:15:00.000+02:00", "lat": 53.551085, "lon": 9.993682, "intensity": 0.9, "source": "Tagesschau"}, {"title": "OVG-Urteil: Wolfsabschuss in der Region Hannover bleibt verboten", "url": "https://www.tagesschau.de/inland/regional/niedersachsen/ndr-ovg-urteil-wolfsabschuss-in-der-region-hannover-bleibt-verboten-100.html", "thumbnailUrl": "https://images.tagesschau.de/image/9d218fcc-e3de-406e-8cb1-8b46c3940e0a/AAABjtLhyxs/AAABjcWesUg/16x9-512.jpg", "date": "2024-04-12T17:09:00.000+02:00", "lat": 52.3759, "lon": 9.7376, "intensity": 0.7, "source": "Tagesschau"}, {"title": "Spitzen von Gr\u00fcnen und CDU BW entscheiden \u00fcber millionenschwere Bildungsreformen", "url": "https://www.tagesschau.de/inland/regional/badenwuerttemberg/swr-spitzen-von-gruenen-und-cdu-bw-entscheiden-ueber-millionenschwere-bildungsreformen-100.html", "thumbnailUrl": "https://images.tagesschau.de/image/5221f960-38f9-486c-bfec-4f7ce42b51a0/AAABjtK-fy8/AAABjcWesUg/16x9-512.jpg", "date": "2024-04-12T17:00:00.000+02:00", "lat": 48.7758, "lon": 9.1895, "intensity": 0.8, "source": "Tagesschau"}, {"title": "Ab 1. Juli 2024: BVG startet Pilotprojekt f\u00fcr Busse und Bahnen ohne festen Fahrplan", "url": "https://www.tagesschau.de/inland/regional/brandenburg/rbb-ab-1-juli-2024-bvg-startet-pilotprojekt-fuer-busse-und-bahnen-ohne-festen-fahrplan-100.html", "thumbnailUrl": "https://images.tagesschau.de/image/1821dc18-8b13-4803-8b8d-0028875a6b0a/AAABjtLU0ao/AAABjcWesUg/16x9-512.jpg", "date": "2024-04-12T16:59:46.000+02:00", "lat": 52.5167, "lon": 13.3833, "intensity": 0.7, "source": "Tagesschau"}, {"title": "Polen will Abtreibungsrecht liberalisieren", "url": "https://www.tagesschau.de/ausland/europa/polen-abtreibungsrecht-parlament-100.html", "thumbnailUrl": "https://images.tagesschau.de/image/d2b14160-6a22-4d75-a37c-4e331adb356b/AAABjtKtPlU/AAABjcWesUg/16x9-512.jpg", "date": "2024-04-12T16:55:10.869+02:00", "lat": 51.9194, "lon": 19.1451, "intensity": 0.8, "source": "Tagesschau"}, {"title": "Scholz kritisiert \"Agenten-Gesetz\" Georgiens", "url": "https://www.tagesschau.de/inland/innenpolitik/bundeskanzler-eu-georgien-100.html", "thumbnailUrl": "https://images.tagesschau.de/image/aca0d1d0-4a06-4b17-b193-b332cde464c8/AAABjtLNzEM/AAABjcWesUg/16x9-512.jpg", "date": "2024-04-12T16:54:46.628+02:00", "lat": 41.7171, "lon": 44.793, "intensity": 0.7, "source": "Tagesschau"}, {"title": "Parteitags-Wochenende: SPD w\u00e4hlt Schwesig, CDU setzt auf Peters", "url": "https://www.tagesschau.de/inland/regional/mecklenburgvorpommern/ndr-parteitags-wochenende-spd-waehlt-schwesig-cdu-setzt-auf-peters-100.html", "thumbnailUrl": "https://images.tagesschau.de/image/0ae29166-5371-4948-b3c3-54a7c33b20e9/AAABjtLUf2E/AAABjcWesUg/16x9-512.jpg", "date": "2024-04-12T16:53:51.617+02:00", "lat": 53.612, "lon": 13.444, "intensity": 0.7, "source": "Tagesschau"}, {"title": "Asiatische Tigerm\u00fccke in Hessen: Wie Sie helfen k\u00f6nnen, das Insekt zu bek\u00e4mpfen", "url": "https://www.tagesschau.de/inland/regional/hessen/hr-asiatische-tigermuecke-in-hessen-wie-sie-helfen-koennen-das-insekt-zu-bekaempfen-100.html", "thumbnailUrl": "https://images.tagesschau.de/image/694659be-9747-470c-9a78-c05cf79cc4fe/AAABjtLJsvQ/AAABjcWesUg/16x9-512.jpg", "date": "2024-04-12T16:50:03.133+02:00", "lat": 50.8058, "lon": 8.6421, "intensity": 0.7, "source": "Tagesschau"}, {"title": "Premiere von \"Ulster American\" im Berliner Schaub\u00fchnen-Studio: Mittelalte wei\u00dfe M\u00e4nner und ihr Handicap", "url": "https://www.tagesschau.de/inland/regional/berlin/rbb-premiere-von-ulster-american-im-berliner-schaubuehnen-studio-mittelalte-weisse-maenner-und-ihr-handicap-100.html", "thumbnailUrl": "https://images.tagesschau.de/image/0fd781c3-c935-4efe-9f61-23a294c28867/AAABjtLJ5N0/AAABjcWesUg/16x9-512.jpg", "date": "2024-04-12T16:46:45.000+02:00", "lat": 52.517, "lon": 13.3889, "intensity": 0.6, "source": "Tagesschau"}, {"title": "Kriminalit\u00e4t: Menschen mit Migrationsgeschichte unter Generalverdacht?", "url": "https://www.tagesschau.de/inland/regional/hamburg/ndr-kriminalitaet-menschen-mit-migrationsgeschichte-unter-generalverdacht-100.html", "thumbnailUrl": "https://images.tagesschau.de/image/c544e792-218c-4b7f-ab35-20edaf0c0f23/AAABjtLsi8w/AAABjcWesUg/16x9-512.jpg", "date": "2024-04-12T16:45:00.000+02:00", "lat": 53.5511, "lon": 9.9937, "intensity": 0.7, "source": "Tagesschau"}, {"title": "Nach hitziger Debatte: Bundestag beschlie\u00dft Selbstbestimmungsgesetz und neues Namensrecht", "url": "https://www.tagesschau.de/inland/regional/brandenburg/rbb-leichtere-aenderung-von-geschlechtseintraegen-bundestag-stimmt-ueber-selbstbestimmungsgesetz-ab-100.html", "thumbnailUrl": "https://images.tagesschau.de/image/3ff3f661-000d-4aa7-b553-2b2e88f36be3/AAABjtLF78g/AAABjcWesUg/16x9-512.jpg", "date": "2024-04-12T16:42:25.000+02:00", "lat": 52.520008, "lon": 13.404954, "intensity": 0.8, "source": "Tagesschau"}, {"title": "Hohe UV-Belastung im Saarland erwartet", "url": "https://www.tagesschau.de/inland/regional/saarland/sr-hohe-uv-belastung-im-saarland-erwartet-100.html", "thumbnailUrl": "https://images.tagesschau.de/image/122b36d4-fa74-48f4-83a4-7f7017dcde13/AAABjtLD-NQ/AAABjcWesUg/16x9-512.jpg", "date": "2024-04-12T16:38:00.000+02:00", "lat": 49.3964, "lon": 6.9964, "intensity": 0.8, "source": "Tagesschau"}, {"title": "Fatou wird 67: \u00c4ltester Gorilla der Welt feiert im Berliner Zoo Geburtstag", "url": "https://www.tagesschau.de/inland/regional/berlin/rbb-fatou-wird-67-aeltester-gorilla-der-welt-feiert-im-berliner-zoo-geburtstag-100.html", "thumbnailUrl": "https://images.tagesschau.de/image/ec385c08-afaf-47b9-9cec-bbf29a56ba63/AAABjtKCYsw/AAABjcWesUg/16x9-512.jpg", "date": "2024-04-12T16:36:05.000+02:00", "lat": 52.50753, "lon": 13.35168, "intensity": 0.8, "source": "Tagesschau"}, {"title": "MV will neues Drogentest-Projekt in Rostock starten", "url": "https://www.tagesschau.de/inland/regional/mecklenburgvorpommern/ndr-mv-will-neues-drogentest-projekt-in-rostock-starten-100.html", "thumbnailUrl": "https://images.tagesschau.de/image/711253e1-9ac1-4614-9033-3b80ecc87276/AAABjtK5AXI/AAABjcWesUg/16x9-512.jpg", "date": "2024-04-12T16:27:00.000+02:00", "lat": 54.0887, "lon": 12.1371, "intensity": 0.7, "source": "Tagesschau"}, {"title": "Europawahl in MV: Infoveranstaltung ohne die AfD", "url": "https://www.tagesschau.de/inland/regional/mecklenburgvorpommern/ndr-europawahl-in-mv-infoveranstaltung-ohne-die-afd-100.html", "thumbnailUrl": "https://images.tagesschau.de/image/4932466e-c940-4c29-a141-e3ba643c73a2/AAABjtLNJus/AAABjcWesUg/16x9-512.jpg", "date": "2024-04-12T16:23:00.000+02:00", "lat": 53.6127, "lon": 12.5655, "intensity": 0.4, "source": "Tagesschau"}, {"title": "Heilbronner Polizei schnappt bundesweit agierende Metalldiebe ", "url": "https://www.tagesschau.de/inland/regional/badenwuerttemberg/swr-heilbronner-polizei-schnappt-bundesweit-agierende-metalldiebe-100.html", "thumbnailUrl": "https://images.tagesschau.de/image/a13af00f-c95a-4cf8-a370-bc897bbf1743/AAABjtOwVOA/AAABjcWesUg/16x9-512.jpg", "date": "2024-04-12T16:22:59.000+02:00", "lat": 49.142692, "lon": 9.208415, "intensity": 0.8, "source": "Tagesschau"}, {"title": "G\u00e4ubahn und Pfaffensteigtunnel: Wie geht es weiter?", "url": "https://www.tagesschau.de/inland/regional/badenwuerttemberg/swr-gaeubahn-und-pfaffensteigtunnel-wie-geht-es-weiter-100.html", "thumbnailUrl": "https://images.tagesschau.de/image/dfa5a795-7602-45ae-84d2-4c56a2d2eeaf/AAABjtKzjt0/AAABjcWesUg/16x9-512.jpg", "date": "2024-04-12T16:22:00.000+02:00", "lat": 48.6616, "lon": 8.4906, "intensity": 0.7, "source": "Tagesschau"}, {"title": "Bundestag beschlie\u00dft Selbstbestimmungsgesetz", "url": "https://www.tagesschau.de/inland/selbstbestimmungsgesetz-bundestag-102.html", "thumbnailUrl": "https://images.tagesschau.de/image/4ad0b88c-f1ad-48c1-bf32-17258e442434/AAABjtKZzqg/AAABjcWesUg/16x9-512.jpg", "date": "2024-04-12T16:19:17.852+02:00", "lat": 52.5159, "lon": 13.3762, "intensity": 0.8, "source": "Tagesschau"}, {"title": "Ausstellung von Naama Tsabar im Hamburger Bahnhof: Was kann mit Filz alles passieren?", "url": "https://www.tagesschau.de/inland/regional/berlin/rbb-ausstellung-von-naama-tsabar-im-hamburger-bahnhof-was-kann-mit-filz-alles-passieren-100.html", "thumbnailUrl": "https://images.tagesschau.de/image/e0317e9f-38c0-4984-89c2-8daca7da46c1/AAABjtKyCnM/AAABjcWesUg/16x9-512.jpg", "date": "2024-04-12T16:15:18.000+02:00", "lat": 52.52, "lon": 13.3769, "intensity": 0.6, "source": "Tagesschau"}, {"title": "Bis zu Auto-Unf\u00e4lle vorget\u00e4uscht: Polizei nimmt zwei M\u00e4nner in Bad K\u00f6nig fest", "url": "https://www.tagesschau.de/inland/regional/hessen/hr-bis-zu-auto-unfaelle-vorgetaeuscht-polizei-nimmt-zwei-maenner-in-bad-koenig-fest-100.html", "thumbnailUrl": "https://images.tagesschau.de/image/2a9d19d2-6fe4-410f-9c11-78002dc843f3/AAABjtLo30Q/AAABjcWesUg/16x9-512.jpg", "date": "2024-04-12T16:09:31.609+02:00", "lat": 49.7475, "lon": 8.9971, "intensity": 0.8, "source": "Tagesschau"}, {"title": "\"Industriestandort Deutschland in Gefahr\"", "url": "https://www.tagesschau.de/wirtschaft/konjunktur/brief-arbeitgeber-ig-metall-100.html", "thumbnailUrl": "https://images.tagesschau.de/image/301ef414-9bb3-43d7-8f53-124636c94d0c/AAABiAWes2U/AAABjcWesUg/16x9-512.jpg", "date": "2024-04-12T16:08:20.985+02:00", "lat": 51.1657, "lon": 10.4515, "intensity": 0.8, "source": "Tagesschau"}, {"title": "Thail\u00e4ndische Handelsgruppe kauft KaDeWe-Geb\u00e4ude", "url": "https://www.tagesschau.de/wirtschaft/unternehmen/kadewe-thailand-handelsgruppe-100.html", "thumbnailUrl": "https://images.tagesschau.de/image/3db4102e-2ce7-4208-a454-7305f1241a6a/AAABjVCoO-g/AAABjcWesUg/16x9-512.jpg", "date": "2024-04-12T16:06:52.860+02:00", "lat": 52.5108, "lon": 13.3374, "intensity": 0.8, "source": "Tagesschau"}, {"title": "Landesmuseum Mainz kl\u00e4rt Herkunft von Kunst aus der NS-Zeit", "url": "https://www.tagesschau.de/inland/regional/rheinlandpfalz/swr-landesmuseum-mainz-klaert-herkunft-von-kunst-aus-der-ns-zeit-100.html", "thumbnailUrl": "https://images.tagesschau.de/image/20d6c947-d203-45cf-ab4e-df73f42de87d/AAABjtKqYuM/AAABjcWesUg/16x9-512.jpg", "date": "2024-04-12T16:02:02.000+02:00", "lat": 49.992862, "lon": 8.247252, "intensity": 0.6, "source": "Tagesschau"}, {"title": "Razzia wegen ehemaliger M\u00fclldeponien bei Nestl\u00e9 Waters in den Vogesen ", "url": "https://www.tagesschau.de/inland/regional/saarland/sr-razzia-wegen-ehemaliger-muelldeponien-bei-nstle-waters-in-den-vogesen-100.html", "thumbnailUrl": "https://images.tagesschau.de/image/18a6d910-9db3-4640-aea1-80659d4fe625/AAABjtN1nSE/AAABjcWesUg/16x9-512.jpg", "date": "2024-04-12T15:56:00.000+02:00", "lat": 48.2013, "lon": 6.1518, "intensity": 0.8, "source": "Tagesschau"}, {"title": "G\u00fcllelaster kippt um - Polizei sucht Zeugen des Unfalls", "url": "https://www.tagesschau.de/inland/regional/niedersachsen/ndr-guellelaster-kippt-um-polizei-sucht-zeugen-des-unfalls-100.html", "thumbnailUrl": "https://images.tagesschau.de/image/655a4064-8872-4ab2-ac58-78d783c9e023/AAABjtK9EBc/AAABjcWesUg/16x9-512.jpg", "date": "2024-04-12T15:55:00.000+02:00", "lat": 52.3759, "lon": 9.7361, "intensity": 0.6, "source": "Tagesschau"}, {"title": "Immobilienkauf: Insolvente Signa verkauft KaDeWe an thail\u00e4ndischen Handelskonzern", "url": "https://www.tagesschau.de/inland/regional/berlin/rbb-laut-medienbericht-signa-verkauft-kadewe-an-thailaendischen-handelskonzern-100.html", "thumbnailUrl": "https://images.tagesschau.de/image/cba96b71-d72e-40b1-97e4-84d074be07e6/AAABjtKRCGw/AAABjcWesUg/16x9-512.jpg", "date": "2024-04-12T15:51:56.000+02:00", "lat": 52.5174, "lon": 13.3417, "intensity": 0.8, "source": "Tagesschau"}, {"title": "Nach Kabelbrand wochenlang unterbrochen: U6 f\u00e4hrt ab Montag wieder bis zur Reinickendorfer Stra\u00dfe", "url": "https://www.tagesschau.de/inland/regional/berlin/rbb-nach-kabelbrand-wochenlang-unterbrochen-u6-faehrt-ab-montag-wieder-bis-zur-reinickendorfer-strasse-100.html", "thumbnailUrl": "https://images.tagesschau.de/image/780e6be4-153c-4f27-982e-b4650471507f/AAABjtKS2yo/AAABjcWesUg/16x9-512.jpg", "date": "2024-04-12T15:49:12.000+02:00", "lat": 52.5674, "lon": 13.2904, "intensity": 0.7, "source": "Tagesschau"}, {"title": "Schiffbr\u00fcchige auf winziger Pazifik-Insel entdeckt", "url": "https://www.tagesschau.de/ausland/amerika/schiffbruechige-pazifik-100.html", "thumbnailUrl": "https://images.tagesschau.de/image/d5b6db28-0d4a-46db-a9ed-c8470cf5ddcc/AAABjs6nbtY/AAABjcWesUg/16x9-512.jpg", "date": "2024-04-12T15:48:43.201+02:00", "lat": -46.4028, "lon": -5.8138, "intensity": 0.8, "source": "Tagesschau"}, {"title": "Grabowh\u00f6fe: Bahn antwortet auf Diskussion um Br\u00fccken-Kosten", "url": "https://www.tagesschau.de/inland/regional/mecklenburgvorpommern/ndr-grabowhoefe-bahn-antwortet-auf-diskussion-um-bruecken-kosten-100.html", "thumbnailUrl": "https://images.tagesschau.de/image/8c4a5f0b-c818-4318-9222-a23fdf49f4a1/AAABjtK64Qk/AAABjcWesUg/16x9-512.jpg", "date": "2024-04-12T15:48:00.000+02:00", "lat": 53.6841, "lon": 11.6691, "intensity": 0.7, "source": "Tagesschau"}, {"title": "Nach Gefahrenhinweis: Polizeieinsatz an Berliner Schule beendet", "url": "https://www.tagesschau.de/inland/regional/berlin/rbb-berlin-marzahn-polizei-durchsucht-nach-hinweis-berliner-schule-100.html", "thumbnailUrl": "https://images.tagesschau.de/image/13fe254a-1312-4472-86ce-b41657139d7b/AAABjtKLkZM/AAABjcWesUg/16x9-512.jpg", "date": "2024-04-12T15:38:46.000+02:00", "lat": 52.5244, "lon": 13.5574, "intensity": 0.7, "source": "Tagesschau"}, {"title": "Unfallflucht und versagte Hilfe: Zu wenig Solidarit\u00e4t am Berg?", "url": "https://www.tagesschau.de/inland/regional/bayern/br-unfallflucht-und-versagte-hilfe-zu-wenig-solidaritaet-am-berg-102.html", "thumbnailUrl": "https://images.tagesschau.de/image/b7f82aca-e99e-40ba-9bc4-51eeb94ddadf/AAABjtOasH8/AAABjcWesUg/16x9-512.jpg", "date": "2024-04-12T15:35:30.777+02:00", "lat": 47.08, "lon": 11.4675, "intensity": 0.8, "source": "Tagesschau"}, {"title": "Selbstbestimmungsgesetz kommt: Was bedeutet das f\u00fcr Trans-Menschen?", "url": "https://www.tagesschau.de/inland/regional/nordrheinwestfalen/wdr-selbstbestimmungsgesetz-kommt-was-bedeutet-das-fuer-trans-menschen-100.html", "thumbnailUrl": "https://images.tagesschau.de/image/3863cefd-a527-46a3-8141-00cb4c229191/AAABjtOpBpY/AAABjcWesUg/16x9-512.jpg", "date": "2024-04-12T15:35:00.000+02:00", "lat": 51.4818, "lon": 7.6261, "intensity": 0.8, "source": "Tagesschau"}, {"title": "Vorfall an Lichtenberger Br\u00fccke: Stein auf S-Bahn geworfen - Zeugen gesucht", "url": "https://www.tagesschau.de/inland/regional/berlin/rbb-vorfall-an-lichtenberger-bruecke-stein-auf-s-bahn-geworfen-zeugen-gesucht-100.html", "thumbnailUrl": "https://images.tagesschau.de/image/1b21ae31-c4f7-45f1-a020-a1e69e88dfee/AAABjtKGFu8/AAABjcWesUg/16x9-512.jpg", "date": "2024-04-12T15:34:41.000+02:00", "lat": 52.5133, "lon": 13.4952, "intensity": 0.8, "source": "Tagesschau"}, {"title": "Feuer in Mehrfamilienhaus in Waldeck: Haftbefehl gegen mutma\u00dflichen Brandstifter erlassen", "url": "https://www.tagesschau.de/inland/regional/hessen/hr-feuer-in-mehrfamilienhaus-in-waldeck-haftbefehl-gegen-mutmasslichen-brandstifter-erlassen-100.html", "thumbnailUrl": "https://images.tagesschau.de/image/e31a2c31-36ee-4c7a-aec0-bf572173e42c/AAABjtKF2s4/AAABjcWesUg/16x9-512.jpg", "date": "2024-04-12T15:34:15.452+02:00", "lat": 51.2771, "lon": 8.8828, "intensity": 0.8, "source": "Tagesschau"}, {"title": "Bonn-Vertrag: So k\u00f6nnten die Kreise Ahrweiler und Neuwied profitieren", "url": "https://www.tagesschau.de/inland/regional/rheinlandpfalz/swr-bonn-vertrag-so-koennten-die-kreise-ahrweiler-und-neuwied-profitieren-100.html", "thumbnailUrl": "https://images.tagesschau.de/image/abd4a687-3507-4b38-b81e-e415a5973e86/AAABjtKUY8I/AAABjcWesUg/16x9-512.jpg", "date": "2024-04-12T15:30:00.000+02:00", "lat": 50.5413, "lon": 7.071, "intensity": 0.6, "source": "Tagesschau"}, {"title": "Kultur: +++ Sammler aus Nordhessen gesucht +++ Staatstheater Kassel zeigt Peter Pan-Musical +++ ", "url": "https://www.tagesschau.de/inland/regional/hessen/hr--schauspiel-frankfurt-bringt-putin-und-macbeth-zusammen--die-filmfestival-saison-2023-startet--lichter-filmfest-zum-thema-liebe-startet-am-dienstag-100.html", "thumbnailUrl": "https://images.tagesschau.de/image/e9be219b-4579-4022-bb4f-3994d342edc6/AAABjtI5Ezc/AAABjcWesUg/16x9-512.jpg", "date": "2024-04-12T15:24:14.659+02:00", "lat": 51.31, "lon": 9.692, "intensity": 0.2, "source": "Tagesschau"}, {"title": "Keine Kurzarbeit mehr bei Villeroy & Boch", "url": "https://www.tagesschau.de/inland/regional/saarland/sr-keine-kurzarbeit-mehr-bei-villeroy--boch-100.html", "thumbnailUrl": "https://images.tagesschau.de/image/5a620d24-e4e1-4964-8f84-a45584a93b32/AAABjtLO_FE/AAABjcWesUg/16x9-512.jpg", "date": "2024-04-12T15:21:00.000+02:00", "lat": 49.3964, "lon": 6.9631, "intensity": 0.8, "source": "Tagesschau"}, {"title": "Netzbetreiber amprion informiert \u00fcber Verlauf von Stromautobahn", "url": "https://www.tagesschau.de/inland/regional/niedersachsen/ndr-netzbetreiber-amprion-informiert-ueber-verlauf-von-stromautobahn-100.html", "thumbnailUrl": "https://images.tagesschau.de/image/fb09f558-1208-48c3-8d31-2767e2db2833/AAABjtKAp5w/AAABjcWesUg/16x9-512.jpg", "date": "2024-04-12T15:15:00.000+02:00", "lat": 52.9942, "lon": 8.2456, "intensity": 0.7, "source": "Tagesschau"}, {"title": "Methode Holzhammer", "url": "https://www.tagesschau.de/inland/innenpolitik/wissing-fahrverbot-100.html", "thumbnailUrl": "https://images.tagesschau.de/image/674a71c6-037e-4b53-aabe-5453a73e8d99/AAABjs5tONo/AAABjcWesUg/16x9-512.jpg", "date": "2024-04-12T15:07:33.887+02:00", "lat": 49.992862, "lon": 8.239761, "intensity": 0.6, "source": "Tagesschau"}, {"title": "Eintracht: +++ Stuttgart wom\u00f6glich ohne N\u00fcbel +++ Collins vor erneutem Startelf-Einsatz +++ Blick in Stuttgarter Spielertunnel m\u00f6glich +++ ", "url": "https://www.tagesschau.de/inland/regional/hessen/hr--eintracht-wohl-mit-chaibi-einig--glasner-fast-nur-kolo-muani-der-tore-erzielt--bericht-eintracht-sagt-aouar-ab-100.html", "thumbnailUrl": "https://images.tagesschau.de/image/31074c72-0bad-4ffb-a74a-bbc95f84c24b/AAABjtJdtng/AAABjcWesUg/16x9-512.jpg", "date": "2024-04-12T15:05:57.503+02:00", "lat": 50.110922, "lon": 8.682127, "intensity": 0.6, "source": "Tagesschau"}, {"title": "NATO-\u00dcbung: Mehrere Konvois fahren durch Niedersachsen", "url": "https://www.tagesschau.de/inland/regional/niedersachsen/ndr-nato-uebung-mehrere-konvois-fahren-durch-niedersachsen-100.html", "thumbnailUrl": "https://images.tagesschau.de/image/321a54b4-e233-4ae6-b3c5-0e1edfc4f95b/AAABjtJnHio/AAABjcWesUg/16x9-512.jpg", "date": "2024-04-12T14:58:00.000+02:00", "lat": 52.3759, "lon": 9.732, "intensity": 0.8, "source": "Tagesschau"}, {"title": "Wahlsieg von AfD-B\u00fcrgermeister f\u00fcr ung\u00fcltig erkl\u00e4rt", "url": "https://www.tagesschau.de/inland/buergermeister-grossschirma-100.html", "thumbnailUrl": "https://images.tagesschau.de/image/025098f2-d14e-4665-bd8e-b2f7184e1ac0/AAABjtJZNHw/AAABjcWesUg/16x9-512.jpg", "date": "2024-04-12T14:55:25.111+02:00", "lat": 51.2135, "lon": 12.9928, "intensity": 0.8, "source": "Tagesschau"}, {"title": "Weniger Butter auf dem Brot", "url": "https://www.tagesschau.de/wirtschaft/verbraucher/konsum-milch-butter-kaese-100.html", "thumbnailUrl": "https://images.tagesschau.de/image/181656f9-6fb9-4f24-88ba-690a82396f95/AAABjtIlCP0/AAABjcWesUg/16x9-512.jpg", "date": "2024-04-12T14:55:03.215+02:00", "lat": 51.1657, "lon": 10.4515, "intensity": 0.4, "source": "Tagesschau"}, {"title": "Darmstadt 98: +++ Lilien wollen vers\u00f6hnlichen Abschied  +++ Lilien ohne Skarke und Manu +++ Freiburg will Lilien nicht untersch\u00e4tzen +++ ", "url": "https://www.tagesschau.de/inland/regional/hessen/hr--tietz-vermisst-fehlende-gier--lilien-fans-liefern-sich-raststaetten-pruegelei--die-niederlage-der-lilien-in-der-video-zusammenfassung-102.html", "thumbnailUrl": "https://images.tagesschau.de/image/2fb16d4d-1b82-4ef7-b649-5d3d19cbbb55/AAABjtJsUvQ/AAABjcWesUg/16x9-512.jpg", "date": "2024-04-12T14:52:30.276+02:00", "lat": 49.878, "lon": 8.6536, "intensity": 0.6, "source": "Tagesschau"}, {"title": "Darmstadt 98 mit schmerzendem Stachel auf Abschiedstour", "url": "https://www.tagesschau.de/inland/regional/hessen/hr-darmstadt-98-mit-schmerzendem-stachel-auf-abschiedstour-102.html", "thumbnailUrl": "https://images.tagesschau.de/image/9ffe124e-71e3-4171-a010-3fd7e13f5ce3/AAABjtJm0VQ/AAABjcWesUg/16x9-512.jpg", "date": "2024-04-12T14:51:46.844+02:00", "lat": 49.8671, "lon": 8.65, "intensity": 0.7, "source": "Tagesschau"}, {"title": "Strafm\u00fcndigkeit: Wenn Kinder kriminell werden", "url": "https://www.tagesschau.de/inland/regional/nordrheinwestfalen/wdr-strafmuendigkeit-wenn-kinder-kriminell-werden-100.html", "thumbnailUrl": "https://images.tagesschau.de/image/deca7139-c8a2-4d3e-9946-abd761c68c13/AAABjtJhFFI/AAABjcWesUg/16x9-512.jpg", "date": "2024-04-12T14:42:00.000+02:00", "lat": 51.8133, "lon": 7.6261, "intensity": 0.8, "source": "Tagesschau"}, {"title": "Wilhelmshavens Wahrzeichen Kopperh\u00f6rner M\u00fchle wird saniert", "url": "https://www.tagesschau.de/inland/regional/niedersachsen/ndr-wilhelmshavens-wahrzeichen-kopperhoerner-muehle-wird-saniert-100.html", "thumbnailUrl": "https://images.tagesschau.de/image/e6679de9-4477-47ff-b456-eac43b3e0591/AAABjtK9KPI/AAABjcWesUg/16x9-512.jpg", "date": "2024-04-12T14:36:00.000+02:00", "lat": 53.5256, "lon": 8.1341, "intensity": 0.6, "source": "Tagesschau"}, {"title": "Windpark aus Saar-Stahl soll Strom f\u00fcr saarl\u00e4ndische Stahlindustrie liefern", "url": "https://www.tagesschau.de/inland/regional/saarland/sr-windpark-aus-saar-stahl-soll-strom-fuer-saarlaendische-stahlindustrie-liefern-100.html", "thumbnailUrl": "https://images.tagesschau.de/image/73833405-1c38-4525-a210-c9a6d1cbef6a/AAABjtN1nqg/AAABjcWesUg/16x9-512.jpg", "date": "2024-04-12T14:34:00.000+02:00", "lat": 49.612, "lon": 6.6407, "intensity": 0.8, "source": "Tagesschau"}, {"title": "T\u00f6dlicher E-Scooter-Unfall in Saarbr\u00fccken: Autofahrer angeklagt", "url": "https://www.tagesschau.de/inland/regional/saarland/sr-toedlicher-e-scooter-unfall-in-saarbruecken-autofahrer-angeklagt-100.html", "thumbnailUrl": "https://images.tagesschau.de/image/926dce6f-541e-4e9a-93fc-ce9334c703fa/AAABjtMaDNs/AAABjcWesUg/16x9-512.jpg", "date": "2024-04-12T14:32:00.000+02:00", "lat": 49.2339, "lon": 6.9814, "intensity": 0.8, "source": "Tagesschau"}, {"title": "Wohnen in einem ehemaligen Getreidesilo? Das geht bald in Osthofen!", "url": "https://www.tagesschau.de/inland/regional/rheinlandpfalz/swr-menschen-koennen-in-osthofen-bald-im-umgebauten-getreidesilo-wohnen-100.html", "thumbnailUrl": "https://images.tagesschau.de/image/0f1e5203-735e-4114-9170-d6a2634197a6/AAABjtJsGdw/AAABjcWesUg/16x9-512.jpg", "date": "2024-04-12T14:31:31.000+02:00", "lat": 49.6904, "lon": 8.3581, "intensity": 0.6, "source": "Tagesschau"}, {"title": "Neue Wahlm\u00f6glichkeiten bei der Identit\u00e4t", "url": "https://www.tagesschau.de/inland/selbstbestimmungsgesetz-bundestag-100.html", "thumbnailUrl": "https://images.tagesschau.de/image/15ce222a-b748-47d6-b13e-fcafaa081d10/AAABjmD7rgU/AAABjcWesUg/16x9-512.jpg", "date": "2024-04-12T14:31:12.715+02:00", "lat": 52.516274, "lon": 13.37699, "intensity": 0.7, "source": "Tagesschau"}, {"title": "Geburtshilfe im Schweinestall: Alltag einer Junglandwirtin", "url": "https://www.tagesschau.de/inland/regional/niedersachsen/ndr-geburtshilfe-im-schweinestall-alltag-einer-junglandwirtin-100.html", "thumbnailUrl": "https://images.tagesschau.de/image/99549c2c-1579-4ba1-b89a-c0a03be647dd/AAABjtF1lx8/AAABjcWesUg/16x9-512.jpg", "date": "2024-04-12T14:30:00.000+02:00", "lat": 52.72711, "lon": 8.28672, "intensity": 0.6, "source": "Tagesschau"}, {"title": "Staatsver\u00e4chter treffen sich in Nobelhotel in K\u00f6nigstein", "url": "https://www.tagesschau.de/inland/regional/hessen/hr-staatsveraechter-treffen-sich-in-nobelhotel-in-koenigstein-100.html", "thumbnailUrl": "https://images.tagesschau.de/image/cee1653e-2ab5-4536-9e6c-5896c82e596d/AAABjtJJkmI/AAABjcWesUg/16x9-512.jpg", "date": "2024-04-12T14:29:20.875+02:00", "lat": 50.1847, "lon": 8.4553, "intensity": 0.7, "source": "Tagesschau"}, {"title": "Mehr neue Azubis in Deutschland", "url": "https://www.tagesschau.de/wirtschaft/arbeitsmarkt/mehr-ausbildungsvertraege-100.html", "thumbnailUrl": "https://images.tagesschau.de/image/b0b42f4f-f87c-45ef-aec1-57e7046b8da3/AAABim45bRc/AAABjcWesUg/16x9-512.jpg", "date": "2024-04-12T14:24:23.119+02:00", "lat": 51.1657, "lon": 10.4515, "intensity": 0.6, "source": "Tagesschau"}, {"title": "Einbruch ins Gr\u00fcne Gew\u00f6lbe: F\u00fcnf Berliner Clan-Mitglieder m\u00fcssen ins Gef\u00e4ngnis", "url": "https://www.tagesschau.de/inland/regional/berlin/rbb-einbruch-ins-gruene-gewoelbe-fuenf-berliner-clan-mitglieder-muessen-ins-gefaengnis-100.html", "thumbnailUrl": "https://images.tagesschau.de/image/50506e94-7b8c-42f8-bc43-61f36fa4c564/AAABjtJAerM/AAABjcWesUg/16x9-512.jpg", "date": "2024-04-12T14:17:52.000+02:00", "lat": 52.523405, "lon": 13.737262, "intensity": 0.8, "source": "Tagesschau"}, {"title": "Comeback von Ex-Nationaltorh\u00fcterin Schult - Mama h\u00fctet das HSV-Tor", "url": "https://www.tagesschau.de/inland/regional/hamburg/ndr-comeback-von-ex-nationaltorhueterin-schult-mama-huetet-das-hsv-tor-102.html", "thumbnailUrl": "https://images.tagesschau.de/image/e9b88e71-814f-4a1c-a4c9-4ac41ccf74e5/AAABjtHWRjY/AAABjcWesUg/16x9-512.jpg", "date": "2024-04-12T14:05:00.000+02:00", "lat": 53.5511, "lon": 9.9937, "intensity": 0.8, "source": "Tagesschau"}, {"title": "Wieso diese Sch\u00fclerinnen und Sch\u00fcler in Aalen zwei Lehrer gleichzeitig haben", "url": "https://www.tagesschau.de/inland/regional/badenwuerttemberg/swr-wieso-diese-schuelerinnen-und-schueler-in-aalen-zwei-lehrer-gleichzeitig-haben-100.html", "thumbnailUrl": "https://images.tagesschau.de/image/e27ff9f1-d6ad-4934-8c3a-4212d527ca37/AAABjtI6vUY/AAABjcWesUg/16x9-512.jpg", "date": "2024-04-12T14:04:00.000+02:00", "lat": 48.8346, "lon": 10.0715, "intensity": 0.7, "source": "Tagesschau"}, {"title": "Gefl\u00fcchtete Arbeitskr\u00e4fte: Eine Chance f\u00fcr Unternehmen", "url": "https://www.tagesschau.de/inland/regional/schleswigholstein/ndr-gefluechtete-arbeitskraefte-eine-chance-fuer-unternehmen-100.html", "thumbnailUrl": "https://images.tagesschau.de/image/5985cfdc-3b27-4408-8b7f-59f398b33d31/AAABjtIshWQ/AAABjcWesUg/16x9-512.jpg", "date": "2024-04-12T13:55:00.000+02:00", "lat": 54.2194, "lon": 9.6961, "intensity": 0.8, "source": "Tagesschau"}, {"title": "Belgien deckt prorussische Netzwerke auf", "url": "https://www.tagesschau.de/ausland/europa/belgien-justiz-russland-europawahl-100.html", "thumbnailUrl": "https://images.tagesschau.de/image/63a0f0b9-fd89-4c91-887a-588882017a3e/AAABjtIogYY/AAABjcWesUg/16x9-512.jpg", "date": "2024-04-12T13:54:14.106+02:00", "lat": 50.5039, "lon": 4.4699, "intensity": 0.8, "source": "Tagesschau"}, {"title": "Handball: Der VfL Potsdam und der nicht ganz gewollte Aufstieg", "url": "https://www.tagesschau.de/inland/regional/brandenburg/rbb-handball-der-vfl-potsdam-und-der-nicht-ganz-gewollte-aufstieg-102.html", "thumbnailUrl": "https://images.tagesschau.de/image/e34d56e9-c906-4487-8aa9-7e42adbb3b8f/AAABjtIhSKo/AAABjcWesUg/16x9-512.jpg", "date": "2024-04-12T13:42:36.000+02:00", "lat": 52.3906, "lon": 13.0645, "intensity": 0.5, "source": "Tagesschau"}, {"title": "Beobachterin darf nicht nach Hongkong", "url": "https://www.tagesschau.de/ausland/jimmy-lai-prozess-beobachtung-verhindert-100.html", "thumbnailUrl": "https://images.tagesschau.de/image/ebf5c029-6263-4558-95a3-7cef31ce6fe8/AAABhn40fO8/AAABjcWesUg/16x9-512.jpg", "date": "2024-04-12T13:40:49.326+02:00", "lat": 22.32, "lon": 114.1733, "intensity": 0.7, "source": "Tagesschau"}, {"title": "Schon jetzt hohe Waldbrandgefahr in Teilen von BW - Besondere Vorsicht am Sonntag geboten", "url": "https://www.tagesschau.de/inland/regional/badenwuerttemberg/swr-schon-jetzt-hohe-waldbrandgefahr-in-teilen-von-bw-besondere-vorsicht-am-sonntag-geboten-100.html", "thumbnailUrl": "https://images.tagesschau.de/image/db4b8bbc-bde9-4ed3-bbe6-6c64f88b6d7e/AAABjtI64zM/AAABjcWesUg/16x9-512.jpg", "date": "2024-04-12T13:36:30.000+02:00", "lat": 48.6616, "lon": 9.9937, "intensity": 0.7, "source": "Tagesschau"}, {"title": "\"Blitzermarathon\" in Hessen 2024: Polizei k\u00fcndigt Radarkontrollen gegen Raser an", "url": "https://www.tagesschau.de/inland/regional/hessen/hr-blitzermarathon-in-hessen-2024-polizei-kuendigt-radarkontrollen-gegen-raser-an-100.html", "thumbnailUrl": "https://images.tagesschau.de/image/c1e3c1c0-580a-42d0-821b-fd94a8acb48a/AAABjtLqjfA/AAABjcWesUg/16x9-512.jpg", "date": "2024-04-12T13:08:23.147+02:00", "lat": 50.6521, "lon": 9.0654, "intensity": 0.8, "source": "Tagesschau"}, {"title": "Durchweichter Pfad im Solling wird saniert", "url": "https://www.tagesschau.de/inland/regional/niedersachsen/ndr-durchweichter-pfad-im-solling-wird-saniert-100.html", "thumbnailUrl": "https://images.tagesschau.de/image/265ab077-16a6-4900-b00d-7803072d7275/AAABjtIlEwY/AAABjcWesUg/16x9-512.jpg", "date": "2024-04-12T13:06:00.000+02:00", "lat": 51.785964, "lon": 9.537167, "intensity": 0.6, "source": "Tagesschau"}, {"title": "Massenevakuierungen in Orenburg", "url": "https://www.tagesschau.de/ausland/europa/russland-ueberschwemmungen-106.html", "thumbnailUrl": "https://images.tagesschau.de/image/3a720843-bcaf-4c03-b62a-34786b16cc49/AAABjtHqcu0/AAABjcWesUg/16x9-512.jpg", "date": "2024-04-12T13:02:26.217+02:00", "lat": 51.7682, "lon": 55.0968, "intensity": 0.9, "source": "Tagesschau"}, {"title": "Geplanter Stellenabbau bei Thyssenkrupp in Duisburg", "url": "https://www.tagesschau.de/inland/regional/nordrheinwestfalen/wdr-grosser-stellenabbau-bei-thyssenkrupp-trifft-duisburg-102.html", "thumbnailUrl": "https://images.tagesschau.de/image/e5565c70-963e-4cda-a284-a2f4bfa24491/AAABjtMYM04/AAABjcWesUg/16x9-512.jpg", "date": "2024-04-12T13:00:00.000+02:00", "lat": 51.4344, "lon": 6.7591, "intensity": 0.8, "source": "Tagesschau"}, {"title": "Polizei: Wolf auf A7 bei Hildesheim \u00fcberfahren", "url": "https://www.tagesschau.de/inland/regional/niedersachsen/ndr-polizei-wolf-auf-a7-bei-hildesheim-ueberfahren-100.html", "thumbnailUrl": "https://images.tagesschau.de/image/1feb76ac-cc73-494f-bcc3-f20df8994de0/AAABjtIlLVI/AAABjcWesUg/16x9-512.jpg", "date": "2024-04-12T12:57:00.000+02:00", "lat": 52.1548, "lon": 9.9472, "intensity": 0.4, "source": "Tagesschau"}, {"title": "Gewalt an Schulen: Kultusministerin spricht von \"neuer Qualit\u00e4t\"", "url": "https://www.tagesschau.de/inland/regional/niedersachsen/ndr-gewalt-an-schulen-kultusministerin-spricht-von-neuer-qualitaet-100.html", "thumbnailUrl": "https://images.tagesschau.de/image/87bba4af-4d5b-42f7-97f9-aa4cbe85b035/AAABjtHzwTE/AAABjcWesUg/16x9-512.jpg", "date": "2024-04-12T12:51:00.000+02:00", "lat": 51.1657, "lon": 10.4515, "intensity": 0.8, "source": "Tagesschau"}, {"title": "Nach Vorfall in Karlsruhe: Fan des FC St. Pauli gestorben", "url": "https://www.tagesschau.de/inland/regional/hamburg/ndr-nach-vorfall-in-karlsruhe-fan-des-fc-st-pauli-gestorben-106.html", "thumbnailUrl": "https://images.tagesschau.de/image/88f0946b-9d1d-45c8-8037-96c3688a9d9c/AAABjtKcEYY/AAABjcWesUg/16x9-512.jpg", "date": "2024-04-12T12:46:00.000+02:00", "lat": 53.5526, "lon": 8.4037, "intensity": 0.8, "source": "Tagesschau"}, {"title": "Ein neuer Umgang mit der AfD?", "url": "https://www.tagesschau.de/inland/innenpolitik/tv-duell-hoecke-voigt-104.html", "thumbnailUrl": "https://images.tagesschau.de/image/da0156a7-0491-4ef0-8bd2-924662f8e76c/AAABjtHfIQA/AAABjcWesUg/16x9-512.jpg", "date": "2024-04-12T12:35:35.228+02:00", "lat": 51.339695, "lon": 12.373075, "intensity": 0.6, "source": "Tagesschau"}, {"title": "\"Nicht verantwortungsvoll f\u00fcr einen Minister\"", "url": "https://www.tagesschau.de/inland/innenpolitik/fahrverbote-wissing-reaktionen-100.html", "thumbnailUrl": "https://images.tagesschau.de/image/ec2ea4f3-e24a-460f-aeb3-4c6d86ec287b/AAABjtGa92Y/AAABjcWesUg/16x9-512.jpg", "date": "2024-04-12T12:33:27.424+02:00", "lat": 51.4584, "lon": 7.5976, "intensity": 0.6, "source": "Tagesschau"}, {"title": "Drogen im Kofferraum: Mann nach spektakul\u00e4rer Flucht festgenommen", "url": "https://www.tagesschau.de/inland/regional/saarland/sr-drogen-im-kofferraum-mann-nach-spektakulaerer-flucht-festgenommen-100.html", "thumbnailUrl": "https://images.tagesschau.de/image/82d14ce9-7c16-48be-945e-1245c214830b/AAABjtMaCi4/AAABjcWesUg/16x9-512.jpg", "date": "2024-04-12T12:32:00.000+02:00", "lat": 49.2583, "lon": 6.9858, "intensity": 0.8, "source": "Tagesschau"}, {"title": "Waffen-Diebstahl aus Zug in Maschen: Polizei stellte T\u00e4tern Falle", "url": "https://www.tagesschau.de/inland/regional/niedersachsen/ndr-40-schusswaffen-aus-gueterzug-gestohlen-zwei-festnahmen-100.html", "thumbnailUrl": "https://images.tagesschau.de/image/93d68201-d824-4506-8717-e030f223b8c9/AAABjtHv_kQ/AAABjcWesUg/16x9-512.jpg", "date": "2024-04-12T12:30:00.000+02:00", "lat": 52.3759, "lon": 9.7412, "intensity": 0.8, "source": "Tagesschau"}, {"title": "F\u00fcnf Jahre Flutung: Flutung des Cottbuser Ostsees laut Leag wieder auf Normalkurs", "url": "https://www.tagesschau.de/inland/regional/brandenburg/rbb-fuenf-jahre-flutung-flutung-des-cottbuser-ostsees-laut-leag-wieder-auf-normalkurs-100.html", "thumbnailUrl": "https://images.tagesschau.de/image/95e41d93-3259-4532-985b-acb345a63f08/AAABjtHmor0/AAABjcWesUg/16x9-512.jpg", "date": "2024-04-12T12:27:49.000+02:00", "lat": 51.7511, "lon": 13.6099, "intensity": 0.5, "source": "Tagesschau"}, {"title": "Feuer an Oberschule in Wilhelmshaven: Verd\u00e4chtige ermittelt", "url": "https://www.tagesschau.de/inland/regional/niedersachsen/ndr-wilhelmshaven-wieder-feuer-an-oberschule-unterricht-faellt-aus-100.html", "thumbnailUrl": "https://images.tagesschau.de/image/b3256ef1-46be-4997-85e3-ba89be6d0381/AAABjtHuLuo/AAABjcWesUg/16x9-512.jpg", "date": "2024-04-12T12:27:00.000+02:00", "lat": 53.5333, "lon": 8.1486, "intensity": 0.7, "source": "Tagesschau"}, {"title": "Pfalzgalerie in Kaiserslautern zeigt Pop Art", "url": "https://www.tagesschau.de/inland/regional/rheinlandpfalz/swr-pfalzgalerie-in-kaiserslautern-zeigt-pop-art-100.html", "thumbnailUrl": "https://images.tagesschau.de/image/fa1d1061-a489-431e-b41d-4292b8d73c15/AAABjtP7WmQ/AAABjcWesUg/16x9-512.jpg", "date": "2024-04-12T12:23:53.000+02:00", "lat": 49.4444, "lon": 7.7551, "intensity": 0.7, "source": "Tagesschau"}, {"title": "Unbekannte klauen mehr als 100 Obstb\u00e4ume in Zornheim", "url": "https://www.tagesschau.de/inland/regional/rheinlandpfalz/swr-unbekannte-klauen-mehr-als-100-obstbaeume-in-zornheim-100.html", "thumbnailUrl": "https://images.tagesschau.de/image/afeb3dc8-5add-47dc-b57b-0e73e7b3a78c/AAABjtJO4nU/AAABjcWesUg/16x9-512.jpg", "date": "2024-04-12T12:22:48.000+02:00", "lat": 49.9111, "lon": 8.2743, "intensity": 0.7, "source": "Tagesschau"}, {"title": "Abstimmung im Bundestag: Bundesweite Bezahlkarte f\u00fcr Asylbewerber kommt", "url": "https://www.tagesschau.de/inland/regional/brandenburg/rbb-abstimmung-im-bundestag-bundesweite-bezahlkarte-fuer-asylbewerber-kommt-100.html", "thumbnailUrl": "https://images.tagesschau.de/image/b6b34933-1b62-4006-b453-a31b9ad36712/AAABjtHOy8A/AAABjcWesUg/16x9-512.jpg", "date": "2024-04-12T12:13:02.000+02:00", "lat": 52.520008, "lon": 13.404954, "intensity": 0.8, "source": "Tagesschau"}, {"title": "NDR Recherche: Flickenteppich bei Waffenkontrollen in SH", "url": "https://www.tagesschau.de/inland/regional/schleswigholstein/ndr-ndr-recherche-flickenteppich-bei-waffenkontrollen-in-sh-100.html", "thumbnailUrl": "https://images.tagesschau.de/image/0ff8c21c-abaa-433d-b1dd-d57483c376cb/AAABjtA_0k8/AAABjcWesUg/16x9-512.jpg", "date": "2024-04-12T12:07:00.000+02:00", "lat": 54.4633, "lon": 9.6961, "intensity": 0.7, "source": "Tagesschau"}, {"title": "Bauarbeiten auf der A7 - mehrere Sperrungen am Wochenende", "url": "https://www.tagesschau.de/inland/regional/niedersachsen/ndr-a7-zwischen-seevetal-ramelsloh-und-horster-dreieck-gesperrt-100.html", "thumbnailUrl": "https://images.tagesschau.de/image/e15fb7f1-6066-473a-abe9-9e798160a629/AAABjtRVcN0/AAABjcWesUg/16x9-512.jpg", "date": "2024-04-12T12:03:00.000+02:00", "lat": 53.4029, "lon": 10.0002, "intensity": 0.6, "source": "Tagesschau"}, {"title": "Angriff auf der A27: Dr\u00e4ngler droht und zersticht Reifen", "url": "https://www.tagesschau.de/inland/regional/niedersachsen/ndr-angriff-auf-der-a27-draengler-droht-und-zersticht-reifen-100.html", "thumbnailUrl": "https://images.tagesschau.de/image/70ec72e5-0f63-41a8-a476-2e8c8f2c245e/AAABjtPBJV4/AAABjcWesUg/16x9-512.jpg", "date": "2024-04-12T11:54:00.000+02:00", "lat": 53.0793, "lon": 8.8017, "intensity": 0.8, "source": "Tagesschau"}, {"title": "Pachtpreis f\u00fcr landwirtschaftliche Fl\u00e4chen im Norden besonders hoch", "url": "https://www.tagesschau.de/inland/regional/niedersachsen/ndr-pachtpreis-fuer-landwirtschaftliche-flaechen-im-norden-besonders-hoch-100.html", "thumbnailUrl": "https://images.tagesschau.de/image/eff044b1-f6e2-4046-b8fb-970c014a1f15/AAABjtPBDEA/AAABjcWesUg/16x9-512.jpg", "date": "2024-04-12T11:43:00.000+02:00", "lat": 52.3306, "lon": 9.8607, "intensity": 0.8, "source": "Tagesschau"}, {"title": "Freiburg: Erzbischof G\u00e4nswein soll offenbar p\u00e4pstlicher Botschafter werden", "url": "https://www.tagesschau.de/inland/regional/badenwuerttemberg/swr-freiburg-erzbischof-gaenswein-soll-offenbar-paepstlicher-botschafter-werden-100.html", "thumbnailUrl": "https://images.tagesschau.de/image/8d43b22d-76a6-411a-8af5-727a13675db8/AAABjtExRuw/AAABjcWesUg/16x9-512.jpg", "date": "2024-04-12T11:36:00.000+02:00", "lat": 47.9961, "lon": 7.8494, "intensity": 0.5, "source": "Tagesschau"}, {"title": "Bundestag beschlie\u00dft Bezahlkarte f\u00fcr Asylbewerber", "url": "https://www.tagesschau.de/inland/innenpolitik/bundestag-bezahlkarte-asylbewerber-100.html", "thumbnailUrl": "https://images.tagesschau.de/image/be878ce6-e79d-4d57-be40-52625fe94263/AAABjhotsMU/AAABjcWesUg/16x9-512.jpg", "date": "2024-04-12T11:20:26.814+02:00", "lat": 52.5166, "lon": 13.3769, "intensity": 0.6, "source": "Tagesschau"}, {"title": "Jugendliche aus NRW wegen Terrorverdachts festgenommen", "url": "https://www.tagesschau.de/inland/regional/nordrheinwestfalen/wdr-jugendliche-aus-nrw-wegen-terrorismusverdacht-festgenommen-100.html", "thumbnailUrl": "https://images.tagesschau.de/image/5731ea4c-99a8-4dfa-8106-7a9312150ea3/AAABjtGg0LQ/AAABjcWesUg/16x9-512.jpg", "date": "2024-04-12T11:18:00.000+02:00", "lat": 51.9607, "lon": 7.6261, "intensity": 0.8, "source": "Tagesschau"}, {"title": "Verliert St. Pauli im Aufstiegsendspurt erneut Trainer Fabian H\u00fcrzeler?", "url": "https://www.tagesschau.de/inland/regional/hamburg/ndr-verliert-st-pauli-im-aufstiegsrennen-erneut-trainer-fabian-huerzeler-100.html", "thumbnailUrl": "https://images.tagesschau.de/image/2009ff93-949c-455e-bff1-1e456df9f779/AAABjtKYdrs/AAABjcWesUg/16x9-512.jpg", "date": "2024-04-12T11:16:00.000+02:00", "lat": 53.5511, "lon": 9.9876, "intensity": 0.8, "source": "Tagesschau"}, {"title": "A7-Sperrung wegen Bauarbeiten f\u00fcr L\u00e4rmschutztunnel in Altona", "url": "https://www.tagesschau.de/inland/regional/hamburg/ndr-a7-sperrung-wegen-bauarbeiten-fuer-laermschutztunnel-in-altona-100.html", "thumbnailUrl": "https://images.tagesschau.de/image/739e1662-63f0-4762-b2ae-f48c466b570c/AAABjtP9rsQ/AAABjcWesUg/16x9-512.jpg", "date": "2024-04-12T11:15:00.000+02:00", "lat": 53.5511, "lon": 9.9039, "intensity": 0.8, "source": "Tagesschau"}, {"title": "Myfest in Berlin f\u00e4llt erneut aus - stilles Ende nach f\u00fcnfzehn Jahren?", "url": "https://www.tagesschau.de/inland/regional/berlin/rbb-1-mai-in-berlin-kreuzberg-myfest-faellt-erneut-aus-stilles-ende-nach-fuenfzehn-jahren-100.html", "thumbnailUrl": "https://images.tagesschau.de/image/0c581334-3c1f-4612-9b70-854f44b0842a/AAABjtD6t1g/AAABjcWesUg/16x9-512.jpg", "date": "2024-04-12T11:13:37.000+02:00", "lat": 52.520008, "lon": 13.38886, "intensity": 0.7, "source": "Tagesschau"}, {"title": "In eigener Sache: Katrin G\u00fcnther wird neue rbb-Programmdirektorin", "url": "https://www.tagesschau.de/inland/regional/brandenburg/rbb-in-eigener-sache-katrin-guenther-wird-neue-rbb-programmdirektorin-100.html", "thumbnailUrl": "https://images.tagesschau.de/image/48786cac-a493-4ff8-b17b-3aeea4136f85/AAABjtEfKsA/AAABjcWesUg/16x9-512.jpg", "date": "2024-04-12T11:10:53.000+02:00", "lat": 52.52, "lon": 13.405, "intensity": 0.3, "source": "Tagesschau"}, {"title": "Duell ohne Gewinner", "url": "https://www.tagesschau.de/inland/innenpolitik/tv-duell-hoecke-voigt-102.html", "thumbnailUrl": "https://images.tagesschau.de/image/9e2167b4-6844-4571-a8eb-2f788dfc1cba/AAABjtFmxgA/AAABjcWesUg/16x9-512.jpg", "date": "2024-04-12T11:08:37.438+02:00", "lat": 50.9848, "lon": 11.582, "intensity": 0.4, "source": "Tagesschau"}, {"title": "Cannabis-Legalisierung: Mannheimer Apotheke entwickelt neue Medikamente ", "url": "https://www.tagesschau.de/inland/regional/badenwuerttemberg/swr-cannabis-legalisierung-mannheimer-apotheke-entwickelt-neue-medikamente-100.html", "thumbnailUrl": "https://images.tagesschau.de/image/bbacff36-a6e4-4e32-9b92-153e0c0b075c/AAABjtHD4W4/AAABjcWesUg/16x9-512.jpg", "date": "2024-04-12T11:07:51.000+02:00", "lat": 49.4875, "lon": 8.4647, "intensity": 0.6, "source": "Tagesschau"}, {"title": "Der Millionen-Dollar-Wettlauf", "url": "https://www.tagesschau.de/ausland/amerika/usa-wahlkampffinanzierung-100.html", "thumbnailUrl": "https://images.tagesschau.de/image/b3357ee6-ad35-4d6f-ab80-b6baa6697df6/AAABjtE0mwk/AAABjcWesUg/16x9-512.jpg", "date": "2024-04-12T11:00:52.937+02:00", "lat": 37.0902, "lon": -95.7129, "intensity": 0.8, "source": "Tagesschau"}, {"title": "Waffen und Munition in Wohnhaus in Twist: Verfahren eingeleitet", "url": "https://www.tagesschau.de/inland/regional/niedersachsen/ndr-twist-spezialkraefte-der-polizei-finden-munition-in-wohnhaus-100.html", "thumbnailUrl": "https://images.tagesschau.de/image/0ce4cd26-f5a2-4002-9b10-9f370159a259/AAABjtGJkLA/AAABjcWesUg/16x9-512.jpg", "date": "2024-04-12T10:54:00.000+02:00", "lat": 52.3759, "lon": 9.7107, "intensity": 0.6, "source": "Tagesschau"}, {"title": "Dr\u00e4ngler bremst Senioren auf der Bremer A27 aus und zersticht Reifen", "url": "https://www.tagesschau.de/inland/regional/bremen/rb-draengler-bremst-senioren-auf-der-bremer-a27-aus-und-zersticht-reifen-100.html", "thumbnailUrl": "https://images.tagesschau.de/image/64043f1c-1221-45a7-bf8c-bd9232893e2c/AAABjtGDqXg/AAABjcWesUg/16x9-512.jpg", "date": "2024-04-12T10:52:00.000+02:00", "lat": 53.0793, "lon": 8.8017, "intensity": 0.8, "source": "Tagesschau"}, {"title": "Die Feldlerche in Auersmacher erleben ", "url": "https://www.tagesschau.de/inland/regional/saarland/sr-die-feldlerche-in-auersmacher-erleben-100.html", "thumbnailUrl": "https://images.tagesschau.de/image/8fccf92c-72a6-4414-a71e-80759046eaa3/AAABjtGiqeI/AAABjcWesUg/16x9-512.jpg", "date": "2024-04-12T10:40:00.000+02:00", "lat": 49.243876, "lon": 7.193062, "intensity": 0.6, "source": "Tagesschau"}, {"title": "Thyssenkrupp will Stahlsparte straffen und Jobs abbauen", "url": "https://www.tagesschau.de/wirtschaft/thyssenkrupp-duisburg-stellenabbau-100.html", "thumbnailUrl": "https://images.tagesschau.de/image/f3ae2bb7-2fa9-48aa-ba8c-d59e673e183f/AAABi6jeNd4/AAABjcWesUg/16x9-512.jpg", "date": "2024-04-12T10:36:06.030+02:00", "lat": 51.4344, "lon": 6.7744, "intensity": 0.8, "source": "Tagesschau"}, {"title": "Volleyball: Netzhoppers verk\u00fcnden Abgang von Trainer Kolevich und f\u00fcnf Spielern", "url": "https://www.tagesschau.de/inland/regional/brandenburg/rbb-volleyball-netzhoppers-verkuenden-abgang-von-trainer-kolevich-und-fuenf-spielern-102.html", "thumbnailUrl": "https://images.tagesschau.de/image/5565354f-6bd9-4270-bffb-ff03569bfbad/AAABjtF1SQY/AAABjcWesUg/16x9-512.jpg", "date": "2024-04-12T10:35:46.000+02:00", "lat": 52.4125, "lon": 13.1736, "intensity": 0.3, "source": "Tagesschau"}, {"title": "Eintracht-Talent vor Duell mit VfB-Shootingstar F\u00fchrich: Collins in der Glitzerwelt", "url": "https://www.tagesschau.de/inland/regional/hessen/hr-eintracht-talent-vor-duell-mit-shootingstar-fuehrich-collins-in-der-glitzerwelt-102.html", "thumbnailUrl": "https://images.tagesschau.de/image/6ba40565-b5fd-4b02-a17a-5af88b1c5a1a/AAABjtHjF94/AAABjcWesUg/16x9-512.jpg", "date": "2024-04-12T10:33:13.947+02:00", "lat": 48.7758, "lon": 9.1805, "intensity": 0.7, "source": "Tagesschau"}, {"title": "Jahresabschl\u00fcsse der Bezirke: Lichtenberg wirtschaftet besonders gut, gr\u00f6\u00dftes Defizit in Pankow", "url": "https://www.tagesschau.de/inland/regional/berlin/rbb-jahresabschluesse-der-bezirke-lichtenberg-wirtschaftet-besonders-gut-groesstes-defizit-in-pankow-100.html", "thumbnailUrl": "https://images.tagesschau.de/image/a03609c4-6563-4280-a99d-4dcc067d5973/AAABjtFvytQ/AAABjcWesUg/16x9-512.jpg", "date": "2024-04-12T10:29:54.000+02:00", "lat": 52.5325, "lon": 13.4899, "intensity": 0.7, "source": "Tagesschau"}, {"title": "Streckensperrung: Schwere Stunden f\u00fcr Hansa-Fans auf Schienen", "url": "https://www.tagesschau.de/inland/regional/mecklenburgvorpommern/ndr-streckensperrung-schwere-stunden-fuer-hansa-fans-auf-schienen-100.html", "thumbnailUrl": "https://images.tagesschau.de/image/ff09c357-4049-40f7-95d4-62aa4d4f7d0b/AAABjtJ6z0s/AAABjcWesUg/16x9-512.jpg", "date": "2024-04-12T10:29:00.000+02:00", "lat": 52.7016, "lon": 13.2486, "intensity": 0.8, "source": "Tagesschau"}, {"title": "Tollense statt Ostsee - Urlaubsmagnet im Hinterland von MV?", "url": "https://www.tagesschau.de/inland/regional/mecklenburgvorpommern/ndr-tollense-statt-ostsee-urlaubsmagnet-im-hinterland-von-mv-100.html", "thumbnailUrl": "https://images.tagesschau.de/image/a9cb225a-482f-471f-aaf5-e5e75b85b74a/AAABjtDDVvc/AAABjcWesUg/16x9-512.jpg", "date": "2024-04-12T10:27:00.000+02:00", "lat": 53.5571, "lon": 13.2646, "intensity": 0.8, "source": "Tagesschau"}, {"title": "Ungew\u00f6hnliches Diebesgut: Mann stiehlt mehr als 700 Eimer", "url": "https://www.tagesschau.de/inland/regional/niedersachsen/ndr-ungewoehnliches-diebesgut-mann-stiehlt-mehr-als-700-eimer-100.html", "thumbnailUrl": "https://images.tagesschau.de/image/2d89077a-23ff-42d1-9ecf-62238be39c48/AAABjtF8utE/AAABjcWesUg/16x9-512.jpg", "date": "2024-04-12T10:27:00.000+02:00", "lat": 51.1657, "lon": 10.4515, "intensity": 0.6, "source": "Tagesschau"}, {"title": "Tausende gedenken Opfern des NS-Regimes", "url": "https://www.tagesschau.de/inland/gedenken-opfer-ns-muenchen-100.html", "thumbnailUrl": "https://images.tagesschau.de/image/b62636e2-05cd-4f73-98b8-81fed785e1ae/AAABjtFpy2g/AAABjcWesUg/16x9-512.jpg", "date": "2024-04-12T10:25:55.642+02:00", "lat": 48.135124, "lon": 11.58198, "intensity": 0.8, "source": "Tagesschau"}, {"title": "Wetter in NRW: Am Samstag noch mal die Sonne genie\u00dfen", "url": "https://www.tagesschau.de/inland/regional/nordrheinwestfalen/wdr-wetter-in-nrw-am-samstag-noch-mal-die-sonne-geniessen-100.html", "thumbnailUrl": "https://images.tagesschau.de/image/f8f20326-cebf-4731-8544-54c702009b23/AAABjtFr2_Y/AAABjcWesUg/16x9-512.jpg", "date": "2024-04-12T10:14:00.000+02:00", "lat": 51.4332, "lon": 7.6261, "intensity": 0.3, "source": "Tagesschau"}, {"title": "BW-Newsticker am Morgen: Outdoor-Ausr\u00fcster Vaude beantragt Kurzarbeit, Frau in falschem Grab beerdigt, Varta in der Krise", "url": "https://www.tagesschau.de/inland/regional/badenwuerttemberg/swr-bw-newsticker-am-morgen-lkw-mit-papier-brennt-auf-a8-frau-in-falschem-grab-beerdigt-100.html", "thumbnailUrl": "https://images.tagesschau.de/image/d3e0a471-6bf3-4224-8b2f-f251f7a3cb6b/AAABjtEQPs0/AAABjcWesUg/16x9-512.jpg", "date": "2024-04-12T10:00:00.000+02:00", "lat": 48.6616, "lon": 9.9937, "intensity": 0.5, "source": "Tagesschau"}, {"title": "Gegen die Einsamkeit: In Landau startet Initiative f\u00fcr Jugendliche und Senioren", "url": "https://www.tagesschau.de/inland/regional/rheinlandpfalz/swr-mein-kind-ist-nur-noch-am-handy-in-landau-startet-initiative-gegen-einsamkeit-100.html", "thumbnailUrl": "https://images.tagesschau.de/image/716185a0-687e-4e09-8c60-5cf4da62c59e/AAABjtHDptM/AAABjcWesUg/16x9-512.jpg", "date": "2024-04-12T09:49:00.000+02:00", "lat": 49.1951, "lon": 8.1165, "intensity": 0.7, "source": "Tagesschau"}, {"title": "Wetter in Hessen: Samstag bis 26 Grad \u2013 n\u00e4chster Sommertag im April", "url": "https://www.tagesschau.de/inland/regional/hessen/hr-samstag-bis-26-grad-naechster-sommertag-schon-in-sichtweite-100.html", "thumbnailUrl": "https://images.tagesschau.de/image/b61782cd-2495-435b-9e2e-4a45088dc5ae/AAABjtN0HnI/AAABjcWesUg/16x9-512.jpg", "date": "2024-04-12T09:43:33.796+02:00", "lat": 50.5374, "lon": 9.6926, "intensity": 0.8, "source": "Tagesschau"}, {"title": "Unfall mit Linienbus: Junge Reiterin schwer verletzt, Pferd stirbt", "url": "https://www.tagesschau.de/inland/regional/niedersachsen/ndr-busunfall-junge-reiterin-schwer-verletzt-pferd-stirbt-100.html", "thumbnailUrl": "https://images.tagesschau.de/image/05719d6e-7849-4e53-8af1-ef477700c82a/AAABjtE8oZA/AAABjcWesUg/16x9-512.jpg", "date": "2024-04-12T09:34:00.000+02:00", "lat": 52.9321, "lon": 10.5603, "intensity": 0.8, "source": "Tagesschau"}, {"title": "\"Tischlein deck' dich\": Idee gegen Plastikm\u00fcll verbreitet sich", "url": "https://www.tagesschau.de/inland/regional/niedersachsen/ndr-tischlein-deck-dich-idee-gegen-plastikmuell-verbreitet-sich-100.html", "thumbnailUrl": "https://images.tagesschau.de/image/63798978-e183-44c7-b08e-61b297fbd65c/AAABjtE6syk/AAABjcWesUg/16x9-512.jpg", "date": "2024-04-12T09:31:00.000+02:00", "lat": 52.375891, "lon": 9.73201, "intensity": 0.7, "source": "Tagesschau"}, {"title": "Grundschulen im Norden von RLP k\u00e4mpfen gegen Elterntaxis", "url": "https://www.tagesschau.de/inland/regional/rheinlandpfalz/swr-grundschulen-im-norden-von-rlp-kaempfen-gegen-elterntaxis-100.html", "thumbnailUrl": "https://images.tagesschau.de/image/f61100ac-c32b-4321-8c2b-6629488022b7/AAABjtHzUdA/AAABjcWesUg/16x9-512.jpg", "date": "2024-04-12T09:22:57.000+02:00", "lat": 50.1183, "lon": 7.2832, "intensity": 0.5, "source": "Tagesschau"}, {"title": "Photovoltaik: Niedersachsens gr\u00f6\u00dfte Dach-Anlage geht in Betrieb", "url": "https://www.tagesschau.de/inland/regional/niedersachsen/ndr-niedersachsens-groesste-dach-solaranlage-geht-in-brake-an-den-start-100.html", "thumbnailUrl": "https://images.tagesschau.de/image/829394ec-ae13-406e-9688-0db5efd172aa/AAABjtFNGgE/AAABjcWesUg/16x9-512.jpg", "date": "2024-04-12T09:16:00.000+02:00", "lat": 53.33547, "lon": 8.472155, "intensity": 0.5, "source": "Tagesschau"}, {"title": "Erinnerung im Belower Wald: Gedenken an NS-Todesmarsch bei Wittstock", "url": "https://www.tagesschau.de/inland/regional/brandenburg/rbb-erinnerung-im-belower-wald-gedenken-an-ns-todesmarsch-bei-wittstock-100.html", "thumbnailUrl": "https://images.tagesschau.de/image/92e77cc3-d00c-4792-9285-c06129443f7c/AAABjtEmZgs/AAABjcWesUg/16x9-512.jpg", "date": "2024-04-12T09:10:31.000+02:00", "lat": 53.1535, "lon": 12.2936, "intensity": 0.7, "source": "Tagesschau"}, {"title": "17-J\u00e4hrige allein zuhause von Einbrechern \u00fcberrascht", "url": "https://www.tagesschau.de/inland/regional/saarland/sr-17-jaehrige-allein-zuhause-von-einbrechern-ueberrascht-100.html", "thumbnailUrl": "https://images.tagesschau.de/image/3fa11805-5824-4af7-95b4-ef16d2684d29/AAABjtQPZHY/AAABjcWesUg/16x9-512.jpg", "date": "2024-04-12T09:08:00.000+02:00", "lat": 49.4117, "lon": 7.1319, "intensity": 0.8, "source": "Tagesschau"}, {"title": "Leckere Rezepte mit Brennnessel", "url": "https://www.tagesschau.de/inland/regional/saarland/sr-leckere-rezepte-mit-brennnessel-100.html", "thumbnailUrl": "https://images.tagesschau.de/image/bf5f2a80-8475-45da-8de7-3f0441b4f45c/AAABjtJDy3g/AAABjcWesUg/16x9-512.jpg", "date": "2024-04-12T09:05:00.000+02:00", "lat": 49.3964, "lon": 6.9964, "intensity": 0.2, "source": "Tagesschau"}, {"title": "Hansa Rostock vor Hertha: \"Berlin, Berlin - wir fahren nach Berlin!\"", "url": "https://www.tagesschau.de/inland/regional/mecklenburgvorpommern/ndr-hansa-rostock-vor-hertha-berlin-berlin-wir-fahren-nach-berlin-102.html", "thumbnailUrl": "https://images.tagesschau.de/image/5e6bfb82-9f8c-4099-95e7-5b7f1f4d60a6/AAABjtJ60_E/AAABjcWesUg/16x9-512.jpg", "date": "2024-04-12T08:52:00.000+02:00", "lat": 54.0854, "lon": 13.1149, "intensity": 0.8, "source": "Tagesschau"}, {"title": "Harte Sanierung n\u00f6tig: Batteriehersteller Varta tief in der Krise", "url": "https://www.tagesschau.de/inland/regional/badenwuerttemberg/swr-harte-sanierung-noetig-batteriehersteller-varta-tief-in-der-krise-100.html", "thumbnailUrl": "https://images.tagesschau.de/image/d12d8989-cf36-4738-aab1-adfdb805e9c5/AAABjtEp1EA/AAABjcWesUg/16x9-512.jpg", "date": "2024-04-12T08:51:00.000+02:00", "lat": 48.9639, "lon": 10.1333, "intensity": 0.8, "source": "Tagesschau"}, {"title": "\"Kurioser Fahrradtausch\": Northeimer Polizei ermittelt", "url": "https://www.tagesschau.de/inland/regional/niedersachsen/ndr-kurioser-fahrradtausch-northeimer-polizei-ermittelt-100.html", "thumbnailUrl": "https://images.tagesschau.de/image/6755f25a-b2b9-4bd0-9f9f-3f2cb789adb7/AAABjtFWRZA/AAABjcWesUg/16x9-512.jpg", "date": "2024-04-12T08:49:00.000+02:00", "lat": 51.7061, "lon": 9.9925, "intensity": 0.3, "source": "Tagesschau"}, {"title": "Kurz vor Hauptbahnhof Wiesbaden: Zug nach Notbremsung evakuiert", "url": "https://www.tagesschau.de/inland/regional/hessen/hr-verletzte-frau-in-gleisnaehe-regionalbahn-nach-notfallbremsung-evakuiert-100.html", "thumbnailUrl": "https://images.tagesschau.de/image/53d939b8-d221-4434-9b9d-b242ad013e64/AAABjtHmlbQ/AAABjcWesUg/16x9-512.jpg", "date": "2024-04-12T08:46:00.496+02:00", "lat": 50.06293, "lon": 8.24422, "intensity": 0.7, "source": "Tagesschau"}, {"title": "Wasser in \u00dcberschwemmungsgebieten steigt weiter", "url": "https://www.tagesschau.de/ausland/europa/russland-ueberschwemmungen-104.html", "thumbnailUrl": "https://images.tagesschau.de/image/ad6fc699-359f-499d-8f54-fb3e0c252a2a/AAABjtDtXjc/AAABjcWesUg/16x9-512.jpg", "date": "2024-04-12T08:44:25.069+02:00", "lat": 51.7261, "lon": 54.7376, "intensity": 0.8, "source": "Tagesschau"}, {"title": "Segelsaison beginnt: Von A wie Ansegeln bis Z wie Zeuthener Segelrevier", "url": "https://www.tagesschau.de/inland/regional/brandenburg/rbb-fragen-und-antworten-was-sie-ueber-die-segelsaison-in-berlin-und-brandenburg-wissen-muessen-102.html", "thumbnailUrl": "https://images.tagesschau.de/image/65ef2164-e8bc-478b-9eba-4c9b13deec8d/AAABjtEK_F4/AAABjcWesUg/16x9-512.jpg", "date": "2024-04-12T08:41:14.000+02:00", "lat": 52.521918, "lon": 13.341676, "intensity": 0.7, "source": "Tagesschau"}, {"title": "Betriebsrat der Bremer Karstadt-Filiale erfreut \u00fcber neuen Investor", "url": "https://www.tagesschau.de/inland/regional/bremen/rb-karstadt-investor-gefunden-betriebsrat-der-bremer-filiale-erleichtert-100.html", "thumbnailUrl": "https://images.tagesschau.de/image/05acdb72-eccd-4ac5-942c-67c0ada9dcaf/AAABjtEKyLY/AAABjcWesUg/16x9-512.jpg", "date": "2024-04-12T08:39:00.000+02:00", "lat": 53.0793, "lon": 8.8017, "intensity": 0.8, "source": "Tagesschau"}, {"title": "USA sichern Israel \"eiserne Unterst\u00fctzung\" zu", "url": "https://www.tagesschau.de/ausland/asien/israel-usa-drohungen-iran-100.html", "thumbnailUrl": "https://images.tagesschau.de/image/4414698d-5948-4d3d-b757-0ef907e1155d/AAABjtEHyj4/AAABjcWesUg/16x9-512.jpg", "date": "2024-04-12T08:38:52.777+02:00", "lat": 31.0461, "lon": 34.8516, "intensity": 0.8, "source": "Tagesschau"}, {"title": "Unfall auf A8: Lkw mit mehreren Tonnen Papier ausgebrannt", "url": "https://www.tagesschau.de/inland/regional/badenwuerttemberg/swr-sperrung-auf-a8-bei-pforzheim-bis-in-die-nacht-und-kilometerlanger-stau-100.html", "thumbnailUrl": "https://images.tagesschau.de/image/3b75b9ae-8bd1-4e84-8f02-8432cc29eec1/AAABjtEe1iI/AAABjcWesUg/16x9-512.jpg", "date": "2024-04-12T08:30:00.000+02:00", "lat": 48.8922, "lon": 8.6944, "intensity": 0.7, "source": "Tagesschau"}, {"title": "Frischer Wind f\u00fcr das Perspectives?", "url": "https://www.tagesschau.de/inland/regional/saarland/sr-frischer-wind-fuer-das-perspectives-100.html", "thumbnailUrl": "https://images.tagesschau.de/image/cc9b90ab-8da2-49fd-bb50-dc9801144d33/AAABjtFrxKw/AAABjcWesUg/16x9-512.jpg", "date": "2024-04-12T08:14:00.000+02:00", "lat": 49.3964, "lon": 6.9469, "intensity": 0.5, "source": "Tagesschau"}, {"title": "Sch\u00fclerfirma aus Hildesheim gewinnt Landeswettbewerb der IHK", "url": "https://www.tagesschau.de/inland/regional/niedersachsen/ndr-schuelerfirma-aus-hildesheim-gewinnt-landeswettbewerb-der-ihk-100.html", "thumbnailUrl": "https://images.tagesschau.de/image/661e597e-2d60-4757-b357-bfbfd6ba936d/AAABjtEAVyA/AAABjcWesUg/16x9-512.jpg", "date": "2024-04-12T08:07:00.000+02:00", "lat": 52.1513, "lon": 9.9533, "intensity": 0.8, "source": "Tagesschau"}, {"title": "B\u00e4rlauch sammeln im Schutzgebiet: Grafschaft droht mit Geldbu\u00dfe", "url": "https://www.tagesschau.de/inland/regional/niedersachsen/ndr-baerlauch-sammeln-im-schutzgebiet-grafschaft-droht-mit-geldbusse-100.html", "thumbnailUrl": "https://images.tagesschau.de/image/b68a9c53-dc1c-4140-9157-cd928c58b4ee/AAABjtKf7K0/AAABjcWesUg/16x9-512.jpg", "date": "2024-04-12T08:07:00.000+02:00", "lat": 52.6367, "lon": 10.0433, "intensity": 0.7, "source": "Tagesschau"}, {"title": "Literaturfestival \"erLESEN!\" startet heute im Saarland ", "url": "https://www.tagesschau.de/inland/regional/saarland/sr-literaturfestival-erlesen-startet-heute-im-saarland-100.html", "thumbnailUrl": "https://images.tagesschau.de/image/0da06749-b82f-4969-8b8f-4af09efda86b/AAABjtGmUrQ/AAABjcWesUg/16x9-512.jpg", "date": "2024-04-12T08:06:00.000+02:00", "lat": 49.3964, "lon": 6.9538, "intensity": 0.3, "source": "Tagesschau"}, {"title": "Gl\u00fccksgriff: Die neuen Land\u00e4rzte in Weiskirchen ", "url": "https://www.tagesschau.de/inland/regional/saarland/sr-gluecksgriff-die-neuen-landaerzte-in-weiskirchen-100.html", "thumbnailUrl": "https://images.tagesschau.de/image/d17a7095-7494-4706-b6d8-3b1cb73bba55/AAABjtIr_v4/AAABjcWesUg/16x9-512.jpg", "date": "2024-04-12T08:00:00.000+02:00", "lat": 49.5212, "lon": 7.0603, "intensity": 0.8, "source": "Tagesschau"}, {"title": "Lkw-Fahrer filmt t\u00f6dlichen Verkehrsunfall bei Mainz", "url": "https://www.tagesschau.de/inland/regional/rheinlandpfalz/swr-lkw-fahrer-filmt-toedlichen-verkehrsunfall-bei-mainz-100.html", "thumbnailUrl": "https://images.tagesschau.de/image/d30d5a24-7731-445e-8d6b-3aedf60fce33/AAABjtH28S8/AAABjcWesUg/16x9-512.jpg", "date": "2024-04-12T07:49:48.000+02:00", "lat": 49.99286, "lon": 8.27111, "intensity": 0.8, "source": "Tagesschau"}, {"title": "Alte Schleif\u00e4hre \"Missunde II\" f\u00e4hrt wieder", "url": "https://www.tagesschau.de/inland/regional/schleswigholstein/ndr-alte-schleifaehre-missunde-ii-faehrt-ab-heute-wieder-100.html", "thumbnailUrl": "https://images.tagesschau.de/image/3858b3bd-bf8f-4ef5-b6ed-03ac9871e273/AAABjtOMIU0/AAABjcWesUg/16x9-512.jpg", "date": "2024-04-12T07:49:00.000+02:00", "lat": 54.4704, "lon": 9.7863, "intensity": 0.2, "source": "Tagesschau"}, {"title": "H\u00f6cke und Voigt liefern sich Schlagabtausch", "url": "https://www.tagesschau.de/inland/tv-duell-thueringen-100.html", "thumbnailUrl": "https://images.tagesschau.de/image/247e2ea7-da4f-43de-bda6-00c9f26ec872/AAABjtC1l8M/AAABjcWesUg/16x9-512.jpg", "date": "2024-04-12T07:29:43.577+02:00", "lat": 50.984, "lon": 11.581, "intensity": 0.3, "source": "Tagesschau"}, {"title": "Deutsche Badminton-Herren im EM-Achtelfinale ausgeschieden", "url": "https://www.tagesschau.de/inland/regional/saarland/sr-deutsche-badminton-herren-im-em-achtelfinale-ausgeschieden-102.html", "thumbnailUrl": "https://images.tagesschau.de/image/78677f09-efad-4470-b96e-8341685de4af/AAABjtQWwpg/AAABjcWesUg/16x9-512.jpg", "date": "2024-04-12T07:29:00.000+02:00", "lat": 49.2308, "lon": 6.9954, "intensity": 0.3, "source": "Tagesschau"}, {"title": "Hessen am Morgen: +++ Auto mit vier jungen Menschen verungl\u00fcckt +++ Feuer zerst\u00f6rt Altstadt-Haus in Gro\u00df-Bieberau +++ Radfahrerin nach Kollision mit Ehemann in Klinik +++", "url": "https://www.tagesschau.de/inland/regional/hessen/hr-hessen-am-morgen--feuer-zerstoert-altstadt-haus-in-gross-bieberau--radfahrerin-nach-kollision-mit-ehemann-in-klinik-100.html", "thumbnailUrl": "https://images.tagesschau.de/image/a8db0c06-6024-41e3-9acb-40600574d59e/AAABjtG6nwk/AAABjcWesUg/16x9-512.jpg", "date": "2024-04-12T07:15:29.057+02:00", "lat": 49.8094, "lon": 8.8549, "intensity": 0.7, "source": "Tagesschau"}, {"title": "Bremer Kulturbetriebe haben sich nach der Pandemie erholt", "url": "https://www.tagesschau.de/inland/regional/bremen/rb-bremer-kulturbetriebe-haben-sich-nach-der-pandemie-erholt-100.html", "thumbnailUrl": "https://images.tagesschau.de/image/09dbde8b-9676-4823-8772-83daf53623be/AAABjtCxNVE/AAABjcWesUg/16x9-512.jpg", "date": "2024-04-12T07:02:00.000+02:00", "lat": 53.079296, "lon": 8.801694, "intensity": 0.7, "source": "Tagesschau"}, {"title": "Nach Kita-Brandbrief von Eltern: Stadt V\u00f6lklingen wehrt sich gegen Vorw\u00fcrfe", "url": "https://www.tagesschau.de/inland/regional/saarland/sr-nach-brandbrief-von-eltern-stadt-voelklingen-wehrt-sich-gegen-vorwuerfen-zu-kitas-100.html", "thumbnailUrl": "https://images.tagesschau.de/image/69a8a6bb-bb81-48de-a466-3c220fa5c054/AAABjtCyy2k/AAABjcWesUg/16x9-512.jpg", "date": "2024-04-12T07:01:00.000+02:00", "lat": 49.25, "lon": 6.8657, "intensity": 0.6, "source": "Tagesschau"}, {"title": "Neuer Ausweis oder Reisepass: Stadt Bonn geht mit Azubis gegen Terminnot vor", "url": "https://www.tagesschau.de/inland/regional/nordrheinwestfalen/wdr-neuer-ausweis-oder-reisepass-stadt-bonn-geht-mit-azubis-gegen-terminnot-vor-100.html", "thumbnailUrl": "https://images.tagesschau.de/image/ee617408-982c-42d0-816f-018e19624e13/AAABjtHdQnA/AAABjcWesUg/16x9-512.jpg", "date": "2024-04-12T06:56:00.000+02:00", "lat": 50.73743, "lon": 7.098206, "intensity": 0.6, "source": "Tagesschau"}, {"title": "A8 bei Neunkirchen am Wochenende teilweise gesperrt", "url": "https://www.tagesschau.de/inland/regional/saarland/sr-a8-bei-neunkirchen-am-wochenende-teilweise-gesperrt-100.html", "thumbnailUrl": "https://images.tagesschau.de/image/96d93bcc-6e5b-44ce-a649-1a912353cc65/AAABjtCrd4g/AAABjcWesUg/16x9-512.jpg", "date": "2024-04-12T06:55:00.000+02:00", "lat": 49.3439, "lon": 7.19, "intensity": 0.6, "source": "Tagesschau"}, {"title": "SV Wehen Wiesbaden sp\u00fcrt in der 2. Bundesliga den Atem der Verfolger", "url": "https://www.tagesschau.de/inland/regional/hessen/hr-sv-wehen-wiesbaden-spuert-in-der-2-bundesliga-den-atem-der-verfolger-102.html", "thumbnailUrl": "https://images.tagesschau.de/image/4678653b-6d49-48b4-94db-eed2156ed5b5/AAABjtFQjco/AAABjcWesUg/16x9-512.jpg", "date": "2024-04-12T06:50:21.490+02:00", "lat": 50.0444, "lon": 8.2442, "intensity": 0.7, "source": "Tagesschau"}, {"title": "Guten Morgen, NRW!", "url": "https://www.tagesschau.de/inland/regional/nordrheinwestfalen/wdr-guten-morgen-nrw-442.html", "thumbnailUrl": "https://images.tagesschau.de/image/e7b18e30-c2fb-4fa9-8c86-a4243ece7211/AAABjtCw90c/AAABjcWesUg/16x9-512.jpg", "date": "2024-04-12T06:43:00.000+02:00", "lat": 51.4918, "lon": 7.5975, "intensity": 0.8, "source": "Tagesschau"}, {"title": "Trotz Markenschutz: Netto nutzt Wendlandsonne f\u00fcr Werbung", "url": "https://www.tagesschau.de/inland/regional/niedersachsen/ndr-trotz-markenschutz-netto-nutzt-wendlandsonne-fuer-werbung-100.html", "thumbnailUrl": "https://images.tagesschau.de/image/6c828eab-62c3-4e75-825e-64727ec2ddb6/AAABjtHHyNc/AAABjcWesUg/16x9-512.jpg", "date": "2024-04-12T06:40:00.000+02:00", "lat": 52.6, "lon": 11.2167, "intensity": 0.7, "source": "Tagesschau"}, {"title": "Wem geh\u00f6rt der DAX?\u00a0", "url": "https://www.tagesschau.de/multimedia/podcast/11km-dax-aktien-100.html", "thumbnailUrl": "https://images.tagesschau.de/image/acaf241f-9b72-417e-9bef-e768f481a293/AAABjtB9QIk/AAABjcWesUg/16x9-512.jpg", "date": "2024-04-12T06:34:56.413+02:00", "lat": 53.5511, "lon": 9.9937, "intensity": 0.2, "source": "Tagesschau"}, {"title": "Fu\u00dfball-EM in Hamburg: Wird Horner Rennbahn Camp f\u00fcr Holland-Fans?", "url": "https://www.tagesschau.de/inland/regional/hamburg/ndr-fussball-em-horner-rennbahn-koennte-camp-fuer-holland-fans-werden-100.html", "thumbnailUrl": "https://images.tagesschau.de/image/bc574997-0766-44c7-aad6-473f54c381f7/AAABjtCkdXI/AAABjcWesUg/16x9-512.jpg", "date": "2024-04-12T06:27:00.000+02:00", "lat": 53.5511, "lon": 10.0753, "intensity": 0.8, "source": "Tagesschau"}, {"title": "Vaude in Tettnang beantragt Kurzarbeit", "url": "https://www.tagesschau.de/inland/regional/badenwuerttemberg/swr-vaude-in-tettnang-beantragt-kurzarbeit-102.html", "thumbnailUrl": "https://images.tagesschau.de/image/56e3a34c-38ee-4c91-87e1-48932be27556/AAABjtGJD78/AAABjcWesUg/16x9-512.jpg", "date": "2024-04-12T06:09:04.000+02:00", "lat": 47.6579, "lon": 9.6143, "intensity": 0.6, "source": "Tagesschau"}, {"title": "Kiffen auf der Kirmes: Auf der einen ja, auf der anderen nein", "url": "https://www.tagesschau.de/inland/regional/nordrheinwestfalen/wdr-kiffen-auf-der-kirmes-auf-der-einen-ja-auf-der-anderen-nein-100.html", "thumbnailUrl": "https://images.tagesschau.de/image/73f01274-8b41-4328-8c3f-471e6ffd70a9/AAABjtCIrJ4/AAABjcWesUg/16x9-512.jpg", "date": "2024-04-12T06:00:00.000+02:00", "lat": 51.2277, "lon": 6.7735, "intensity": 0.6, "source": "Tagesschau"}, {"title": "Erneut lange Bahn-Baustelle zwischen D\u00fcsseldorf und Duisburg", "url": "https://www.tagesschau.de/inland/regional/nordrheinwestfalen/wdr-erneut-lange-bahn-baustelle-zwischen-duesseldorf-und-duisburg-102.html", "thumbnailUrl": "https://images.tagesschau.de/image/bce1ff3a-81e0-4eb1-9a91-c7f323fb6d3d/AAABjtHZmsU/AAABjcWesUg/16x9-512.jpg", "date": "2024-04-12T06:00:00.000+02:00", "lat": 51.2277, "lon": 6.7735, "intensity": 0.7, "source": "Tagesschau"}, {"title": "Lehrkr\u00e4fte an BW-Schulen bekommen digitalen Arbeitsplatz", "url": "https://www.tagesschau.de/inland/regional/badenwuerttemberg/swr-lehrkraefte-an-bw-schulen-bekommen-digitalen-arbeitsplatz-100.html", "thumbnailUrl": "https://images.tagesschau.de/image/7616f1ea-ac5e-46f7-96c9-cfc05181b50c/AAABjtJt91Q/AAABjcWesUg/16x9-512.jpg", "date": "2024-04-12T05:50:20.000+02:00", "lat": 48.7758, "lon": 9.3273, "intensity": 0.8, "source": "Tagesschau"}, {"title": "Lufthansa streicht Iran-Fl\u00fcge bis Samstag", "url": "https://www.tagesschau.de/wirtschaft/unternehmen/lufthansa-iran-102.html", "thumbnailUrl": "https://images.tagesschau.de/image/4b190248-c6b0-4c51-9270-d2ceff48fc59/AAABjqUX0x4/AAABjcWesUg/16x9-512.jpg", "date": "2024-04-12T05:36:42.336+02:00", "lat": 35.689506, "lon": 51.388973, "intensity": 0.8, "source": "Tagesschau"}, {"title": "Frau in falschem Grab auf dem Friedhof Nagold beerdigt", "url": "https://www.tagesschau.de/inland/regional/badenwuerttemberg/swr-falsche-frau-in-doppelgrab-in-nagold-beerdigt-100.html", "thumbnailUrl": "https://images.tagesschau.de/image/cfe3454b-cfa5-4686-a38b-71a5fcfc9c31/AAABjtF2ulw/AAABjcWesUg/16x9-512.jpg", "date": "2024-04-12T05:33:00.000+02:00", "lat": 48.5708, "lon": 8.7167, "intensity": 0.7, "source": "Tagesschau"}, {"title": "Kritik an AfD-Antrag: \"Gegen die Interessen der Jugend\"", "url": "https://www.tagesschau.de/inland/regional/bayern/br-kritik-an-afd-antrag-gegen-die-interessen-der-jugend-102.html", "thumbnailUrl": "https://images.tagesschau.de/image/3aa3f0fa-e418-413e-b43e-4481570df008/AAABjtBFOQY/AAABjcWesUg/16x9-512.jpg", "date": "2024-04-12T05:05:33.060+02:00", "lat": 48.1351, "lon": 11.582, "intensity": 0.7, "source": "Tagesschau"}, {"title": "Russland schickt Ausbilder nach Niger", "url": "https://www.tagesschau.de/ausland/afrika/niger-russland-militaermaterial-100.html", "thumbnailUrl": "https://images.tagesschau.de/image/86b4be1f-dafa-48f5-bcd8-f82d3d59260e/AAABjtAEyPw/AAABjcWesUg/16x9-512.jpg", "date": "2024-04-12T05:05:25.716+02:00", "lat": 13.5126, "lon": 10.1968, "intensity": 0.7, "source": "Tagesschau"}, {"title": "Vor Niedersachsen-Derby: DHL-Fahrzeuge in Hannover beschmiert", "url": "https://www.tagesschau.de/inland/regional/niedersachsen/ndr-vor-niedersachsen-derby-dhl-fahrzeuge-in-hannover-beschmiert-100.html", "thumbnailUrl": "https://images.tagesschau.de/image/06585340-1ee2-4ad7-ac2a-3dbaf8d24c3e/AAABjtCzToQ/AAABjcWesUg/16x9-512.jpg", "date": "2024-04-12T04:31:00.000+02:00", "lat": 52.375, "lon": 9.732, "intensity": 0.6, "source": "Tagesschau"}, {"title": "Ein \"solidarischer Nachbar\" der Ukraine?", "url": "https://www.tagesschau.de/ausland/europa/slowakei-ukraine-regierungskonsultation-100.html", "thumbnailUrl": "https://images.tagesschau.de/image/442c2bcb-7e91-4cf9-b4d9-ec6eeaec2499/AAABjs93UVo/AAABjcWesUg/16x9-512.jpg", "date": "2024-04-12T04:15:20.519+02:00", "lat": 48.669, "lon": 19.699, "intensity": 0.8, "source": "Tagesschau"}, {"title": "SEK \u00fcberw\u00e4ltigt M\u00e4nner in Paderborn", "url": "https://www.tagesschau.de/inland/regional/nordrheinwestfalen/wdr-sek-ueberwaeltigt-maenner-in-paderborn-100.html", "thumbnailUrl": "https://images.tagesschau.de/image/d234e265-127c-4630-8cb6-21cc6ee02499/AAABjtCa-Kk/AAABjcWesUg/16x9-512.jpg", "date": "2024-04-12T00:33:00.000+02:00", "lat": 51.7309, "lon": 8.7344, "intensity": 0.7, "source": "Tagesschau"},