[{"title": "\"Es braucht eine klare Antwort des Rechtsstaates\"", "url": "https://www.tagesschau.de/inland/innenpolitik/interview-klingbeil-angriff-ecke-100.html", "thumbnailUrl": "https://images.tagesschau.de/image/5828c9a9-0aba-46df-b2a0-9710cea389ba/AAABj0UQru8/AAABjwnlKNc/16x9-512.jpg", "date": "2024-05-05T02:03:23.012+02:00", "lat": 51.050409, "lon": 13.737262, "intensity": 0.8, "source": "Tagesschau"}, {"title": "Wo Esel H\u00fchner h\u00fcten - beim Gottorfer Landmarkt geht's rund", "url": "https://www.tagesschau.de/inland/regional/schleswigholstein/ndr-wo-esel-huehner-hueten-beim-gottorfer-landmarkt-gehts-rund-100.html", "thumbnailUrl": "https://images.tagesschau.de/image/85bf8974-54f4-4483-9127-66eff3417366/AAABjzSp8Aw/AAABjwnlKNc/16x9-512.jpg", "date": "2024-05-05T00:01:00.000+02:00", "lat": 54.52361, "lon": 9.539127, "intensity": 0.7, "source": "Tagesschau"}, {"title": "Fregatte \"Hessen\" kehrt nach Einsatz im Roten Meer zur\u00fcck", "url": "https://www.tagesschau.de/inland/regional/niedersachsen/ndr-fregatte-hessen-kehrt-nach-einsatz-im-roten-meer-zurueck-100.html", "thumbnailUrl": "https://images.tagesschau.de/image/5ce9b32e-3325-40f4-be96-0d84c5c31a92/AAABj0Ry3Fs/AAABjwnlKNc/16x9-512.jpg", "date": "2024-05-05T00:00:00.000+02:00", "lat": 53.5324, "lon": 8.144, "intensity": 0.7, "source": "Tagesschau"}, {"title": "Regionalliga Nordost: F\u00fcnf Gr\u00fcnde, warum Energie Cottbus der Aufstieg jetzt nicht mehr zu nehmen sein wird", "url": "https://www.tagesschau.de/inland/regional/brandenburg/rbb-regionalliga-nordost-5-gruende-warum-energie-cottbus-der-aufstieg-jetzt-nicht-mehr-zu-nehmen-sein-wird-102.html", "thumbnailUrl": "https://images.tagesschau.de/image/5fdff33e-8fd9-4810-9f5a-038cd9583931/AAABj0Wg47k/AAABjwnlKNc/16x9-512.jpg", "date": "2024-05-04T23:58:12.000+02:00", "lat": 51.7683, "lon": 14.322, "intensity": 0.7, "source": "Tagesschau"}, {"title": "++ UN sehen Hungersnot im Norden des Gazastreifens ++", "url": "https://www.tagesschau.de/newsticker/liveblog-nahost-samstag-132.html", "thumbnailUrl": "https://images.tagesschau.de/image/8284b808-32b2-4cf5-8bab-d818bb233590/AAABj0SCN-0/AAABjwnlKNc/16x9-512.jpg", "date": "2024-05-04T22:48:59.407+02:00", "lat": 31.5107, "lon": 34.3955, "intensity": 0.8, "source": "Tagesschau"}, {"title": "++ Russland schreibt Selenskyj zur Fahndung aus ++", "url": "https://www.tagesschau.de/newsticker/liveblog-ukraine-samstag-384.html", "thumbnailUrl": "https://images.tagesschau.de/image/645f3586-0d52-44e8-b0e2-653314540ee3/AAABj0PIY8c/AAABjwnlKNc/16x9-512.jpg", "date": "2024-05-04T22:48:36.054+02:00", "lat": 50.4547, "lon": 30.5234, "intensity": 0.8, "source": "Tagesschau"}, {"title": "Live-Blog 2. Liga: Hansa Rostock taumelt, Braunschweig mit Moral", "url": "https://www.tagesschau.de/inland/regional/hamburg/ndr-live-blog-2-liga-hsv-oder-st-pauli-wer-gewinnt-das-stadtderby-102.html", "thumbnailUrl": "https://images.tagesschau.de/image/497ac063-f990-4cd0-9181-39cf3e7a3798/AAABj0VK1qM/AAABjwnlKNc/16x9-512.jpg", "date": "2024-05-04T22:25:00.000+02:00", "lat": 52.2799, "lon": 10.8754, "intensity": 0.8, "source": "Tagesschau"}, {"title": "Eintracht Braunschweig erk\u00e4mpft lebenswichtigen Punkt in F\u00fcrth", "url": "https://www.tagesschau.de/inland/regional/niedersachsen/ndr-eintracht-braunschweig-erkaempft-lebenswichtigen-punkt-in-fuerth-104.html", "thumbnailUrl": "https://images.tagesschau.de/image/9da89856-b4f0-45a0-959d-bdee6fea30a8/AAABj0VJHlo/AAABjwnlKNc/16x9-512.jpg", "date": "2024-05-04T22:25:00.000+02:00", "lat": 51.0045, "lon": 10.9762, "intensity": 0.8, "source": "Tagesschau"}, {"title": "Weiter Vorletzter: Hansa Rostock verliert nach F\u00fchrung gegen KSC", "url": "https://www.tagesschau.de/inland/regional/mecklenburgvorpommern/ndr-weiter-vorletzter-hansa-rostock-verliert-nach-fuehrung-gegen-ksc-104.html", "thumbnailUrl": "https://images.tagesschau.de/image/7a171320-c36e-484a-a015-c1204e765532/AAABj0VKzv4/AAABjwnlKNc/16x9-512.jpg", "date": "2024-05-04T22:25:00.000+02:00", "lat": 54.0634, "lon": 12.1356, "intensity": 0.8, "source": "Tagesschau"}, {"title": "Kinder st\u00fcrzen durch Hallendach in Remshalden: mehrere Verletzte", "url": "https://www.tagesschau.de/inland/regional/badenwuerttemberg/swr-kinder-stuerzen-durch-hallendach-in-remshalden-mehrere-verletzte-100.html", "thumbnailUrl": "https://images.tagesschau.de/image/f999e2e1-3bf9-456c-9dbf-ca0bc4c39879/AAABj0U043M/AAABjwnlKNc/16x9-512.jpg", "date": "2024-05-04T22:01:16.000+02:00", "lat": 48.822, "lon": 9.439, "intensity": 0.8, "source": "Tagesschau"}, {"title": "Handball: VfL Potsdam macht Aufstieg in die 1. Bundesliga vorzeitig perfekt", "url": "https://www.tagesschau.de/inland/regional/brandenburg/rbb-handball-vfl-potsdam-macht-aufstieg-in-die-1-bundesliga-vorzeitig-perfekt-102.html", "thumbnailUrl": "https://images.tagesschau.de/image/5eed041d-fcf2-448e-bd72-0535a9bda2a2/AAABj0UkXAg/AAABjwnlKNc/16x9-512.jpg", "date": "2024-05-04T21:42:01.000+02:00", "lat": 52.3906, "lon": 13.0657, "intensity": 0.7, "source": "Tagesschau"}, {"title": "Vogelwart auf Trischen: Der einsamste Job in SH", "url": "https://www.tagesschau.de/inland/regional/schleswigholstein/ndr-vogelwart-auf-trischen-der-einsamste-job-in-sh-100.html", "thumbnailUrl": "https://images.tagesschau.de/image/7780a30e-193a-493e-b590-6274189958dd/AAABj0M_NRk/AAABjwnlKNc/16x9-512.jpg", "date": "2024-05-04T21:31:00.000+02:00", "lat": 54.2947, "lon": 8.5387, "intensity": 0.4, "source": "Tagesschau"}, {"title": "Kultur: +++ Demo gegen Opernstar Netrebko in Wiesbaden +++ Buchmesse verl\u00e4ngert Vertrag f\u00fcr Standort Frankfurt +++ \u00dcber 100 Veranstaltungen bei \"Ein Tag f\u00fcr die Musik\" +++ ", "url": "https://www.tagesschau.de/inland/regional/hessen/hr--schauspiel-frankfurt-bringt-putin-und-macbeth-zusammen--die-filmfestival-saison-2023-startet--lichter-filmfest-zum-thema-liebe-startet-am-dienstag-100.html", "thumbnailUrl": "https://images.tagesschau.de/image/1d3535c9-80ca-4909-b1fb-e0ff620eeacb/AAABj0UHQvE/AAABjwnlKNc/16x9-512.jpg", "date": "2024-05-04T21:14:05.436+02:00", "lat": 50.1109, "lon": 8.5683, "intensity": 0.4, "source": "Tagesschau"}, {"title": "Mann bei Sprung in Hamburger Stadtparksee schwer verletzt ", "url": "https://www.tagesschau.de/inland/regional/hamburg/ndr-mann-bei-sprung-in-hamburger-stadtparksee-schwer-verletzt-100.html", "thumbnailUrl": "https://images.tagesschau.de/image/872dd4bf-9bf4-4d6f-b13b-e0cfefdf9050/AAABj0UFQBc/AAABjwnlKNc/16x9-512.jpg", "date": "2024-05-04T21:04:00.000+02:00", "lat": 53.5511, "lon": 9.9937, "intensity": 0.8, "source": "Tagesschau"}, {"title": "L\u00f6scharbeiten bei Gro\u00dfbrand dauern an", "url": "https://www.tagesschau.de/inland/regional/berlin/rbb-berlin-lichterfelde-loescharbeiten-bei-grossbrand-in-fabrikgebaeude-dauern-an-100.html", "thumbnailUrl": "https://images.tagesschau.de/image/137ae5f3-4d44-42a6-a19e-c2543bca720d/AAABj0MurGc/AAABjwnlKNc/16x9-512.jpg", "date": "2024-05-04T20:34:31.000+02:00", "lat": 52.437385, "lon": 13.301018, "intensity": 0.8, "source": "Tagesschau"}, {"title": "Eintracht: +++ Sieg reicht f\u00fcr Platz sechs +++ Futkeu-Berater spricht von Leihe +++ Larsson dr\u00e4ngt zur\u00fcck in Startelf +++", "url": "https://www.tagesschau.de/inland/regional/hessen/hr--eintracht-wohl-mit-chaibi-einig--glasner-fast-nur-kolo-muani-der-tore-erzielt--bericht-eintracht-sagt-aouar-ab-100.html", "thumbnailUrl": "https://images.tagesschau.de/image/157ced03-085c-445e-a360-2a672a4d2fad/AAABj0TdIuI/AAABjwnlKNc/16x9-512.jpg", "date": "2024-05-04T20:27:22.981+02:00", "lat": 50.110922, "lon": 8.682127, "intensity": 0.6, "source": "Tagesschau"}, {"title": "Proteste an den Universit\u00e4ten: Kritik an Israel oder Antisemitismus?", "url": "https://www.tagesschau.de/inland/regional/nordrheinwestfalen/wdr-proteste-an-den-universitaeten-kritik-an-israel-oder-antisemitismus-100.html", "thumbnailUrl": "https://images.tagesschau.de/image/e5e407fd-a109-4f28-95be-7316b527e6ad/AAABj0UDZD4/AAABjwnlKNc/16x9-512.jpg", "date": "2024-05-04T20:20:00.000+02:00", "lat": 50.9375, "lon": 6.9603, "intensity": 0.8, "source": "Tagesschau"}, {"title": "SSV Ulm schafft den Aufstieg: Riesenparty in Schwarz-Wei\u00df", "url": "https://www.tagesschau.de/inland/regional/badenwuerttemberg/swr-ssv-ulm-schafft-den-aufstieg-riesenparty-in-schwarz-weiss-100.html", "thumbnailUrl": "https://images.tagesschau.de/image/71b82abc-e97f-4dea-a55a-495be1231edf/AAABj0RiSSs/AAABjwnlKNc/16x9-512.jpg", "date": "2024-05-04T20:15:00.000+02:00", "lat": 48.424, "lon": 9.984, "intensity": 0.8, "source": "Tagesschau"}, {"title": "Saar-Umweltministerium feiert gro\u00dfes Jubil\u00e4um mit Familienfest", "url": "https://www.tagesschau.de/inland/regional/saarland/sr-saar-umweltministerium-feiert-grosses-jubilaeum-mit-familienfest-100.html", "thumbnailUrl": "https://images.tagesschau.de/image/8692cf16-031a-4178-8ca2-ea7683a4424d/AAABj0TQIDA/AAABjwnlKNc/16x9-512.jpg", "date": "2024-05-04T20:12:00.000+02:00", "lat": 49.3964, "lon": 7.0232, "intensity": 0.4, "source": "Tagesschau"}, {"title": "\"Katretter\" ruft Hilfe bei Notf\u00e4llen - Ersthelfer k\u00f6nnen sich registrieren", "url": "https://www.tagesschau.de/inland/regional/rheinlandpfalz/swr-katretter-ruft-hilfe-bei-notfaellen-ersthelfer-koennen-sich-registrieren-100.html", "thumbnailUrl": "https://images.tagesschau.de/image/94b40c18-09e2-4247-b60e-ebf8a1b7ecc0/AAABj0TOZec/AAABjwnlKNc/16x9-512.jpg", "date": "2024-05-04T20:11:00.000+02:00", "lat": 49.3705, "lon": 8.2716, "intensity": 0.6, "source": "Tagesschau"}, {"title": "Defekte Wasserbahn im Karlsruher Zoo: Sieben Personen gerettet", "url": "https://www.tagesschau.de/inland/regional/badenwuerttemberg/swr-defekte-wasserbahn-im-karlsruher-zoo-sieben-personen-gerettet-100.html", "thumbnailUrl": "https://images.tagesschau.de/image/bccd5650-e12c-47c4-bd9b-88e4fc96fb41/AAABj0XSS-A/AAABjwnlKNc/16x9-512.jpg", "date": "2024-05-04T20:10:48.000+02:00", "lat": 49.0069, "lon": 8.4292, "intensity": 0.8, "source": "Tagesschau"}, {"title": "RLP \u00fcbt Erste Hilfe - So reanimiere ich richtig", "url": "https://www.tagesschau.de/inland/regional/rheinlandpfalz/swr-rlp-uebt-erste-hilfe-so-reanimiere-ich-richtig-100.html", "thumbnailUrl": "https://images.tagesschau.de/image/234f6e26-873e-45ef-b4c4-339c7ddac195/AAABj0ROH5E/AAABjwnlKNc/16x9-512.jpg", "date": "2024-05-04T20:02:00.000+02:00", "lat": 50.3569, "lon": 7.4048, "intensity": 0.8, "source": "Tagesschau"}, {"title": "Fische k\u00f6nnen aufatmen: Bakterien fressen Schlamm aus Horlache in R\u00fcsselsheim", "url": "https://www.tagesschau.de/inland/regional/hessen/hr-fische-koennen-aufatmen-bakterien-fressen-schlamm-aus-horlache-in-ruesselsheim-100.html", "thumbnailUrl": "https://images.tagesschau.de/image/2fafdc46-3863-4e20-b72c-179e29541440/AAABj0TBhD0/AAABjwnlKNc/16x9-512.jpg", "date": "2024-05-04T19:57:51.670+02:00", "lat": 49.9935, "lon": 8.455, "intensity": 0.8, "source": "Tagesschau"}, {"title": "Demonstrierende in Stuttgart fordern Aufkl\u00e4rung nach t\u00f6dlichem Polizeieinsatz", "url": "https://www.tagesschau.de/inland/regional/badenwuerttemberg/swr-demonstrierende-in-stuttgart-fordern-aufklaerung-nach-toedlichem-polizeieinsatz-102.html", "thumbnailUrl": "https://images.tagesschau.de/image/0e6b210e-17de-4bc3-bdc2-4324162e5b21/AAABj0SBbbw/AAABjwnlKNc/16x9-512.jpg", "date": "2024-05-04T19:52:00.000+02:00", "lat": 48.7758, "lon": 9.1805, "intensity": 0.8, "source": "Tagesschau"}, {"title": "Schl\u00e4gertrupp attackiert Politiker: \"Neue Dimension antidemokratischer Gewalt\"", "url": "https://www.tagesschau.de/inland/regional/nordrheinwestfalen/wdr-schlaegertrupp-attackiert-politiker-neue-dimension-antidemokratischer-gewalt-100.html", "thumbnailUrl": "https://images.tagesschau.de/image/1e96b848-24c7-42c1-b591-5522643e8e63/AAABj0UMi_Y/AAABjwnlKNc/16x9-512.jpg", "date": "2024-05-04T19:47:00.000+02:00", "lat": 51.050409, "lon": 13.737262, "intensity": 0.8, "source": "Tagesschau"}, {"title": "Schwesig und Pegel verurteilen Angriff auf SPD-Politiker in Sachsen ", "url": "https://www.tagesschau.de/inland/regional/mecklenburgvorpommern/ndr-schwesig-und-pegel-verurteilen-angriff-auf-spd-politiker-in-sachsen-100.html", "thumbnailUrl": "https://images.tagesschau.de/image/36d473af-1c7c-475c-8557-c4094df7275a/AAABj0SKi3M/AAABjwnlKNc/16x9-512.jpg", "date": "2024-05-04T19:39:00.000+02:00", "lat": 53.543564, "lon": 13.737262, "intensity": 0.6, "source": "Tagesschau"}, {"title": "Wetterlage und Temperaturen", "url": "https://www.tagesschau.de/wetter/europa-welt", "thumbnailUrl": "https://images.tagesschau.de/image/6e7d3b16-79c8-4308-822b-20c3035236b5/AAABjz-NHUc/AAABjwnlKNc/16x9-512.jpg", "date": "2024-05-04T19:37:48.144+02:00", "lat": 51.1657, "lon": 10.4515, "intensity": 0.3, "source": "Tagesschau"}, {"title": "B\u00fcrgermeister Khan in London wiedergew\u00e4hlt", "url": "https://www.tagesschau.de/ausland/europa/grossbritannien-lokalwahlen-london-100.html", "thumbnailUrl": "https://images.tagesschau.de/image/8f450de9-a4c0-4541-813a-3b3127d20b8c/AAABj0SSx3s/AAABjwnlKNc/16x9-512.jpg", "date": "2024-05-04T19:35:51.162+02:00", "lat": 51.5074, "lon": -0.1276, "intensity": 0.8, "source": "Tagesschau"}, {"title": "Berlin: Polizei r\u00e4umt Blockade der \"Letzten Generation\" von der Elsenbr\u00fccke", "url": "https://www.tagesschau.de/inland/regional/berlin/rbb-letzte-generation-blockiert-berliner-elsenbruecke-100.html", "thumbnailUrl": "https://images.tagesschau.de/image/073e74b5-44f2-4988-9465-9e40abcb939d/AAABj0Spzb8/AAABjwnlKNc/16x9-512.jpg", "date": "2024-05-04T19:27:35.000+02:00", "lat": 52.4926, "lon": 13.4578, "intensity": 0.7, "source": "Tagesschau"}, {"title": "Europawahl: Politiker aus Berlin und Brandenburg verurteilen Angriff auf SPD-Politiker in Dresden", "url": "https://www.tagesschau.de/inland/regional/brandenburg/rbb-europawahl-politiker-aus-hauptstadtregion-verurteilen-angriff-spd-politiker-in-dresden-100.html", "thumbnailUrl": "https://images.tagesschau.de/image/589bbcfd-0a76-4159-bf89-70e4dc97a1b2/AAABj0RVdjI/AAABjwnlKNc/16x9-512.jpg", "date": "2024-05-04T19:15:38.000+02:00", "lat": 52.522206, "lon": 13.737262, "intensity": 0.8, "source": "Tagesschau"}, {"title": "Dreyer verurteilt Attacken auf Politiker als \"abscheulich\"", "url": "https://www.tagesschau.de/inland/regional/rheinlandpfalz/swr-dreyer-verurteilt-attacke-auf-politiker-als-abscheulich-100.html", "thumbnailUrl": "https://images.tagesschau.de/image/c0f19eda-c9a4-4103-9319-f9e9fe704d23/AAABj0SbDog/AAABjwnlKNc/16x9-512.jpg", "date": "2024-05-04T19:12:01.000+02:00", "lat": 50.0153, "lon": 7.2662, "intensity": 0.8, "source": "Tagesschau"}, {"title": "Werder Bremen vergibt Sieg gegen Gladbach in der Nachspielzeit", "url": "https://www.tagesschau.de/inland/regional/niedersachsen/ndr-werder-bremen-vergibt-sieg-gegen-gladbach-in-der-nachspielzeit-102.html", "thumbnailUrl": "https://images.tagesschau.de/image/5d5c6af4-3141-4412-9e8b-dfd342966b91/AAABj0RDXEI/AAABjwnlKNc/16x9-512.jpg", "date": "2024-05-04T18:59:00.000+02:00", "lat": 53.0747, "lon": 8.8083, "intensity": 0.8, "source": "Tagesschau"}, {"title": "Festival f\u00fcr Demokratie und Toleranz in Neuwied", "url": "https://www.tagesschau.de/inland/regional/rheinlandpfalz/swr-festival-fuer-demokratie-und-toleranz-in-neuwied-102.html", "thumbnailUrl": "https://images.tagesschau.de/image/5dc7ed79-70fa-4175-aaa2-2cb2e6b8a434/AAABj0VSImQ/AAABjwnlKNc/16x9-512.jpg", "date": "2024-05-04T18:54:19.000+02:00", "lat": 50.4289, "lon": 7.4553, "intensity": 0.7, "source": "Tagesschau"}, {"title": "N\u00e4chster Sieg: VfL Wolfsburg macht gro\u00dfen Schritt zum Klassenerhalt", "url": "https://www.tagesschau.de/inland/regional/niedersachsen/ndr-naechster-sieg-vfl-wolfsburg-macht-grossen-schritt-zum-klassenerhalt-102.html", "thumbnailUrl": "https://images.tagesschau.de/image/d9a5438b-9ea0-4e12-a1cd-2889cc319185/AAABj0RDQ80/AAABjwnlKNc/16x9-512.jpg", "date": "2024-05-04T18:52:00.000+02:00", "lat": 52.4226, "lon": 10.8151, "intensity": 0.7, "source": "Tagesschau"}, {"title": "Millionenschaden bei Lagerhallen-Brand in Frankfurt", "url": "https://www.tagesschau.de/inland/regional/hessen/hr-lagerhalle-in-frankfurt-brennt-rauchsaeule-weithin-sichtbar-100.html", "thumbnailUrl": "https://images.tagesschau.de/image/98399ea4-460d-46cd-bbc9-672dcb0388d8/AAABj0SIvJs/AAABjwnlKNc/16x9-512.jpg", "date": "2024-05-04T18:45:41.099+02:00", "lat": 50.110924, "lon": 8.682127, "intensity": 0.8, "source": "Tagesschau"}, {"title": "37 Stunden Kegel-Marathon: Bohmter Club wagt Weltrekordversuch", "url": "https://www.tagesschau.de/inland/regional/niedersachsen/ndr-37-stunden-kegel-marathon-bohmter-club-wagt-weltrekordversuch-100.html", "thumbnailUrl": "https://images.tagesschau.de/image/a3526d4d-0e07-4c36-b6d4-d567d4b7af13/AAABj0JAv8o/AAABjwnlKNc/16x9-512.jpg", "date": "2024-05-04T18:43:00.000+02:00", "lat": 52.3796, "lon": 8.3074, "intensity": 0.7, "source": "Tagesschau"}, {"title": "Berlin-Moabit: Mann mit Israelflagge wird mit Faust ins Gesicht geschlagen ", "url": "https://www.tagesschau.de/inland/regional/berlin/rbb-berlin-moabit-mann-mit-israelflagge-wird-mit-faust-ins-gesicht-geschlagen-100.html", "thumbnailUrl": "https://images.tagesschau.de/image/8930734b-d7b5-4671-b353-43a9a17cac7f/AAABj0R6GZU/AAABjwnlKNc/16x9-512.jpg", "date": "2024-05-04T18:34:42.000+02:00", "lat": 52.5303, "lon": 13.3386, "intensity": 0.8, "source": "Tagesschau"}, {"title": "Strengere Grenzwerte: Was ab 2025 f\u00fcr Kamin\u00f6fen gilt", "url": "https://www.tagesschau.de/inland/regional/saarland/sr-strengere-grenzwerte-was-ab-2025-fuer-kaminoefen-gilt-100.html", "thumbnailUrl": "https://images.tagesschau.de/image/7d79ba8e-536b-4d58-8224-a83ea1c555a7/AAABj0R0kDs/AAABjwnlKNc/16x9-512.jpg", "date": "2024-05-04T18:31:00.000+02:00", "lat": 49.3964, "lon": 7.0, "intensity": 0.7, "source": "Tagesschau"}, {"title": "Get\u00f6tete Ukrainer in Oberhausen: Angreifer lehnten Beh\u00f6rdenhilfe ab", "url": "https://www.tagesschau.de/inland/regional/nordrheinwestfalen/wdr-getoetete-ukrainer-in-oberhausen-angreifer-lehnten-behoerdenhilfe-ab-100.html", "thumbnailUrl": "https://images.tagesschau.de/image/672c1ce3-289b-432e-becd-ec96a62ca70a/AAABj0SmAzo/AAABjwnlKNc/16x9-512.jpg", "date": "2024-05-04T18:31:00.000+02:00", "lat": 51.4964, "lon": 6.8503, "intensity": 0.8, "source": "Tagesschau"}, {"title": "Streit auf dem Kiez: Mann mit Messer schwer verletzt", "url": "https://www.tagesschau.de/inland/regional/hamburg/ndr-streit-auf-dem-kiez-mann-mit-messer-schwer-verletzt-100.html", "thumbnailUrl": "https://images.tagesschau.de/image/0827999c-c09d-4d57-9cb9-c6117edab575/AAABj0RyzbQ/AAABjwnlKNc/16x9-512.jpg", "date": "2024-05-04T18:29:00.000+02:00", "lat": 53.5511, "lon": 9.9623, "intensity": 0.8, "source": "Tagesschau"}, {"title": "Nach langer Spielunterbrechung: Cottbus siegt beim BFC und macht gro\u00dfen Schritt Richtung Aufstieg", "url": "https://www.tagesschau.de/inland/regional/berlin/rbb-nach-langer-spielunterbrechung-cottbus-siegt-beim-bfc-und-macht-grossen-schritt-richtung-aufstieg-102.html", "thumbnailUrl": "https://images.tagesschau.de/image/0761cefe-a74c-4e5f-ac14-bd8c74e83573/AAABj0Wg6PI/AAABjwnlKNc/16x9-512.jpg", "date": "2024-05-04T18:27:17.000+02:00", "lat": 52.52, "lon": 13.3996, "intensity": 0.8, "source": "Tagesschau"}, {"title": "Brandschutz-Gro\u00df\u00fcbung in der Gohrischheide", "url": "https://www.tagesschau.de/inland/regional/sachsen/mdr-brandschutz-grossuebung-in-der-gohrischheide-100.html", "thumbnailUrl": "https://images.tagesschau.de/image/40f1f95f-0045-4e97-a835-8593d231a060/AAABj0W1L6Q/AAABjwnlKNc/16x9-512.jpg", "date": "2024-05-04T18:26:11.000+02:00", "lat": 51.3096, "lon": 13.3684, "intensity": 0.8, "source": "Tagesschau"}, {"title": "SPD-Europaabgeordneter Matthias Ecke in Dresden angegriffen und verletzt", "url": "https://www.tagesschau.de/inland/regional/sachsen/mdr-spd-europaabgeordneter-matthias-ecke-in-dresden-angegriffen-und-verletzt-100.html", "thumbnailUrl": "https://images.tagesschau.de/image/bd95690a-207a-4bff-b1a9-3fbca7b9b9f1/AAABj0QvE3M/AAABjwnlKNc/16x9-512.jpg", "date": "2024-05-04T18:23:17.000+02:00", "lat": 51.050409, "lon": 13.737262, "intensity": 0.8, "source": "Tagesschau"}, {"title": "Darmstadt 98: +++ Lieberknecht \"massiv entt\u00e4uscht\" +++ Lilien chancenlos in Wolfsburg  +++ Mehlem in Lilien-Startelf +++ ", "url": "https://www.tagesschau.de/inland/regional/hessen/hr--tietz-vermisst-fehlende-gier--lilien-fans-liefern-sich-raststaetten-pruegelei--die-niederlage-der-lilien-in-der-video-zusammenfassung-102.html", "thumbnailUrl": "https://images.tagesschau.de/image/f44c69c1-265a-4532-9f59-51b605055776/AAABj0Rn0Wo/AAABjwnlKNc/16x9-512.jpg", "date": "2024-05-04T18:18:06.702+02:00", "lat": 49.8717, "lon": 8.6553, "intensity": 0.5, "source": "Tagesschau"}, {"title": "Interview | Traditionen: \"Bei einer Jugendweihe kommen mal 800 oder auch mal nur 50 Euro zusammen\"", "url": "https://www.tagesschau.de/inland/regional/brandenburg/rbb-interview--traditionen-bei-einer-jugendweihe-kommen-mal-800-oder-auch-mal-nur-50-euro-zusammen-100.html", "thumbnailUrl": "https://images.tagesschau.de/image/bee6fa61-4794-4ebf-af6c-84359cb98645/AAABj0Ra94M/AAABjwnlKNc/16x9-512.jpg", "date": "2024-05-04T18:03:47.000+02:00", "lat": 52.52, "lon": 13.405, "intensity": 0.4, "source": "Tagesschau"}, {"title": "Die Verhandlungen beginnen - ohne Israel", "url": "https://www.tagesschau.de/ausland/asien/israel-hamas-verhandlungen-100.html", "thumbnailUrl": "https://images.tagesschau.de/image/13d4c0db-636e-4e5e-91ac-abe74bf3cc9c/AAABj0RTaUI/AAABjwnlKNc/16x9-512.jpg", "date": "2024-05-04T17:57:48.495+02:00", "lat": 36.199, "lon": 34.4368, "intensity": 0.7, "source": "Tagesschau"}, {"title": "AfD-Landtagsabgeordneter mit Eiern beworfen und geschlagen", "url": "https://www.tagesschau.de/inland/regional/niedersachsen/ndr-afd-landtagsabgeordneter-mit-eiern-beworfen-und-geschlagen-100.html", "thumbnailUrl": "https://images.tagesschau.de/image/61d9a158-6115-4304-aa4e-2e4bee2c8265/AAABj0Qw5Rs/AAABjwnlKNc/16x9-512.jpg", "date": "2024-05-04T17:56:00.000+02:00", "lat": 52.435833, "lon": 7.073056, "intensity": 0.7, "source": "Tagesschau"}, {"title": "Kritik an Kabinen-Crew nach Massen-\u00dcbelkeit auf Condor-Flug ", "url": "https://www.tagesschau.de/inland/regional/hessen/hr-rettungseinsatz-am-flughafen-frankfurt-massen-uebelkeit-an-bord-von-condor-maschine-100.html", "thumbnailUrl": "https://images.tagesschau.de/image/b870058d-feea-4064-9a1d-33b25465cbce/AAABj0RFCVc/AAABjwnlKNc/16x9-512.jpg", "date": "2024-05-04T17:39:18.090+02:00", "lat": 50.035845, "lon": 8.570551, "intensity": 0.8, "source": "Tagesschau"}, {"title": "Darmstadt 98 verliert bei Mehlem-Comeback in Wolfsburg", "url": "https://www.tagesschau.de/inland/regional/hessen/hr-darmstadt-98-verliert-bei-mehlem-comeback-in-wolfsburg-102.html", "thumbnailUrl": "https://images.tagesschau.de/image/99531047-5127-40d9-bfd3-0e5f6b958420/AAABj0Q2WJA/AAABjwnlKNc/16x9-512.jpg", "date": "2024-05-04T17:24:30.846+02:00", "lat": 51.4416, "lon": 10.7897, "intensity": 0.8, "source": "Tagesschau"}, {"title": "W\u00fcst st\u00e4rkt Merz demonstrativ den R\u00fccken", "url": "https://www.tagesschau.de/inland/innenpolitik/wuest-merz-cdu-100.html", "thumbnailUrl": "https://images.tagesschau.de/image/36091fa0-8e1f-4b2a-b255-1002a92dea15/AAABiPeSNOo/AAABjwnlKNc/16x9-512.jpg", "date": "2024-05-04T17:21:49.783+02:00", "lat": 51.51359, "lon": 7.48111, "intensity": 0.7, "source": "Tagesschau"}, {"title": "Rot, s\u00fc\u00df, saftig: Erdbeer-Ernte in Niedersachsen kurz vor Start", "url": "https://www.tagesschau.de/inland/regional/niedersachsen/ndr-rot-suess-saftig-erdbeer-ernte-in-niedersachsen-kurz-vor-start-100.html", "thumbnailUrl": "https://images.tagesschau.de/image/71af5d66-beb3-49ef-a47b-13f920fa6b84/AAABj0QrZF4/AAABjwnlKNc/16x9-512.jpg", "date": "2024-05-04T17:11:00.000+02:00", "lat": 52.6367, "lon": 10.4515, "intensity": 0.6, "source": "Tagesschau"}, {"title": "Motorrad kollidiert mit E-Bike - Radfahrerin in Lebensgefahr", "url": "https://www.tagesschau.de/inland/regional/niedersachsen/ndr-motorrad-kollidiert-mit-e-bike-radfahrerin-in-lebensgefahr-100.html", "thumbnailUrl": "https://images.tagesschau.de/image/468a9be7-a7be-403b-914e-261053510fb4/AAABj0QpkoY/AAABjwnlKNc/16x9-512.jpg", "date": "2024-05-04T17:08:00.000+02:00", "lat": 53.113, "lon": 7.987, "intensity": 0.8, "source": "Tagesschau"}, {"title": "Elversbergs Klassenerhalt perfekt", "url": "https://www.tagesschau.de/inland/regional/saarland/sr-elversbergs-klassenerhalt-perfekt-102.html", "thumbnailUrl": "https://images.tagesschau.de/image/363f4e81-4121-4b01-8199-c3b349d78440/AAABj0Q4Icc/AAABjwnlKNc/16x9-512.jpg", "date": "2024-05-04T17:03:00.000+02:00", "lat": 49.3068, "lon": 7.1573, "intensity": 0.8, "source": "Tagesschau"}, {"title": "Debatte um Areal mit ehemaliger Goebbels-Villa", "url": "https://www.tagesschau.de/inland/regional/brandenburg/rbb-bogensee-areal-in-barnim-buergermeister-von-wandlitz-fuerchtet-einzug-von-rechten-ideologen-in-goebbels-villa-100.html", "thumbnailUrl": "https://images.tagesschau.de/image/f567b66f-260d-4d3d-b16d-493249bf9672/AAABj0QZhJk/AAABjwnlKNc/16x9-512.jpg", "date": "2024-05-04T17:01:32.748+02:00", "lat": 52.51604, "lon": 13.37699, "intensity": 0.7, "source": "Tagesschau"}, {"title": "Monica Bleibtreu w\u00e4re 80 geworden: Fr\u00fch berufen, sp\u00e4t gew\u00fcrdigt", "url": "https://www.tagesschau.de/inland/regional/hamburg/ndr-monica-bleibtreu-waere-80-geworden-frueh-berufen-spaet-gewuerdigt-100.html", "thumbnailUrl": "https://images.tagesschau.de/image/4f6b7b73-fc19-42f7-a3fd-ba2b412e8658/AAABj0Qa6F8/AAABjwnlKNc/16x9-512.jpg", "date": "2024-05-04T16:55:00.000+02:00", "lat": 53.5511, "lon": 9.9937, "intensity": 0.6, "source": "Tagesschau"}, {"title": "Gr\u00fcnen-Politiker in Essen angegriffen: \"Lasse mich nicht einsch\u00fcchtern\"", "url": "https://www.tagesschau.de/inland/regional/nordrheinwestfalen/wdr-zwei-gruenen-politiker-in-essen-angegriffen-100.html", "thumbnailUrl": "https://images.tagesschau.de/image/9a259683-0bd1-4957-bdad-cba90804491d/AAABj0QRrpY/AAABjwnlKNc/16x9-512.jpg", "date": "2024-05-04T16:22:00.000+02:00", "lat": 51.4556, "lon": 7.0111, "intensity": 0.8, "source": "Tagesschau"}, {"title": "Hunderte bei Gegen-Demo in Hamburg", "url": "https://www.tagesschau.de/inland/regional/hamburg/demo-gegen-islamismus-hamburg-100.html", "thumbnailUrl": "https://images.tagesschau.de/image/326b5a34-a043-46fc-830d-0bd67b88bb5d/AAABj0PvAWM/AAABjwnlKNc/16x9-512.jpg", "date": "2024-05-04T16:09:54.654+02:00", "lat": 53.5511, "lon": 9.9937, "intensity": 0.8, "source": "Tagesschau"}, {"title": "Regionalliga S\u00fcdwest: Hessen Kassel erobert den Bieberer Berg", "url": "https://www.tagesschau.de/inland/regional/hessen/hr-regionalliga-suedwest-hessen-kassel-erobert-den-bieberer-berg-102.html", "thumbnailUrl": "https://images.tagesschau.de/image/2cd843d7-d566-4be5-9b43-874cb9c72612/AAABj0P0jA4/AAABjwnlKNc/16x9-512.jpg", "date": "2024-05-04T16:08:02.432+02:00", "lat": 50.0894, "lon": 8.8056, "intensity": 0.7, "source": "Tagesschau"}, {"title": "Berlin: Festnahme nach schwerer K\u00f6rperverletzung am Alexanderplatz", "url": "https://www.tagesschau.de/inland/regional/berlin/rbb-berlin-festnahme-nach-schwerer-koerperverletzung-am-alexanderplatz-100.html", "thumbnailUrl": "https://images.tagesschau.de/image/30c426ae-fe3a-41b3-8838-80eae2a537ed/AAABj0Ppevg/AAABjwnlKNc/16x9-512.jpg", "date": "2024-05-04T15:58:29.000+02:00", "lat": 52.5219, "lon": 13.4132, "intensity": 0.8, "source": "Tagesschau"}, {"title": "Fu\u00dfg\u00e4ngerin bei Unfall in Saarlouis lebensgef\u00e4hrlich verletzt", "url": "https://www.tagesschau.de/inland/regional/saarland/sr-fussgaengerin-bei-unfall-in-saarlouis-lebensgefaehrlich-verletzt-100.html", "thumbnailUrl": "https://images.tagesschau.de/image/c0a26b1e-b107-47ef-9037-19576988b340/AAABj0PlvdU/AAABjwnlKNc/16x9-512.jpg", "date": "2024-05-04T15:56:00.000+02:00", "lat": 49.3123, "lon": 6.7538, "intensity": 0.8, "source": "Tagesschau"}, {"title": "Sieg gegen K\u00f6ln: SSV Ulm 1846 steigt in die 2. Bundesliga auf", "url": "https://www.tagesschau.de/inland/regional/badenwuerttemberg/swr-sieg-gegen-koeln-ssv-ulm-1846-steigt-in-die-2-bundesliga-auf-102.html", "thumbnailUrl": "https://images.tagesschau.de/image/98ac7bf8-4f15-473e-93e5-8b847e70cc3f/AAABj0RiUfA/AAABjwnlKNc/16x9-512.jpg", "date": "2024-05-04T15:51:24.000+02:00", "lat": 48.395766, "lon": 9.991558, "intensity": 0.7, "source": "Tagesschau"}, {"title": "Einzug in Champions-League-Quali fast perfekt: Eintracht-Frauen gewinnen Endspiel in Hoffenheim", "url": "https://www.tagesschau.de/inland/regional/hessen/hr-einzug-in-champions-league-quali-fast-perfekt-eintracht-frauen-gewinnen-endspiel-in-hoffenheim-102.html", "thumbnailUrl": "https://images.tagesschau.de/image/3f1e9b28-9d25-4574-8e61-dabb4a440741/AAABj0PnvaU/AAABjwnlKNc/16x9-512.jpg", "date": "2024-05-04T15:50:23.259+02:00", "lat": 49.3133, "lon": 8.6377, "intensity": 0.8, "source": "Tagesschau"}, {"title": "Opferzahl durch \u00dcberflutungen steigt auf 56", "url": "https://www.tagesschau.de/ausland/amerika/brasilien-ueberschwemmungen-riogrande-100.html", "thumbnailUrl": "https://images.tagesschau.de/image/5717435a-5893-412d-a8a9-fe15127da02e/AAABj0O8z5s/AAABjwnlKNc/16x9-512.jpg", "date": "2024-05-04T15:44:52.808+02:00", "lat": -30.0346, "lon": -51.2177, "intensity": 0.8, "source": "Tagesschau"}, {"title": "Verd\u00e4chtige Post: Entwarnung nach Gro\u00dfeinsatz bei ZF Friedrichshafen", "url": "https://www.tagesschau.de/inland/regional/badenwuerttemberg/swr-verdaechtige-post-entwarnung-nach-grosseinsatz-bei-zf-friedrichshafen-100.html", "thumbnailUrl": "https://images.tagesschau.de/image/30b04bc5-02a5-4178-b75c-868ff0adc7c8/AAABj0QE_t8/AAABjwnlKNc/16x9-512.jpg", "date": "2024-05-04T15:43:59.000+02:00", "lat": 47.6542, "lon": 9.482, "intensity": 0.7, "source": "Tagesschau"}, {"title": "20-J\u00e4hrige entf\u00fchrt - Polizei nimmt drei M\u00e4nner fest", "url": "https://www.tagesschau.de/inland/regional/niedersachsen/ndr-20-jaehrige-entfuehrt-polizei-nimmt-drei-maenner-fest-100.html", "thumbnailUrl": "https://images.tagesschau.de/image/bc7eba0e-02bb-4b8b-87c7-b45bc518dcf3/AAABj0PP3Jg/AAABjwnlKNc/16x9-512.jpg", "date": "2024-05-04T15:36:00.000+02:00", "lat": 52.158, "lon": 9.932, "intensity": 0.8, "source": "Tagesschau"}, {"title": "Trauer nach t\u00f6dlicher Attacke vor Paderborner Kiosk: T\u00e4ter fl\u00fcchtig", "url": "https://www.tagesschau.de/inland/regional/nordrheinwestfalen/wdr-attacke-vor-kiosk-in-paderborn-30-jaehriger-gestorben-100.html", "thumbnailUrl": "https://images.tagesschau.de/image/5c459702-6e98-4d93-b7d2-14a7e1513ae1/AAABj0SIs5A/AAABjwnlKNc/16x9-512.jpg", "date": "2024-05-04T15:35:00.000+02:00", "lat": 51.717, "lon": 8.755, "intensity": 0.8, "source": "Tagesschau"}, {"title": "Alle reden \u00fcber Sicherheit und Politik", "url": "https://www.tagesschau.de/ausland/europa/esc-sicherheit-100.html", "thumbnailUrl": "https://images.tagesschau.de/image/f3d1f50d-7dcc-45a1-b2ed-69f9925d1367/AAABj0PBhHU/AAABjwnlKNc/16x9-512.jpg", "date": "2024-05-04T15:18:27.602+02:00", "lat": 55.604, "lon": 13.0524, "intensity": 0.7, "source": "Tagesschau"}, {"title": "Schwarzwaldhochstra\u00dfe bei Baden-Baden - \"Schweigekilometer\" f\u00fcr Motorradfahrer eingeweiht", "url": "https://www.tagesschau.de/inland/regional/badenwuerttemberg/swr-schwarzwaldhochstrasse-bei-baden-baden-schweigekilometer-fuer-motorradfahrer-100.html", "thumbnailUrl": "https://images.tagesschau.de/image/cfed635e-2786-41d3-bd0b-c61c7031bf98/AAABj0O_U1s/AAABjwnlKNc/16x9-512.jpg", "date": "2024-05-04T15:14:00.000+02:00", "lat": 48.7904, "lon": 8.2046, "intensity": 0.4, "source": "Tagesschau"}, {"title": "Mann verletzt 57-J\u00e4hrigen mit Hammer schwer am Kopf ", "url": "https://www.tagesschau.de/inland/regional/niedersachsen/ndr-mann-verletzt-57-jaehrigen-mit-hammer-schwer-am-kopf-100.html", "thumbnailUrl": "https://images.tagesschau.de/image/83f5a2fa-a436-430e-834e-9ddd8765739c/AAABj0O0mms/AAABjwnlKNc/16x9-512.jpg", "date": "2024-05-04T15:01:00.000+02:00", "lat": 53.0111, "lon": 8.8024, "intensity": 0.8, "source": "Tagesschau"}, {"title": "Marode Br\u00fccken in Niedersachsen: Neubau zieht sich hin", "url": "https://www.tagesschau.de/inland/regional/niedersachsen/ndr-marode-bruecken-in-niedersachsen-neubau-zieht-sich-hin-100.html", "thumbnailUrl": "https://images.tagesschau.de/image/2a364388-2827-417f-b883-9f3bb3684cb4/AAABj0O0bQg/AAABjwnlKNc/16x9-512.jpg", "date": "2024-05-04T14:57:00.000+02:00", "lat": 52.6367, "lon": 9.732, "intensity": 0.8, "source": "Tagesschau"}, {"title": "Festnahmen bei Pro-Pal\u00e4stina-Demo an Humboldt-Uni", "url": "https://www.tagesschau.de/inland/regional/berlin/humboldt-uni-gaza-protest-festnahmen-100.html", "thumbnailUrl": "https://images.tagesschau.de/image/f9d84129-b7fe-4491-b98a-2cb2bc5ac703/AAABj0OlzTw/AAABjwnlKNc/16x9-512.jpg", "date": "2024-05-04T14:44:41.000+02:00", "lat": 52.5163, "lon": 13.3946, "intensity": 0.8, "source": "Tagesschau"}, {"title": "\u00dcber den Zaun gehoben: Diebe stehlen Alpakas aus Freizeitpark", "url": "https://www.tagesschau.de/inland/regional/niedersachsen/ndr-ueber-den-zaun-gehoben-diebe-stehlen-alpakas-aus-freizeitpark-100.html", "thumbnailUrl": "https://images.tagesschau.de/image/29f1e4c3-caa2-4f8a-89ca-1084860a4b9b/AAABj0ODZKU/AAABjwnlKNc/16x9-512.jpg", "date": "2024-05-04T14:07:00.000+02:00", "lat": 51.8036, "lon": 9.8807, "intensity": 0.7, "source": "Tagesschau"}, {"title": "Schwimmendes LNG-Terminal \"Neptune\" wird verlegt", "url": "https://www.tagesschau.de/inland/regional/mecklenburgvorpommern/ndr-schwimmendes-lng-terminal-neptune-wird-verlegt-100.html", "thumbnailUrl": "https://images.tagesschau.de/image/4538c2b8-a1cf-4d42-bd31-83937606ede3/AAABj0OXAZI/AAABjwnlKNc/16x9-512.jpg", "date": "2024-05-04T13:56:00.000+02:00", "lat": 54.1406, "lon": 13.7917, "intensity": 0.7, "source": "Tagesschau"}, {"title": "21-J\u00e4hriger stirbt bei Unfall in Dorsten", "url": "https://www.tagesschau.de/inland/regional/nordrheinwestfalen/wdr-21-jaehriger-stirbt-bei-unfall-in-dorsten-100.html", "thumbnailUrl": "https://images.tagesschau.de/image/efaf9d0f-9c4a-4db8-823a-ede56429bf9f/AAABj0R2ZnI/AAABjwnlKNc/16x9-512.jpg", "date": "2024-05-04T13:41:00.000+02:00", "lat": 51.6609, "lon": 6.9649, "intensity": 0.8, "source": "Tagesschau"}, {"title": "Brandbeschleuniger festgestellt: Feuerwehr l\u00f6scht zwei brennende Autos in Cottbus", "url": "https://www.tagesschau.de/inland/regional/brandenburg/rbb-brandbeschleuniger-festgestellt-feuerwehr-loescht-zwei-brennende-autos-in-cottbus-100.html", "thumbnailUrl": "https://images.tagesschau.de/image/2a00c68b-3daa-49c5-abd1-f1d87009e9ef/AAABj0NpRXw/AAABjwnlKNc/16x9-512.jpg", "date": "2024-05-04T13:38:59.000+02:00", "lat": 51.7562, "lon": 13.5559, "intensity": 0.8, "source": "Tagesschau"}, {"title": "Zahl der Pflege-Azubis im Saarland weiter r\u00fcckl\u00e4ufig", "url": "https://www.tagesschau.de/inland/regional/saarland/sr-zahl-der-pflege-azubis-im-saarland-weiter-ruecklaeufig-100.html", "thumbnailUrl": "https://images.tagesschau.de/image/795c27ac-ab61-4bb0-a581-4922e288effd/AAABj0NRbOs/AAABjwnlKNc/16x9-512.jpg", "date": "2024-05-04T13:09:00.000+02:00", "lat": 49.3964, "lon": 6.9538, "intensity": 0.7, "source": "Tagesschau"}, {"title": "Israelische \"Patriot\"-Systeme f\u00fcr die Ukraine?", "url": "https://www.tagesschau.de/ausland/europa/ukraine-krieg-israel-patriot-100.html", "thumbnailUrl": "https://images.tagesschau.de/image/ea3697b5-b666-4ec5-9371-1c0753a3f5da/AAABhnR-ewQ/AAABjwnlKNc/16x9-512.jpg", "date": "2024-05-04T13:05:53.675+02:00", "lat": 31.0461, "lon": 35.8437, "intensity": 0.7, "source": "Tagesschau"}, {"title": "Landesparteitag: Berliner Gr\u00fcne stimmen f\u00fcr Neuordnung des Verfassungsschutzes", "url": "https://www.tagesschau.de/inland/regional/berlin/rbb-landesparteitag-berliner-gruene-debattieren-neuordnung-des-landesverfassungsschutzes-100.html", "thumbnailUrl": "https://images.tagesschau.de/image/52442f52-f342-45bc-8f19-6f4a2becec8e/AAABj0NMIjM/AAABjwnlKNc/16x9-512.jpg", "date": "2024-05-04T13:05:51.000+02:00", "lat": 52.520008, "lon": 13.404954, "intensity": 0.8, "source": "Tagesschau"}, {"title": "Gr\u00fcnen-Chefin Erdmann: \"Wir pr\u00e4gen die politische Agenda\"", "url": "https://www.tagesschau.de/inland/regional/schleswigholstein/ndr-erdmann-wir-praegen-die-politische-agenda-100.html", "thumbnailUrl": "https://images.tagesschau.de/image/7b90578f-2663-4107-bb8a-84b7b9b66e72/AAABj0Mu2s8/AAABjwnlKNc/16x9-512.jpg", "date": "2024-05-04T13:05:00.000+02:00", "lat": 54.0759, "lon": 9.9823, "intensity": 0.5, "source": "Tagesschau"}, {"title": "Mit 2,4 Promille im 40-Tonner: Polizei stoppt Lkw auf A7", "url": "https://www.tagesschau.de/inland/regional/niedersachsen/ndr-mit-2-100.html", "thumbnailUrl": "https://images.tagesschau.de/image/b6788b30-9527-463a-9837-b5254dab346a/AAABj0M7fTc/AAABjwnlKNc/16x9-512.jpg", "date": "2024-05-04T12:47:00.000+02:00", "lat": 52.1518, "lon": 9.9937, "intensity": 0.8, "source": "Tagesschau"}, {"title": "Historische Scheune am Heidemuseum abgebrannt", "url": "https://www.tagesschau.de/inland/regional/niedersachsen/ndr-historische-scheune-am-heidemuseum-abgebrannt-100.html", "thumbnailUrl": "https://images.tagesschau.de/image/75e514af-5899-40c7-91ca-d99e671abf63/AAABj0NC2WY/AAABjwnlKNc/16x9-512.jpg", "date": "2024-05-04T12:39:00.000+02:00", "lat": 52.3739, "lon": 9.7792, "intensity": 0.7, "source": "Tagesschau"}, {"title": "Warum junge Menschen im Saarland J\u00e4ger werden wollen", "url": "https://www.tagesschau.de/inland/regional/saarland/sr-warum-junge-menschen-im-saarland-jaeger-werden-wollen-100.html", "thumbnailUrl": "https://images.tagesschau.de/image/21b31c8e-7e0d-4317-9e1c-da9ec0985c75/AAABj0NL7sc/AAABjwnlKNc/16x9-512.jpg", "date": "2024-05-04T12:30:00.000+02:00", "lat": 49.3964, "lon": 6.9744, "intensity": 0.7, "source": "Tagesschau"}, {"title": "Und wieder ein Debakel f\u00fcr Premier Sunak", "url": "https://www.tagesschau.de/ausland/europa/grossbritannien-tories-lokalwahl-100.html", "thumbnailUrl": "https://images.tagesschau.de/image/60c510a2-d9e9-4bd0-b259-958b70644e38/AAABj0Mfq-Y/AAABjwnlKNc/16x9-512.jpg", "date": "2024-05-04T12:21:42.424+02:00", "lat": 51.5074, "lon": -0.1276, "intensity": 0.8, "source": "Tagesschau"}, {"title": "Tandem-Tag f\u00fcr Inklusion in Neuss", "url": "https://www.tagesschau.de/inland/regional/nordrheinwestfalen/wdr-tandem-tag-fuer-inklusion-in-neuss-100.html", "thumbnailUrl": "https://images.tagesschau.de/image/f2e95df0-e224-4f5c-8b4d-45e46808cf18/AAABj0R9uB0/AAABjwnlKNc/16x9-512.jpg", "date": "2024-05-04T12:21:00.000+02:00", "lat": 51.2043, "lon": 6.6826, "intensity": 0.6, "source": "Tagesschau"}, {"title": "Interview | Stationsleiter Frank Girschik: 30 Jahre ADAC-Luftrettung in Senftenberg", "url": "https://www.tagesschau.de/inland/regional/brandenburg/rbb-interview--stationsleiter-frank-girschik-30-jahre-adac-luftrettung-in-senftenberg-100.html", "thumbnailUrl": "https://images.tagesschau.de/image/a3b05040-7c6e-4422-b950-153e9656ac70/AAABj0MaiIw/AAABjwnlKNc/16x9-512.jpg", "date": "2024-05-04T12:11:30.000+02:00", "lat": 51.5205, "lon": 13.9706, "intensity": 0.6, "source": "Tagesschau"}, {"title": "Stark-Watzinger fordert hartes Durchgreifen bei Antisemitismus", "url": "https://www.tagesschau.de/inland/gesellschaft/universitaeten-sorge-antisemitismus-100.html", "thumbnailUrl": "https://images.tagesschau.de/image/24d90678-b04d-4212-90be-bf16be9910ca/AAABj0Lw4Bw/AAABjwnlKNc/16x9-512.jpg", "date": "2024-05-04T11:49:20.886+02:00", "lat": 53.5511, "lon": 9.9937, "intensity": 0.8, "source": "Tagesschau"}, {"title": "Nachwuchs gesucht: Rund 180 Stellen in Berliner Gef\u00e4ngnissen sind derzeit unbesetzt", "url": "https://www.tagesschau.de/inland/regional/berlin/rbb-nachwuchs-gesucht-rund-180-stellen-in-berliner-gefaengnissen-sind-derzeit-unbesetzt-100.html", "thumbnailUrl": "https://images.tagesschau.de/image/f8d3974f-5f37-48b7-acf4-4b0d6e7cbc9a/AAABj0LyQl0/AAABjwnlKNc/16x9-512.jpg", "date": "2024-05-04T11:27:09.000+02:00", "lat": 52.52, "lon": 13.405, "intensity": 0.6, "source": "Tagesschau"}, {"title": "Eintracht Frankfurt setzt gegen Bayer Leverkusen wohl auf ein geballtes Zentrum", "url": "https://www.tagesschau.de/inland/regional/hessen/hr-eintracht-frankfurt-setzt-gegen-bayer-leverkusen-wohl-auf-ein-geballtes-zentrum-102.html", "thumbnailUrl": "https://images.tagesschau.de/image/1d912cc8-97cc-49d2-bf2b-b55fbe5859e9/AAABj0LuoAc/AAABjwnlKNc/16x9-512.jpg", "date": "2024-05-04T11:13:46.800+02:00", "lat": 50.1109, "lon": 8.6333, "intensity": 0.7, "source": "Tagesschau"}, {"title": "Streit um russische Schrott\u00f6ltanker in der Ostsee eskaliert", "url": "https://www.tagesschau.de/inland/regional/mecklenburgvorpommern/ndr-streit-um-russische-schrottoeltanker-in-der-ostsee-eskaliert-100.html", "thumbnailUrl": "https://images.tagesschau.de/image/5357ffd2-e733-4707-a12f-fd59912f9880/AAABj0MGX_U/AAABjwnlKNc/16x9-512.jpg", "date": "2024-05-04T11:01:00.000+02:00", "lat": 53.6127, "lon": 12.5211, "intensity": 0.8, "source": "Tagesschau"}, {"title": "Uhu auf Abwegen: Polizei bringt Jungvogel zur\u00fcck zum Horst", "url": "https://www.tagesschau.de/inland/regional/niedersachsen/ndr-uhu-nestling-auf-abwegen-polizei-bringt-ihn-zurueck-zum-horst-100.html", "thumbnailUrl": "https://images.tagesschau.de/image/115eae00-cf98-42cc-89bf-c255dab0006e/AAABj0M9WQY/AAABjwnlKNc/16x9-512.jpg", "date": "2024-05-04T10:55:00.000+02:00", "lat": 51.8153, "lon": 9.8654, "intensity": 0.3, "source": "Tagesschau"}, {"title": "Tag der Pressefreiheit: Gefl\u00fcchteter Journalist \u00fcber neues Leben", "url": "https://www.tagesschau.de/inland/regional/niedersachsen/ndr-wie-sich-ein-gefluechteter-journalist-fuer-pressefreiheit-einsetzt-100.html", "thumbnailUrl": "https://images.tagesschau.de/image/7a698413-7d72-460e-9adb-4a2af0cfd8ec/AAABj0Ae_sU/AAABjwnlKNc/16x9-512.jpg", "date": "2024-05-04T10:50:00.000+02:00", "lat": 52.2799, "lon": 10.4274, "intensity": 0.7, "source": "Tagesschau"}, {"title": "Messerangriff in Verden: Frau in Klinik, Verd\u00e4chtiger in U-Haft", "url": "https://www.tagesschau.de/inland/regional/niedersachsen/ndr-auf-offener-strasse-mit-messer-angegriffen-frau-rettet-sich-in-auto-100.html", "thumbnailUrl": "https://images.tagesschau.de/image/6755f25a-b2b9-4bd0-9f9f-3f2cb789adb7/AAABj0LL3Pk/AAABjwnlKNc/16x9-512.jpg", "date": "2024-05-04T10:48:00.000+02:00", "lat": 52.9242, "lon": 9.2317, "intensity": 0.8, "source": "Tagesschau"}, {"title": "Tag des offenen Ateliers in Brandenburg: K\u00fcnstler laden zum Entdecken und Mitmachen ein", "url": "https://www.tagesschau.de/inland/regional/brandenburg/rbb-tag-des-offenen-ateliers-in-brandenburg-kuenstler-laden-zum-entdecken-und-mitmachen-ein-100.html", "thumbnailUrl": "https://images.tagesschau.de/image/641d8777-0734-4a28-896e-5d0730222dc1/AAABj0LNp3s/AAABjwnlKNc/16x9-512.jpg", "date": "2024-05-04T10:46:58.000+02:00", "lat": 52.52, "lon": 13.3986, "intensity": 0.4, "source": "Tagesschau"}, {"title": "7 Tipps f\u00fcr die Nacht der Museen in Frankfurt, Offenbach und Eschborn", "url": "https://www.tagesschau.de/inland/regional/hessen/hr-7-ideen-fuer-die-museumsnacht-in-frankfurt-offenbach-und-eschborn-100.html", "thumbnailUrl": "https://images.tagesschau.de/image/66c56f27-a0a5-4708-b185-011718b3ceef/AAABj0LEils/AAABjwnlKNc/16x9-512.jpg", "date": "2024-05-04T10:41:52.375+02:00", "lat": 50.1109, "lon": 8.6815, "intensity": 0.6, "source": "Tagesschau"}, {"title": "Mehr als 200 Kinder werden in Niedersachsen vermisst", "url": "https://www.tagesschau.de/inland/regional/niedersachsen/ndr-mehr-als-200-kinder-werden-in-niedersachsen-vermisst-100.html", "thumbnailUrl": "https://images.tagesschau.de/image/ca6c2d65-a106-42bf-ba57-0ac25336cc3b/AAABj0LIJ8Q/AAABjwnlKNc/16x9-512.jpg", "date": "2024-05-04T10:38:00.000+02:00", "lat": 52.6367, "lon": 10.4515, "intensity": 0.8, "source": "Tagesschau"}, {"title": "L\u00f6schflugzeug soll gr\u00f6\u00dferen Bogen um Freizeitpark Pullman City fliegen", "url": "https://www.tagesschau.de/inland/regional/sachsenanhalt/mdr-loeschflugzeug-erschreckt-pferde-vier-verletzte-in-pullman-city-100.html", "thumbnailUrl": "https://images.tagesschau.de/image/e0b9d92f-1235-43be-a67f-adf1a7e9ca2f/AAABj0K3vBo/AAABjwnlKNc/16x9-512.jpg", "date": "2024-05-04T10:27:24.000+02:00", "lat": 51.6981, "lon": 11.0724, "intensity": 0.7, "source": "Tagesschau"}, {"title": "Vermehrt queere Plakate an Saar-Uni zerst\u00f6rt", "url": "https://www.tagesschau.de/inland/regional/saarland/sr-vermehrt-queere-plakate-an-saar-uni-zerstoert-100.html", "thumbnailUrl": "https://images.tagesschau.de/image/63d0ce83-652b-4060-a5e0-0f55efe7032e/AAABj0K1yUA/AAABjwnlKNc/16x9-512.jpg", "date": "2024-05-04T10:19:00.000+02:00", "lat": 49.2402, "lon": 6.9744, "intensity": 0.6, "source": "Tagesschau"}, {"title": "Reparaturarbeiten: Hamburger K\u00f6hlbrandbr\u00fccke gesperrt", "url": "https://www.tagesschau.de/inland/regional/hamburg/ndr-reparaturen-koehlbrandbruecke-am-wochenende-gesperrt-100.html", "thumbnailUrl": "https://images.tagesschau.de/image/5c1ac1b8-3eb0-48eb-b8b6-29e434203ee3/AAABj0AM0LM/AAABjwnlKNc/16x9-512.jpg", "date": "2024-05-04T10:13:00.000+02:00", "lat": 53.539, "lon": 9.918, "intensity": 0.8, "source": "Tagesschau"}, {"title": "Marine-Chef fordert Bestellung weiterer Fregatten", "url": "https://www.tagesschau.de/inland/innenpolitik/marine-fregatten-100.html", "thumbnailUrl": "https://images.tagesschau.de/image/56c4f598-8245-4f09-a827-cbcfeed7f75d/AAABjcHYM0w/AAABjwnlKNc/16x9-512.jpg", "date": "2024-05-04T10:08:35.014+02:00", "lat": 53.5511, "lon": 9.9937, "intensity": 0.7, "source": "Tagesschau"}, {"title": "Vier Jahre Untersuchungsausschuss: \"Kein Komplott\" gegen die AfD Sachsen", "url": "https://www.tagesschau.de/inland/regional/sachsen/mdr-vier-jahre-untersuchungsausschuss-kein-komplott-gegen-die-afd-sachsen-100.html", "thumbnailUrl": "https://images.tagesschau.de/image/f78fc16f-ce38-4859-a109-d5c61338b2e9/AAABj0W1C7Y/AAABjwnlKNc/16x9-512.jpg", "date": "2024-05-04T10:01:00.000+02:00", "lat": 51.0504088, "lon": 13.7372621, "intensity": 0.5, "source": "Tagesschau"}, {"title": "Mindestens 15 Tote durch \u00dcberschwemmungen", "url": "https://www.tagesschau.de/ausland/asien/indonesien-ueberschwemmungen-102.html", "thumbnailUrl": "https://images.tagesschau.de/image/48415243-26ef-46a7-8360-1aef97e5f824/AAABj0KXI6o/AAABjwnlKNc/16x9-512.jpg", "date": "2024-05-04T09:52:33.021+02:00", "lat": -5.322, "lon": 120.161, "intensity": 0.9, "source": "Tagesschau"}, {"title": "FCS will Spielverderber bei M\u00fcnsters Aufstiegsfeier sein", "url": "https://www.tagesschau.de/inland/regional/saarland/sr-fcs-will-spielverderber-bei-muensters-aufstiegsfeier-sein-100.html", "thumbnailUrl": "https://images.tagesschau.de/image/e43efd19-006f-4339-a2cd-521d999ca10e/AAABj0KEWR8/AAABjwnlKNc/16x9-512.jpg", "date": "2024-05-04T09:52:06.180+02:00", "lat": 49.2354, "lon": 6.9631, "intensity": 0.8, "source": "Tagesschau"}, {"title": "Elversberg will Revanche gegen Hertha", "url": "https://www.tagesschau.de/inland/regional/saarland/sr-sve-will-letzte-zweifel-am-klassenerhalt-beseitigen-102.html", "thumbnailUrl": "https://images.tagesschau.de/image/fdeb53f8-ee97-47db-8643-4eca81a0c964/AAABj0KYhvU/AAABjwnlKNc/16x9-512.jpg", "date": "2024-05-04T09:51:00.000+02:00", "lat": 49.3411, "lon": 7.1543, "intensity": 0.6, "source": "Tagesschau"}, {"title": "BW-Justizministerin Gentges fordert \u00c4nderungen am Cannabis-Gesetz ", "url": "https://www.tagesschau.de/inland/regional/badenwuerttemberg/swr-bw-justizministerin-gentges-fordert-aenderungen-am-cannabis-gesetz-100.html", "thumbnailUrl": "https://images.tagesschau.de/image/f01effe9-3e3d-4dcf-a7f5-8d41bb556848/AAABj0KJ260/AAABjwnlKNc/16x9-512.jpg", "date": "2024-05-04T09:32:47.000+02:00", "lat": 48.7758, "lon": 9.1443, "intensity": 0.6, "source": "Tagesschau"}, {"title": "Polizei in Kanada nimmt drei Verd\u00e4chtige fest", "url": "https://www.tagesschau.de/ausland/amerika/kanada-sikh-indien-100.html", "thumbnailUrl": "https://images.tagesschau.de/image/dc7625d3-7ff8-4bd2-914f-314cea8b10e9/AAABj0JwFN4/AAABjwnlKNc/16x9-512.jpg", "date": "2024-05-04T09:09:53.070+02:00", "lat": 43.6532, "lon": -79.3832, "intensity": 0.8, "source": "Tagesschau"}, {"title": "Pannen-Angst beschert ADAC Mitgliederzuwachs", "url": "https://www.tagesschau.de/wirtschaft/adac-jahresbilanz-hauptversammlung-100.html", "thumbnailUrl": "https://images.tagesschau.de/image/a8381105-aa9a-4f6f-b526-05cf72cbe927/AAABj0PL0WE/AAABjwnlKNc/16x9-512.jpg", "date": "2024-05-04T08:58:57.184+02:00", "lat": 51.1657, "lon": 10.4515, "intensity": 0.6, "source": "Tagesschau"}, {"title": "Star Wars-Universum in der Stadtbibliothek Saarbr\u00fccken", "url": "https://www.tagesschau.de/inland/regional/saarland/sr-star-wars-universum-in-der-stadtbibliothek-saarbruecken-100.html", "thumbnailUrl": "https://images.tagesschau.de/image/0ee47519-21a7-45f1-aca8-6e3549d3cfb1/AAABjzefpwo/AAABjwnlKNc/16x9-512.jpg", "date": "2024-05-04T08:57:00.000+02:00", "lat": 49.2402, "lon": 6.9797, "intensity": 0.7, "source": "Tagesschau"}, {"title": "Clausthal-Zellerfeld feiert sich - und 500 Jahre Bergbeh\u00f6rde", "url": "https://www.tagesschau.de/inland/regional/niedersachsen/ndr-clausthal-zellerfeld-feiert-sich-und-500-jahre-bergbehoerde-100.html", "thumbnailUrl": "https://images.tagesschau.de/image/589f91e2-f970-45cb-b4a0-bcd6afe37da3/AAABj0JyGLc/AAABjwnlKNc/16x9-512.jpg", "date": "2024-05-04T08:52:00.000+02:00", "lat": 51.8039, "lon": 10.3566, "intensity": 0.5, "source": "Tagesschau"}, {"title": "Einweihung des neuen Katastrophenschutzzentrums in Schwalbach", "url": "https://www.tagesschau.de/inland/regional/saarland/sr-einweihung-des-neuen-katastrophenschutzzentrums-in-schwalbach-100.html", "thumbnailUrl": "https://images.tagesschau.de/image/10b8d0c5-f207-4266-8804-3951d7ab7fc9/AAABj0JcELE/AAABjwnlKNc/16x9-512.jpg", "date": "2024-05-04T08:45:00.000+02:00", "lat": 49.3167, "lon": 6.8797, "intensity": 0.6, "source": "Tagesschau"}, {"title": "Kommentar: \"Hamburger Beh\u00f6rden m\u00fcssen mutiger werden\"", "url": "https://www.tagesschau.de/inland/regional/hamburg/ndr-kommentar-hamburger-behoerden-muessen-mutiger-werden-102.html", "thumbnailUrl": "https://images.tagesschau.de/image/454cfee1-01a6-4570-b8f4-f574961162a8/AAABj0PvCgM/AAABjwnlKNc/16x9-512.jpg", "date": "2024-05-04T08:40:00.000+02:00", "lat": 53.5511, "lon": 9.9937, "intensity": 0.7, "source": "Tagesschau"}, {"title": "Rewe testet veganen Supermarkt in Berlin", "url": "https://www.tagesschau.de/wirtschaft/verbraucher/supermarkt-vegan-100.html", "thumbnailUrl": "https://images.tagesschau.de/image/fd3913ba-daff-41b2-b075-6c18c2e10efb/AAABjzQDbH4/AAABjwnlKNc/16x9-512.jpg", "date": "2024-05-04T08:39:54.396+02:00", "lat": 52.517, "lon": 13.4437, "intensity": 0.8, "source": "Tagesschau"}, {"title": "Freibadsaison: Wo im Saarland Bademeister fehlen", "url": "https://www.tagesschau.de/inland/regional/saarland/sr-freibadsaison-wo-im-saarland-bademeister-fehlen-100.html", "thumbnailUrl": "https://images.tagesschau.de/image/6aa7b1f3-6962-44ae-93cb-3f02efd64982/AAABj0JYZ8g/AAABjwnlKNc/16x9-512.jpg", "date": "2024-05-04T08:39:00.000+02:00", "lat": 49.2354, "lon": 6.9459, "intensity": 0.4, "source": "Tagesschau"}, {"title": "HSV: Derby-Euphorie, Hoffnung und Baumgart-Wutrede", "url": "https://www.tagesschau.de/inland/regional/hamburg/ndr-hsv-derby-euphorie-hoffnung-und-baumgart-wutrede-106.html", "thumbnailUrl": "https://images.tagesschau.de/image/a1581c1e-8ed0-4e83-ab58-957eac2bb3a4/AAABj0SdQAk/AAABjwnlKNc/16x9-512.jpg", "date": "2024-05-04T08:39:00.000+02:00", "lat": 53.551086, "lon": 9.993682, "intensity": 0.8, "source": "Tagesschau"}, {"title": "Digitalisierung im Obstanbau: KI z\u00e4hlt \u00c4pfel und Sch\u00e4dlinge ", "url": "https://www.tagesschau.de/inland/regional/niedersachsen/ndr-digitalisierung-im-obstanbau-ki-zaehlt-aepfel-und-schaedlinge-100.html", "thumbnailUrl": "https://images.tagesschau.de/image/175c2d7d-fb4d-446e-8ea1-902bf2b922a9/AAABj0JH9-0/AAABjwnlKNc/16x9-512.jpg", "date": "2024-05-04T08:23:00.000+02:00", "lat": 52.3759, "lon": 10.4515, "intensity": 0.8, "source": "Tagesschau"}, {"title": "Hamas signalisiert Einlenken bei Geisel-Deal", "url": "https://www.tagesschau.de/ausland/asien/hamas-einlenken-israel-verhandlungen-feuerpause-100.html", "thumbnailUrl": "https://images.tagesschau.de/image/72b434cc-698a-4843-80cf-615d73eb8e34/AAABj0G1oWk/AAABjwnlKNc/16x9-512.jpg", "date": "2024-05-04T08:22:18.454+02:00", "lat": 31.7683, "lon": 35.2137, "intensity": 0.6, "source": "Tagesschau"}, {"title": "Frisch sanierte \"Gorch Fock I\" erwartet erste Besucher an Deck", "url": "https://www.tagesschau.de/inland/regional/mecklenburgvorpommern/ndr-frisch-sanierte-gorch-fock-i-erwartet-erste-besucher-an-deck-100.html", "thumbnailUrl": "https://images.tagesschau.de/image/13a11702-1a64-4cec-954a-ef344ff470e4/AAABj0KaXmU/AAABjwnlKNc/16x9-512.jpg", "date": "2024-05-04T08:19:00.000+02:00", "lat": 54.0834, "lon": 12.1144, "intensity": 0.3, "source": "Tagesschau"}, {"title": "Spielzeug im Kunstmuseum Kassel: Wie Alte Meister durch Playmobil lebendig werden sollen", "url": "https://www.tagesschau.de/inland/regional/hessen/hr-spielzeug-im-kunstmuseum-kassel-wie-alte-meister-durch-playmobil-lebendig-werden-sollen-100.html", "thumbnailUrl": "https://images.tagesschau.de/image/6a7f1a71-1b64-4048-97b4-390cb1b47fbd/AAABj0I8-Dg/AAABjwnlKNc/16x9-512.jpg", "date": "2024-05-04T08:13:29.766+02:00", "lat": 51.3127, "lon": 9.4855, "intensity": 0.7, "source": "Tagesschau"}, {"title": "Fu\u00dfball-Bundesliga: Diese Berliner und Brandenburger w\u00e4ren perfekt als Trainer des FC Bayern M\u00fcnchen", "url": "https://www.tagesschau.de/inland/regional/brandenburg/rbb-fussball-bundesliga-diese-berliner-und-brandenburger-waeren-perfekt-als-trainer-des-fc-bayern-muenchen-102.html", "thumbnailUrl": "https://images.tagesschau.de/image/06d23e22-ce0e-43ed-832f-b95c841a4967/AAABj0Wg65w/AAABjwnlKNc/16x9-512.jpg", "date": "2024-05-04T08:10:09.000+02:00", "lat": 52.520008, "lon": 13.404954, "intensity": 0.7, "source": "Tagesschau"}, {"title": "Guten Morgen, NRW!", "url": "https://www.tagesschau.de/inland/regional/nordrheinwestfalen/wdr-guten-morgen-nrw-466.html", "thumbnailUrl": "https://images.tagesschau.de/image/c4368777-613f-4cbe-9bc7-96a86e7471c8/AAABj0JS6V8/AAABjwnlKNc/16x9-512.jpg", "date": "2024-05-04T07:03:00.000+02:00", "lat": 51.4818, "lon": 7.6261, "intensity": 0.5, "source": "Tagesschau"}, {"title": "Nach dem Stadtderby in Hamburg: Nacht verlief ruhig", "url": "https://www.tagesschau.de/inland/regional/hamburg/ndr-nach-dem-stadtderby-in-hamburg-nacht-verlief-ruhig-100.html", "thumbnailUrl": "https://images.tagesschau.de/image/34862b67-db4e-4062-ab74-1ae9cd2bdcd3/AAABj0SdQzw/AAABjwnlKNc/16x9-512.jpg", "date": "2024-05-04T06:34:00.000+02:00", "lat": 53.551085, "lon": 9.993682, "intensity": 0.3, "source": "Tagesschau"}, {"title": "Ein Mai voller Feiertage: Nur das Wetter passt noch nicht", "url": "https://www.tagesschau.de/inland/regional/nordrheinwestfalen/wdr-ein-mai-voller-feiertage-nur-das-wetter-passt-noch-nicht-102.html", "thumbnailUrl": "https://images.tagesschau.de/image/dc413a77-1b4c-4eff-9a03-ac65a8e2567b/AAABj0Naldg/AAABjwnlKNc/16x9-512.jpg", "date": "2024-05-04T06:00:00.000+02:00", "lat": 51.9607, "lon": 7.5955, "intensity": 0.2, "source": "Tagesschau"}, {"title": "Derzeit werden laut LKA 1.274 Menschen in BW vermisst", "url": "https://www.tagesschau.de/inland/regional/badenwuerttemberg/swr-derzeit-werden-laut-lka-1-274-menschen-in-bw-vermisst-100.html", "thumbnailUrl": "https://images.tagesschau.de/image/f9eb683b-1fed-4396-94c3-3419ac950b7b/AAABj0HEHUk/AAABjwnlKNc/16x9-512.jpg", "date": "2024-05-04T05:58:41.000+02:00", "lat": 48.7758, "lon": 9.3275, "intensity": 0.5, "source": "Tagesschau"}, {"title": "Obstanbau in BW: Wie k\u00f6nnen Streuobstwiesen \"klimafest\" gemacht werden?", "url": "https://www.tagesschau.de/inland/regional/badenwuerttemberg/swr-obstanbau-in-bw-wie-koennen-streuobstwiesen-klimafest-gemacht-werden-100.html", "thumbnailUrl": "https://images.tagesschau.de/image/5abf79ec-fa5f-4de5-bf81-9ac47e2e2142/AAABj0Gv_7Y/AAABjwnlKNc/16x9-512.jpg", "date": "2024-05-04T05:33:51.000+02:00", "lat": 48.6616, "lon": 9.0807, "intensity": 0.6, "source": "Tagesschau"}, {"title": "Kolumne: Der Mythos vom \"ankommen\"", "url": "https://www.tagesschau.de/inland/regional/schleswigholstein/ndr-kolumne-der-mythos-vom-ankommen-100.html", "thumbnailUrl": "https://images.tagesschau.de/image/bef059c3-e9de-4565-8ec2-f3043a50b6a1/AAABj0GLbvY/AAABjwnlKNc/16x9-512.jpg", "date": "2024-05-04T05:00:00.000+02:00", "lat": 54.3326, "lon": 9.6961, "intensity": 0.6, "source": "Tagesschau"}, {"title": "Der ewige Protest", "url": "https://www.tagesschau.de/ausland/europa/georgien-gesetz-auslaendischer-einfluss-eu-russland-100.html", "thumbnailUrl": "https://images.tagesschau.de/image/dbf8c103-9e5f-4ccc-8a50-33631d4300d7/AAABjz6y0V4/AAABjwnlKNc/16x9-512.jpg", "date": "2024-05-04T04:07:55.102+02:00", "lat": 41.717, "lon": 44.793, "intensity": 0.8, "source": "Tagesschau"}, {"title": "Baldiger Haftbefehl gegen Netanyahu?", "url": "https://www.tagesschau.de/ausland/asien/strafgerichtshof-ermittlungen-israel-netanyahu-100.html", "thumbnailUrl": "https://images.tagesschau.de/image/892ea0e9-6d25-4ef0-b9f2-cd910a282446/AAABjy7Mdfw/AAABjwnlKNc/16x9-512.jpg", "date": "2024-05-04T03:50:35.762+02:00", "lat": 31.7683, "lon": 35.2137, "intensity": 0.9, "source": "Tagesschau"}, {"title": "H\u00f6heres Selbstwertgef\u00fchl ohne Social Media", "url": "https://www.tagesschau.de/wissen/gesundheit/social-media-frauen-100.html", "thumbnailUrl": "https://images.tagesschau.de/image/4d7fd601-fee2-43da-832f-7d25e709be42/AAABjz2HQpM/AAABjwnlKNc/16x9-512.jpg", "date": "2024-05-04T02:48:44.044+02:00", "lat": 56.1304, "lon": -106.3468, "intensity": 0.7, "source": "Tagesschau"}, {"title": "++ CIA-Chef f\u00fcr Gespr\u00e4che offenbar in Kairo ++", "url": "https://www.tagesschau.de/newsticker/liveblog-nahost-freitag-132.html", "thumbnailUrl": "https://images.tagesschau.de/image/729d0c50-3d2e-4d3c-b1d8-9ec97294010f/AAABjqvuPeE/AAABjwnlKNc/16x9-512.jpg", "date": "2024-05-04T00:39:57.374+02:00", "lat": 31.7683, "lon": 35.2137, "intensity": 0.8, "source": "Tagesschau"}, {"title": "++ Zwei Tote nach Angriff in Ostukraine ++", "url": "https://www.tagesschau.de/newsticker/liveblog-ukraine-freitag-382.html", "thumbnailUrl": "https://images.tagesschau.de/image/5b073b67-29bf-4703-b6b1-71469e4c25bb/AAABjz78AfM/AAABjwnlKNc/16x9-512.jpg", "date": "2024-05-04T00:38:36.062+02:00", "lat": 48.3794, "lon": 37.6176, "intensity": 0.8, "source": "Tagesschau"}, {"title": "Goldene Lola f\u00fcr das Drama \"Sterben\"", "url": "https://www.tagesschau.de/inland/gesellschaft/deutscher-filmpreis-108.html", "thumbnailUrl": "https://images.tagesschau.de/image/17580149-2fbb-403c-91a6-aeee19632f9b/AAABj0CPJag/AAABjwnlKNc/16x9-512.jpg", "date": "2024-05-04T00:24:34.482+02:00", "lat": 51.1947, "lon": 9.9903, "intensity": 0.8, "source": "Tagesschau"}, {"title": "15.000 Bl\u00e4ser spielen gemeinsam beim Posaunentag in Hamburg", "url": "https://www.tagesschau.de/inland/regional/hamburg/ndr-15-000-blaeser-spielen-gemeinsam-beim-posaunentag-in-hamburg-100.html", "thumbnailUrl": "https://images.tagesschau.de/image/7536eb12-e4fe-49ad-a882-3e09610b602a/AAABjz8IzoU/AAABjwnlKNc/16x9-512.jpg", "date": "2024-05-04T00:00:00.000+02:00", "lat": 53.551086, "lon": 9.993682, "intensity": 0.8, "source": "Tagesschau"}, {"title": "Klingbeil zeigt sich schockiert \u00fcber Angriff auf SPD-Politiker Ecke", "url": "https://www.br.de/nachrichten/meldungen/index.html#n1", "thumbnailUrl": null, "date": "2024-05-05T03:24:59+02:00", "lat": 30.0444, "lon": 31.2357, "intensity": 0.8, "source": "Bayrischer Rundfunk"}, {"title": "CDU-Generalsekret\u00e4r ist gegen Koalition mit den Gr\u00fcnen", "url": "https://www.br.de/nachrichten/meldungen/index.html#n2", "thumbnailUrl": null, "date": "2024-05-05T03:24:59+02:00", "lat": 33.5138, "lon": 36.2021, "intensity": 0.8, "source": "Bayrischer Rundfunk"}, {"title": "In NRW gibt es gro\u00dfangelegte Razzia in T\u00fcrsteher-Szene", "url": "https://www.br.de/nachrichten/meldungen/index.html#n3", "thumbnailUrl": null, "date": "2024-05-05T03:24:59+02:00", "lat": 39.9334, "lon": 32.8597, "intensity": 0.8, "source": "Bayrischer Rundfunk"}, {"title": "Infrastruktur in Deutschland verf\u00e4llt laut Bericht immer weiter", "url": "https://www.br.de/nachrichten/meldungen/index.html#n4", "thumbnailUrl": null, "date": "2024-05-05T03:24:59+02:00", "lat": 52.520008, "lon": 13.404954, "intensity": 0.7, "source": "Bayrischer Rundfunk"}, {"title": "Bundeswehr r\u00e4umt Schwachstelle bei Plattform f\u00fcr Videokonferenzen ein", "url": "https://www.br.de/nachrichten/meldungen/index.html#n5", "thumbnailUrl": null, "date": "2024-05-05T03:24:59+02:00", "lat": 52.520008, "lon": 13.404954, "intensity": 0.6, "source": "Bayrischer Rundfunk"}, {"title": "Kein Durchbruch bei Gaza-Verhandlungen in Sicht", "url": "https://www.br.de/nachrichten/meldungen/index.html#n6", "thumbnailUrl": null, "date": "2024-05-05T03:24:59+02:00", "lat": 48.135125, "lon": 11.581981, "intensity": 0.6, "source": "Bayrischer Rundfunk"}, {"title": "Tausende Gebirgssch\u00fctzen feiern Patronatstag", "url": "https://www.br.de/nachrichten/meldungen/index.html#n7", "thumbnailUrl": null, "date": "2024-05-05T03:24:59+02:00", "lat": 50.110922, "lon": 8.682127, "intensity": 0.8, "source": "Bayrischer Rundfunk"}, {"title": "US-K\u00fcnstler Frank Stella ist gestorben", "url": "https://www.br.de/nachrichten/meldungen/index.html#n8", "thumbnailUrl": null, "date": "2024-05-05T03:24:59+02:00", "lat": 47.8684, "lon": 12.6394, "intensity": 0.8, "source": "Bayrischer Rundfunk"}, {"title": "Fu\u00dfball-Bundesligist K\u00f6ln steht vor dem Abstieg", "url": "https://www.br.de/nachrichten/meldungen/index.html#n9", "thumbnailUrl": null, "date": "2024-05-05T03:24:59+02:00", "lat": 48.5844, "lon": 13.6722, "intensity": 0.8, "source": "Bayrischer Rundfunk"}, {"title": "Das Wetter in Bayern: In der Nacht im Westen Frankens Regen", "url": "https://www.br.de/nachrichten/meldungen/index.html#n10", "thumbnailUrl": null, "date": "2024-05-05T03:24:59+02:00", "lat": 53.5396, "lon": 8.5761, "intensity": 0.4, "source": "Bayrischer Rundfunk"}, {"title": "Video | Liepe: Ein WWF-Projekt im Nieder-Oderbruch f\u00fchrt zu Widerspruch bei Anwohnern", "url": "https://www.rbb24.de/panorama/beitrag/av7/brandenburg-niederoderbruch-moore-wiedervernaessung-liepe-robur-wwf.html", "thumbnailUrl": null, "date": "Sat, 04 May 2024 22:05:00 +0200", "lat": 52.7764, "lon": 14.3658, "intensity": 0.6, "source": "RBB"}, {"title": "Video | Berlin: Ausstellung zur Historie des K\u00fcnstlerhauses Bethanien", "url": "https://www.rbb24.de/kultur/beitrag/av7/video-berlin-ausstellung-kuenstlerhaus-bethanien.html", "thumbnailUrl": null, "date": "Sat, 04 May 2024 21:46:52 +0200", "lat": 52.4946, "lon": 13.4023, "intensity": 0.3, "source": "RBB"}, {"title": "Handball: VfL Potsdam macht Aufstieg in die 1. Bundesliga vorzeitig perfekt", "url": "https://www.rbb24.de/sport/beitrag/2024/05/brandenburg-sport-handball-vfl-potsdam-aufstieg-bundesliga.html", "thumbnailUrl": null, "date": "Sat, 04 May 2024 21:42:01 +0200", "lat": 52.3957, "lon": 13.0645, "intensity": 0.8, "source": "RBB"}, {"title": "Video | Berlin-Mitte: Sexarbeiter veranstalten Tanzdemo", "url": "https://www.rbb24.de/politik/beitrag/av7/video-berlin-mitte-tanzdemo-sexarbeit.html", "thumbnailUrl": null, "date": "Sat, 04 May 2024 21:38:44 +0200", "lat": 52.52001, "lon": 13.38886, "intensity": 0.6, "source": "RBB"}, {"title": "Feuer in Berlin-Lichterfelde gel\u00f6scht - Geb\u00e4ude wird abgerissen", "url": "https://www.rbb24.de/panorama/beitrag/2024/05/berlin-lichterfelde-fabrikhalle-brennt-feuerwehr.html", "thumbnailUrl": null, "date": "Sat, 04 May 2024 20:34:31 +0200", "lat": 52.429343, "lon": 13.318349, "intensity": 0.7, "source": "RBB"}, {"title": "Regionalliga Nordost: F\u00fcnf Gr\u00fcnde, warum Energie Cottbus der Aufstieg jetzt nicht mehr zu nehmen sein wird", "url": "https://www.rbb24.de/sport/beitrag/2024/05/fussball-regionalliga-nordost-fc-energie-cottbus-punkte-polster-aufstieg.html", "thumbnailUrl": null, "date": "Sat, 04 May 2024 19:42:00 +0200", "lat": 51.7562, "lon": 14.3288, "intensity": 0.8, "source": "RBB"}, {"title": "Berlin: Polizei r\u00e4umt Blockade der \"Letzten Generation\" auf der Elsenbr\u00fccke", "url": "https://www.rbb24.de/panorama/beitrag/2024/05/berlin-elsenbruecke-blockade-friedrichshain-kreuzberg-treptow-koepenick-letzte-generation.html", "thumbnailUrl": null, "date": "Sat, 04 May 2024 19:27:00 +0200", "lat": 52.4931, "lon": 13.4456, "intensity": 0.8, "source": "RBB"}, {"title": "Europawahl: Politiker aus Berlin und Brandenburg verurteilen Angriff auf SPD-Politiker in Dresden", "url": "https://www.rbb24.de/politik/wahl/Europawahl/2024/berlin-brandenburg-angriff-sachsen-spd-europawahl.html", "thumbnailUrl": null, "date": "Sat, 04 May 2024 19:15:38 +0200", "lat": 51.050409, "lon": 13.737262, "intensity": 0.7, "source": "RBB"}, {"title": "Berlin-Moabit: Mann mit Israelflagge wird mit Faust ins Gesicht geschlagen", "url": "https://www.rbb24.de/panorama/beitrag/2024/05/berlin-kriminalitaet-mann-israelfahne-schlaege-faust.html", "thumbnailUrl": null, "date": "Sat, 04 May 2024 18:34:42 +0200", "lat": 52.5255, "lon": 13.3401, "intensity": 0.8, "source": "RBB"}, {"title": "Nach langer Spielunterbrechung: Cottbus siegt beim BFC und macht gro\u00dfen Schritt Richtung Aufstieg", "url": "https://www.rbb24.de/sport/beitrag/2024/05/fussball-regionalliga-nordost-spitzenspiel-bfc-dynamo-fc-energie-cottbus-spielbericht.html", "thumbnailUrl": null, "date": "Sat, 04 May 2024 18:27:00 +0200", "lat": 51.7567, "lon": 13.5689, "intensity": 0.8, "source": "RBB"}, {"title": "Berlin-Pankow: Neunj\u00e4hriger von Motorrad angefahren und schwer verletzt", "url": "https://www.rbb24.de/panorama/beitrag/2024/05/berlin-pankow-polizei-verkehrsunfaelle-neunjaehriger-motorrad-schwer-verletzt.html", "thumbnailUrl": null, "date": "Sat, 04 May 2024 18:16:40 +0200", "lat": 52.5931, "lon": 13.4289, "intensity": 0.8, "source": "RBB"}, {"title": "Berlin: Festnahme nach schwerer K\u00f6rperverletzung am Alexanderplatz", "url": "https://www.rbb24.de/panorama/beitrag/2024/05/berlin-polizei-kriminalitaet-koerperverletzung-alexanderplatz.html", "thumbnailUrl": null, "date": "Sat, 04 May 2024 15:58:29 +0200", "lat": 52.5218, "lon": 13.4132, "intensity": 0.8, "source": "RBB"}, {"title": "HU Berlin: Polizei leitet nach pro-pal\u00e4stinensischen Protesten 37 Strafermittlungsverfahren ein", "url": "https://www.rbb24.de/politik/beitrag/2024/05/pro-palaestinensischer-protest-humboldt-uni-berlin.html", "thumbnailUrl": null, "date": "Sat, 04 May 2024 14:44:41 +0200", "lat": 52.5186, "lon": 13.3903, "intensity": 0.7, "source": "RBB"}, {"title": "Bildergalerie: Jugendweihe damals und jetzt", "url": "https://www.rbb24.de/panorama/beitrag/2024/05/bildergalerie-jugendweihe-jugendfeier-ddr-frueher-heute.html", "thumbnailUrl": null, "date": "Sat, 04 May 2024 14:06:20 +0200", "lat": 52.520008, "lon": 13.404954, "intensity": 0.7, "source": "RBB"}, {"title": "Brandbeschleuniger festgestellt: Feuerwehr l\u00f6scht zwei brennende Autos in Cottbus", "url": "https://www.rbb24.de/panorama/beitrag/2024/05/brandenburg-cottbus-feuerwehr-auto-brand-polizei-brandstiftung.html", "thumbnailUrl": null, "date": "Sat, 04 May 2024 13:38:59 +0200", "lat": 51.7562, "lon": 14.3346, "intensity": 0.8, "source": "RBB"}, {"title": "Landesparteitag: Berliner Gr\u00fcne stimmen f\u00fcr Neuordnung des Verfassungsschutzes", "url": "https://www.rbb24.de/politik/beitrag/2024/05/berlin-gruene-landesparteitag-landesdelegiertenkonferenz.html", "thumbnailUrl": null, "date": "Sat, 04 May 2024 13:05:00 +0200", "lat": 52.52, "lon": 13.4069, "intensity": 0.7, "source": "RBB"}, {"title": "Interview | Stationsleiter Frank Girschik: 30 Jahre ADAC-Luftrettung in Senftenberg", "url": "https://www.rbb24.de/panorama/beitrag/2024/05/adac-luftrettung-30-senftenberg-oberspreewald-lausitz.html", "thumbnailUrl": null, "date": "Sat, 04 May 2024 12:11:00 +0200", "lat": 51.5213, "lon": 13.97, "intensity": 0.6, "source": "RBB"}, {"title": "B\u00fcrgermeister von Wandlitz f\u00fcrchtet Einzug von rechten Ideologen", "url": "https://www.rbb24.de/politik/beitrag/2024/05/brandenburg-barnim-wandlitz-goebbels-villa-areal-bogensee-berlin-borchert.html", "thumbnailUrl": null, "date": "Sat, 04 May 2024 11:44:00 +0200", "lat": 52.6816, "lon": 13.4333, "intensity": 0.8, "source": "RBB"}, {"title": "Nachwuchs gesucht: Rund 180 Stellen in Berliner Gef\u00e4ngnissen sind derzeit unbesetzt", "url": "https://www.rbb24.de/panorama/beitrag/2024/05/berlin-nachwuchs-justiz-pensionierungswelle-gefaengnisse-vollzugsdienst.html", "thumbnailUrl": null, "date": "Sat, 04 May 2024 11:27:09 +0200", "lat": 52.520008, "lon": 13.404954, "intensity": 0.6, "source": "RBB"}, {"title": "Tag des offenen Ateliers in Brandenburg: K\u00fcnstler laden zum Entdecken und Mitmachen ein", "url": "https://www.rbb24.de/kultur/beitrag/2024/05/brandenburg-tag-des-offenen-ateliers-kuenstler-werkstaetten.html", "thumbnailUrl": null, "date": "Sat, 04 May 2024 10:46:58 +0200", "lat": 52.3001, "lon": 13.0645, "intensity": 0.4, "source": "RBB"}, {"title": "S-Bahn Berlin: Ringbahn am Wochenende zwischen Halensee und Beusselstra\u00dfe unterbrochen", "url": "https://www.rbb24.de/panorama/beitrag/2024/05/s-bahn-berlin-ringbahn-unterbrochen-ersatzverkehr-bauaerbeiten-halensee-beusselstrasse.html", "thumbnailUrl": null, "date": "Sat, 04 May 2024 10:09:52 +0200", "lat": 52.5166, "lon": 13.2984, "intensity": 0.7, "source": "RBB"}, {"title": "Fu\u00dfball-Bundesliga: Diese Berliner und Brandenburger w\u00e4ren perfekt als Trainer des FC Bayern M\u00fcnchen", "url": "https://www.rbb24.de/sport/beitrag/2024/05/fussball-bundesliga-bayern-muenchen-trainer-kandidaten-aus-berlin-und-brandenburg.html", "thumbnailUrl": null, "date": "Sat, 04 May 2024 08:10:09 +0200", "lat": 52.520008, "lon": 13.404954, "intensity": 0.8, "source": "RBB"}, {"title": "Anti-Mobbing-Tag: \"Jeder sollte jeden mit Respekt behandeln\"", "url": "https://www.rbb24.de/panorama/beitrag/2024/05/mobbing-aktionstag-pink-shirts.html", "thumbnailUrl": null, "date": "Sat, 04 May 2024 08:09:57 +0200", "lat": 52.787806, "lon": 13.67963, "intensity": 0.3, "source": "RBB"}, {"title": "Deutscher Filmpreis: Goldene Lola f\u00fcr \"Sterben\"", "url": "https://www.inforadio.de/rubriken/kultur/beitraege/2024/05/deutscher-filmpreis-bester-film-sterben.html", "thumbnailUrl": null, "date": "Sat, 04 May 2024 07:55:00 +0200", "lat": 53.5511, "lon": 9.9937, "intensity": 0.7, "source": "RBB"}, {"title": "So war die Lola-Gala: Preistr\u00e4ger und Highlights des Deutschen Filmpreises", "url": "https://www.rbb24.de/kultur/beitrag/2024/05/bildergalerie-gewinner-lola-deutscher-filmpreis-20240.html", "thumbnailUrl": null, "date": "Fri, 03 May 2024 23:01:00 +0200", "lat": 52.520008, "lon": 13.4, "intensity": 0.7, "source": "RBB"}, {"title": "Video | Berlin und Brandenburg: Wie Pressefreiheit behindert wird", "url": "https://www.rbb24.de/politik/beitrag/av7/video-berlin-brandenburg-pressefreiheit-behindert.html", "thumbnailUrl": null, "date": "Fri, 03 May 2024 21:33:04 +0200", "lat": 52.52, "lon": 13.405, "intensity": 0.8, "source": "RBB"}, {"title": "Fu\u00dfball-Regionalliga Nordost: Hertha II siegt sp\u00e4t, Abstieg des Berliner AK steht fest", "url": "https://www.rbb24.de/sport/beitrag/2024/05/fussball-regionalliga-nordost-babelsberg-03-berliner-ak-hertha-bsc-ii-rot-weiss-erfurt.html", "thumbnailUrl": null, "date": "Fri, 03 May 2024 21:29:00 +0200", "lat": 52.5075, "lon": 13.4723, "intensity": 0.8, "source": "RBB"}, {"title": "Video | Zehdenick: Mit B\u00fcchern gegen den Leerstand", "url": "https://www.rbb24.de/panorama/beitrag/av7/video-zehdenick-temporaerer-buchladen-brandenburg.html", "thumbnailUrl": null, "date": "Fri, 03 May 2024 21:19:34 +0200", "lat": 52.9603, "lon": 13.1547, "intensity": 0.7, "source": "RBB"}, {"title": "Video | Landkreis Oberhavel: Etliche zerst\u00f6rte Wahlplakate in Oranienburg", "url": "https://www.rbb24.de/politik/beitrag/av7/video-brandenburg-oranienburg-zerstoerte-wahlplakate.html", "thumbnailUrl": null, "date": "Fri, 03 May 2024 21:17:32 +0200", "lat": 52.7555, "lon": 13.245, "intensity": 0.6, "source": "RBB"}, {"title": "Durchsuchung bei Polizeisch\u00fclern nach Semesterpr\u00fcfungen - Cybercrime-Ermittler gehen Verdacht nach", "url": "https://www.rbb24.de/panorama/beitrag/2024/05/durchsuchungen-polizeischueler-verdacht-betrug-bei-pruefung-berlin.html", "thumbnailUrl": null, "date": "Fri, 03 May 2024 20:43:00 +0200", "lat": 53.551086, "lon": 9.993682, "intensity": 0.8, "source": "RBB"}, {"title": "Spielabsagen wegen Gro\u00dfbrand in Berlin-Lichterfelde", "url": "https://www.rbb24.de/sport/beitrag/2024/05/fussball-spielabsagen-grossbrand-lagerhalle-berlin-lichterfelde.html", "thumbnailUrl": null, "date": "Fri, 03 May 2024 19:28:00 +0200", "lat": 52.4254, "lon": 13.3158, "intensity": 0.8, "source": "RBB"}, {"title": "Streiks in Baubranche drohen - Arbeitgeber lehnen Schlichterspruch ab", "url": "https://www.rbb24.de/wirtschaft/beitrag/2024/05/bau-arbeitgeber-lehnen-schlichterspruch-ab-streiks-drohen.html", "thumbnailUrl": null, "date": "Fri, 03 May 2024 15:55:00 +0200", "lat": 51.1657, "lon": 10.4515, "intensity": 0.7, "source": "RBB"}, {"title": "Basketball-Bundesliga: Alba Berlin im Saisonendspurt mit Hindernissen", "url": "https://www.rbb24.de/sport/beitrag/2024/05/basketball-bundesliga-alba-berlin-hauptrunde-saison-endspurt-spitzenposition-playoffs-heimvorteil-bayern-muenchen-verletzungen.html", "thumbnailUrl": null, "date": "Fri, 03 May 2024 15:09:47 +0200", "lat": 52.520008, "lon": 13.41053, "intensity": 0.7, "source": "RBB"}, {"title": "Charit\u00e9 Berlin: Revision im Verfahren gegen Herzmediziner", "url": "https://www.rbb24.de/panorama/beitrag/2024/05/berlin-justiz-charite-herzmediziner-revision.html", "thumbnailUrl": null, "date": "Fri, 03 May 2024 14:53:25 +0200", "lat": 52.520008, "lon": 13.38886, "intensity": 0.6, "source": "RBB"}, {"title": "Bildergalerie: Gro\u00dfbrand einer Fabrik in Berlin-Lichterfelde", "url": "https://www.rbb24.de/panorama/beitrag/2024/05/berlin-lichterfelde-brand-giftige-wolke-rauch-bilder.html", "thumbnailUrl": null, "date": "Fri, 03 May 2024 14:19:16 +0200", "lat": 52.438, "lon": 13.312, "intensity": 0.8, "source": "RBB"}, {"title": "Laufender Befangenheitsantrag: N\u00e4chster Gerichtstermin zwischen Fredi Bobic und Hertha BSC geplatzt", "url": "https://www.rbb24.de/sport/beitrag/2024/05/fussball-hertha-bsc-fredi-bobic-gerichtstermin-rechtsstreit-geplatzt.html", "thumbnailUrl": null, "date": "Fri, 03 May 2024 13:35:58 +0200", "lat": 52.52, "lon": 13.3777, "intensity": 0.6, "source": "RBB"}, {"title": "R\u00fcckkauf des Fernw\u00e4rmenetzes: Berlin w\u00e4rmt sich wieder selbst", "url": "https://www.rbb24.de/panorama/beitrag/2024/05/berlin-fernwaerme-wieder-in-landeshand-rueckkauf-fernwaermenetz.html", "thumbnailUrl": null, "date": "Fri, 03 May 2024 11:15:00 +0200", "lat": 52.52, "lon": 13.405, "intensity": 0.8, "source": "RBB"}, {"title": "Vom Smartphone abgelenkt - Frau st\u00fcrzt ins S-Bahngleis und verletzt sich", "url": "https://www.rbb24.de/panorama/beitrag/2024/05/berlin-friedrichshain-ostkreuz-frau-stuerzt-wegen-smartphone-ablenkung-in-gleis-ueberlebt.html", "thumbnailUrl": null, "date": "Fri, 03 May 2024 08:50:58 +0200", "lat": 48.1371, "lon": 11.5761, "intensity": 0.8, "source": "RBB"}, {"title": "Baumbl\u00fctenfest in Werder (Havel) geht in die n\u00e4chste Runde: das Volksfest beginnt", "url": "https://www.rbb24.de/panorama/beitrag/2024/05/baumbluetenfest-volksfest-jahrmarkt-beginnt-werder-havel-.html", "thumbnailUrl": null, "date": "Fri, 03 May 2024 07:28:13 +0200", "lat": 52.3917, "lon": 12.9375, "intensity": 0.5, "source": "RBB"}, {"title": "Ver\u00e4nderungen bei Volleyball-Meister: BR Volleys verk\u00fcnden drei Zug\u00e4nge", "url": "https://www.rbb24.de/sport/beitrag/2024/05/volleyball-br-volleys-niroomand-zugaenge-abgaenge-kader.html", "thumbnailUrl": null, "date": "Thu, 02 May 2024 22:39:00 +0200", "lat": 52.520008, "lon": 13.37041, "intensity": 0.3, "source": "RBB"}, {"title": "Video: Fischsterben an der Wasserkraftanlage in M\u00e4rkisch Buchholz", "url": "https://www.rbb24.de/politik/beitrag/av7/video-fisch-sterben-maerkisch-buchholz-treppen-wehr.html", "thumbnailUrl": null, "date": "Thu, 02 May 2024 20:59:10 +0200", "lat": 52.2167, "lon": 13.7333, "intensity": 0.7, "source": "RBB"}, {"title": "Video | Projekttag gegen Mobbing: \"Pink Shirt Day\" an Schule in Barnim", "url": "https://www.rbb24.de/politik/beitrag/av7/video-projekt-tage-gegen-mobbing-schuele-kinder-schule.html", "thumbnailUrl": null, "date": "Thu, 02 May 2024 20:45:26 +0200", "lat": 52.8036, "lon": 13.7442, "intensity": 0.5, "source": "RBB"}, {"title": "Video | Festnahmen und verletzte Polizisten: Bilanz nach 1. Mai-Demonstrationen", "url": "https://www.rbb24.de/panorama/beitrag/av7/video-bilanz-1-mai-demonstrationen-polizei.html", "thumbnailUrl": null, "date": "Thu, 02 May 2024 20:33:42 +0200", "lat": 52.520008, "lon": 13.404954, "intensity": 0.6, "source": "RBB"}, {"title": "Nach Einbruch ins Gr\u00fcne Gew\u00f6lbe will Sachsen Schadenersatz von Juwelendieben", "url": "https://www.rbb24.de/panorama/beitrag/2024/04/einbruch-gruenes-gewoelbe-dresden-sachsen-fordert-schadenersatz.html", "thumbnailUrl": null, "date": "Thu, 02 May 2024 18:10:00 +0200", "lat": 51.0504, "lon": 13.7359, "intensity": 0.8, "source": "RBB"}, {"title": "Kleist-Preis geht in diesem Jahr an Sasha Salzmann - Ehrung im November in Berlin", "url": "https://www.rbb24.de/kultur/beitrag/2024/05/kleist-preis-sasha-marianna-salzmann-berlin-deutsches-theater.html", "thumbnailUrl": null, "date": "Thu, 02 May 2024 17:23:00 +0200", "lat": 52.520008, "lon": 13.404954, "intensity": 0.3, "source": "RBB"}, {"title": "Berlin Ladies Open: US-Open-Siegerin Gauff sagt Berliner Tennisturnier zu", "url": "https://www.rbb24.de/sport/beitrag/2024/05/tennis-rasenturnier-berlin-naomi-osaka-kerber-coco-gauff.html", "thumbnailUrl": null, "date": "Thu, 02 May 2024 16:36:00 +0200", "lat": 52.5166, "lon": 13.3872, "intensity": 0.7, "source": "RBB"}, {"title": "Historisches Areal in Wandlitz: Berlins Finanzsenator will Goebbels-Villa am Bogensee verschenken", "url": "https://www.rbb24.de/politik/beitrag/2024/05/brandenburg-barnim-wandlitz-goebbels-villa-bogensee-berlin-finanzsenator-evers-verschenken.html", "thumbnailUrl": null, "date": "Thu, 02 May 2024 16:34:00 +0200", "lat": 52.6702, "lon": 13.3613, "intensity": 0.8, "source": "RBB"}, {"title": "Schwesig und Pegel verurteilen Angriff auf SPD-Politiker in Sachsen", "url": "https://www.ndr.de/nachrichten/mecklenburg-vorpommern/Schwesig-und-Pegel-verurteilen-Angriff-auf-SPD-Politiker-in-Sachsen-,kurzmeldungmv15206.html", "thumbnailUrl": "https://www.ndr.de/wahlwerbung136_v-contentwidescreen.jpg", "date": "2024-05-04T19:39:57.501+02:00", "lat": 51.0504, "lon": 13.7373, "intensity": 0.7, "source": "NDR"}, {"title": "AfD-Landtagsabgeordneter mit Eiern beworfen und geschlagen", "url": "https://www.ndr.de/nachrichten/niedersachsen/osnabrueck_emsland/AfD-Landtagsabgeordneter-mit-Eiern-beworfen-und-geschlagen,nordhorn1050.html", "thumbnailUrl": "https://www.ndr.de/nachrichten/niedersachsen/afd3076_v-contentwidescreen.jpg", "date": "2024-05-04T17:56:42.026+02:00", "lat": 52.4358, "lon": 7.0787, "intensity": 0.8, "source": "NDR"}, {"title": "Nach Islamismus-Kundgebung: Hunderte bei Gegen-Demo in Hamburg", "url": "https://www.ndr.de/nachrichten/hamburg/Nach-Islamismus-Kundgebung-Hunderte-bei-Gegen-Demo-in-Hamburg,demo4316.html", "thumbnailUrl": "https://www.ndr.de/nachrichten/hamburg/demo4318_v-contentwidescreen.jpg", "date": "2024-05-04T19:55:30.813+02:00", "lat": 53.5511, "lon": 9.9937, "intensity": 0.8, "source": "NDR"}, {"title": "Vogelwart auf Trischen: Der einsamste Job in SH", "url": "https://www.ndr.de/nachrichten/schleswig-holstein/Vogelwart-auf-Trischen-Der-einsamste-Job-in-SH,inseltrischen100.html", "thumbnailUrl": "https://www.ndr.de/nachrichten/schleswig-holstein/vogelwart180_v-contentwidescreen.jpg", "date": "2024-05-04T21:31:30.355+02:00", "lat": 54.116667, "lon": 8.566667, "intensity": 0.6, "source": "NDR"}, {"title": "Filmpreis \"Fliegender Ochse\" geht an \"In Liebe, Eure Hilde\"", "url": "https://www.ndr.de/kultur/film/festivals/Filmpreis-Fliegender-Ochse-geht-an-In-Liebe-Eure-Hilde,dresen140.html", "thumbnailUrl": "https://www.ndr.de/kultur/film/festivals/dresen138_v-contentwidescreen.jpg", "date": "2024-05-04T20:05:14.300+02:00", "lat": 53.6355, "lon": 11.4134, "intensity": 0.3, "source": "NDR"}, {"title": "Fregatte \"Hessen\" kehrt nach Einsatz im Roten Meer zur\u00fcck", "url": "https://www.ndr.de/nachrichten/niedersachsen/oldenburg_ostfriesland/Fregatte-Hessen-kehrt-nach-Einsatz-im-Roten-Meer-zurueck,fregatte2120.html", "thumbnailUrl": "https://www.ndr.de/nachrichten/niedersachsen/oldenburg_ostfriesland/fregatte2072_v-contentwidescreen.jpg", "date": "2024-05-05T00:00:01.206+02:00", "lat": 53.5326, "lon": 8.1393, "intensity": 0.7, "source": "NDR"}, {"title": "Mann bei Sprung in Hamburger Stadtparksee schwer verletzt", "url": "https://www.ndr.de/nachrichten/hamburg/Mann-bei-Sprung-in-Hamburger-Stadtparksee-schwer-verletzt-,stadtpark456.html", "thumbnailUrl": "https://www.ndr.de/nachrichten/hamburg/rettungswagen406_v-contentwidescreen.jpg", "date": "2024-05-04T21:05:23.223+02:00", "lat": 53.566, "lon": 9.985, "intensity": 0.8, "source": "NDR"}, {"title": "Marode Br\u00fccken in Niedersachsen: Neubau zieht sich hin", "url": "https://www.ndr.de/nachrichten/niedersachsen/Marode-Bruecken-in-Niedersachsen-Neubau-zieht-sich-hin,bruecke1582.html", "thumbnailUrl": "https://www.ndr.de/nachrichten/niedersachsen/verkehr1282_v-contentwidescreen.jpg", "date": "2024-05-04T16:31:02.852+02:00", "lat": 52.3759, "lon": 9.7526, "intensity": 0.8, "source": "NDR"}, {"title": "Gr\u00fcnen-Chefin Erdmann: \"Wir pr\u00e4gen die politische Agenda\"", "url": "https://www.ndr.de/nachrichten/schleswig-holstein/Gruenen-Chefin-Erdmann-Wir-praegen-die-politische-Agenda,gruene1834.html", "thumbnailUrl": "https://www.ndr.de/nachrichten/schleswig-holstein/erdmann260_v-contentwidescreen.jpg", "date": "2024-05-04T14:44:24.520+02:00", "lat": 54.0747, "lon": 9.9756, "intensity": 0.6, "source": "NDR"}, {"title": "Start der Badesaison: Am Strand von Wilhelmshaven wird angebadet", "url": "https://www.ndr.de/nachrichten/niedersachsen/oldenburg_ostfriesland/Start-der-Badesaison-Am-Strand-von-Wilhelmshaven-wird-angebadet,badesaison128.html", "thumbnailUrl": "https://www.ndr.de/nachrichten/niedersachsen/anbaden598_v-contentwidescreen.jpg", "date": "2024-05-04T15:33:26.694+02:00", "lat": 53.5326, "lon": 8.1595, "intensity": 0.4, "source": "NDR"}, {"title": "Reparaturarbeiten: Hamburger K\u00f6hlbrandbr\u00fccke gesperrt", "url": "https://www.ndr.de/nachrichten/hamburg/Reparaturarbeiten-Hamburger-Koehlbrandbruecke-gesperrt,koehlbrandbruecke402.html", "thumbnailUrl": "https://www.ndr.de/nachrichten/hamburg/koehlbrandbruecke336_v-contentwidescreen.jpg", "date": "2024-05-04T10:14:20.150+02:00", "lat": 53.5042, "lon": 9.9686, "intensity": 0.8, "source": "NDR"}, {"title": "Schwimmendes LNG-Terminal \"Neptune\" wird verlegt", "url": "https://www.ndr.de/nachrichten/mecklenburg-vorpommern/Schwimmendes-LNG-Terminal-Neptune-wird-verlegt,neptune110.html", "thumbnailUrl": "https://www.ndr.de/home/mecklenburg-vorpommern/neptune112_v-contentwidescreen.png", "date": "2024-05-04T20:40:11.276+02:00", "lat": 54.0903, "lon": 13.9816, "intensity": 0.7, "source": "NDR"}, {"title": "Bl\u00fctenfest im Alten Land: Obstbauern kr\u00f6nen ihre K\u00f6nigin", "url": "https://www.ndr.de/fernsehen/sendungen/hamburg_journal/Bluetenfest-im-Alten-Land-Obstbauern-kroenen-ihre-Koenigin,hamj146812.html", "thumbnailUrl": "https://www.ndr.de/fernsehen/screenshot1743518_v-contentwidescreen.jpg", "date": "2024-05-04T20:01:44.152+02:00", "lat": 53.5233, "lon": 9.5719, "intensity": 0.2, "source": "NDR"}, {"title": "Regasifizierungsschiff \"Neptune\" wird aus Lubmin abgezogen", "url": "https://www.ndr.de/fernsehen/sendungen/nordmagazin/Regasifizierungsschiff-Neptune-wird-aus-Lubmin-abgezogen,nordmagazin117890.html", "thumbnailUrl": "https://www.ndr.de/fernsehen/screenshot1743592_v-contentwidescreen.jpg", "date": "2024-05-04T20:39:52.114+02:00", "lat": 54.1085, "lon": 13.9773, "intensity": 0.7, "source": "NDR"}, {"title": "Unterricht f\u00fcr Gefl\u00fcchtete: Schule in Hannover geht neue Wege", "url": "https://www.ndr.de/fernsehen/sendungen/hallo_niedersachsen/Unterricht-fuer-gefluechtete-Kinder-Schule-geht-neue-Wege,hallonds87346.html", "thumbnailUrl": "https://www.ndr.de/fernsehen/screenshot1743568_v-contentwidescreen.jpg", "date": "2024-05-04T21:09:22.648+02:00", "lat": 52.3759, "lon": 9.7332, "intensity": 0.7, "source": "NDR"}, {"title": "Gr\u00fcne ziehen auf Landesparteitag eine Zwischenbilanz", "url": "https://www.ndr.de/fernsehen/sendungen/schleswig-holstein_magazin/Gruene-ziehen-auf-Landesparteitag-eine-Zwischenbilanz,shmag116162.html", "thumbnailUrl": "https://www.ndr.de/fernsehen/screenshot1743716_v-contentwidescreen.jpg", "date": "2024-05-05T00:01:43.619+02:00", "lat": 54.0775, "lon": 9.9342, "intensity": 0.7, "source": "NDR"}, {"title": "Forscher wollen Obstanbau im Alten Land digitalisieren", "url": "https://www.ndr.de/fernsehen/sendungen/hallo_niedersachsen/Forscher-wollen-Obstanbau-im-Alten-Land-digitalisieren,hallonds87348.html", "thumbnailUrl": "https://www.ndr.de/fernsehen/screenshot1743582_v-contentwidescreen.jpg", "date": "2024-05-04T21:17:54.693+02:00", "lat": 53.5976, "lon": 9.6462, "intensity": 0.8, "source": "NDR"}, {"title": "Gr\u00fcnen-Politiker Andresen: \"Aus radikalen Worten werden Taten\"", "url": "https://www.ndr.de/nachrichten/info/Gruenen-Politiker-Andresen-Aus-radikalen-Worten-werden-Taten,audio1628152.html", "thumbnailUrl": "https://www.ndr.de/nachrichten/info/andresen678_v-contentwidescreen.jpg", "date": "2024-05-04T18:27:59.492+02:00", "lat": 51.050409, "lon": 13.737262, "intensity": 0.7, "source": "NDR"}, {"title": "Meeresbiologin Antje Boetius \u00fcber Forschungskooperation zum Klimawandel", "url": "https://www.ndr.de/nachrichten/info/Meeresbiologin-Antje-Boetius-ueber-Forschungskooperation-zum-Klimawandel,audio1628104.html", "thumbnailUrl": "https://www.ndr.de/gaeste8042_v-contentwidescreen.jpg", "date": "2024-05-04T15:25:43.836+02:00", "lat": 53.5396, "lon": 8.5724, "intensity": 0.3, "source": "NDR"}, {"title": "Hamburgs CDU-Chef Thering: \"Zu lang weggeschaut bei Islamismus\"", "url": "https://www.ndr.de/nachrichten/info/Hamburgs-CDU-Chef-Thering-Zu-lang-weggeschaut-bei-Islamismus,audio1628030.html", "thumbnailUrl": "https://www.ndr.de/nachrichten/info/thering156_v-contentwidescreen.jpg", "date": "2024-05-04T11:32:57.264+02:00", "lat": 53.55, "lon": 10.0, "intensity": 0.6, "source": "NDR"}, {"title": "Gaspreis Dashboard", "url": "https://www.ndr.de/home/gaspreis176.html", "thumbnailUrl": null, "date": "2023-04-06T14:49:06.409+02:00", "lat": 51.3426, "lon": 9.9976, "intensity": 0.7, "source": "NDR"}, {"title": "NDR Radioprogramme", "url": "https://www.ndr.de/radio/radiologobox100.html", "thumbnailUrl": null, "date": "2020-12-01T14:04:26.700+01:00", "lat": 53.5511, "lon": 9.9937, "intensity": 0.3, "source": "NDR"}, {"title": "Raus aus der Depression", "url": "https://www.ndr.de/nachrichten/info/podcast5110.html", "thumbnailUrl": "https://www.ndr.de/mediathek/podcast5112_v-contentwidescreen.jpg", "date": "2024-04-29T05:00:10.810+02:00", "lat": 53.5511, "lon": 9.9937, "intensity": 0.8, "source": "NDR"}, {"title": "Streitkr\u00e4fte und Strategien", "url": "https://www.ndr.de/nachrichten/info/podcast2998.html", "thumbnailUrl": "https://www.ndr.de/mediathek/mediathekbild652_v-contentwidescreen.jpg", "date": "2024-05-03T16:38:30.296+02:00", "lat": 53.5511, "lon": 9.9937, "intensity": 0.8, "source": "NDR"}, {"title": "Podcast: \"Gerichtssaal 237. True Crime aus dem Strafgericht\"", "url": "https://www.ndr.de/podcast/Podcast-Gerichtssaal-237-True-Crime-aus-dem-Strafgericht,gerichtssaalzweidreisieben104.html", "thumbnailUrl": "https://www.ndr.de/podcast/gerichtssaalzweidreisieben100_v-contentwidescreen.jpg", "date": "2024-04-24T18:38:08.865+02:00", "lat": 53.550341, "lon": 10.000348, "intensity": 0.3, "source": "NDR"}, {"title": "Krieg und Terror - Die Lage im Nahen Osten und in der Ukraine", "url": "https://www.ndr.de/nachrichten/info/podcast5342.html", "thumbnailUrl": "https://www.ndr.de/nachrichten/info/podcastbild412_v-contentwidescreen.jpg", "date": "2024-05-04T15:55:24.227+02:00", "lat": 46.79651, "lon": 30.739834, "intensity": 0.8, "source": "NDR"}, {"title": "Unsere Comedy \"Die Kur-Oase\"!", "url": "https://www.ndr.de/ndr2/podcasts/podcast5816.html", "thumbnailUrl": "https://www.ndr.de/ndr2/podcasts/podcast5812_v-contentwidescreen.jpg", "date": "2024-05-03T07:15:07.128+02:00", "lat": 54.9069, "lon": 8.7386, "intensity": 0.2, "source": "NDR"}, {"title": "Standpunkte", "url": "https://www.ndr.de/nachrichten/info/podcast4700.html", "thumbnailUrl": "https://www.ndr.de/mediathek/podcast5332_v-contentwidescreen.jpg", "date": "2024-05-04T00:49:16.988+02:00", "lat": 53.5511, "lon": 9.9937, "intensity": 0.5, "source": "NDR"}, {"title": "eat.READ.sleep. B\u00fccher f\u00fcr dich", "url": "https://www.ndr.de/kultur/sendungen/eat_read_sleep/index.html", "thumbnailUrl": "https://www.ndr.de/mediathek/podcastbild434_v-contentwidescreen.jpg", "date": "2024-04-26T06:00:24.550+02:00", "lat": 53.5511, "lon": 9.9937, "intensity": 0.2, "source": "NDR"}, {"title": "Die Ern\u00e4hrungs-Docs - Essen als Medizin", "url": "https://www.ndr.de/fernsehen/sendungen/die-ernaehrungsdocs/audio-podcast/index.html", "thumbnailUrl": "https://www.ndr.de/fernsehen/sendungen/die-ernaehrungsdocs/podcastbild338_v-contentwidescreen.jpg", "date": "2024-04-30T13:18:24.548+02:00", "lat": 53.5511, "lon": 9.9876, "intensity": 0.3, "source": "NDR"}, {"title": "Mein Einsatz - der Feuerwehr-Podcast von NDR Niedersachsen", "url": "https://www.ndr.de/ndr1niedersachsen/podcast5774.html", "thumbnailUrl": "https://www.ndr.de/ndr1niedersachsen/podcasts/podcastbild364_v-contentwidescreen.jpg", "date": "2024-04-25T04:00:08.575+02:00", "lat": 52.3759, "lon": 9.7345, "intensity": 0.7, "source": "NDR"}, {"title": "\"Feel Hamburg\" - alle Folgen", "url": "https://www.ndr.de/903/podcasts/podcast5108.html", "thumbnailUrl": "https://www.ndr.de/mediathek/mediathekbild514_v-contentwidescreen.jpg", "date": "2024-04-23T16:10:34.282+02:00", "lat": 53.55, "lon": 10.0, "intensity": 0.4, "source": "NDR"}, {"title": "Intensiv-Station - Satire von NDR Info", "url": "https://www.ndr.de/nachrichten/info/podcast4274.html", "thumbnailUrl": "https://www.ndr.de/nachrichten/info/programm/intensivstation3272_v-contentwidescreen.jpg", "date": "2024-04-29T21:03:04.134+02:00", "lat": 54.3706, "lon": 10.5038, "intensity": 0.8, "source": "NDR"}, {"title": "Amerika, wir m\u00fcssen reden!", "url": "https://www.ndr.de/nachrichten/info/podcast4932.html", "thumbnailUrl": "https://www.ndr.de/nachrichten/info/podcastbild488_v-contentwidescreen.jpg", "date": "2024-04-29T20:25:57.775+02:00", "lat": 39.78373, "lon": -100.445882, "intensity": 0.7, "source": "NDR"}, {"title": "NRW-weite Razzia in T\u00fcrsteherszene", "url": "https://www1.wdr.de/nachrichten/nrw/nrw-weite-razzia-in-tuersteherszene-100.html", "thumbnailUrl": null, "date": "2024-05-04T21:59:44Z", "lat": 51.4367, "lon": 7.5954, "intensity": 0.8, "source": "WDR"}, {"title": "Proteste an den Universit\u00e4ten: Kritik an Israel oder Antisemitismus?", "url": "https://www1.wdr.de/nachrichten/protestcamp-uni-koeln-berlin-israel-kritik-antisemitismus-100.html", "thumbnailUrl": null, "date": "2024-05-04T19:06:34Z", "lat": 50.9355, "lon": 6.9477, "intensity": 0.6, "source": "WDR"}, {"title": "Get\u00f6tete Ukrainer in Oberhausen: Angreifer lehnten Beh\u00f6rdenhilfe ab", "url": "https://www1.wdr.de/nachrichten/ruhrgebiet/messerangriff-auf-basketballer-verdaechtige-lehnten-hilfsangebot-ab-100.html", "thumbnailUrl": null, "date": "2024-05-04T17:26:01Z", "lat": 51.4964, "lon": 6.8619, "intensity": 0.8, "source": "WDR"}, {"title": "Schl\u00e4gertrupp attackiert Politiker: \"Neue Dimension antidemokratischer Gewalt\"", "url": "https://www1.wdr.de/nachrichten/angriff-politiker-sachsen-100.html", "thumbnailUrl": null, "date": "2024-05-04T19:16:14Z", "lat": 51.050409, "lon": 13.737262, "intensity": 0.8, "source": "WDR"}, {"title": "Reality TV - alles fake?", "url": "https://www1.wdr.de/nachrichten/nah-dran-podcast-reality-tv-100.html", "thumbnailUrl": null, "date": "2024-05-04T08:24:54Z", "lat": 50.8284, "lon": 7.1367, "intensity": 0.3, "source": "WDR"}, {"title": "Die App WDR aktuell begleitet Euch durch den Tag", "url": "https://www1.wdr.de/nachrichten/wdr-aktuell-app-stores-100.html", "thumbnailUrl": null, "date": "2024-04-25T11:47:58Z", "lat": 51.4508, "lon": 7.6261, "intensity": 0.3, "source": "WDR"}, {"title": "WDR aktuell Whatsapp-Kanal abonnieren - so geht's", "url": "https://www1.wdr.de/nachrichten/wdr-aktuell-whatsapp-kanal-100.html", "thumbnailUrl": null, "date": "2023-12-22T20:22:52Z", "lat": 51.4818, "lon": 7.6261, "intensity": 0.1, "source": "WDR"}, {"title": "Der Morgen-Podcast vom WDR", "url": "https://www1.wdr.de/mediathek/audio/wdr/0630bywdraktuell/0630bywdraktuell-100.html", "thumbnailUrl": null, "date": "2024-02-14T06:12:18Z", "lat": 50.717, "lon": 7.1346, "intensity": 0.2, "source": "WDR"}, {"title": "21-J\u00e4hriger stirbt bei Unfall in Dorsten", "url": "https://www1.wdr.de/nachrichten/ruhrgebiet/toedlicher-unfall-dorsten-fahrerflucht-100.html", "thumbnailUrl": null, "date": "2024-05-04T16:35:41Z", "lat": 51.6609, "lon": 6.9674, "intensity": 0.8, "source": "WDR"}, {"title": "29-J\u00e4hriger nach Streit in Siegener Innenstadt niedergestochen", "url": "https://www1.wdr.de/nachrichten/streit-in-siegener-innenstadt-eskaliert-100.html", "thumbnailUrl": null, "date": "2024-05-04T18:27:09Z", "lat": 50.868, "lon": 8.0243, "intensity": 0.8, "source": "WDR"}, {"title": "Tandem-Tag f\u00fcr Inklusion in Neuss", "url": "https://www1.wdr.de/nachrichten/rheinland/tandem-fest-neuss-100.html", "thumbnailUrl": null, "date": "2024-05-04T16:40:44Z", "lat": 51.2042, "lon": 6.6854, "intensity": 0.7, "source": "WDR"}, {"title": "Trauer nach t\u00f6dlicher Attacke vor Paderborner Kiosk: T\u00e4ter fl\u00fcchtig", "url": "https://www1.wdr.de/nachrichten/angriff-fahndung-paderborn-100.html", "thumbnailUrl": null, "date": "2024-05-04T18:29:39Z", "lat": 51.717, "lon": 8.7469, "intensity": 0.8, "source": "WDR"}, {"title": "Krieg gegen die Ukraine: Ukraine-Liveblog: ++ Russland schreibt Selenskyj zur Fahndung aus ++", "url": "https://www.tagesschau.de/newsticker/liveblog-ukraine-samstag-384.html", "thumbnailUrl": null, "date": "2024-05-04T20:51:02Z", "lat": 44.9388, "lon": 33.2967, "intensity": 0.8, "source": "WDR"}, {"title": "Russischer Energiekonzern: Erstmals seit Jahrzehnten: Milliardenverlust bei Gazprom", "url": "https://www.tagesschau.de/wirtschaft/energie/gazprom-rekordverluste-2023-100.html", "thumbnailUrl": null, "date": "2024-05-03T09:03:02Z", "lat": 55.755814, "lon": 37.617635, "intensity": 0.8, "source": "WDR"}, {"title": "Russlands Angriffskrieg: Schweiz l\u00e4dt offiziell zur Ukraine-Konferenz ein", "url": "https://www.tagesschau.de/ausland/europa/schweiz-ukraine-konferenz-100.html", "thumbnailUrl": null, "date": "2024-05-02T15:03:01Z", "lat": 46.9479, "lon": 7.4474, "intensity": 0.6, "source": "WDR"}, {"title": "Krieg gegen die Ukraine: Russlands Vormarsch im Osten der Ukraine l\u00f6st Frust aus", "url": "https://www.tagesschau.de/ausland/europa/ukraine-russland-front-102.html", "thumbnailUrl": null, "date": "2024-05-02T17:15:01Z", "lat": 48.379433, "lon": 35.047191, "intensity": 0.8, "source": "WDR"}, {"title": "Gr\u00fcnen-Politiker in Essen angegriffen: \"Lasse mich nicht einsch\u00fcchtern\"", "url": "https://www1.wdr.de/nachrichten/ruhrgebiet/gruenen-politiker-in-essen-angegriffen-100.html", "thumbnailUrl": null, "date": "2024-05-04T14:43:38Z", "lat": 51.4556, "lon": 7.0106, "intensity": 0.8, "source": "WDR"}, {"title": "Bochum \u00fcbt den Ernstfall: Bei Bedrohungen schnell informieren", "url": "https://www1.wdr.de/nachrichten/ruhrgebiet/bochum-uebung-krisenzentrum-100.html", "thumbnailUrl": null, "date": "2024-05-04T16:33:30Z", "lat": 51.481811, "lon": 7.216236, "intensity": 0.7, "source": "WDR"}, {"title": "Das Wetter hautnah sp\u00fcren - Klimaerlebniswelt in Oerlinghausen er\u00f6ffnet", "url": "https://www1.wdr.de/nachrichten/westfalen-lippe/klimaerlebniswelt-eroeffnet-oerlinghausen-100.html", "thumbnailUrl": null, "date": "2024-05-04T07:36:09Z", "lat": 51.9833, "lon": 8.6667, "intensity": 0.6, "source": "WDR"}, {"title": "Drei Jahre nach der Flut im Ahrtal: \"Offenbar geh\u00f6rt das jetzt zu unserer Realit\u00e4t\"", "url": "https://www1.wdr.de/nachrichten/ahrtal-unwetter-auswirkungen-100.html", "thumbnailUrl": null, "date": "2024-05-03T18:25:20Z", "lat": 50.5866, "lon": 7.1195, "intensity": 0.8, "source": "WDR"}, {"title": "Umfragen in der Politik: alle wegschmei\u00dfen?", "url": "https://blog.wdr.de/landtagsblog/umfragen-in-der-politik-alle-wegschmeissen/", "thumbnailUrl": null, "date": "2024-05-03T15:01:12Z", "lat": 51.9607, "lon": 7.6261, "intensity": 0.5, "source": "WDR"}, {"title": "Verb\u00e4nde unterzeichnen D\u00fcsseldorfer Erkl\u00e4rung gegen Antisemitismus", "url": "https://www1.wdr.de/nachrichten/landespolitik/duesseldorfer-erklaerung-gegen-antisemitismus-100.html", "thumbnailUrl": null, "date": "2024-05-03T13:46:10Z", "lat": 51.2277, "lon": 6.7735, "intensity": 0.8, "source": "WDR"}, {"title": "Grundwasser im Keller: Verzweifelte Hausbesitzer f\u00fchlen sich im Stich gelassen", "url": "https://www1.wdr.de/nachrichten/landespolitik/grundwasser-keller-politik-100.html", "thumbnailUrl": null, "date": "2024-05-03T19:01:06Z", "lat": 51.5508, "lon": 6.7349, "intensity": 0.7, "source": "WDR"}, {"title": "CumEx-Ermittlungen: Nachfolge f\u00fcr Chefermittlerin gefunden", "url": "https://www1.wdr.de/nachrichten/landespolitik/nachfolge-brorhilker-cum-ex-debatte-100.html", "thumbnailUrl": null, "date": "2024-05-04T07:33:00Z", "lat": 53.5511, "lon": 9.9937, "intensity": 0.8, "source": "WDR"}, {"title": "NRW: Solar-Ausbau verliert 2024 etwas an Tempo", "url": "https://www1.wdr.de/nachrichten/landespolitik/solar-ausbau-trend-100.html", "thumbnailUrl": null, "date": "2024-05-03T08:53:45Z", "lat": 51.9607, "lon": 7.6261, "intensity": 0.3, "source": "WDR"}, {"title": "Nahost-Krieg: Nahost-Liveblog: ++ UN sehen Hungersnot im Norden des Gazastreifens ++", "url": "https://www.tagesschau.de/newsticker/liveblog-nahost-samstag-132.html", "thumbnailUrl": null, "date": "2024-05-04T20:51:02Z", "lat": 31.522687, "lon": 35.303492, "intensity": 0.8, "source": "WDR"}, {"title": "Vor neuen Verhandlungen: Hamas signalisiert Einlenken vor neuen Verhandlungen", "url": "https://www.tagesschau.de/ausland/asien/hamas-einlenken-israel-verhandlungen-feuerpause-100.html", "thumbnailUrl": null, "date": "2024-05-04T06:24:02Z", "lat": 30.0444, "lon": 31.2357, "intensity": 0.8, "source": "WDR"}, {"title": "Blinken in Israel: Blinken in Israel: \"Hamas blockiert Weg zu Feuerpause\"", "url": "https://www.tagesschau.de/ausland/asien/nahost-israel-gaza-hamas-100.html", "thumbnailUrl": null, "date": "2024-05-01T15:39:02Z", "lat": 31.046051, "lon": 34.851612, "intensity": 0.8, "source": "WDR"},