[{"title": "Schwerer Verkehrsunfall bei Ubstadt-Weiher: ein Toter und drei Schwerverletzte", "url": "https://www.tagesschau.de/inland/regional/badenwuerttemberg/swr-schwerer-verkehrsunfall-bei-ubstadt-weiher-ein-toter-und-drei-schwerverletzte-100.html", "thumbnailUrl": "https://images.tagesschau.de/image/b1de8a51-eaed-4982-99f2-4481fb0b1469/AAABjx0YRoI/AAABjwnlKNc/16x9-512.jpg", "date": "2024-04-27T03:03:06.000+02:00", "lat": 49.1872, "lon": 8.6189, "intensity": 0.8, "source": "Tagesschau"}, {"title": "++ Gericht entscheidet Dienstag \u00fcber Nicaragua-Klage ++", "url": "https://www.tagesschau.de/newsticker/liveblog-nahost-samstag-128.html", "thumbnailUrl": "https://images.tagesschau.de/image/858ac379-2133-4d10-96c6-5fff983ead45/AAABjxz9bkQ/AAABjwnlKNc/16x9-512.jpg", "date": "2024-04-27T02:46:55.873+02:00", "lat": 31.046051, "lon": 34.851612, "intensity": 0.5, "source": "Tagesschau"}, {"title": "Diese Optionen hat die FDP", "url": "https://www.tagesschau.de/inland/fdp-koalition-streit-100.html", "thumbnailUrl": "https://images.tagesschau.de/image/65a89b49-fad3-4d01-877d-7277c906e79d/AAABjxy4Xqk/AAABjwnlKNc/16x9-512.jpg", "date": "2024-04-27T01:33:52.875+02:00", "lat": 51.4873, "lon": 9.9937, "intensity": 0.3, "source": "Tagesschau"}, {"title": "Eintracht Braunschweig gegen HSV: \"Wir k\u00f6nnen jedem Team wehtun\"", "url": "https://www.tagesschau.de/inland/regional/niedersachsen/ndr-eintracht-braunschweig-gegen-hsv-wir-koennen-jedem-team-wehtun-102.html", "thumbnailUrl": "https://images.tagesschau.de/image/f04f2848-f7f7-4c93-b855-37965eb9f2f4/AAABjxo9xZ0/AAABjwnlKNc/16x9-512.jpg", "date": "2024-04-27T00:04:00.000+02:00", "lat": 52.2689, "lon": 10.5289, "intensity": 0.7, "source": "Tagesschau"}, {"title": "Kemfert sieht Klimaziele bis 2030 in Gefahr", "url": "https://www.tagesschau.de/inland/innenpolitik/klimaschutzgesetz-kemfert-100.html", "thumbnailUrl": "https://images.tagesschau.de/image/2652cd09-bf4c-4fd2-a65f-2175b5fed095/AAABhnQMFSg/AAABjwnlKNc/16x9-512.jpg", "date": "2024-04-27T00:01:52.113+02:00", "lat": 52.5105, "lon": 13.3762, "intensity": 0.8, "source": "Tagesschau"}, {"title": "++ Neue US-Milit\u00e4rhilfe f\u00fcr die Ukraine ++", "url": "https://www.tagesschau.de/newsticker/liveblog-ukraine-164.html", "thumbnailUrl": "https://images.tagesschau.de/image/d956dc44-31e8-47b3-b396-c722549968ed/AAABhpgRhSg/AAABjwnlKNc/16x9-512.jpg", "date": "2024-04-26T23:35:33.592+02:00", "lat": 50.4501, "lon": 30.5234, "intensity": 0.8, "source": "Tagesschau"}, {"title": "++ EU stockt Pal\u00e4stinerserhilfe auf ++", "url": "https://www.tagesschau.de/newsticker/liveblog-nahost-freitag-130.html", "thumbnailUrl": "https://images.tagesschau.de/image/b027ae14-f35c-42fa-97ba-b549242af2b8/AAABjhe8rBo/AAABjwnlKNc/16x9-512.jpg", "date": "2024-04-26T23:34:37.865+02:00", "lat": 31.9522, "lon": 35.2195, "intensity": 0.7, "source": "Tagesschau"}, {"title": "A6 bei Gr\u00fcnstadt: Lkw geht in Flammen auf", "url": "https://www.tagesschau.de/inland/regional/rheinlandpfalz/swr-a6-bei-gruenstadt-lkw-geht-in-flammen-auf-100.html", "thumbnailUrl": "https://images.tagesschau.de/image/3afa8c96-ba46-4b5f-88c7-0c997d48f13e/AAABjxqT3j0/AAABjwnlKNc/16x9-512.jpg", "date": "2024-04-26T23:05:00.000+02:00", "lat": 49.5444, "lon": 8.1711, "intensity": 0.8, "source": "Tagesschau"}, {"title": "Spender stellen Kaution f\u00fcr gek\u00fcndigten 84-J\u00e4hrigen Mieter in Reinickendorf bereit", "url": "https://www.tagesschau.de/inland/regional/berlin/rbb-spender-stellen-kaution-fuer-gekuendigten-84-jaehrigen-mieter-in-reinickendorf-bereit-102.html", "thumbnailUrl": "https://images.tagesschau.de/image/43280ace-b497-4127-a024-eafb34641948/AAABjxwmo9s/AAABjwnlKNc/16x9-512.jpg", "date": "2024-04-26T22:41:21.000+02:00", "lat": 52.5895, "lon": 13.3135, "intensity": 0.6, "source": "Tagesschau"}, {"title": "Eintracht: +++ Verfolger Hoffenheim patzt +++ Eintracht zieht Kaufoption f\u00fcr Ekitik\u00e9 +++ Tuta findet Gefallen an Mittelfeldrolle +++ ", "url": "https://www.tagesschau.de/inland/regional/hessen/hr--eintracht-wohl-mit-chaibi-einig--glasner-fast-nur-kolo-muani-der-tore-erzielt--bericht-eintracht-sagt-aouar-ab-100.html", "thumbnailUrl": "https://images.tagesschau.de/image/0e6b52e1-8a46-4bf1-afcd-df1482cd5068/AAABjxwhKUQ/AAABjwnlKNc/16x9-512.jpg", "date": "2024-04-26T22:37:09.587+02:00", "lat": 50.110922, "lon": 8.682127, "intensity": 0.6, "source": "Tagesschau"}, {"title": "Norderelbbr\u00fccke: Bauarbeiten behindern Verkehr auf der A1 in Hamburg", "url": "https://www.tagesschau.de/inland/regional/hamburg/ndr-norderelbbruecke-100.html", "thumbnailUrl": "https://images.tagesschau.de/image/2119720b-227d-4b09-8231-ed268c71b979/AAABjxnrfAQ/AAABjwnlKNc/16x9-512.jpg", "date": "2024-04-26T22:37:00.000+02:00", "lat": 53.5511, "lon": 9.9937, "intensity": 0.7, "source": "Tagesschau"}, {"title": "Darmstadt 98: +++ Bochum enteilt Darmstadt +++ Lilien verzichten auf Pyro-Berufung  +++ K\u00f6ln-Sieg soll Lilien befl\u00fcgeln +++", "url": "https://www.tagesschau.de/inland/regional/hessen/hr--tietz-vermisst-fehlende-gier--lilien-fans-liefern-sich-raststaetten-pruegelei--die-niederlage-der-lilien-in-der-video-zusammenfassung-102.html", "thumbnailUrl": "https://images.tagesschau.de/image/28ccd0d4-3348-4c08-9b03-14750af668b0/AAABjxwfTQ4/AAABjwnlKNc/16x9-512.jpg", "date": "2024-04-26T22:34:23.169+02:00", "lat": 49.8667, "lon": 8.65, "intensity": 0.6, "source": "Tagesschau"}, {"title": "Regionalliga Nordost: BFC Dynamo verliert in Rostock und den Anschluss an die Tabellenspitze", "url": "https://www.tagesschau.de/inland/regional/brandenburg/rbb-regionalliga-nordost-bfc-dynamo-verliert-in-rostock-und-den-anschluss-an-die-tabellenspitze-102.html", "thumbnailUrl": "https://images.tagesschau.de/image/3a9f00a3-1b36-4ee9-af5c-14eec9852619/AAABjxvsH5Q/AAABjwnlKNc/16x9-512.jpg", "date": "2024-04-26T22:21:24.000+02:00", "lat": 54.0887, "lon": 12.1363, "intensity": 0.7, "source": "Tagesschau"}, {"title": "2:0 in Bremerhaven: Eisb\u00e4ren Berlin sind zum 10. Mal deutscher Eishockey-Meister", "url": "https://www.tagesschau.de/inland/regional/berlin/rbb-jetzt-live-hoeren-und-im-ticker-koennen-die-eisbaeren-die-meisterschaft-in-bremerhaven-perfekt-machen-102.html", "thumbnailUrl": "https://images.tagesschau.de/image/3257f93d-5591-4128-bc7f-8d1336e93c77/AAABjxvzWfc/AAABjwnlKNc/16x9-512.jpg", "date": "2024-04-26T22:19:31.000+02:00", "lat": 53.539584, "lon": 8.576125, "intensity": 0.9, "source": "Tagesschau"}, {"title": "Erstes Plus nach drei Verlustwochen im DAX", "url": "https://www.tagesschau.de/wirtschaft/finanzen/marktberichte/marktbericht-dax-aktien-google-microsoft-ki-dow-nikkei-gold-oelpreis-boerse-100.html", "thumbnailUrl": "https://images.tagesschau.de/image/474d5ea9-5959-4fd2-bcea-09a20ff9f0ff/AAABioN_mVs/AAABjwnlKNc/16x9-512.jpg", "date": "2024-04-26T22:12:03.078+02:00", "lat": 51.5143, "lon": 9.9937, "intensity": 0.7, "source": "Tagesschau"}, {"title": "Oberleitungsschaden: Zugausf\u00e4lle und Versp\u00e4tungen rund um Stuttgart", "url": "https://www.tagesschau.de/inland/regional/badenwuerttemberg/swr-oberleitungsschaden-zugausfaelle-und-verspaetungen-rund-um-stuttgart-100.html", "thumbnailUrl": "https://images.tagesschau.de/image/bdf84463-c801-4045-b6af-4088bbfab4c8/AAABjxu6jIY/AAABjwnlKNc/16x9-512.jpg", "date": "2024-04-26T21:58:00.000+02:00", "lat": 48.7758, "lon": 9.1829, "intensity": 0.8, "source": "Tagesschau"}, {"title": "Traum geplatzt: Fischtown Pinguins verlieren - Eisb\u00e4ren Berlin deutscher Meister", "url": "https://www.tagesschau.de/inland/regional/niedersachsen/ndr-traum-geplatzt-fischtown-pinguins-verlieren-eisbaeren-berlin-deutscher-meister-102.html", "thumbnailUrl": "https://images.tagesschau.de/image/7b7201d4-edc9-448a-9565-1d0e3d5edba0/AAABjxwJaek/AAABjwnlKNc/16x9-512.jpg", "date": "2024-04-26T21:50:00.000+02:00", "lat": 53.550556, "lon": 8.583333, "intensity": 0.8, "source": "Tagesschau"}, {"title": "VfB L\u00fcbeck steigt in die Regionalliga Nord ab", "url": "https://www.tagesschau.de/inland/regional/schleswigholstein/ndr-vfb-luebeck-steigt-in-die-regionalliga-nord-ab-100.html", "thumbnailUrl": "https://images.tagesschau.de/image/fa6ee2d6-d2df-4421-b64e-29da8dc9d20f/AAABjxvFlG8/AAABjwnlKNc/16x9-512.jpg", "date": "2024-04-26T21:48:00.000+02:00", "lat": 53.8659, "lon": 10.6849, "intensity": 0.8, "source": "Tagesschau"}, {"title": "Wetter im Norden: Fr\u00fchsommer im Anmarsch", "url": "https://www.tagesschau.de/inland/regional/hamburg/ndr-wetter-im-norden-fruehsommer-im-anmarsch-100.html", "thumbnailUrl": "https://images.tagesschau.de/image/a3010f89-bc76-4cb6-91b9-6cc4e556e918/AAABjxvxji0/AAABjwnlKNc/16x9-512.jpg", "date": "2024-04-26T21:42:00.000+02:00", "lat": 53.5511, "lon": 9.9937, "intensity": 0.6, "source": "Tagesschau"}, {"title": "Kultur:  +++ Candlelight-Konzerte \u2013 auch in Hessen +++ Eintrittsfreier Besuch in zahlreichen Museen am 27. April +++ Historische Stra\u00dfenbahnfahrt mit Lesung und Diskussion +++ ", "url": "https://www.tagesschau.de/inland/regional/hessen/hr--schauspiel-frankfurt-bringt-putin-und-macbeth-zusammen--die-filmfestival-saison-2023-startet--lichter-filmfest-zum-thema-liebe-startet-am-dienstag-100.html", "thumbnailUrl": "https://images.tagesschau.de/image/99ee9355-4e65-4b78-84d2-685799e02aa3/AAABjxrOeC4/AAABjwnlKNc/16x9-512.jpg", "date": "2024-04-26T21:39:08.116+02:00", "lat": 50.110922, "lon": 8.682127, "intensity": 0.7, "source": "Tagesschau"}, {"title": "Galeria Karstadt Kaufhof will 16 Filialen schlie\u00dfen - wohl auch Berlin betroffen ", "url": "https://www.tagesschau.de/inland/regional/berlin/rbb-galeria-karstadt-kaufhof-will-16-filialen-schliessen-wohl-auch-berlin-betroffen-100.html", "thumbnailUrl": "https://images.tagesschau.de/image/3c520841-76d9-4b61-bd0c-9f1ee3996254/AAABjxvmhK4/AAABjwnlKNc/16x9-512.jpg", "date": "2024-04-26T21:28:40.000+02:00", "lat": 52.520008, "lon": 13.404954, "intensity": 0.8, "source": "Tagesschau"}, {"title": "Miniatur Wunderland: Mini-Monaco von F\u00fcrstenfamilie er\u00f6ffnet", "url": "https://www.tagesschau.de/inland/regional/hamburg/ndr-miniatur-wunderland-fuerstenpaar-eroeffnet-heute-mini-monaco-100.html", "thumbnailUrl": "https://images.tagesschau.de/image/76ad3e66-a604-4714-a570-effb64778b70/AAABjxYg7Vc/AAABjwnlKNc/16x9-512.jpg", "date": "2024-04-26T21:26:00.000+02:00", "lat": 53.5511, "lon": 9.9937, "intensity": 0.7, "source": "Tagesschau"}, {"title": "Aufstieg \"auf der Couch\" - Alemannia Aachen zur\u00fcck in der 3. Liga", "url": "https://www.tagesschau.de/inland/regional/nordrheinwestfalen/wdr-aufstieg-auf-der-couch-alemannia-aachen-zurueck-in-der-3-liga-102.html", "thumbnailUrl": "https://images.tagesschau.de/image/d2ec1453-6de4-4ff5-b547-e2f91201d707/AAABjxwmkuc/AAABjwnlKNc/16x9-512.jpg", "date": "2024-04-26T21:26:00.000+02:00", "lat": 50.7753, "lon": 6.0846, "intensity": 0.8, "source": "Tagesschau"}, {"title": "Kaputte Eisenbahnbr\u00fccke: Millionenverlust f\u00fcr Seehafen Brake", "url": "https://www.tagesschau.de/inland/regional/niedersachsen/ndr-kaputte-eisenbahnbruecke-millionenverlust-fuer-seehafen-brake-100.html", "thumbnailUrl": "https://images.tagesschau.de/image/5f518b69-6d6f-4b94-befd-e1577c528079/AAABjxvi5EI/AAABjwnlKNc/16x9-512.jpg", "date": "2024-04-26T21:25:00.000+02:00", "lat": 53.3375, "lon": 8.4833, "intensity": 0.7, "source": "Tagesschau"}, {"title": "Hannover 96 holt sp\u00e4ten Punkt bei Hertha BSC", "url": "https://www.tagesschau.de/inland/regional/niedersachsen/ndr-hannover-96-holt-spaeten-punkt-bei-hertha-bsc-102.html", "thumbnailUrl": "https://images.tagesschau.de/image/ff0fbf11-8b04-4c1e-a226-7b9deb26e247/AAABjxut6Ho/AAABjwnlKNc/16x9-512.jpg", "date": "2024-04-26T21:19:00.000+02:00", "lat": 52.52001, "lon": 13.27479, "intensity": 0.4, "source": "Tagesschau"}, {"title": "100-Tage-Bilanz von Schwarz-Rot in Hessen: Einiges ist mehr Schein als Sein. Ein Kommentar", "url": "https://www.tagesschau.de/inland/regional/hessen/hr-100-tage-bilanz-von-schwarz-rot-in-hessen-einiges-ist-mehr-schein-als-sein-ein-kommentar-100.html", "thumbnailUrl": "https://images.tagesschau.de/image/f39f4775-001c-4812-97c6-89ecdce1036f/AAABjxvJP-4/AAABjwnlKNc/16x9-512.jpg", "date": "2024-04-26T21:07:07.339+02:00", "lat": 50.6411, "lon": 9.6752, "intensity": 0.7, "source": "Tagesschau"}, {"title": "Hamburgs Schulsenatorin Bekeris 100 Tage im Amt", "url": "https://www.tagesschau.de/inland/regional/hamburg/ndr-hamburgs-schulsenatorin-bekeris-100-tage-im-amt-100.html", "thumbnailUrl": "https://images.tagesschau.de/image/2de5ab05-c463-44f2-bcbc-6eeab1ba16d3/AAABjxukokA/AAABjwnlKNc/16x9-512.jpg", "date": "2024-04-26T21:05:00.000+02:00", "lat": 53.55, "lon": 10.0, "intensity": 0.2, "source": "Tagesschau"}, {"title": "Zweiter Sieg gegen Keltern: Albas Basketballerinnen stehen kurz vor dem ersten Titelgewinn", "url": "https://www.tagesschau.de/inland/regional/berlin/rbb-zweiter-sieg-gegen-keltern-albas-basketballerinnen-stehen-kurz-vor-dem-ersten-titelgewinn-102.html", "thumbnailUrl": "https://images.tagesschau.de/image/d9b5dfff-6ebc-4c0f-b244-b37dff98a67d/AAABjxvM7uY/AAABjwnlKNc/16x9-512.jpg", "date": "2024-04-26T21:03:00.000+02:00", "lat": 52.52, "lon": 13.405, "intensity": 0.8, "source": "Tagesschau"}, {"title": "SG Flensburg-Handewitt erk\u00e4mpft sich zwei Punkte in Leipzig", "url": "https://www.tagesschau.de/inland/regional/schleswigholstein/ndr-sg-flensburg-handewitt-erkaempft-sich-zwei-punkte-in-leipzig-102.html", "thumbnailUrl": "https://images.tagesschau.de/image/1e1e8392-d3dd-4e31-ab49-52dd74d692b6/AAABjxvAFM8/AAABjwnlKNc/16x9-512.jpg", "date": "2024-04-26T21:02:00.000+02:00", "lat": 53.551086, "lon": 12.373075, "intensity": 0.8, "source": "Tagesschau"}, {"title": "Gescheiterte H\u00e4ftlingsbefreiung an der JVA Heidering - Trio durchschneidet Zaun", "url": "https://www.tagesschau.de/inland/regional/brandenburg/rbb-trio-versucht-vergeblich-haeftling-aus-jva-heidering-zu-befreien-100.html", "thumbnailUrl": "https://images.tagesschau.de/image/c93c00ea-486d-4c33-bfd4-d6173e76f3d2/AAABjxuOulE/AAABjwnlKNc/16x9-512.jpg", "date": "2024-04-26T20:58:26.000+02:00", "lat": 52.348, "lon": 13.2481, "intensity": 0.8, "source": "Tagesschau"}, {"title": "USA k\u00fcndigen neues Milit\u00e4rpaket f\u00fcr Kiew an", "url": "https://www.tagesschau.de/ausland/europa/usa-ukraine-hilfe-104.html", "thumbnailUrl": "https://images.tagesschau.de/image/f63b52e9-1232-4945-9027-c6444a0c0692/AAABjxutZjg/AAABjwnlKNc/16x9-512.jpg", "date": "2024-04-26T20:55:03.170+02:00", "lat": 37.09024, "lon": -95.712891, "intensity": 0.8, "source": "Tagesschau"}, {"title": "CDU in SH stimmt f\u00fcr die Wiedereinf\u00fchrung der Wehrpflicht", "url": "https://www.tagesschau.de/inland/regional/schleswigholstein/ndr-cdu-sh-fuer-wiedereinfuehrung-der-wehrpflicht-fuer-maenner-und-frauen-100.html", "thumbnailUrl": "https://images.tagesschau.de/image/e49e16e0-e9aa-423b-a33a-a5f4b34e9dac/AAABjxwfq2I/AAABjwnlKNc/16x9-512.jpg", "date": "2024-04-26T20:45:00.000+02:00", "lat": 54.3233, "lon": 9.9886, "intensity": 0.7, "source": "Tagesschau"}, {"title": "Eingeschr\u00e4nkter Zugverkehr nach Unfall", "url": "https://www.tagesschau.de/inland/regional/hamburg/ndr-akute-betriebsstoerung-bauzug-am-hamburger-hauptbahnhof-entgleist-100.html", "thumbnailUrl": "https://images.tagesschau.de/image/2d252843-c15d-4b40-9e49-66bbb4bdd9fc/AAABjxwJUAU/AAABjwnlKNc/16x9-512.jpg", "date": "2024-04-26T20:43:05.669+02:00", "lat": 53.5511, "lon": 9.9937, "intensity": 0.8, "source": "Tagesschau"}, {"title": "1:1 gegen Hannover 96: Schwache Hertha kassiert sp\u00e4ten Ausgleich", "url": "https://www.tagesschau.de/inland/regional/berlin/rbb-jetzt-live-hoeren-und-im-ticker-kann-hertha-mit-einem-sieg-ueber-hannover-auf-platz-sechs-klettern-102.html", "thumbnailUrl": "https://images.tagesschau.de/image/4bda6809-c9a8-4476-8556-f574071cacc7/AAABjxuxgrs/AAABjwnlKNc/16x9-512.jpg", "date": "2024-04-26T20:31:20.000+02:00", "lat": 52.520008, "lon": 13.404954, "intensity": 0.7, "source": "Tagesschau"}, {"title": "Irvine rettet St. Pauli beim Sieg gegen Rostock: Aufstieg ganz nah", "url": "https://www.tagesschau.de/inland/regional/mecklenburgvorpommern/ndr-arbeitssieg-gegen-hansa-rostock-st-pauli-ganz-dicht-vor-dem-aufstieg-102.html", "thumbnailUrl": "https://images.tagesschau.de/image/671ca43e-2bf0-4ad4-9d05-1f2f57657127/AAABjxv-S0w/AAABjwnlKNc/16x9-512.jpg", "date": "2024-04-26T20:28:00.000+02:00", "lat": 53.8703, "lon": 10.6885, "intensity": 0.8, "source": "Tagesschau"}, {"title": "Brandenburger Landtag beschlie\u00dft Verfassungstreue-Check f\u00fcr Beamte", "url": "https://www.tagesschau.de/inland/regional/brandenburg/rbb-brandenburger-landtag-angehende-beamte-werden-in-brandenburg-kuenftig-auf-verfassungstreue-geprueft-100.html", "thumbnailUrl": "https://images.tagesschau.de/image/17a92e4e-ab59-44bb-a654-58644a543295/AAABjxuiwvc/AAABjwnlKNc/16x9-512.jpg", "date": "2024-04-26T20:15:16.000+02:00", "lat": 52.52, "lon": 13.403, "intensity": 0.7, "source": "Tagesschau"}, {"title": "Jetzt live: Bochum gegen Hoffenheim", "url": "https://www.sportschau.de/live-und-ergebnisse/fussball/deutschland-bundesliga/ma9685178/vfl-bochum_1899-hoffenheim/liveticker/", "thumbnailUrl": "https://images.tagesschau.de/image/9f8165ba-ca30-4328-b2f7-799fe3637a8c/AAABiNkNSio/AAABjwnlKNc/16x9-512.jpg", "date": "2024-04-26T20:14:03.810+02:00", "lat": 51.4816, "lon": 7.227, "intensity": 0.6, "source": "Tagesschau"}, {"title": "Haarschnitt f\u00fcr 99 Cent - Friseur spendet Einnahmen der Tafel", "url": "https://www.tagesschau.de/inland/regional/nordrheinwestfalen/wdr-haarschnitt-fuer-99-cent-friseur-spendet-einnahmen-der-tafel-102.html", "thumbnailUrl": "https://images.tagesschau.de/image/2c02785f-5ced-438b-abe6-a61102768989/AAABjxvZq-Y/AAABjwnlKNc/16x9-512.jpg", "date": "2024-04-26T20:14:00.000+02:00", "lat": 51.540657, "lon": 7.313922, "intensity": 0.6, "source": "Tagesschau"}, {"title": "Fahrradstra\u00dfe in Saarbr\u00fccker Hohenzollernstra\u00dfe wird erweitert", "url": "https://www.tagesschau.de/inland/regional/saarland/sr-fahrradstrasse-in-saarbruecker-hohenzollernstrasse-wird-erweitert-100.html", "thumbnailUrl": "https://images.tagesschau.de/image/7ab7b935-1671-4af4-a159-b87b08f20c24/AAABjxudPmQ/AAABjwnlKNc/16x9-512.jpg", "date": "2024-04-26T20:12:00.000+02:00", "lat": 49.2362, "lon": 6.9942, "intensity": 0.6, "source": "Tagesschau"}, {"title": "K\u00fcnstliche Intelligenz im Weinkeller ", "url": "https://www.tagesschau.de/inland/regional/rheinlandpfalz/swr-kuenstliche-intelligenz-im-weinkeller-104.html", "thumbnailUrl": "https://images.tagesschau.de/image/3bedf3d8-f8a0-43c8-a073-84925abc5685/AAABjxufF0I/AAABjwnlKNc/16x9-512.jpg", "date": "2024-04-26T20:11:39.000+02:00", "lat": 49.8153, "lon": 7.2669, "intensity": 0.6, "source": "Tagesschau"}, {"title": "19-J\u00e4hriger stirbt bei Unfall mit Stadtbahn in Stuttgart ", "url": "https://www.tagesschau.de/inland/regional/badenwuerttemberg/swr-19-jaehriger-stirbt-bei-unfall-mit-stadtbahn-in-stuttgart-100.html", "thumbnailUrl": "https://images.tagesschau.de/image/6dd03203-2eda-4654-960d-8bcbc2a1b52e/AAABjxuCBY8/AAABjwnlKNc/16x9-512.jpg", "date": "2024-04-26T19:59:00.000+02:00", "lat": 48.7758, "lon": 9.1267, "intensity": 0.8, "source": "Tagesschau"}, {"title": "Aufbewahrung von Beweismitteln: 274 Waffen nicht wie vorgesehen vernichtet", "url": "https://www.tagesschau.de/inland/regional/sachsenanhalt/mdr-polizist-soll-beweismittel-privat-gelagert-haben-100.html", "thumbnailUrl": "https://images.tagesschau.de/image/2433f97d-a9ce-4a29-a2e9-69773cb61d87/AAABjxmIgH4/AAABjwnlKNc/16x9-512.jpg", "date": "2024-04-26T19:56:30.000+02:00", "lat": 51.9503, "lon": 11.8575, "intensity": 0.8, "source": "Tagesschau"}, {"title": "SV Wehen Wiesbaden hofft auf den Heimspiel-Funken", "url": "https://www.tagesschau.de/inland/regional/hessen/hr-sv-wehen-wiesbaden-hofft-auf-den-heimspiel-funken-102.html", "thumbnailUrl": "https://images.tagesschau.de/image/1bc7baad-6e63-4feb-8eee-391b72fe05d8/AAABjxuQh8Q/AAABjwnlKNc/16x9-512.jpg", "date": "2024-04-26T19:55:45.065+02:00", "lat": 50.0782, "lon": 8.2398, "intensity": 0.7, "source": "Tagesschau"}, {"title": "Mehr als 700 Magen-Darm-Erkrankte in Stuttgart", "url": "https://www.tagesschau.de/inland/regional/badenwuerttemberg/norovirus-auf-stuttgarter-fruehlingsfest-stadt-grenzt-ursachen-ein-100.html", "thumbnailUrl": "https://images.tagesschau.de/image/682d53e3-6468-4417-b4cb-9c58333b6231/AAABjxZtsWk/AAABjwnlKNc/16x9-512.jpg", "date": "2024-04-26T19:43:00.000+02:00", "lat": 48.7758, "lon": 9.1829, "intensity": 0.8, "source": "Tagesschau"}, {"title": "Wetterlage und Temperaturen", "url": "https://www.tagesschau.de/wetter/europa-welt", "thumbnailUrl": "https://images.tagesschau.de/image/6e7d3b16-79c8-4308-822b-20c3035236b5/AAABjxt4uuI/AAABjwnlKNc/16x9-512.jpg", "date": "2024-04-26T19:37:29.743+02:00", "lat": 51.1657, "lon": 10.4515, "intensity": 0.3, "source": "Tagesschau"}, {"title": "Kabelklau bei der Bahn: So gro\u00df ist das Problem mit Metalldiebstahl", "url": "https://www.tagesschau.de/inland/regional/nordrheinwestfalen/wdr-kabelklau-bei-der-bahn-so-gross-ist-das-problem-mit-metalldiebstahl-100.html", "thumbnailUrl": "https://images.tagesschau.de/image/2284e67d-ae84-45e7-8ccb-3ca1add4b5b3/AAABjxt6dOU/AAABjwnlKNc/16x9-512.jpg", "date": "2024-04-26T19:32:00.000+02:00", "lat": 51.481845, "lon": 7.216236, "intensity": 0.8, "source": "Tagesschau"}, {"title": "Der Fall Arian r\u00fcckt Autismus in den Blick: Was ist das eigentlich?", "url": "https://www.tagesschau.de/inland/regional/nordrheinwestfalen/wdr-autismus-was-ist-das-eigentlich-100.html", "thumbnailUrl": "https://images.tagesschau.de/image/fa87c9b1-4a8d-4878-a4e1-ea55a275850f/AAABjxvSV6k/AAABjwnlKNc/16x9-512.jpg", "date": "2024-04-26T19:30:00.000+02:00", "lat": 51.9607, "lon": 7.6261, "intensity": 0.7, "source": "Tagesschau"}, {"title": "100-Tage-Bilanz der Landesregierung: Wie gut war der \"Kickstart\" von CDU und SPD in Hessen wirklich?", "url": "https://www.tagesschau.de/inland/regional/hessen/hr-100-tage-bilanz-der-landesregierung-wie-gut-war-der-kickstart-von-cdu-und-spd-in-hessen-wirklich-100.html", "thumbnailUrl": "https://images.tagesschau.de/image/4429d6bd-0612-450d-9685-d6793b215142/AAABjxtzJx8/AAABjwnlKNc/16x9-512.jpg", "date": "2024-04-26T19:25:20.208+02:00", "lat": 50.1109, "lon": 8.4206, "intensity": 0.6, "source": "Tagesschau"}, {"title": "Mysteri\u00f6ses Gas-Leck am Deich: Elf Menschen verletzt", "url": "https://www.tagesschau.de/inland/regional/niedersachsen/ndr-mysterioeses-gas-leck-am-deich-zwoelf-menschen-verletzt-100.html", "thumbnailUrl": "https://images.tagesschau.de/image/b71bd9f8-b41e-44f3-8602-281a011f7ea2/AAABjxqSBIU/AAABjwnlKNc/16x9-512.jpg", "date": "2024-04-26T19:25:00.000+02:00", "lat": 53.351, "lon": 7.082, "intensity": 0.8, "source": "Tagesschau"}, {"title": "Mehr als 100 Fahrr\u00e4der gestohlen: Bande zu Haftstrafen verurteilt", "url": "https://www.tagesschau.de/inland/regional/niedersachsen/ndr-mehr-als-100-fahrraeder-gestohlen-bande-zu-haftstrafen-verurteilt-100.html", "thumbnailUrl": "https://images.tagesschau.de/image/7d553fd2-1b3a-4a72-a714-042d44e6fe55/AAABjxtqBJo/AAABjwnlKNc/16x9-512.jpg", "date": "2024-04-26T19:11:00.000+02:00", "lat": 52.2799, "lon": 8.0476, "intensity": 0.8, "source": "Tagesschau"}, {"title": "Berufsorientierung mal anders: Ausbildungsplatzsuche im Riesenrad", "url": "https://www.tagesschau.de/inland/regional/niedersachsen/ndr-berufsorientierung-mal-anders-ausbildungsplatzsuche-im-riesenrad-100.html", "thumbnailUrl": "https://images.tagesschau.de/image/4f4f1396-8a1b-4c9c-86bb-873775880640/AAABjxtXthA/AAABjwnlKNc/16x9-512.jpg", "date": "2024-04-26T18:54:00.000+02:00", "lat": 51.1657, "lon": 10.4515, "intensity": 0.7, "source": "Tagesschau"}, {"title": "14-J\u00e4hriger f\u00e4hrt der Polizei wiederholt mit Auto davon", "url": "https://www.tagesschau.de/inland/regional/niedersachsen/ndr-14-jaehriger-faehrt-der-polizei-wiederholt-mit-auto-davon-100.html", "thumbnailUrl": "https://images.tagesschau.de/image/bb3ec6df-5d6c-478b-9193-e61ee0de2be2/AAABjxtOjhM/AAABjwnlKNc/16x9-512.jpg", "date": "2024-04-26T18:44:00.000+02:00", "lat": 52.9242, "lon": 9.2304, "intensity": 0.8, "source": "Tagesschau"}, {"title": "Gemeinsam in Richtung Verteidigung", "url": "https://www.tagesschau.de/ausland/europa/kampfpanzer-deutschland-frankreich-100.html", "thumbnailUrl": "https://images.tagesschau.de/image/2b5358d1-2317-4e84-bc7b-d517d41431cd/AAABjxs8x0I/AAABjwnlKNc/16x9-512.jpg", "date": "2024-04-26T18:28:39.354+02:00", "lat": 50.1109, "lon": 7.1625, "intensity": 0.8, "source": "Tagesschau"}, {"title": "Armutsfalle Scheidung: Wenn das Geld pl\u00f6tzlich nicht mehr reicht", "url": "https://www.tagesschau.de/inland/regional/schleswigholstein/ndr-armutsfalle-scheidung-wenn-das-geld-ploetzlich-nicht-mehr-reicht-100.html", "thumbnailUrl": "https://images.tagesschau.de/image/cfa8decf-bca9-419a-b972-7cd4da235c84/AAABjxuvnho/AAABjwnlKNc/16x9-512.jpg", "date": "2024-04-26T18:22:00.000+02:00", "lat": 54.4614, "lon": 9.5569, "intensity": 0.8, "source": "Tagesschau"}, {"title": "Klinik Werra in Bad-Sooden-Allendorf wird geschlossen ", "url": "https://www.tagesschau.de/inland/regional/hessen/hr-klinik-werra-in-bad-sooden-allendorf-wird-geschlossen-100.html", "thumbnailUrl": "https://images.tagesschau.de/image/55243cc7-5d77-42ce-bc13-51993ebc37da/AAABjxsxQ_0/AAABjwnlKNc/16x9-512.jpg", "date": "2024-04-26T18:15:35.028+02:00", "lat": 51.2121, "lon": 9.9982, "intensity": 0.8, "source": "Tagesschau"}, {"title": "Bundestag beschlie\u00dft Reform des Klimaschutzgesetzes", "url": "https://www.tagesschau.de/inland/bundestag-klimaschutzgesetz-102.html", "thumbnailUrl": "https://images.tagesschau.de/image/7b6530d5-a2f2-4ae5-96bb-3796e63dc6fe/AAABjxoiNoI/AAABjwnlKNc/16x9-512.jpg", "date": "2024-04-26T18:14:17.045+02:00", "lat": 52.5166, "lon": 13.3769, "intensity": 0.8, "source": "Tagesschau"}, {"title": "Viele Sperrungen f\u00fcr Hamburg-Marathon 2024 am Sonntag", "url": "https://www.tagesschau.de/inland/regional/hamburg/ndr-viele-sperrungen-fuer-hamburg-marathon-2024-am-sonntag-100.html", "thumbnailUrl": "https://images.tagesschau.de/image/3902c843-3b21-45dd-a479-1aab1cd53280/AAABjxsvaPI/AAABjwnlKNc/16x9-512.jpg", "date": "2024-04-26T18:13:00.000+02:00", "lat": 53.5511, "lon": 9.9937, "intensity": 0.7, "source": "Tagesschau"}, {"title": "Die ewigen Rivalen: F\u00fcnf besondere Final-Duelle zwischen den BR Volleys und Friedrichshafen", "url": "https://www.tagesschau.de/inland/regional/berlin/rbb-die-ewigen-rivalen-fuenf-besondere-final-duelle-zwischen-den-br-volleys-und-friedrichshafen-102.html", "thumbnailUrl": "https://images.tagesschau.de/image/cbe0f631-dc7f-4444-8dfe-dca745f9b2d5/AAABjxsrw5o/AAABjwnlKNc/16x9-512.jpg", "date": "2024-04-26T18:07:40.000+02:00", "lat": 52.520008, "lon": 13.404954, "intensity": 0.8, "source": "Tagesschau"}, {"title": "Nahverkehr in Berlin: Nachfrage bei BVG dank Deutschlandticket wieder auf Vor-Corona-Niveau ", "url": "https://www.tagesschau.de/inland/regional/berlin/rbb-nahverkehr-in-berlin-nachfrage-bei-bvg-dank-deutschlandticket-wieder-auf-vor-corona-niveau-100.html", "thumbnailUrl": "https://images.tagesschau.de/image/eb3b960c-c924-43b0-85db-d67a02d99db9/AAABjxsoGTA/AAABjwnlKNc/16x9-512.jpg", "date": "2024-04-26T18:00:51.000+02:00", "lat": 52.520008, "lon": 13.404954, "intensity": 0.8, "source": "Tagesschau"}, {"title": "Galeria will 16 statt \u00fcber 20 Filialen schlie\u00dfen", "url": "https://www.tagesschau.de/inland/regional/nordrheinwestfalen/wdr-galeria-will-16-statt-ueber-20-filialen-schliessen-100.html", "thumbnailUrl": "https://images.tagesschau.de/image/4e2ffc92-c501-49f6-a474-fb8ae18ee743/AAABjxuBx-Y/AAABjwnlKNc/16x9-512.jpg", "date": "2024-04-26T17:50:00.000+02:00", "lat": 51.8133, "lon": 7.6261, "intensity": 0.8, "source": "Tagesschau"}, {"title": "Die Landesgartenschau in Wangen ist offiziell er\u00f6ffnet", "url": "https://www.tagesschau.de/inland/regional/badenwuerttemberg/swr-die-landesgartenschau-in-wangen-ist-offiziell-eroeffnet-100.html", "thumbnailUrl": "https://images.tagesschau.de/image/88e747cf-d6d2-4577-8ede-2857b8c0df39/AAABjxmj6RA/AAABjwnlKNc/16x9-512.jpg", "date": "2024-04-26T17:50:00.000+02:00", "lat": 47.6928, "lon": 9.8275, "intensity": 0.5, "source": "Tagesschau"}, {"title": "W\u00e4rmepumpen: Wann kommt der Markt in Gang?", "url": "https://www.tagesschau.de/inland/regional/niedersachsen/ndr-waermepumpen-wann-kommt-der-markt-in-gang-100.html", "thumbnailUrl": "https://images.tagesschau.de/image/07ab1509-855a-4d5c-9949-9e017249c7cf/AAABjxsbTBk/AAABjwnlKNc/16x9-512.jpg", "date": "2024-04-26T17:50:00.000+02:00", "lat": 52.3759, "lon": 9.7833, "intensity": 0.5, "source": "Tagesschau"}, {"title": "Union Berlin zu Gast in M\u00f6nchengladbach: Ein Schl\u00fcsselspiel im Abstiegskampf", "url": "https://www.tagesschau.de/inland/regional/berlin/rbb-union-berlin-zu-gast-in-moenchengladbach-ein-schluesselspiel-im-abstiegskampf-102.html", "thumbnailUrl": "https://images.tagesschau.de/image/213a24f9-e7c3-4dab-bf73-d9c86a120c80/AAABjxsZgp4/AAABjwnlKNc/16x9-512.jpg", "date": "2024-04-26T17:48:52.000+02:00", "lat": 51.1612, "lon": 6.4358, "intensity": 0.8, "source": "Tagesschau"}, {"title": "Landtag in MV debattiert \u00fcber Schwesigs Osterhasen", "url": "https://www.tagesschau.de/inland/regional/mecklenburgvorpommern/ndr-landtag-in-mv-debattiert-ueber-schwesigs-ostenhasen-100.html", "thumbnailUrl": "https://images.tagesschau.de/image/16bd0ab2-2842-42cf-b381-74c454654226/AAABjxtFWmo/AAABjwnlKNc/16x9-512.jpg", "date": "2024-04-26T17:45:00.000+02:00", "lat": 53.6127, "lon": 13.3639, "intensity": 0.3, "source": "Tagesschau"}, {"title": "Fristverk\u00fcrzungsbitten auf niedrigstem Stand seit 2019", "url": "https://www.tagesschau.de/inland/innenpolitik/fristen-bundestag-100.html", "thumbnailUrl": "https://images.tagesschau.de/image/2d9a3857-a7b9-47b8-a09e-6bbb9dfa6911/AAABhnQEvW8/AAABjwnlKNc/16x9-512.jpg", "date": "2024-04-26T17:38:53.191+02:00", "lat": 52.52, "lon": 9.048, "intensity": 0.5, "source": "Tagesschau"}, {"title": "Frau bei Wohnungsbrand in Berlin-Sch\u00f6neberg lebensgef\u00e4hrlich verletzt", "url": "https://www.tagesschau.de/inland/regional/berlin/rbb-sieben-menschen-bei-wohnungsbrand-in-berlin-schoeneberg-verletzt-100.html", "thumbnailUrl": "https://images.tagesschau.de/image/7e175f59-d9f1-4183-9838-2dcd502408eb/AAABjxsKy_c/AAABjwnlKNc/16x9-512.jpg", "date": "2024-04-26T17:31:46.000+02:00", "lat": 52.4986, "lon": 13.3524, "intensity": 0.8, "source": "Tagesschau"}, {"title": "Henry and the Waiter: Newcomer aus Frankfurt erobert Spotify", "url": "https://www.tagesschau.de/inland/regional/hessen/hr-henry-and-the-waiter-newcomer-aus-frankfurt-erobert-spotify-100.html", "thumbnailUrl": "https://images.tagesschau.de/image/0da84167-c169-41e3-8afa-c55ea0a3b309/AAABjxsFWeE/AAABjwnlKNc/16x9-512.jpg", "date": "2024-04-26T17:27:01.202+02:00", "lat": 50.1109, "lon": 8.6821, "intensity": 0.8, "source": "Tagesschau"}, {"title": "Entscheidung bei Galeria: Filialschlie\u00dfungen werden am Samstag verk\u00fcndet", "url": "https://www.tagesschau.de/inland/regional/saarland/sr-entscheidung-ueber-zukunft-von-galeria-karstadt-kaufhof-gefallen-100.html", "thumbnailUrl": "https://images.tagesschau.de/image/c3041204-46f1-4b6a-809e-114dc70ae437/AAABjxsVvVw/AAABjwnlKNc/16x9-512.jpg", "date": "2024-04-26T17:26:00.000+02:00", "lat": 49.2354, "lon": 6.9742, "intensity": 0.8, "source": "Tagesschau"}, {"title": "Schwerer Lkw-Unfall auf der A30", "url": "https://www.tagesschau.de/inland/regional/nordrheinwestfalen/wdr-schwerer-lkw-unfall-auf-der-a30-100.html", "thumbnailUrl": "https://images.tagesschau.de/image/b5057d1d-427a-4d79-b20c-dbf7c53c92d6/AAABjxt2ztY/AAABjwnlKNc/16x9-512.jpg", "date": "2024-04-26T17:23:00.000+02:00", "lat": 52.2381, "lon": 7.7495, "intensity": 0.8, "source": "Tagesschau"}, {"title": "Polizei verbietet Protestcamp am Kanzleramt", "url": "https://www.tagesschau.de/inland/regional/berlin/propalaestinensisches-protestcamp-kanzleramt-100.html", "thumbnailUrl": "https://images.tagesschau.de/image/11dbbac9-748b-432e-baf0-f9d44044f3f7/AAABjxocruA/AAABjwnlKNc/16x9-512.jpg", "date": "2024-04-26T17:21:33.000+02:00", "lat": 52.520008, "lon": 13.369325, "intensity": 0.8, "source": "Tagesschau"}, {"title": "Nach Rekord-Bargeldfund in Hanau: Angeklagte kommen wegen neuem Cannabisgesetz frei", "url": "https://www.tagesschau.de/inland/regional/hessen/hr-nach-rekord-bargeldfund-in-hanau-angeklagte-kommen-wegen-neuem-cannabisgesetz-frei-100.html", "thumbnailUrl": "https://images.tagesschau.de/image/193ddf73-7e9f-42de-aa4e-060979e429be/AAABjxr_zus/AAABjwnlKNc/16x9-512.jpg", "date": "2024-04-26T17:21:24.121+02:00", "lat": 50.1264, "lon": 8.9143, "intensity": 0.8, "source": "Tagesschau"}, {"title": "So reagiert die Sparkasse auf gesprengte Geldautomaten in der Rheinebene", "url": "https://www.tagesschau.de/inland/regional/badenwuerttemberg/swr-so-reagiert-die-sparkasse-auf-gesprengte-geldautomaten-in-der-rheinebene-100.html", "thumbnailUrl": "https://images.tagesschau.de/image/89880cb4-a179-4de0-ba7c-b3e5bb938830/AAABjxsMpWQ/AAABjwnlKNc/16x9-512.jpg", "date": "2024-04-26T17:15:00.000+02:00", "lat": 47.9455, "lon": 7.6056, "intensity": 0.8, "source": "Tagesschau"}, {"title": "Berliner Sommerb\u00e4der starten in Saison - Ausweispflicht gilt weiterhin", "url": "https://www.tagesschau.de/inland/regional/berlin/rbb-berliner-sommerbaeder-starten-in-saison-ausweispflicht-gilt-weiterhin-100.html", "thumbnailUrl": "https://images.tagesschau.de/image/fac695ff-68fb-405e-81c4-01ae7e7b3f44/AAABjxr4fd8/AAABjwnlKNc/16x9-512.jpg", "date": "2024-04-26T17:12:33.000+02:00", "lat": 52.52, "lon": 13.405, "intensity": 0.6, "source": "Tagesschau"}, {"title": "Vechta: Hoher Schaden nach Kellerbrand in Mehrfamilienhaus", "url": "https://www.tagesschau.de/inland/regional/niedersachsen/ndr-brand-in-mehrfamilienhaus-loest-grosseinsatz-der-feuerwehr-aus-100.html", "thumbnailUrl": "https://images.tagesschau.de/image/3ef2d990-8370-45b2-8c4e-bff4cabb4e4c/AAABjxrtrlY/AAABjwnlKNc/16x9-512.jpg", "date": "2024-04-26T17:00:00.000+02:00", "lat": 52.7303, "lon": 8.2864, "intensity": 0.7, "source": "Tagesschau"}, {"title": "Waren Durchsuchungen bei HWK-Pr\u00e4sident Wegner rechtens?", "url": "https://www.tagesschau.de/inland/regional/saarland/sr-verfassungsgerichtshof-verhandelt-ueber-untreue-vorwuerfe-bei-hwk-saar-100.html", "thumbnailUrl": "https://images.tagesschau.de/image/03dcceae-1630-4609-bb55-744e63676654/AAABjxiwpGI/AAABjwnlKNc/16x9-512.jpg", "date": "2024-04-26T16:52:00.000+02:00", "lat": 49.3964, "lon": 6.8714, "intensity": 0.5, "source": "Tagesschau"}, {"title": "Hamburg-Marathon: Melderekord und Party-Stimmung", "url": "https://www.tagesschau.de/inland/regional/hamburg/ndr-hamburg-marathon-melderekord-und-party-stimmung-102.html", "thumbnailUrl": "https://images.tagesschau.de/image/f47d26ec-9118-481b-95b6-0f35937bb9ae/AAABjxsva3o/AAABjwnlKNc/16x9-512.jpg", "date": "2024-04-26T16:52:00.000+02:00", "lat": 53.5511, "lon": 9.9937, "intensity": 0.8, "source": "Tagesschau"}, {"title": "Strategie f\u00fcr die AfD aus dem Kreml?", "url": "https://www.tagesschau.de/inland/innenpolitik/kreml-strategiepapier-afd-100.html", "thumbnailUrl": "https://images.tagesschau.de/image/21bf3cb5-8154-448d-ba79-4c3d337a13c0/AAABio6MuMk/AAABjwnlKNc/16x9-512.jpg", "date": "2024-04-26T16:48:00.804+02:00", "lat": 55.7558, "lon": 37.6176, "intensity": 0.8, "source": "Tagesschau"}, {"title": "Kritik an Zust\u00e4nden in Leipziger Notunterkunft f\u00fcr Gefl\u00fcchtete", "url": "https://www.tagesschau.de/inland/regional/sachsen/mdr-kritik-an-zustaenden-in-leipziger-notunterkunft-fuer-gefluechtete-100.html", "thumbnailUrl": "https://images.tagesschau.de/image/842f0a5c-609a-4bab-b0e5-101012db958e/AAABjxxbzHM/AAABjwnlKNc/16x9-512.jpg", "date": "2024-04-26T16:34:40.000+02:00", "lat": 51.3436, "lon": 12.3871, "intensity": 0.8, "source": "Tagesschau"}, {"title": "Wer ist der tschechische Milliard\u00e4r Kretinsky?", "url": "https://www.tagesschau.de/wirtschaft/unternehmen/thyssenkrupp-portrait-kretinsky-100.html", "thumbnailUrl": "https://images.tagesschau.de/image/0c6fb3b2-6772-4a16-a945-d6582421d350/AAABjxnH3KQ/AAABjwnlKNc/16x9-512.jpg", "date": "2024-04-26T16:33:36.311+02:00", "lat": 51.462852, "lon": 7.123031, "intensity": 0.8, "source": "Tagesschau"}, {"title": "Frau mit Eisenstange get\u00f6tet: T\u00e4ter aus Trier muss mehr als vier Jahre in Haft", "url": "https://www.tagesschau.de/inland/regional/rheinlandpfalz/swr-frau-mit-eisenstange-getoetet-taeter-aus-trier-muss-mehr-als-vier-jahre-in-haft-100.html", "thumbnailUrl": "https://images.tagesschau.de/image/8d5607e4-2435-4c36-837b-f5739189d88e/AAABjxrn_uY/AAABjwnlKNc/16x9-512.jpg", "date": "2024-04-26T16:30:00.000+02:00", "lat": 49.7499, "lon": 6.6413, "intensity": 0.8, "source": "Tagesschau"}, {"title": "Projekt der Uni Marburg: K\u00fcnstliche Intelligenz kann Infektionsursachen erkennen", "url": "https://www.tagesschau.de/inland/regional/hessen/hr-projekt-der-universitaet-marburg-kuenstliche-intelligenz-kann-infektionsursachen-erkennen-100.html", "thumbnailUrl": "https://images.tagesschau.de/image/e829353d-b6ed-4bef-ac6d-567e6b09359c/AAABjxrXgv0/AAABjwnlKNc/16x9-512.jpg", "date": "2024-04-26T16:29:40.255+02:00", "lat": 50.808678, "lon": 8.769983, "intensity": 0.7, "source": "Tagesschau"}, {"title": "Dieselskandal: Rekordstrafe f\u00fcr Continental", "url": "https://www.tagesschau.de/inland/regional/niedersachsen/ndr-dieselskandal-rekordstrafe-fuer-continental-100.html", "thumbnailUrl": "https://images.tagesschau.de/image/3ca3b485-af83-4a89-85f2-6db6011ce29c/AAABjxVXf_k/AAABjwnlKNc/16x9-512.jpg", "date": "2024-04-26T16:28:00.000+02:00", "lat": 51.1657, "lon": 10.4234, "intensity": 0.8, "source": "Tagesschau"}, {"title": "In elf Superm\u00e4rkten entdecktes Kokain hat Gesamtwert von bis zu 15 Millionen Euro", "url": "https://www.tagesschau.de/inland/regional/brandenburg/rbb-drogenfund-entdecktes-kokain-in-bananenkisten-hat-bis-zu-15-millionen-euro-wert-100.html", "thumbnailUrl": "https://images.tagesschau.de/image/a6edb5a1-3576-4b84-a6ec-9e27c5305346/AAABjxrOZlE/AAABjwnlKNc/16x9-512.jpg", "date": "2024-04-26T16:26:02.000+02:00", "lat": 52.520008, "lon": 13.404954, "intensity": 0.8, "source": "Tagesschau"}, {"title": "B\u00fcrgerbefragung zum Tempelhofer Feld ist gestartet", "url": "https://www.tagesschau.de/inland/regional/berlin/rbb-buergerbefragung-zum-tempelhofer-feld-ist-gestartet-100.html", "thumbnailUrl": "https://images.tagesschau.de/image/19aa61ba-f93f-48ea-8c0c-176de26419a3/AAABjxrOyGY/AAABjwnlKNc/16x9-512.jpg", "date": "2024-04-26T16:23:55.000+02:00", "lat": 52.4825, "lon": 13.4229, "intensity": 0.7, "source": "Tagesschau"}, {"title": "Erneuter Warnstreik bei der Telekom", "url": "https://www.tagesschau.de/inland/regional/saarland/sr-erneuter-warnstreik-bei-der-telekom-100.html", "thumbnailUrl": "https://images.tagesschau.de/image/99c15162-ff2f-4dac-a8e3-de32d9313a5d/AAABjxrI1v0/AAABjwnlKNc/16x9-512.jpg", "date": "2024-04-26T16:21:00.000+02:00", "lat": 49.3964, "lon": 6.9538, "intensity": 0.7, "source": "Tagesschau"}, {"title": "Weitere tote Schafe: Experte spricht von \"Tradition\" beim Wolf", "url": "https://www.tagesschau.de/inland/regional/mecklenburgvorpommern/ndr-drei-tote-tiere-wolf-reisst-vermutlich-wieder-schafe-in-ehmkendorf-100.html", "thumbnailUrl": "https://images.tagesschau.de/image/87f34753-a59e-4894-9dee-21cece670e69/AAABjxrbKJk/AAABjwnlKNc/16x9-512.jpg", "date": "2024-04-26T16:20:00.000+02:00", "lat": 53.6121, "lon": 12.3652, "intensity": 0.7, "source": "Tagesschau"}, {"title": "Mutma\u00dflicher chinesischer Spion bot sich BND an", "url": "https://www.tagesschau.de/investigativ/hsb/spionage-china-bnd-verfassungsschutz-100.html", "thumbnailUrl": "https://images.tagesschau.de/image/54f18490-e971-46d5-a953-225410a50af5/AAABjCDrDI4/AAABjwnlKNc/16x9-512.jpg", "date": "2024-04-26T16:19:56.852+02:00", "lat": 52.52, "lon": 13.3888, "intensity": 0.8, "source": "Tagesschau"}, {"title": "Bundesverdienstkreuz f\u00fcr K\u00f6lner Familienh\u00f6rbuch-Erfinderin", "url": "https://www.tagesschau.de/inland/regional/nordrheinwestfalen/wdr-bundesverdienstkreuz-fuer-koelner-familienhoerbuch-erfinderin-100.html", "thumbnailUrl": "https://images.tagesschau.de/image/380ae3ea-24dd-4e39-81e3-23507b75e452/AAABjxsQRcY/AAABjwnlKNc/16x9-512.jpg", "date": "2024-04-26T16:14:00.000+02:00", "lat": 50.9375, "lon": 6.9584, "intensity": 0.8, "source": "Tagesschau"}, {"title": "Neubrandenburg: \"Power-to-Heat\" soll Windkraft besser aussch\u00f6pfen", "url": "https://www.tagesschau.de/inland/regional/mecklenburgvorpommern/ndr-neubrandenburg-power-to-heat-soll-windkraft-besser-ausschoepfen-100.html", "thumbnailUrl": "https://images.tagesschau.de/image/39756800-65a9-48f3-9b96-c9708745407b/AAABjxr0y1s/AAABjwnlKNc/16x9-512.jpg", "date": "2024-04-26T16:10:00.000+02:00", "lat": 53.557, "lon": 13.2601, "intensity": 0.8, "source": "Tagesschau"}, {"title": "Film-Saga: \"Star Wars\"-Ausstellung gastiert in Berlin", "url": "https://www.tagesschau.de/inland/regional/berlin/rbb-film-saga-star-wars-fan-ausstellung-gastiert-in-berlin-100.html", "thumbnailUrl": "https://images.tagesschau.de/image/0fcf790b-69d7-4e5c-a6fc-d6b41468e0e1/AAABjxq8HLc/AAABjwnlKNc/16x9-512.jpg", "date": "2024-04-26T16:07:10.000+02:00", "lat": 52.520008, "lon": 13.404954, "intensity": 0.6, "source": "Tagesschau"}, {"title": "Boom-Region: Was Osthessen wirtschaftlich so erfolgreich macht ", "url": "https://www.tagesschau.de/inland/regional/hessen/hr-boom-region-was-osthessen-wirtschaftlich-so-erfolgreich-macht-100.html", "thumbnailUrl": "https://images.tagesschau.de/image/e2ec82ab-cb1e-42fa-a794-5b564210a5f3/AAABjxq6UH0/AAABjwnlKNc/16x9-512.jpg", "date": "2024-04-26T16:04:25.327+02:00", "lat": 50.5, "lon": 9.7, "intensity": 0.8, "source": "Tagesschau"}, {"title": "Gewalt bei Fu\u00dfballspielen: DFL muss in NRW nicht f\u00fcr Polizeieins\u00e4tze zahlen", "url": "https://www.tagesschau.de/inland/regional/nordrheinwestfalen/wdr-gewalt-bei-fussballspielen-dfl-muss-in-nrw-nicht-fuer-polizeieinsaetze-zahlen-100.html", "thumbnailUrl": "https://images.tagesschau.de/image/1c46ee4f-ef26-4a26-92ed-46ed22f2bf53/AAABjxuUFi4/AAABjwnlKNc/16x9-512.jpg", "date": "2024-04-26T16:03:00.000+02:00", "lat": 51.4623, "lon": 7.6261, "intensity": 0.8, "source": "Tagesschau"}, {"title": "Beim W\u00e4rmepumpen-Hersteller ist es still geworden", "url": "https://www.tagesschau.de/wirtschaft/energie/waermepumpen-stiebel-eltron-heizung-100.html", "thumbnailUrl": "https://images.tagesschau.de/image/0b04d6df-46ad-433b-9e75-7470e4f52a22/AAABjxqHSxY/AAABjwnlKNc/16x9-512.jpg", "date": "2024-04-26T16:00:08.534+02:00", "lat": 51.529086, "lon": 9.959657, "intensity": 0.7, "source": "Tagesschau"}, {"title": "Nach Tod von zwei Patienten: Herzmediziner der Charit\u00e9 zu vier Jahren Haft verurteilt", "url": "https://www.tagesschau.de/inland/regional/berlin/rbb-herzmediziner-der-charit-nach-tod-von-zwei-patienten-zu-haftstrafe-verurteilt-100.html", "thumbnailUrl": "https://images.tagesschau.de/image/cebc266a-7c65-4d08-a067-277f5ed7bb04/AAABjxrOaaM/AAABjwnlKNc/16x9-512.jpg", "date": "2024-04-26T15:57:10.000+02:00", "lat": 52.52, "lon": 13.3696, "intensity": 0.8, "source": "Tagesschau"}, {"title": "Filmemacher Michael Verhoeven gestorben ", "url": "https://www.tagesschau.de/inland/regional/berlin/rbb-filmemacher-michael-verhoeven-gestorben-102.html", "thumbnailUrl": "https://images.tagesschau.de/image/173b6882-bb26-49fd-8ffb-56a639c2f71d/AAABjxpBcDU/AAABjwnlKNc/16x9-512.jpg", "date": "2024-04-26T15:53:06.000+02:00", "lat": 52.520008, "lon": 13.404954, "intensity": 0.8, "source": "Tagesschau"}, {"title": "Gefechts\u00fcbungszentrum Gardelegen: Diskussion um weiteren Betrieb", "url": "https://www.tagesschau.de/inland/regional/sachsenanhalt/mdr-gefechtsuebungszentrum-gardelegen-diskussion-um-weiteren-betrieb-100.html", "thumbnailUrl": "https://images.tagesschau.de/image/4a001afe-f8bf-43bf-8e32-cdcc40e6fb4f/AAABjxxYEG0/AAABjwnlKNc/16x9-512.jpg", "date": "2024-04-26T15:51:50.000+02:00", "lat": 52.52, "lon": 11.3917, "intensity": 0.6, "source": "Tagesschau"}, {"title": "Mehr Migranten kommen nach Irland", "url": "https://www.tagesschau.de/ausland/europa/irland-fluechtlinge-grossbritannien-ruanda-100.html", "thumbnailUrl": "https://images.tagesschau.de/image/7739ea58-2c8d-4beb-b903-0c548e00adb1/AAABjxqO8n0/AAABjwnlKNc/16x9-512.jpg", "date": "2024-04-26T15:50:46.192+02:00", "lat": 53.3498, "lon": -6.2603, "intensity": 0.8, "source": "Tagesschau"}, {"title": "Fristlos gek\u00fcndigte Lehrerin lehnt Vergleich ab", "url": "https://www.tagesschau.de/inland/regional/sachsenanhalt/mdr-fristlos-gekuendigte-lehrerin-lehnt-vergleich-ab-100.html", "thumbnailUrl": "https://images.tagesschau.de/image/1146dfce-bba3-4459-9d89-6db45c5a4794/AAABjxxYmeI/AAABjwnlKNc/16x9-512.jpg", "date": "2024-04-26T15:48:32.000+02:00", "lat": 52.6121, "lon": 11.8561, "intensity": 0.6, "source": "Tagesschau"}, {"title": "Rostock: Haftstrafe f\u00fcr Ex-Polizisten wegen Kinderpornographie", "url": "https://www.tagesschau.de/inland/regional/mecklenburgvorpommern/ndr-rostock-haftstrafe-fuer-ex-polizisten-wegen-kinderpornographie-100.html", "thumbnailUrl": "https://images.tagesschau.de/image/ac7a5c6f-c786-4ab6-bf86-52f8a7e8af04/AAABjxq6M4M/AAABjwnlKNc/16x9-512.jpg", "date": "2024-04-26T15:45:00.000+02:00", "lat": 54.081, "lon": 12.099, "intensity": 0.7, "source": "Tagesschau"}, {"title": "Darmstadt 98 kann jetzt nur noch die Stilfrage gewinnen", "url": "https://www.tagesschau.de/inland/regional/hessen/hr-darmstadt-98-kann-jetzt-nur-noch-die-stilfrage-gewinnen-102.html", "thumbnailUrl": "https://images.tagesschau.de/image/f8ec575f-a944-4534-9ec9-d40ef01ac034/AAABjxrKtf4/AAABjwnlKNc/16x9-512.jpg", "date": "2024-04-26T15:42:29.051+02:00", "lat": 49.8728, "lon": 8.6512, "intensity": 0.3, "source": "Tagesschau"}, {"title": "Anbaden in Hannover: Freib\u00e4der starten in die Saison 2024", "url": "https://www.tagesschau.de/inland/regional/niedersachsen/ndr-anbaden-in-hannover-100.html", "thumbnailUrl": "https://images.tagesschau.de/image/2e3048c9-fd68-4c8d-ad45-aad79df6c9eb/AAABjxqmF9U/AAABjwnlKNc/16x9-512.jpg", "date": "2024-04-26T15:41:00.000+02:00", "lat": 52.37589, "lon": 9.73322, "intensity": 0.6, "source": "Tagesschau"}, {"title": "Bundesrat fordert Verbesserungen beim BAf\u00f6G", "url": "https://www.tagesschau.de/inland/gesellschaft/bafoeg-bundesrat-104.html", "thumbnailUrl": "https://images.tagesschau.de/image/246e0551-aeb8-43de-b60d-7ee9177ce0c3/AAABjxqhJ7M/AAABjwnlKNc/16x9-512.jpg", "date": "2024-04-26T15:38:40.436+02:00", "lat": 52.37392, "lon": 9.73322, "intensity": 0.6, "source": "Tagesschau"}, {"title": "Kurhessische Kirche trennt sich von 30 Prozent der Kirchen-Geb\u00e4ude", "url": "https://www.tagesschau.de/inland/regional/hessen/hr-kurhessische-kirche-trennt-sich-von-30-prozent-der-kirchen-gebaeude-100.html", "thumbnailUrl": "https://images.tagesschau.de/image/b2394ba9-df52-43d4-a6a1-30b01d701839/AAABjxqglRQ/AAABjwnlKNc/16x9-512.jpg", "date": "2024-04-26T15:35:47.646+02:00", "lat": 51.1657, "lon": 9.4306, "intensity": 0.7, "source": "Tagesschau"}, {"title": "Sommerfahrplan gestartet: Mehr Z\u00fcge fahren auf den Brocken", "url": "https://www.tagesschau.de/inland/regional/sachsenanhalt/mdr-sommerfahrplan-gestartet-mehr-zuege-fahren-auf-den-brocken-100.html", "thumbnailUrl": "https://images.tagesschau.de/image/aa1a412e-92fb-440d-8407-e29cf78b8ade/AAABjxxYO9s/AAABjwnlKNc/16x9-512.jpg", "date": "2024-04-26T15:30:57.000+02:00", "lat": 51.7997, "lon": 11.0333, "intensity": 0.7, "source": "Tagesschau"}, {"title": "Gegenseitige Vorw\u00fcrfe in Chefetage: Pr\u00e4sident des SC Potsdam tritt zur\u00fcck", "url": "https://www.tagesschau.de/inland/regional/brandenburg/rbb-gegenseitige-vorwuerfe-in-chefetage-praesident-des-sc-potsdam-tritt-zurueck-102.html", "thumbnailUrl": "https://images.tagesschau.de/image/a0e20c79-2206-4665-bf16-bc416190be6d/AAABjxqbGWo/AAABjwnlKNc/16x9-512.jpg", "date": "2024-04-26T15:28:49.000+02:00", "lat": 52.3906, "lon": 13.0645, "intensity": 0.8, "source": "Tagesschau"}, {"title": "Vorf\u00e4lle im Derby bei 96: Fast 200.000 Euro Geldstrafe f\u00fcr Eintracht Braunschweig", "url": "https://www.tagesschau.de/inland/regional/niedersachsen/ndr-vorfaelle-im-derby-bei-96-fast-200-000-euro-geldstrafe-fuer-eintracht-braunschweig-102.html", "thumbnailUrl": "https://images.tagesschau.de/image/d00f9982-1015-4b68-a581-9a6f2c4f3768/AAABjxrikvY/AAABjwnlKNc/16x9-512.jpg", "date": "2024-04-26T15:27:00.000+02:00", "lat": 52.3759, "lon": 9.853, "intensity": 0.8, "source": "Tagesschau"}, {"title": "Stadt Mainz organisiert Schulbuchausleihe selbst", "url": "https://www.tagesschau.de/inland/regional/rheinlandpfalz/swr-stadt-mainz-organisiert-schulbuchausleihe-selbst-100.html", "thumbnailUrl": "https://images.tagesschau.de/image/6ba223de-4daf-4604-b0ed-b4d0ef811e2b/AAABjxqn4zo/AAABjwnlKNc/16x9-512.jpg", "date": "2024-04-26T15:18:12.000+02:00", "lat": 49.9928617, "lon": 8.2472526, "intensity": 0.7, "source": "Tagesschau"}, {"title": "Neuer Blitzer: \"Kristina\" soll Raser vor Kinderg\u00e4rten bremsen", "url": "https://www.tagesschau.de/inland/regional/niedersachsen/ndr-neuer-blitzer-kristina-knippst-vorm-kindergarten-100.html", "thumbnailUrl": "https://images.tagesschau.de/image/81a73e9d-3837-4561-917a-5e1cfe420161/AAABjxqDo_g/AAABjwnlKNc/16x9-512.jpg", "date": "2024-04-26T15:04:00.000+02:00", "lat": 52.3075, "lon": 7.1625, "intensity": 0.6, "source": "Tagesschau"}, {"title": "Kritik aus Hamburg an Gesetzentwurf zum Einsatz von V-Leuten", "url": "https://www.tagesschau.de/inland/regional/hamburg/ndr-kritik-aus-hamburg-an-gesetzentwurf-zum-einsatz-von-v-leuten-100.html", "thumbnailUrl": "https://images.tagesschau.de/image/725aff6e-dfb6-4ab5-a027-526f323b9138/AAABjxqG-rA/AAABjwnlKNc/16x9-512.jpg", "date": "2024-04-26T15:03:00.000+02:00", "lat": 53.5511, "lon": 9.9937, "intensity": 0.8, "source": "Tagesschau"}, {"title": "Milliard\u00e4r Kretinsky steigt bei Thyssenkrupp ein", "url": "https://www.tagesschau.de/inland/regional/nordrheinwestfalen/wdr-milliardaer-kretinsky-steigt-bei-thyssenkrupp-ein-100.html", "thumbnailUrl": "https://images.tagesschau.de/image/90c56569-fb48-4e5f-978e-92fcf8d63ef1/AAABjxu8Xy0/AAABjwnlKNc/16x9-512.jpg", "date": "2024-04-26T15:02:00.000+02:00", "lat": 51.4556, "lon": 7.0111, "intensity": 0.8, "source": "Tagesschau"}, {"title": "Soldaten aus Sanitz mit Patriot-System bei NATO-\u00dcbung in Finnland", "url": "https://www.tagesschau.de/inland/regional/mecklenburgvorpommern/ndr-soldaten-aus-sanitz-mit-patriot-system-bei-nato-uebung-in-finnland-100.html", "thumbnailUrl": "https://images.tagesschau.de/image/1f6ee805-3430-41a4-b121-fbe897cd822e/AAABjxlKK-8/AAABjwnlKNc/16x9-512.jpg", "date": "2024-04-26T15:00:00.000+02:00", "lat": 61.92411, "lon": 25.748152, "intensity": 0.8, "source": "Tagesschau"}, {"title": "Duldung bis zum Jahresende: Fleischer aus Spremberg wird vorerst nicht abgeschoben", "url": "https://www.tagesschau.de/inland/regional/brandenburg/rbb-duldung-bis-zum-jahresende-fleischer-aus-spremberg-wird-vorerst-nicht-abgeschoben-100.html", "thumbnailUrl": "https://images.tagesschau.de/image/b24c3e3c-d1a8-494d-b751-30d453cafeba/AAABjxp791w/AAABjwnlKNc/16x9-512.jpg", "date": "2024-04-26T14:55:33.000+02:00", "lat": 51.5688, "lon": 14.3816, "intensity": 0.3, "source": "Tagesschau"}, {"title": "Suche nach vermisstem Jungen geht weiter", "url": "https://www.tagesschau.de/inland/regional/niedersachsen/suche-junge-niedersachsen-100.html", "thumbnailUrl": "https://images.tagesschau.de/image/42ca2481-5033-4360-8c73-f55f2b1c1c81/AAABjxqDZJ0/AAABjwnlKNc/16x9-512.jpg", "date": "2024-04-26T14:51:53.522+02:00", "lat": 52.3739, "lon": 9.7347, "intensity": 0.8, "source": "Tagesschau"}, {"title": "Wetter in Hessen: Nach dem Frost kommt der Fr\u00fchling zur\u00fcck \u2013 mit Saharastaub", "url": "https://www.tagesschau.de/inland/regional/hessen/hr-wetter-in-hessen-nach-dem-frost-kommt-der-fruehling-zurueck--mit-saharastaub-100.html", "thumbnailUrl": "https://images.tagesschau.de/image/b55b30c3-a92f-413a-bddd-1737c077be3e/AAABjxp2l1E/AAABjwnlKNc/16x9-512.jpg", "date": "2024-04-26T14:51:10.425+02:00", "lat": 50.6521, "lon": 9.2558, "intensity": 0.6, "source": "Tagesschau"}, {"title": "Weinbauern setzt Frost zu ", "url": "https://www.tagesschau.de/wirtschaft/weinbauern-frost-millionenschaeden-100.html", "thumbnailUrl": "https://images.tagesschau.de/image/6307f936-4e05-48f5-ad86-b17e92c80491/AAABjxn8kxg/AAABjwnlKNc/16x9-512.jpg", "date": "2024-04-26T14:42:15.017+02:00", "lat": 48.5801, "lon": 7.4735, "intensity": 0.8, "source": "Tagesschau"}, {"title": "Stadt Langen k\u00e4mpft um Anschluss an Regionaltangente West", "url": "https://www.tagesschau.de/inland/regional/hessen/hr-stadt-langen-kaempft-um-anschluss-an-regionaltangente-west-100.html", "thumbnailUrl": "https://images.tagesschau.de/image/e76f0376-457b-4815-8468-44040a3d2b41/AAABjxptXa8/AAABjwnlKNc/16x9-512.jpg", "date": "2024-04-26T14:41:04.679+02:00", "lat": 49.9941, "lon": 8.6512, "intensity": 0.8, "source": "Tagesschau"}, {"title": "\"The Dark Rooms Vertical\" in Berlin: Achtsamkeitstraining f\u00fcr die Sch\u00f6nheit der Natur", "url": "https://www.tagesschau.de/inland/regional/berlin/rbb-the-dark-rooms-vertical-in-berlin-achtsamkeitstraining-fuer-die-schoenheit-der-natur-100.html", "thumbnailUrl": "https://images.tagesschau.de/image/12d22aee-f1f9-4200-8f04-2b63787d02c3/AAABjxpmAiM/AAABjwnlKNc/16x9-512.jpg", "date": "2024-04-26T14:30:39.000+02:00", "lat": 52.52001, "lon": 13.40495, "intensity": 0.6, "source": "Tagesschau"}, {"title": "Weltkriegsbombe in Mainz ist entsch\u00e4rft", "url": "https://www.tagesschau.de/inland/regional/rheinlandpfalz/swr-weltkriegsbombe-am-europakreisel-in-mainz-gefunden-100.html", "thumbnailUrl": "https://images.tagesschau.de/image/8f7bf529-e46c-452c-8382-e1b114e228ff/AAABjxqKmDQ/AAABjwnlKNc/16x9-512.jpg", "date": "2024-04-26T14:30:00.000+02:00", "lat": 49.982008, "lon": 8.247599, "intensity": 0.8, "source": "Tagesschau"}, {"title": "Wetter in NRW: Am Wochenende okay, Mittwoch 27 Grad", "url": "https://www.tagesschau.de/inland/regional/nordrheinwestfalen/wdr-wetter-in-nrw-am-wochenende-wird-es-deutlich-waermer-100.html", "thumbnailUrl": "https://images.tagesschau.de/image/49680651-f103-4ee6-bf48-798aa1dd6a0d/AAABjxrpzLU/AAABjwnlKNc/16x9-512.jpg", "date": "2024-04-26T14:22:00.000+02:00", "lat": 51.4332, "lon": 7.6261, "intensity": 0.3, "source": "Tagesschau"}, {"title": "Verd\u00e4chtiger ermittelt: Hat ein Mann etwa 300 Autos zerkratzt?", "url": "https://www.tagesschau.de/inland/regional/niedersachsen/ndr-verdaechtiger-ermittelt-hat-ein-mann-etwa-300-autos-zerkratzt-100.html", "thumbnailUrl": "https://images.tagesschau.de/image/0d648368-4c75-4f3d-8853-3cec9d947d03/AAABjxpw_7M/AAABjwnlKNc/16x9-512.jpg", "date": "2024-04-26T14:20:00.000+02:00", "lat": 51.5413, "lon": 9.9356, "intensity": 0.8, "source": "Tagesschau"}, {"title": "Stillstand auf der Baustelle: Was wird aus dem Elbtower in Hamburg?", "url": "https://www.tagesschau.de/inland/regional/hamburg/ndr-stillstand-auf-der-baustelle-was-wird-aus-dem-elbtower-in-hamburg-100.html", "thumbnailUrl": "https://images.tagesschau.de/image/3443e372-1720-414e-ad0e-a0642bb11d81/AAABjxlKW8w/AAABjwnlKNc/16x9-512.jpg", "date": "2024-04-26T14:15:00.000+02:00", "lat": 53.5511, "lon": 9.9937, "intensity": 0.7, "source": "Tagesschau"}, {"title": "Wegen unerlaubtem Cover: Buch von AfD-Politiker Krah darf nicht mehr verkauft werden", "url": "https://www.tagesschau.de/inland/regional/badenwuerttemberg/swr-wegen-unerlaubtem-cover-buch-von-afd-politiker-krah-darf-nicht-mehr-verkauft-werden-100.html", "thumbnailUrl": "https://images.tagesschau.de/image/c1eec2c6-f53b-4d53-aaee-11484874dd87/AAABjxpXWRo/AAABjwnlKNc/16x9-512.jpg", "date": "2024-04-26T14:13:43.000+02:00", "lat": 48.7758, "lon": 9.3167, "intensity": 0.8, "source": "Tagesschau"}, {"title": "So verlief die Entsch\u00e4rfung der Weltkriegsbombe in Mainz", "url": "https://www.tagesschau.de/inland/regional/rheinlandpfalz/swr-bombenentschaerfung-in-mainz-evakuierung-laeuft-noch-100.html", "thumbnailUrl": "https://images.tagesschau.de/image/73219ab7-b298-4dff-a54e-e027c891e536/AAABjxp6IQ0/AAABjwnlKNc/16x9-512.jpg", "date": "2024-04-26T14:00:00.000+02:00", "lat": 50.012798, "lon": 8.247252, "intensity": 0.8, "source": "Tagesschau"}, {"title": "Konjunkturflaute hat Folgen f\u00fcr den Arbeitsmarkt", "url": "https://www.tagesschau.de/wirtschaft/konjunktur/konjunktur-rezession-inflation-arbeitsmarkt-jobmarkt-demographie-zuwanderung-arbeitsstunden-100.html", "thumbnailUrl": "https://images.tagesschau.de/image/f9d874eb-10ef-4bfc-a181-28794215037e/AAABjuvl7AE/AAABjwnlKNc/16x9-512.jpg", "date": "2024-04-26T13:56:24.966+02:00", "lat": 51.4556, "lon": 7.0112, "intensity": 0.8, "source": "Tagesschau"}, {"title": "Solarpaket endg\u00fcltig verabschiedet", "url": "https://www.tagesschau.de/inland/innenpolitik/bundestag-solarpaket-102.html", "thumbnailUrl": "https://images.tagesschau.de/image/dbb44336-ac9e-4f4f-abef-87ab4b9ce765/AAABjxps40k/AAABjwnlKNc/16x9-512.jpg", "date": "2024-04-26T13:40:44.242+02:00", "lat": 52.5166, "lon": 13.3767, "intensity": 0.7, "source": "Tagesschau"}, {"title": "Hannover Messe endet: Erneut rund 130.000 Besucher", "url": "https://www.tagesschau.de/inland/regional/niedersachsen/ndr-hannover-messe-endet-erneut-rund-130-000-besucher-100.html", "thumbnailUrl": "https://images.tagesschau.de/image/5a98ff8c-4fed-46f2-953e-7183c27634c5/AAABjxo2kXE/AAABjwnlKNc/16x9-512.jpg", "date": "2024-04-26T13:37:00.000+02:00", "lat": 52.3759, "lon": 9.7429, "intensity": 0.8, "source": "Tagesschau"}, {"title": "Ver.di-Demo in L\u00fcbeck - Warnstreik im Gro\u00df- und Einzelhandel", "url": "https://www.tagesschau.de/inland/regional/schleswigholstein/ndr-ver-di-demo-in-luebeck-warnstreik-im-gross-und-einzelhandel-100.html", "thumbnailUrl": "https://images.tagesschau.de/image/aeb11e95-6579-4e36-941f-72cad84e38d2/AAABjxo2d3Y/AAABjwnlKNc/16x9-512.jpg", "date": "2024-04-26T13:31:00.000+02:00", "lat": 53.865467, "lon": 10.686559, "intensity": 0.6, "source": "Tagesschau"}, {"title": "Kaufoption aktiviert: Eintracht Frankfurt bindet Hugo Ekitik\u00e9", "url": "https://www.tagesschau.de/inland/regional/hessen/hr-kaufoption-gezogen-102.html", "thumbnailUrl": "https://images.tagesschau.de/image/5b1d9a73-bdb4-4784-8ee9-b206173345fc/AAABjxrBmBI/AAABjwnlKNc/16x9-512.jpg", "date": "2024-04-26T13:27:29.375+02:00", "lat": 50.1109, "lon": 8.6815, "intensity": 0.8, "source": "Tagesschau"}, {"title": "Sch\u00fcsse in Fu\u00dfg\u00e4ngerzone Gummersbach - Prozessauftakt gegen angeschossenen Randalierer", "url": "https://www.tagesschau.de/inland/regional/nordrheinwestfalen/wdr-schuesse-in-fussgaengerzone-gummersbach-prozess-gegen-angeschossenen-randalierer-102.html", "thumbnailUrl": "https://images.tagesschau.de/image/3d68d258-f755-41aa-a723-9b4aabc900c6/AAABjxqibjo/AAABjwnlKNc/16x9-512.jpg", "date": "2024-04-26T13:26:00.000+02:00", "lat": 51.0333, "lon": 7.5667, "intensity": 0.8, "source": "Tagesschau"}, {"title": "Thyssenkrupp trennt sich von Teilen der Stahlsparte", "url": "https://www.tagesschau.de/wirtschaft/unternehmen/thyssenkrupp-kretinsky-einstieg-stahlsparte-gruener-stahl-krupp-stiftung-100.html", "thumbnailUrl": "https://images.tagesschau.de/image/dacb49c6-1a84-48ce-81ad-75a9545e405b/AAABjxnMc78/AAABjwnlKNc/16x9-512.jpg", "date": "2024-04-26T13:19:22.780+02:00", "lat": 51.4556, "lon": 7.07125, "intensity": 0.7, "source": "Tagesschau"}, {"title": "Olympia-Fackell\u00e4ufer aus Neuzelle", "url": "https://www.tagesschau.de/inland/regional/brandenburg/rbb-olympia-fackellaeufer-aus-neuzelle-102.html", "thumbnailUrl": "https://images.tagesschau.de/image/dfc27ed8-bf09-4e30-b49b-ccb2673e5006/AAABjxrKy_8/AAABjwnlKNc/16x9-512.jpg", "date": "2024-04-26T13:15:31.000+02:00", "lat": 51.9333, "lon": 14.5833, "intensity": 0.6, "source": "Tagesschau"}, {"title": "Sendeverbot f\u00fcr BBC und Voice of America", "url": "https://www.tagesschau.de/ausland/afrika/sendeverbot-burkina-faso-100.html", "thumbnailUrl": "https://images.tagesschau.de/image/7e0f6d6e-8849-445f-938b-a4ffc860c1cf/AAABjxoZ0ek/AAABjwnlKNc/16x9-512.jpg", "date": "2024-04-26T13:10:51.314+02:00", "lat": 12.2383, "lon": -1.5616, "intensity": 0.8, "source": "Tagesschau"}, {"title": "Reaktionen zum hr-Hessentrend: Starkes Signal f\u00fcr CDU und SPD oder Quittung f\u00fcr schwache Zwischenbilanz?", "url": "https://www.tagesschau.de/inland/regional/hessen/hr-reaktionen-zum-hr-hessentrend-starkes-signal-fuer-schwarz-rot-oder-quittung-fuer-schwache-zwischenbilanz-100.html", "thumbnailUrl": "https://images.tagesschau.de/image/ed99e105-bade-48b2-84b9-84277959e549/AAABjxqVqSU/AAABjwnlKNc/16x9-512.jpg", "date": "2024-04-26T12:55:51.103+02:00", "lat": 50.6411, "lon": 9.6757, "intensity": 0.8, "source": "Tagesschau"}, {"title": "Gedenkfeier f\u00fcr Ren\u00e9 Pollesch: So hat die Volksb\u00fchne Abschied genommen", "url": "https://www.tagesschau.de/inland/regional/berlin/rbb-gedenkfeier-fuer-ren-pollesch-gefeiert-was-sie-lieben-100.html", "thumbnailUrl": "https://images.tagesschau.de/image/5cc7b46b-0631-494c-ab1c-32f68c593057/AAABjxn_i5Y/AAABjwnlKNc/16x9-512.jpg", "date": "2024-04-26T12:49:38.000+02:00", "lat": 52.5244, "lon": 13.4105, "intensity": 0.8, "source": "Tagesschau"}, {"title": "Angriff auf Polizeiwache in Connewitz", "url": "https://www.tagesschau.de/inland/regional/sachsen/mdr-angriff-auf-polizeiwache-in-connewitz-100.html", "thumbnailUrl": "https://images.tagesschau.de/image/c1ab8852-91ba-4b69-8610-b976e66a1c00/AAABjxxcCT0/AAABjwnlKNc/16x9-512.jpg", "date": "2024-04-26T12:46:57.000+02:00", "lat": 51.3283, "lon": 12.3663, "intensity": 0.8, "source": "Tagesschau"}, {"title": "Schwarzarbeit: Fast 350 Verdachtsf\u00e4lle in wenigen Tagen", "url": "https://www.tagesschau.de/inland/regional/niedersachsen/ndr-schwarzarbeit-fast-350-verdachtsfaelle-in-wenigen-tagen-100.html", "thumbnailUrl": "https://images.tagesschau.de/image/e46024e7-8ae3-4d09-af7c-5e4dbde5c07e/AAABjxo97vA/AAABjwnlKNc/16x9-512.jpg", "date": "2024-04-26T12:44:00.000+02:00", "lat": 52.3625, "lon": 9.6856, "intensity": 0.8, "source": "Tagesschau"}, {"title": "Besucherparkausweis gef\u00e4lscht: Frau in Hamburg vor Gericht", "url": "https://www.tagesschau.de/inland/regional/hamburg/ndr-besucherparkausweis-gefaelscht-frau-in-hamburg-vor-gericht-100.html", "thumbnailUrl": "https://images.tagesschau.de/image/23a6d9fa-95c4-4ab3-a6f0-c7c0d2c01348/AAABjxoDKJ4/AAABjwnlKNc/16x9-512.jpg", "date": "2024-04-26T12:43:00.000+02:00", "lat": 53.551086, "lon": 9.993682, "intensity": 0.6, "source": "Tagesschau"}, {"title": "Handschlag f\u00fcr den deutsch-franz\u00f6sischen Panzer", "url": "https://www.tagesschau.de/ausland/europa/deutschland-frankreich-panzer-100.html", "thumbnailUrl": "https://images.tagesschau.de/image/f8d0a696-f426-479e-92d2-e803e89b30f0/AAABjxpjBiQ/AAABjwnlKNc/16x9-512.jpg", "date": "2024-04-26T12:38:02.229+02:00", "lat": 49.3964, "lon": 9.5415, "intensity": 0.8, "source": "Tagesschau"}, {"title": "Saarland f\u00f6rdert auch 2025 wieder Kultur-Highlights", "url": "https://www.tagesschau.de/inland/regional/saarland/sr-saarland-foerdert-auch-2025-wieder-kultur-highlights-100.html", "thumbnailUrl": "https://images.tagesschau.de/image/ea8a8517-41fa-4bdb-9392-6f59c10d4207/AAABjxocuN8/AAABjwnlKNc/16x9-512.jpg", "date": "2024-04-26T12:27:00.000+02:00", "lat": 49.3964, "lon": 7.0, "intensity": 0.4, "source": "Tagesschau"}, {"title": "Trotz Job-Turbo: Warum so wenige Ukrainer in Ulm in Arbeit sind", "url": "https://www.tagesschau.de/inland/regional/badenwuerttemberg/swr-trotz-job-turbo-warum-so-wenige-ukrainer-in-ulm-in-arbeit-sind-100.html", "thumbnailUrl": "https://images.tagesschau.de/image/997ee216-1978-4b4a-a237-93e15f63c13c/AAABjxre1cI/AAABjwnlKNc/16x9-512.jpg", "date": "2024-04-26T12:23:00.000+02:00", "lat": 48.4011, "lon": 9.9937, "intensity": 0.7, "source": "Tagesschau"}, {"title": "Landesgartenschau-Pleite: Wie hoch ist das Defizit wirklich?", "url": "https://www.tagesschau.de/inland/regional/niedersachsen/ndr-landesgartenschau-pleite-wie-hoch-ist-das-defizit-wirklich-100.html", "thumbnailUrl": "https://images.tagesschau.de/image/014b61ae-d01c-47fe-be70-f2017270d481/AAABjxoMW8U/AAABjwnlKNc/16x9-512.jpg", "date": "2024-04-26T12:19:00.000+02:00", "lat": 52.2763, "lon": 10.4515, "intensity": 0.5, "source": "Tagesschau"}, {"title": "Niederdeutsche Sprache in Brandenburg: \"Ich finde es sch\u00f6n, wenn die Kinder einen mit 'Gooden Tach' ansprechen\"", "url": "https://www.tagesschau.de/inland/regional/brandenburg/rbb-niederdeutsche-sprache-in-brandenburg-ich-finde-es-schoen-wenn-die-kinder-einen-mit-gutem-platt-ansprechen-100.html", "thumbnailUrl": "https://images.tagesschau.de/image/57d2061d-6093-4d30-84c5-970aa5924765/AAABjxrKzuo/AAABjwnlKNc/16x9-512.jpg", "date": "2024-04-26T12:16:57.000+02:00", "lat": 52.52, "lon": 13.4049, "intensity": 0.3, "source": "Tagesschau"}, {"title": "Bezirk Altona: Linke will Fl\u00fcchtlinge in leeren Seniorenheimen unterbringen", "url": "https://www.tagesschau.de/inland/regional/hamburg/ndr-bezirk-altona-linke-will-fluechtlinge-in-leeren-seniorenheimen-unterbringen-100.html", "thumbnailUrl": "https://images.tagesschau.de/image/62e18ffe-16aa-43b7-8e12-243bab5514c6/AAABjxnrZp0/AAABjwnlKNc/16x9-512.jpg", "date": "2024-04-26T12:16:00.000+02:00", "lat": 53.5469, "lon": 9.8894, "intensity": 0.8, "source": "Tagesschau"}, {"title": "Sorgenkind Breisgau-S-Bahn - sind alte Dieseltriebwagen die Rettung?", "url": "https://www.tagesschau.de/inland/regional/badenwuerttemberg/swr-sorgenkind-breisgau-s-bahn-sind-alte-dieselwagen-die-rettung-100.html", "thumbnailUrl": "https://images.tagesschau.de/image/81170208-d6d7-4adc-9fed-e0359aa97d13/AAABjxn0cdo/AAABjwnlKNc/16x9-512.jpg", "date": "2024-04-26T12:00:45.000+02:00", "lat": 47.998, "lon": 7.8416, "intensity": 0.8, "source": "Tagesschau"}, {"title": "Ex-Freundin mit dem Hammer erschlagen: Anklage gegen Mann aus Neuwied", "url": "https://www.tagesschau.de/inland/regional/rheinlandpfalz/swr-ex-freundin-mit-dem-hammer-erschlagen-anklage-gegen-mann-aus-neuwied-100.html", "thumbnailUrl": "https://images.tagesschau.de/image/2d5ea472-59b8-4116-9c06-c348b794e4e2/AAABjxngTkk/AAABjwnlKNc/16x9-512.jpg", "date": "2024-04-26T11:51:35.000+02:00", "lat": 50.4275, "lon": 7.4606, "intensity": 0.9, "source": "Tagesschau"}, {"title": "\u00dcberraschter Dieb im B\u00fcro eingeschlossen", "url": "https://www.tagesschau.de/inland/regional/niedersachsen/ndr-ueberraschter-dieb-im-buero-eingeschlossen-100.html", "thumbnailUrl": "https://images.tagesschau.de/image/bc7eba0e-02bb-4b8b-87c7-b45bc518dcf3/AAABjxnRuNs/AAABjwnlKNc/16x9-512.jpg", "date": "2024-04-26T11:45:00.000+02:00", "lat": 53.4854, "lon": 9.1527, "intensity": 0.8, "source": "Tagesschau"}, {"title": "Boris Palmer emp\u00f6rt: Ein Vogel stoppt Klinik-Neubau in T\u00fcbingen", "url": "https://www.tagesschau.de/inland/regional/badenwuerttemberg/swr-boris-palmer-empoert-ein-vogel-stoppt-klinik-neubau-in-tuebingen-100.html", "thumbnailUrl": "https://images.tagesschau.de/image/03ff0d7a-eea1-4151-838a-7df1e88f2242/AAABjxnMNkQ/AAABjwnlKNc/16x9-512.jpg", "date": "2024-04-26T11:44:00.000+02:00", "lat": 48.5227, "lon": 9.1108, "intensity": 0.7, "source": "Tagesschau"}, {"title": "Sportst\u00e4tten-Mangel in Berlin: Mit Wartelisten gegen den Sanierungsstau", "url": "https://www.tagesschau.de/inland/regional/berlin/rbb-sportstaetten-mangel-in-berlin-mit-wartelisten-gegen-den-sanierungsstau-102.html", "thumbnailUrl": "https://images.tagesschau.de/image/8a173f99-3164-4a08-bbe1-e9869a708100/AAABjxnMT2w/AAABjwnlKNc/16x9-512.jpg", "date": "2024-04-26T11:42:58.000+02:00", "lat": 52.520008, "lon": 13.404954, "intensity": 0.8, "source": "Tagesschau"}, {"title": "25-j\u00e4hriger Mann in Spenge offensichtlich get\u00f6tet: Mordkommission ermittelt", "url": "https://www.tagesschau.de/inland/regional/nordrheinwestfalen/wdr-25-jaehriger-mann-in-spenge-offensichtlich-getoetet-mordkommission-ermittelt-100.html", "thumbnailUrl": "https://images.tagesschau.de/image/99dac9c1-56e9-4a13-8d37-67c1b5756111/AAABjxnpdVo/AAABjwnlKNc/16x9-512.jpg", "date": "2024-04-26T11:38:00.000+02:00", "lat": 52.1594, "lon": 8.6953, "intensity": 0.9, "source": "Tagesschau"}, {"title": "Hamburger Hafengeburtstag 2024: Scooter live bei \"Elbe in Concert\"", "url": "https://www.tagesschau.de/inland/regional/hamburg/ndr-hamburger-hafengeburtstag-2024-scooter-live-bei-elbe-in-concert-100.html", "thumbnailUrl": "https://images.tagesschau.de/image/84b0860c-15ac-4208-a0df-4760619f3e48/AAABjxtMtqQ/AAABjwnlKNc/16x9-512.jpg", "date": "2024-04-26T11:37:00.000+02:00", "lat": 53.55, "lon": 9.984, "intensity": 0.8, "source": "Tagesschau"}, {"title": "Eppelborner B\u00fcrgermeister wirft AfD-Politiker aus Sitzung", "url": "https://www.tagesschau.de/inland/regional/saarland/sr-eppelborner-buergermeister-wirft-afd-politiker-aus-sitzung-100.html", "thumbnailUrl": "https://images.tagesschau.de/image/4537badd-7982-40de-928b-648f64cde8f5/AAABjxnGqaM/AAABjwnlKNc/16x9-512.jpg", "date": "2024-04-26T11:22:00.000+02:00", "lat": 49.3872, "lon": 7.1212, "intensity": 0.8, "source": "Tagesschau"}, {"title": "Frankreich will Sterbehilfe neu regeln", "url": "https://www.tagesschau.de/ausland/europa/frankreich-sterbehilfe-100.html", "thumbnailUrl": "https://images.tagesschau.de/image/31f5d628-5345-4e86-a864-913945cc0107/AAABjxm38ME/AAABjwnlKNc/16x9-512.jpg", "date": "2024-04-26T11:15:02.433+02:00", "lat": 48.8566, "lon": 2.3522, "intensity": 0.8, "source": "Tagesschau"}, {"title": "Polizei durchsucht Geb\u00e4ude und Fahrzeuge in Cottbus nach Drogen", "url": "https://www.tagesschau.de/inland/regional/brandenburg/rbb-polizei-durchsucht-gebaeude-und-fahrzeuge-in-cottbus-nach-drogen-100.html", "thumbnailUrl": "https://images.tagesschau.de/image/be0f2eff-05ae-421d-a0d8-b8d0dc1b197b/AAABjxmIcoU/AAABjwnlKNc/16x9-512.jpg", "date": "2024-04-26T11:08:40.000+02:00", "lat": 51.7562, "lon": 14.3355, "intensity": 0.8, "source": "Tagesschau"}, {"title": "Neue Achterbahn im Europa-Park trotz Panne planm\u00e4\u00dfig gestartet", "url": "https://www.tagesschau.de/inland/regional/badenwuerttemberg/swr-neue-achterbahn-im-europa-park-trotz-panne-planmaessig-gestartet-100.html", "thumbnailUrl": "https://images.tagesschau.de/image/4ff83e24-0e58-4c9c-bf86-187d6333c060/AAABjxnlzwU/AAABjwnlKNc/16x9-512.jpg", "date": "2024-04-26T11:07:21.000+02:00", "lat": 48.2688, "lon": 7.7168, "intensity": 0.6, "source": "Tagesschau"}, {"title": "Taunusstein will der Ukraine bei der EM 2024 ein guter Gastgeber sein", "url": "https://www.tagesschau.de/inland/regional/hessen/hr-taunusstein-will-der-ukraine-bei-der-em-2024-ein-guter-gastgeber-sein-100.html", "thumbnailUrl": "https://images.tagesschau.de/image/5cacd3f2-03c0-4f2f-a309-0a15ae017452/AAABjxoP9JA/AAABjwnlKNc/16x9-512.jpg", "date": "2024-04-26T10:59:41.965+02:00", "lat": 50.1072, "lon": 8.1425, "intensity": 0.3, "source": "Tagesschau"}, {"title": "Warnstreiks bei Ikea, Kaufland und H&M im Saarland", "url": "https://www.tagesschau.de/inland/regional/saarland/sr-warnstreiks-bei-ikea-kaufland-und-hm-im-saarland-100.html", "thumbnailUrl": "https://images.tagesschau.de/image/0d502e41-058c-4715-ac60-2d4c73118565/AAABjxmniIY/AAABjwnlKNc/16x9-512.jpg", "date": "2024-04-26T10:58:00.000+02:00", "lat": 49.3964, "lon": 7.0, "intensity": 0.7, "source": "Tagesschau"}, {"title": "Kabeldiebstahl sorgt f\u00fcr Zugausf\u00e4lle in NRW", "url": "https://www.tagesschau.de/inland/regional/nordrheinwestfalen/bahn-kabel-diebstahl-nrw-100.html", "thumbnailUrl": "https://images.tagesschau.de/image/5a80a0d9-702e-4b53-9ff3-e2606ca77f30/AAABjxmYS44/AAABjwnlKNc/16x9-512.jpg", "date": "2024-04-26T10:54:12.274+02:00", "lat": 51.49365, "lon": 7.26608, "intensity": 0.8, "source": "Tagesschau"}, {"title": "New Yorker Uni l\u00f6st Protestcamp vorerst nicht auf", "url": "https://www.tagesschau.de/ausland/amerika/usa-uni-proteste-nahost-100.html", "thumbnailUrl": "https://images.tagesschau.de/image/506d1998-98a5-48e5-8e7a-1f289f37fc74/AAABjxmZ9ZU/AAABjwnlKNc/16x9-512.jpg", "date": "2024-04-26T10:51:12.835+02:00", "lat": 40.7127753, "lon": -74.0059728, "intensity": 0.7, "source": "Tagesschau"}, {"title": "\"Temu ist ein potenzieller Amazon-Killer\"", "url": "https://www.tagesschau.de/wirtschaft/verbraucher/temu-onlinehandel-konkurrenz-amazon-100.html", "thumbnailUrl": "https://images.tagesschau.de/image/edcb6d08-f41c-49f7-9a40-04d4e5d4b968/AAABjnnOznw/AAABjwnlKNc/16x9-512.jpg", "date": "2024-04-26T10:40:09.920+02:00", "lat": 53.5503, "lon": 9.9976, "intensity": 0.7, "source": "Tagesschau"}, {"title": "Immer mehr B\u00fcrger zeigen Falschparker an", "url": "https://www.tagesschau.de/inland/regional/nordrheinwestfalen/wdr-immer-mehr-buerger-zeigen-parksuender-an-100.html", "thumbnailUrl": "https://images.tagesschau.de/image/055fb7bc-38df-459d-a44f-2446571ac46a/AAABjxtvdyA/AAABjwnlKNc/16x9-512.jpg", "date": "2024-04-26T10:36:00.000+02:00", "lat": 51.8133, "lon": 7.6261, "intensity": 0.7, "source": "Tagesschau"}, {"title": "Potsdamer Museum Barberini zeigt Modigliani-Ausstellung", "url": "https://www.tagesschau.de/inland/regional/brandenburg/rbb-potsdamer-museum-barberini-zeigt-modigliani-ausstellung-100.html", "thumbnailUrl": "https://images.tagesschau.de/image/777fbfe9-4a6f-4717-9a86-ebfe07fb28fc/AAABjxmN9Lc/AAABjwnlKNc/16x9-512.jpg", "date": "2024-04-26T10:33:23.000+02:00", "lat": 52.3935, "lon": 13.0645, "intensity": 0.6, "source": "Tagesschau"}, {"title": "Vermisster Arian hat \"vermutlich keine Angst vor Dunkelheit\"", "url": "https://www.tagesschau.de/inland/regional/niedersachsen/ndr-vermisster-junge-hat-vermutlich-keine-angst-vor-dunkelheit-100.html", "thumbnailUrl": "https://images.tagesschau.de/image/7fa95306-7687-4975-af2d-c72615269a46/AAABjxwh2Hg/AAABjwnlKNc/16x9-512.jpg", "date": "2024-04-26T10:24:00.000+02:00", "lat": 53.5, "lon": 9.1333, "intensity": 0.7, "source": "Tagesschau"}, {"title": "Starkregen und Hagel sorgen f\u00fcr Unfallserie", "url": "https://www.tagesschau.de/inland/regional/mecklenburgvorpommern/ndr-hoher-schaden-bei-witterungsbedingten-unfaellen-in-mv-100.html", "thumbnailUrl": "https://images.tagesschau.de/image/1131ccb2-2d8a-40d5-a50c-d69d33dc6831/AAABjxl_QjA/AAABjwnlKNc/16x9-512.jpg", "date": "2024-04-26T10:19:00.000+02:00", "lat": 53.6127, "lon": 12.4296, "intensity": 0.8, "source": "Tagesschau"}, {"title": "Geldw\u00e4sche in Millionenh\u00f6he? Polizei nimmt 64-J\u00e4hrigen fest", "url": "https://www.tagesschau.de/inland/regional/niedersachsen/ndr-geldwaesche-in-millionenhoehe-polizei-nimmt-mann-aus-bramsche-fest-100.html", "thumbnailUrl": "https://images.tagesschau.de/image/715bcb6c-438c-4aa8-9afc-56013bbe039f/AAABjxl7rDM/AAABjwnlKNc/16x9-512.jpg", "date": "2024-04-26T10:16:00.000+02:00", "lat": 52.3759, "lon": 10.4515, "intensity": 0.8, "source": "Tagesschau"}, {"title": "Hessen am Morgen: +++ Leichtverletzte bei Unfall mit Polizeiwagen +++ Bewaffneter \u00dcberfall auf Apotheke +++ Zeugenaufruf zu Wasserleiche in Frankfurt +++", "url": "https://www.tagesschau.de/inland/regional/hessen/hr-hessen-am-morgen--ermittler-zufrieden-mit-neuem-haus-des-jugendrechts-in-hanau-100.html", "thumbnailUrl": "https://images.tagesschau.de/image/854cec12-6931-40cc-a790-a89f9997833f/AAABjxmpbsQ/AAABjwnlKNc/16x9-512.jpg", "date": "2024-04-26T10:14:46.667+02:00", "lat": 50.1109, "lon": 8.6821, "intensity": 0.7, "source": "Tagesschau"}, {"title": "Doppelter Nachwuchs in Leiferde: Storchenpaar hat zwei K\u00fcken", "url": "https://www.tagesschau.de/inland/regional/niedersachsen/ndr-storchenpaar-in-leiferde-hat-zwei-kueken-100.html", "thumbnailUrl": "https://images.tagesschau.de/image/a9710546-a088-493f-87c7-7a4c15b1fd07/AAABjxl3-_Y/AAABjwnlKNc/16x9-512.jpg", "date": "2024-04-26T10:13:00.000+02:00", "lat": 52.4367, "lon": 10.4154, "intensity": 0.6, "source": "Tagesschau"}, {"title": "China schickt neue Astronauten ins All", "url": "https://www.tagesschau.de/ausland/asien/china-raumstation-astronauten-102.html", "thumbnailUrl": "https://images.tagesschau.de/image/1d1e44cb-4b09-4108-94ff-de948132c9d2/AAABjxm3MCQ/AAABjwnlKNc/16x9-512.jpg", "date": "2024-04-26T10:10:51.997+02:00", "lat": 39.9042, "lon": 116.4074, "intensity": 0.7, "source": "Tagesschau"}, {"title": "\"Osterhasen-Aff\u00e4re\" um Schwesig: Setzt Landtag einen Schlusspunkt?", "url": "https://www.tagesschau.de/inland/regional/mecklenburgvorpommern/ndr-landtag-setzt-schlusspunkt-hinter-schwesigs-osterhasen-affaere-100.html", "thumbnailUrl": "https://images.tagesschau.de/image/107bda7e-9679-4d8f-a18a-2afca062e30c/AAABjxl9bJQ/AAABjwnlKNc/16x9-512.jpg", "date": "2024-04-26T10:10:00.000+02:00", "lat": 53.6355, "lon": 11.4036, "intensity": 0.5, "source": "Tagesschau"}, {"title": "Pipeline f\u00fcr LNG-Terminal Mukran: Gericht weist Klagen ab", "url": "https://www.tagesschau.de/inland/regional/mecklenburgvorpommern/ndr-gaspipeline-fuer-lng-terminal-mukran-bundesverwaltungs-gericht-urteilt-100.html", "thumbnailUrl": "https://images.tagesschau.de/image/05d76be7-94ca-4a4c-b642-b26957a3e287/AAABjxl0RpE/AAABjwnlKNc/16x9-512.jpg", "date": "2024-04-26T10:08:00.000+02:00", "lat": 54.3185, "lon": 13.4455, "intensity": 0.8, "source": "Tagesschau"}, {"title": "Feuerwehren begeistert: Starkregen-Alarmsystem aus Fulda st\u00f6\u00dft auf gro\u00dfes Interesse", "url": "https://www.tagesschau.de/inland/regional/hessen/hr-feuerwehren-begeistert-fuldaer-starkregen-alarmsystem-stoesst-auf-grosses-interesse-100.html", "thumbnailUrl": "https://images.tagesschau.de/image/12bf7ed3-b85a-414b-a8f5-08d6c6e8b787/AAABjxoOIAs/AAABjwnlKNc/16x9-512.jpg", "date": "2024-04-26T10:05:05.065+02:00", "lat": 50.5547, "lon": 9.6773, "intensity": 0.8, "source": "Tagesschau"}, {"title": "Teltow-Fl\u00e4ming: Lastwagen kippt auf der A10 in einen Graben", "url": "https://www.tagesschau.de/inland/regional/brandenburg/rbb-teltow-flaeming-lastwagen-kippt-auf-der-a10-in-einen-graben-100.html", "thumbnailUrl": "https://images.tagesschau.de/image/ae51f816-2d07-44ce-91d6-73fceacf2adb/AAABjxlygjA/AAABjwnlKNc/16x9-512.jpg", "date": "2024-04-26T10:03:15.000+02:00", "lat": 52.3626, "lon": 13.2137, "intensity": 0.7, "source": "Tagesschau"}, {"title": "BW-Newsticker am Morgen: Neue Achterbahn im Europa-Park bleibt liegen, Norovirus auf Fr\u00fchlingsfest: Noch mehr Erkrankte", "url": "https://www.tagesschau.de/inland/regional/badenwuerttemberg/swr-bw-newsticker-am-morgen-verkehrsminister-fuer-hoehere-steuern-auf-verbrenner-autos-norovirus-auf-fruehlingsfest-immer-mehr-erkrankte-100.html", "thumbnailUrl": "https://images.tagesschau.de/image/2cf7604e-851f-426e-aae4-2ebd23e01a7d/AAABjxijkGY/AAABjwnlKNc/16x9-512.jpg", "date": "2024-04-26T10:00:00.000+02:00", "lat": 48.267, "lon": 7.7233, "intensity": 0.7, "source": "Tagesschau"}, {"title": "Bombenentsch\u00e4rfung in Mainz, Pflanzen-Comeback, Cannabis-Clubs", "url": "https://www.tagesschau.de/inland/regional/rheinlandpfalz/swr-bombenentschaerfung-in-mainz-neues-klimaschutzgesetz-schuelerkonferenz-gegen-rechtsextremismus-100.html", "thumbnailUrl": "https://images.tagesschau.de/image/17b2e227-1d89-4a3d-a2e4-203b510fc144/AAABjxmlxCY/AAABjwnlKNc/16x9-512.jpg", "date": "2024-04-26T10:00:00.000+02:00", "lat": 49.992862, "lon": 8.247252, "intensity": 0.6, "source": "Tagesschau"}, {"title": "FCK spendet unz\u00e4hlige Protest-Flummis an Kitas", "url": "https://www.tagesschau.de/inland/regional/rheinlandpfalz/swr-fck-spendet-unzaehlige-protest-flummis-an-kitas-100.html", "thumbnailUrl": "https://images.tagesschau.de/image/7cefe608-2405-40b0-a0e8-56eba25e61eb/AAABjxmMFIo/AAABjwnlKNc/16x9-512.jpg", "date": "2024-04-26T09:59:44.000+02:00", "lat": 49.446426, "lon": 7.769405, "intensity": 0.6, "source": "Tagesschau"}, {"title": "Nach vier Jahren Corona: Erstmals keine Covid-Patienten am UKGM in Gie\u00dfen", "url": "https://www.tagesschau.de/inland/regional/hessen/hr-nach-vier-jahren-corona-erstmals-keine-covid-patienten-am-ukgm-in-giessen-100.html", "thumbnailUrl": "https://images.tagesschau.de/image/4e4998a2-5d29-4dc4-8b87-30198528d35d/AAABjxmearE/AAABjwnlKNc/16x9-512.jpg", "date": "2024-04-26T09:22:14.992+02:00", "lat": 50.584051, "lon": 8.678403, "intensity": 0.8, "source": "Tagesschau"}, {"title": "Havelland: Kampfmittel bei L\u00f6scharbeiten gefunden ", "url": "https://www.tagesschau.de/inland/regional/brandenburg/rbb-havelland-granate-bei-loescharbeiten-gefunden-b5-gesperrt-100.html", "thumbnailUrl": "https://images.tagesschau.de/image/62eeb69b-22d6-4634-b51d-4d23f7ad2ab8/AAABjxlyhmo/AAABjwnlKNc/16x9-512.jpg", "date": "2024-04-26T09:09:11.000+02:00", "lat": 52.5316, "lon": 12.6828, "intensity": 0.7, "source": "Tagesschau"}, {"title": "Berlin-Tempelhof: Erneut Streik im Einzel- und Gro\u00dfhandel - auch bei Ikea", "url": "https://www.tagesschau.de/inland/regional/berlin/rbb-berlin-tempelhof-erneut-streik-im-einzel-und-grosshandel-auch-bei-ikea-100.html", "thumbnailUrl": "https://images.tagesschau.de/image/0aec9337-437a-46e5-97ba-4f240a899c2f/AAABjxk9gCQ/AAABjwnlKNc/16x9-512.jpg", "date": "2024-04-26T09:05:49.000+02:00", "lat": 52.5166, "lon": 13.3854, "intensity": 0.7, "source": "Tagesschau"}, {"title": "Nach Bedienfehler: Wasser mit F\u00e4kalien flutet Kl\u00e4rwerkskeller", "url": "https://www.tagesschau.de/inland/regional/niedersachsen/ndr-nach-bedienfehler-wasser-mit-faekalien-flutet-klaerwerkskeller-100.html", "thumbnailUrl": "https://images.tagesschau.de/image/3dd17070-a98d-49c4-9ff2-062568a3605a/AAABjxk0Uoc/AAABjwnlKNc/16x9-512.jpg", "date": "2024-04-26T08:55:00.000+02:00", "lat": 52.2222, "lon": 9.8607, "intensity": 0.8, "source": "Tagesschau"}, {"title": "Kampagne gegen Drogenschmuggel \u00fcber den Hamburger Hafen vorgestellt", "url": "https://www.tagesschau.de/inland/regional/hamburg/ndr-kampagne-gegen-drogenschmuggel-ueber-den-hamburger-hafen-vorgestellt-100.html", "thumbnailUrl": "https://images.tagesschau.de/image/0718a3de-57ae-43ae-a643-b8822e49bde7/AAABjxnZGiY/AAABjwnlKNc/16x9-512.jpg", "date": "2024-04-26T08:52:00.000+02:00", "lat": 53.5511, "lon": 9.9937, "intensity": 0.7, "source": "Tagesschau"}, {"title": "Prozess: Mit Messer gedroht und eigene Wohnung angez\u00fcndet?", "url": "https://www.tagesschau.de/inland/regional/niedersachsen/ndr-prozess-mit-messer-gedroht-und-eigene-wohnung-angezuendet-100.html", "thumbnailUrl": "https://images.tagesschau.de/image/96c75c9d-3e95-4554-9e6f-b7d2989ed025/AAABjxlPsWc/AAABjwnlKNc/16x9-512.jpg", "date": "2024-04-26T08:48:00.000+02:00", "lat": 52.3759, "lon": 9.7433, "intensity": 0.8, "source": "Tagesschau"}, {"title": "USA beginnen Bau von Anlegestelle vor K\u00fcste Gazas", "url": "https://www.tagesschau.de/ausland/asien/gazastreifen-usa-hafenbau-100.html", "thumbnailUrl": "https://images.tagesschau.de/image/980a8687-9528-41d8-82ca-d24029321654/AAABjpNoJbo/AAABjwnlKNc/16x9-512.jpg", "date": "2024-04-26T08:36:24.989+02:00", "lat": 31.5016, "lon": 34.3953, "intensity": 0.8, "source": "Tagesschau"}, {"title": "Wie pal\u00e4stinensische Christen um ihr Land k\u00e4mpfen", "url": "https://www.tagesschau.de/ausland/asien/palaestinensische-christen-land-100.html", "thumbnailUrl": "https://images.tagesschau.de/image/f3432899-91a2-4c18-b9a8-491c90e52006/AAABjxkBVpA/AAABjwnlKNc/16x9-512.jpg", "date": "2024-04-26T08:35:39.549+02:00", "lat": 31.525739, "lon": 35.047573, "intensity": 0.8, "source": "Tagesschau"}, {"title": "Integration von Autisten im Saarland verbesserungsw\u00fcrdig", "url": "https://www.tagesschau.de/inland/regional/saarland/sr-integration-von-autisten-im-saarland-verbesserungswuerdig-100.html", "thumbnailUrl": "https://images.tagesschau.de/image/707c48b0-32f9-48c3-8280-53504d976315/AAABjxl2GCI/AAABjwnlKNc/16x9-512.jpg", "date": "2024-04-26T08:19:00.000+02:00", "lat": 49.3994, "lon": 7.0, "intensity": 0.8, "source": "Tagesschau"}, {"title": "Wohnungssuche dauert oft l\u00e4nger als ein Jahr", "url": "https://www.tagesschau.de/wirtschaft/wohnungssuche-endlos-100.html", "thumbnailUrl": "https://images.tagesschau.de/image/eb6778bc-e935-4027-b729-e594040f48d5/AAABjxX6mnM/AAABjwnlKNc/16x9-512.jpg", "date": "2024-04-26T08:18:05.182+02:00", "lat": 53.5511, "lon": 9.9937, "intensity": 0.6, "source": "Tagesschau"}, {"title": "Studie wertet Oeder-Weg-Umgestaltung in Frankfurt als Erfolg", "url": "https://www.tagesschau.de/inland/regional/hessen/hr-mehr-raeder-weniger-autos-und-unfaelle-studie-wertet-verkehrsversuch-im-frankfurter-nordend-als-erfolg-100.html", "thumbnailUrl": "https://images.tagesschau.de/image/2e1b8bc2-1b69-4bee-b7d4-40e206158c11/AAABjxqT0qI/AAABjwnlKNc/16x9-512.jpg", "date": "2024-04-26T08:17:47.505+02:00", "lat": 50.1109, "lon": 8.6716, "intensity": 0.7, "source": "Tagesschau"}, {"title": "Die Macht von Musks Internet-Satelliten", "url": "https://www.tagesschau.de/ausland/amerika/starlink-internet-musk-100.html", "thumbnailUrl": "https://images.tagesschau.de/image/671e5ca1-fc34-40cc-8ded-19703649cf81/AAABjxkKbTc/AAABjwnlKNc/16x9-512.jpg", "date": "2024-04-26T08:14:25.089+02:00", "lat": 50.4501, "lon": 30.5234, "intensity": 0.8, "source": "Tagesschau"}, {"title": "\"Zwischen G\u00f6ttingen und Tsingtau\": Ein koloniales Erbe", "url": "https://www.tagesschau.de/inland/regional/niedersachsen/ndr-zwischen-goettingen-und-tsingtau-ein-koloniales-erbe-100.html", "thumbnailUrl": "https://images.tagesschau.de/image/ac23a701-e1ca-4a27-8616-b0fd305e3b1e/AAABjxppsds/AAABjwnlKNc/16x9-512.jpg", "date": "2024-04-26T08:03:00.000+02:00", "lat": 51.541, "lon": 9.935, "intensity": 0.3, "source": "Tagesschau"}, {"title": "W\u00f6lfe in Hessen: Minister Jung muss viel Kritik einstecken \u2013 und bl\u00e4st zur Jagd", "url": "https://www.tagesschau.de/inland/regional/hessen/hr-minister-jung-bekommt-viel-kritik-wegen-woelfen-zu-hoeren-und-blaest-zur-jagd-100.html", "thumbnailUrl": "https://images.tagesschau.de/image/89458b4d-ced4-4ada-9937-949f8e0ccf9e/AAABjxj9Xrc/AAABjwnlKNc/16x9-512.jpg", "date": "2024-04-26T07:58:30.777+02:00", "lat": 50.6516, "lon": 9.4264, "intensity": 0.7, "source": "Tagesschau"}, {"title": "T\u00f6dlicher Unfall auf B71: Frau f\u00e4hrt frontal gegen Lkw", "url": "https://www.tagesschau.de/inland/regional/niedersachsen/ndr-toedlicher-unfall-auf-b71-frau-faehrt-frontal-gegen-lkw-100.html", "thumbnailUrl": "https://images.tagesschau.de/image/a408e141-cee1-4329-944e-176dc9d62bb2/AAABjxkh8pg/AAABjwnlKNc/16x9-512.jpg", "date": "2024-04-26T07:56:00.000+02:00", "lat": 52.1966, "lon": 9.5407, "intensity": 0.8, "source": "Tagesschau"}, {"title": "St. Pauli - Hansa Rostock: Brisantes Duell mit gro\u00dfen Sicherheitsma\u00dfnahmen", "url": "https://www.tagesschau.de/inland/regional/hamburg/ndr-st-pauli-hansa-rostock-brisantes-duell-mit-vielen-sicherheitsmassnahmen-102.html", "thumbnailUrl": "https://images.tagesschau.de/image/a3020e3a-8139-41cc-97f3-546479ca85f3/AAABjw__oCU/AAABjwnlKNc/16x9-512.jpg", "date": "2024-04-26T07:55:00.000+02:00", "lat": 53.55, "lon": 9.9667, "intensity": 0.8, "source": "Tagesschau"}, {"title": "\"Absoluter Wahnsinn\": Die neue Achterbahn im Europa-Park ist nichts f\u00fcr schwache Nerven", "url": "https://www.tagesschau.de/inland/regional/badenwuerttemberg/swr-der-absolute-wahnsinn-reporterin-testet-neue-achterbahn-im-europa-park-100.html", "thumbnailUrl": "https://images.tagesschau.de/image/5c773aac-7c49-4900-a0a5-2c4ced80d901/AAABjxnl0sY/AAABjwnlKNc/16x9-512.jpg", "date": "2024-04-26T07:13:00.000+02:00", "lat": 48.2661, "lon": 7.7256, "intensity": 0.8, "source": "Tagesschau"}, {"title": "Kitas in Karlsruhe werben bei \"Job-Speeddating\" um Quereinsteiger", "url": "https://www.tagesschau.de/inland/regional/badenwuerttemberg/swr-kitas-in-karlsruhe-werben-bei-job-speeddating-um-quereinsteiger-100.html", "thumbnailUrl": "https://images.tagesschau.de/image/74feee72-000e-42a2-83e9-cb9ba297d872/AAABjxjwdcY/AAABjwnlKNc/16x9-512.jpg", "date": "2024-04-26T07:00:37.000+02:00", "lat": 49.0069, "lon": 8.4037, "intensity": 0.8, "source": "Tagesschau"}, {"title": "Feuer auf Recyclinghof in Reinbek gel\u00f6scht", "url": "https://www.tagesschau.de/inland/regional/schleswigholstein/ndr-recyclinghof-in-reinbek-mehr-als-100-tonnen-schrott-in-flammen-100.html", "thumbnailUrl": "https://images.tagesschau.de/image/061e5a25-113d-4244-bf65-eac0773319e1/AAABjxjpiHM/AAABjwnlKNc/16x9-512.jpg", "date": "2024-04-26T06:50:00.000+02:00", "lat": 53.6225, "lon": 10.2449, "intensity": 0.7, "source": "Tagesschau"}, {"title": "Kritik oder Kampagne? Debatte um G\u00f6ttinger Cannabis-Club", "url": "https://www.tagesschau.de/inland/regional/niedersachsen/ndr-kritik-oder-kampagne-debatte-um-goettinger-cannabis-club-100.html", "thumbnailUrl": "https://images.tagesschau.de/image/3ccb1173-f4b4-4bfc-85f4-1b85b06d14ab/AAABjxi9TqU/AAABjwnlKNc/16x9-512.jpg", "date": "2024-04-26T06:47:00.000+02:00", "lat": 51.541, "lon": 9.935, "intensity": 0.7, "source": "Tagesschau"}, {"title": "Kampf gegen Drogen: Hamburg arbeitet mit anderen H\u00e4fen zusammen", "url": "https://www.tagesschau.de/inland/regional/hamburg/ndr-kampf-gegen-drogenschmuggel-hamburg-arbeitet-mit-anderen-haefen-zusammen-100.html", "thumbnailUrl": "https://images.tagesschau.de/image/b91316ed-56c3-4cc9-847a-6d331b3c0098/AAABjxnZFa0/AAABjwnlKNc/16x9-512.jpg", "date": "2024-04-26T06:38:00.000+02:00", "lat": 53.5511, "lon": 9.9937, "intensity": 0.8, "source": "Tagesschau"}, {"title": "Wegen illegaler Drohnen: Kein Uhu-Nachwuchs auf dem Speyerer Dom", "url": "https://www.tagesschau.de/inland/regional/rheinlandpfalz/swr-kein-uhu-nachwuchs-am-speyerer-dom-wegen-illegaler-drohnen-100.html", "thumbnailUrl": "https://images.tagesschau.de/image/571817e7-8c4a-47dc-b52c-d2803d2fae6d/AAABjxoXZxc/AAABjwnlKNc/16x9-512.jpg", "date": "2024-04-26T06:36:44.000+02:00", "lat": 49.3125, "lon": 8.2725, "intensity": 0.7, "source": "Tagesschau"}, {"title": "BerlinTrend: Mehrheit der Berliner bef\u00fcrwortet Einf\u00fchrung des 29-Euro-Tickets ", "url": "https://www.tagesschau.de/inland/regional/berlin/rbb-berlintrend-mehrheit-der-berliner-befuerwortet-einfuehrung-des-29-euro-tickets-100.html", "thumbnailUrl": "https://images.tagesschau.de/image/7dadf51d-8ead-4fb6-bd1a-a457dd8184f5/AAABjxsoHmY/AAABjwnlKNc/16x9-512.jpg", "date": "2024-04-26T06:32:10.000+02:00", "lat": 52.520008, "lon": 13.404954, "intensity": 0.8, "source": "Tagesschau"}, {"title": "3,3 Millionen f\u00fcr Stadtteil-Projekte in Saarlouis und Saarbr\u00fccken", "url": "https://www.tagesschau.de/inland/regional/saarland/sr-33-millionen-fuer-stadtteil-projekte-in-saarlouis-und-saarbruecken-100.html", "thumbnailUrl": "https://images.tagesschau.de/image/76474831-c5ab-4ff6-9c2b-b9737c03b10e/AAABjxiwudY/AAABjwnlKNc/16x9-512.jpg", "date": "2024-04-26T06:32:00.000+02:00", "lat": 49.2331, "lon": 0.0116, "intensity": 0.8, "source": "Tagesschau"}, {"title": "Nur ein Bruchteil der gro\u00dfen Berliner B\u00fchnen ist barrierefrei", "url": "https://www.tagesschau.de/inland/regional/berlin/rbb-nur-ein-bruchteil-der-grossen-berliner-buehnen-ist-barrierefrei-100.html", "thumbnailUrl": "https://images.tagesschau.de/image/78c83f38-1d83-4128-8349-cbaa84deeafb/AAABjxpmDQY/AAABjwnlKNc/16x9-512.jpg", "date": "2024-04-26T06:31:04.000+02:00", "lat": 52.520008, "lon": 13.404954, "intensity": 0.7, "source": "Tagesschau"}, {"title": "Bildungsministerium zieht Entscheidung \u00fcber Abriss des Finanzamts an sich", "url": "https://www.tagesschau.de/inland/regional/saarland/sr-bildungsministerium-zieht-entscheidung-ueber-abriss-des-finanzamts-an-sich-100.html", "thumbnailUrl": "https://images.tagesschau.de/image/8579ba3f-9508-42b0-b1ed-89c0357d5e5f/AAABjxiwzRc/AAABjwnlKNc/16x9-512.jpg", "date": "2024-04-26T06:31:00.000+02:00", "lat": 49.2402, "lon": 6.9797, "intensity": 0.6, "source": "Tagesschau"}, {"title": "Ahrtaler K\u00f6ksje: Eifeler Verein bringt alte Bohne zur\u00fcck ins Ahrtal", "url": "https://www.tagesschau.de/inland/regional/rheinlandpfalz/swr-ahrtaler-koeksje-eifeler-verein-bringt-alte-bohne-zurueck-ins-ahrtal-100.html", "thumbnailUrl": "https://images.tagesschau.de/image/5e1f0658-8b9d-4e7b-8ca2-bc608fddc613/AAABjxoeols/AAABjwnlKNc/16x9-512.jpg", "date": "2024-04-26T06:05:02.000+02:00", "lat": 50.2119, "lon": 6.8977, "intensity": 0.3, "source": "Tagesschau"}, {"title": "hr-Hessentrend: Was den Hessen Sorgen macht - und wie sie zu Schwarz-Rot, AfD und Gender-Verbot stehen", "url": "https://www.tagesschau.de/inland/regional/hessen/hr-hr-hessentrend-was-den-hessen-sorgen-macht-und-wie-sie-zu-schwarz-rot-afd-und-gender-verbot-stehen-100.html", "thumbnailUrl": "https://images.tagesschau.de/image/d904f496-8ac5-494f-9e2e-7a5fa5890338/AAABjxiRUHI/AAABjwnlKNc/16x9-512.jpg", "date": "2024-04-26T06:00:31.173+02:00", "lat": 50.551, "lon": 9.675, "intensity": 0.6, "source": "Tagesschau"}, {"title": "Sperrung am Wochenende: A1 Richtung Dortmund bei Leverkusen dicht", "url": "https://www.tagesschau.de/inland/regional/nordrheinwestfalen/wdr-sperrung-am-wochenende-a1-richtung-dortmund-bei-leverkusen-dicht-100.html", "thumbnailUrl": "https://images.tagesschau.de/image/05f1581f-c8dc-4be4-b42e-7ec1d0af49d6/AAABjxmN5qw/AAABjwnlKNc/16x9-512.jpg", "date": "2024-04-26T06:00:00.000+02:00", "lat": 51.0249, "lon": 7.0089, "intensity": 0.7, "source": "Tagesschau"}, {"title": "Altes Salzlager der Kokerei Hansa in Dortmund wird er\u00f6ffnet", "url": "https://www.tagesschau.de/inland/regional/nordrheinwestfalen/wdr-altes-salzlager-der-kokerei-hansa-in-dortmund-wird-eroeffnet-100.html", "thumbnailUrl": "https://images.tagesschau.de/image/e2f89917-6489-4dab-845c-cf56ef1bcfce/AAABjxlYy0o/AAABjwnlKNc/16x9-512.jpg", "date": "2024-04-26T06:00:00.000+02:00", "lat": 51.5155, "lon": 7.4683, "intensity": 0.6, "source": "Tagesschau"}, {"title": "A40 in Essen am Wochenende gesperrt", "url": "https://www.tagesschau.de/inland/regional/nordrheinwestfalen/wdr-a40-in-essen-am-wochenende-gesperrt-100.html", "thumbnailUrl": "https://images.tagesschau.de/image/5942da29-ca3d-4cb5-ae57-f1acc7eabec8/AAABjxlrHh0/AAABjwnlKNc/16x9-512.jpg", "date": "2024-04-26T06:00:00.000+02:00", "lat": 51.4556, "lon": 7.0471, "intensity": 0.5, "source": "Tagesschau"}, {"title": "Frost im April: Massive Sch\u00e4den in der Region Stuttgart bei Wein und Obst", "url": "https://www.tagesschau.de/inland/regional/badenwuerttemberg/swr-frost-im-april-massive-schaeden-in-der-region-stuttgart-bei-wein-und-obst-100.html", "thumbnailUrl": "https://images.tagesschau.de/image/410c85fb-61a9-48b2-ab41-d249b14ee924/AAABjxnE3lM/AAABjwnlKNc/16x9-512.jpg", "date": "2024-04-26T06:00:00.000+02:00", "lat": 48.7758, "lon": 9.1829, "intensity": 0.8, "source": "Tagesschau"}, {"title": "Freie Fahrt f\u00fcr Fahrradfahrer: L\u00fcbeck baut Radschnellweg", "url": "https://www.tagesschau.de/inland/regional/schleswigholstein/ndr-freie-fahrt-fuer-fahrradfahrer-luebeck-baut-radschnellweg-100.html", "thumbnailUrl": "https://images.tagesschau.de/image/0d775b93-0158-42f0-ba54-0632ad0b1778/AAABjxhYjOg/AAABjwnlKNc/16x9-512.jpg", "date": "2024-04-26T05:00:00.000+02:00", "lat": 53.8655, "lon": 10.6866, "intensity": 0.8, "source": "Tagesschau"}, {"title": "FAQ: So funktioniert ein Cannabis Social Club", "url": "https://www.tagesschau.de/inland/regional/rheinlandpfalz/swr-faq-so-funktioniert-ein-cannabis-social-club-100.html", "thumbnailUrl": "https://images.tagesschau.de/image/6f2f3a68-d219-4007-9097-32b076853466/AAABjxkKJJg/AAABjwnlKNc/16x9-512.jpg", "date": "2024-04-26T04:00:00.000+02:00", "lat": 49.9929, "lon": 8.2398, "intensity": 0.5, "source": "Tagesschau"}, {"title": "A23 ab Freitag 21 Uhr zwischen Tornesch und Elmshorn gesperrt", "url": "https://www.tagesschau.de/inland/regional/schleswigholstein/ndr-a23-am-wochenende-zwischen-tornesch-und-elmshorn-gesperrt-100.html", "thumbnailUrl": "https://images.tagesschau.de/image/6f0e8a6d-edc1-42a0-9924-bcab2a1f955d/AAABjxsipZM/AAABjwnlKNc/16x9-512.jpg", "date": "2024-04-26T00:01:00.000+02:00", "lat": 53.7342, "lon": 9.7371, "intensity": 0.5, "source": "Tagesschau"}, {"title": "Galeria Karstadt Kaufhof muss 16 Warenh\u00e4user schlie\u00dfen", "url": "https://www.br.de/nachrichten/meldungen/index.html#n1", "thumbnailUrl": null, "date": "2024-04-26T21:59:10+02:00", "lat": 30.0444, "lon": 31.2357, "intensity": 0.8, "source": "Bayrischer Rundfunk"}, {"title": "Opposition im Bundestag bem\u00e4ngelt neues Gesetz zum Klimaschutz", "url": "https://www.br.de/nachrichten/meldungen/index.html#n2", "thumbnailUrl": null, "date": "2024-04-26T21:59:10+02:00", "lat": 33.5138, "lon": 36.2021, "intensity": 0.8, "source": "Bayrischer Rundfunk"}, {"title": "Krankenh\u00e4user k\u00f6nnen bald Personalbemessungs-System nutzen", "url": "https://www.br.de/nachrichten/meldungen/index.html#n3", "thumbnailUrl": null, "date": "2024-04-26T21:59:10+02:00", "lat": 39.9334, "lon": 32.8597, "intensity": 0.8, "source": "Bayrischer Rundfunk"}, {"title": "US-Regierung verspricht der Ukraine weiteres Hilfspaket", "url": "https://www.br.de/nachrichten/meldungen/index.html#n4", "thumbnailUrl": null, "date": "2024-04-26T21:59:10+02:00", "lat": 52.520008, "lon": 13.404954, "intensity": 0.7, "source": "Bayrischer Rundfunk"}, {"title": "Britischer K\u00f6nig Charles will trotz Krebserkrankung wieder \u00f6ffentliche Termine wahrnehmen", "url": "https://www.br.de/nachrichten/meldungen/index.html#n5", "thumbnailUrl": null, "date": "2024-04-26T21:59:10+02:00", "lat": 52.520008, "lon": 13.404954, "intensity": 0.6, "source": "Bayrischer Rundfunk"}, {"title": "Kulturstaatsministerin Roth w\u00fcrdigt verstorbenen Regisseur Verhoeven", "url": "https://www.br.de/nachrichten/meldungen/index.html#n6", "thumbnailUrl": null, "date": "2024-04-26T21:59:10+02:00", "lat": 48.135125, "lon": 11.581981, "intensity": 0.6, "source": "Bayrischer Rundfunk"}, {"title": "BMW investiert Milliarden in chinesisches Werk", "url": "https://www.br.de/nachrichten/meldungen/index.html#n7", "thumbnailUrl": null, "date": "2024-04-26T21:59:10+02:00", "lat": 50.110922, "lon": 8.682127, "intensity": 0.8, "source": "Bayrischer Rundfunk"}, {"title": "Griechen \u00fcbergeben olympisches Feuer an Paris", "url": "https://www.br.de/nachrichten/meldungen/index.html#n8", "thumbnailUrl": null, "date": "2024-04-26T21:59:10+02:00", "lat": 47.8684, "lon": 12.6394, "intensity": 0.8, "source": "Bayrischer Rundfunk"}, {"title": "Eisb\u00e4ren Berlin sind zum zehnten Mal deutscher Eishockey-Meister", "url": "https://www.br.de/nachrichten/meldungen/index.html#n9", "thumbnailUrl": null, "date": "2024-04-26T21:59:10+02:00", "lat": 48.5844, "lon": 13.6722, "intensity": 0.8, "source": "Bayrischer Rundfunk"}, {"title": "Sankt Pauli nimmt nach Sieg gegen Rostock Kurs auf den Bundesliga-Aufstieg", "url": "https://www.br.de/nachrichten/meldungen/index.html#n10", "thumbnailUrl": null, "date": "2024-04-26T21:59:10+02:00", "lat": 53.5396, "lon": 8.5761, "intensity": 0.4, "source": "Bayrischer Rundfunk"}, {"title": "Das Wetter: In der Nacht vielerorts klar oder locker bew\u00f6lkt", "url": "https://www.br.de/nachrichten/meldungen/index.html#n11", "thumbnailUrl": null, "date": "2024-04-26T21:59:10+02:00", "lat": 48.1351, "lon": 11.582, "intensity": 0.3, "source": "Bayrischer Rundfunk"}, {"title": "Spender stellen Kaution f\u00fcr gek\u00fcndigten 84-J\u00e4hrigen Mieter in Reinickendorf bereit", "url": "https://www.rbb24.de/panorama/beitrag/2024/04/mieter-84-jahre-berlin-reinickendorf-kleinkleckersdorf-raeumung-spender-zahlen-kaution.html", "thumbnailUrl": null, "date": "Fri, 26 Apr 2024 22:41:21 +0200", "lat": 52.5994, "lon": 13.3154, "intensity": 0.7, "source": "RBB"}, {"title": "Regionalliga Nordost: BFC Dynamo verliert in Rostock und den Anschluss an die Tabellenspitze", "url": "https://www.rbb24.de/sport/beitrag/2024/04/fussball-regionalliga-nordost-rostock-bfc-dynamo-altglienicke-eilenburg-chemie-leipzig-babelsberg.html", "thumbnailUrl": null, "date": "Fri, 26 Apr 2024 22:21:24 +0200", "lat": 54.0834, "lon": 12.0991, "intensity": 0.7, "source": "RBB"},