[{"title": "++ US-Milit\u00e4rbasis in Syrien vom Irak aus angegriffen ++", "url": "https://www.tagesschau.de/newsticker/liveblog-nahost-montag-132.html", "thumbnailUrl": "https://images.tagesschau.de/image/e365725b-db56-4c07-9bf6-67c7b59cc4a7/AAABhnRDex8/AAABjcWesUg/16x9-512.jpg", "date": "2024-04-22T03:21:08.777+02:00", "lat": 34.8021, "lon": 38.9853, "intensity": 0.8, "source": "Tagesschau"}, {"title": "Hat die Strategie des Staatsanwalts eine Chance?", "url": "https://www.tagesschau.de/ausland/amerika/alan-bragg-100.html", "thumbnailUrl": "https://images.tagesschau.de/image/b63db269-a6d3-4dd9-8a05-9e2d48c5c25a/AAABjwMrqD0/AAABjcWesUg/16x9-512.jpg", "date": "2024-04-22T02:19:04.162+02:00", "lat": 37.0902, "lon": -95.7129, "intensity": 0.8, "source": "Tagesschau"}, {"title": "Zehntausende protestieren gegen Pr\u00e4sident Petro", "url": "https://www.tagesschau.de/ausland/amerika/kolumbien-demo-petro-100.html", "thumbnailUrl": "https://images.tagesschau.de/image/2a6b47c6-9408-442e-9948-6f7c56a41e7e/AAABjwMSoIE/AAABjcWesUg/16x9-512.jpg", "date": "2024-04-22T02:15:56.059+02:00", "lat": 4.710989, "lon": -74.081749, "intensity": 0.8, "source": "Tagesschau"}, {"title": "Autofahrer rammt in Eutingen im G\u00e4u einen Oberleitungsmast", "url": "https://www.tagesschau.de/inland/regional/badenwuerttemberg/swr-autofahrer-rammt-in-eutingen-im-gaeu-einen-oberleitungsmasten-100.html", "thumbnailUrl": "https://images.tagesschau.de/image/693b4b7a-e853-4ac4-a23f-02f106c2d6e9/AAABjwJAVaM/AAABjcWesUg/16x9-512.jpg", "date": "2024-04-22T01:57:00.000+02:00", "lat": 48.4919, "lon": 8.615, "intensity": 0.7, "source": "Tagesschau"}, {"title": "Hannover Messe: Kanzler Scholz hofft auf Impulse f\u00fcr Energiewende", "url": "https://www.tagesschau.de/inland/regional/niedersachsen/ndr-hannover-messe-2024-ki-als-chance-fuer-die-industrie-100.html", "thumbnailUrl": "https://images.tagesschau.de/image/b38a3672-9fcb-4869-a779-7804704692f8/AAABjwINFKU/AAABjcWesUg/16x9-512.jpg", "date": "2024-04-22T00:01:00.000+02:00", "lat": 52.3759, "lon": 9.7332, "intensity": 0.7, "source": "Tagesschau"}, {"title": "++ Explosion auf Schiff im Hafen von Sewastopol ++", "url": "https://www.tagesschau.de/newsticker/liveblog-ukraine-sonntag-416.html", "thumbnailUrl": "https://images.tagesschau.de/image/a542c53e-b48b-40d3-a6c6-c0f723bb65ac/AAABjoXjyTk/AAABjcWesUg/16x9-512.jpg", "date": "2024-04-21T22:56:33.291+02:00", "lat": 44.6166, "lon": 33.5138, "intensity": 0.8, "source": "Tagesschau"}, {"title": "++ Generalstabschef Halevi billigt weitere Kriegspl\u00e4ne ++", "url": "https://www.tagesschau.de/newsticker/liveblog-nahost-sonntag-132.html", "thumbnailUrl": "https://images.tagesschau.de/image/5d66177f-1be2-45f6-951f-b81f63bbf5f3/AAABjwIIAeY/AAABjcWesUg/16x9-512.jpg", "date": "2024-04-21T22:56:16.210+02:00", "lat": 31.0, "lon": 35.0, "intensity": 0.8, "source": "Tagesschau"}, {"title": "72 Stunden f\u00fcr eine bessere Welt", "url": "https://www.tagesschau.de/inland/regional/saarland/sr-72-stunden-fuer-eine-bessere-welt-100.html", "thumbnailUrl": "https://images.tagesschau.de/image/d559b48e-1126-4f0a-9b90-64b50fba6e65/AAABjwAFEQk/AAABjcWesUg/16x9-512.jpg", "date": "2024-04-21T22:06:00.000+02:00", "lat": 49.3964, "lon": 6.9631, "intensity": 0.7, "source": "Tagesschau"}, {"title": "Deutsche Staatsb\u00fcrgerschaft: Deutlich mehr Einb\u00fcrgerungen in Brandenburg", "url": "https://www.tagesschau.de/inland/regional/brandenburg/rbb-deutsche-staatsbuergerschaft-deutlich-mehr-einbuergerungen-in-brandenburg-100.html", "thumbnailUrl": "https://images.tagesschau.de/image/78b891a4-fc15-4700-b912-a1fba8a95482/AAABjwI62i8/AAABjcWesUg/16x9-512.jpg", "date": "2024-04-21T21:53:29.000+02:00", "lat": 52.5013, "lon": 13.1815, "intensity": 0.7, "source": "Tagesschau"}, {"title": "Kultur: +++ Lichter Filmfest in Frankfurt endet +++ Kulturpreis an Opernintendant Loebe verliehen +++ Mirjam-Pressler-Ausstellung in Frankfurt +++", "url": "https://www.tagesschau.de/inland/regional/hessen/hr--schauspiel-frankfurt-bringt-putin-und-macbeth-zusammen--die-filmfestival-saison-2023-startet--lichter-filmfest-zum-thema-liebe-startet-am-dienstag-100.html", "thumbnailUrl": "https://images.tagesschau.de/image/4945f4b0-31ca-4823-9da4-31d8b0749439/AAABjwFsDTw/AAABjcWesUg/16x9-512.jpg", "date": "2024-04-21T21:52:59.162+02:00", "lat": 50.110922, "lon": 8.682127, "intensity": 0.7, "source": "Tagesschau"}, {"title": "Fokus auf KI und Energiewende", "url": "https://www.tagesschau.de/wirtschaft/unternehmen/hannover-messe-industrie-100.html", "thumbnailUrl": "https://images.tagesschau.de/image/8a6e454b-1a04-4a59-85ea-a25fe92446f0/AAABjwIvAV0/AAABjcWesUg/16x9-512.jpg", "date": "2024-04-21T21:43:06.735+02:00", "lat": 52.3759, "lon": 9.8055, "intensity": 0.8, "source": "Tagesschau"}, {"title": "Burkardt-Tor sichert Mainz einen Ausw\u00e4rtspunkt in Freiburg ", "url": "https://www.tagesschau.de/inland/regional/rheinlandpfalz/swr-burkardt-tor-sichert-mainz-einen-auswaertspunkt-in-freiburg-100.html", "thumbnailUrl": "https://images.tagesschau.de/image/d65f8f5b-f989-426a-9048-a32395d9e0a5/AAABjwIk4Cg/AAABjcWesUg/16x9-512.jpg", "date": "2024-04-21T21:35:00.000+02:00", "lat": 49.017, "lon": 7.849, "intensity": 0.6, "source": "Tagesschau"}, {"title": "Verfassungsschutzchef fordert KI-Einsatz gegen Extremismus", "url": "https://www.tagesschau.de/inland/regional/nordrheinwestfalen/wdr-verfassungsschutzchef-fordert-ki-einsatz-gegen-extremismus-100.html", "thumbnailUrl": "https://images.tagesschau.de/image/4a08b6df-1c6d-4fd7-a195-f7fac903e727/AAABjwIohsg/AAABjcWesUg/16x9-512.jpg", "date": "2024-04-21T21:28:00.000+02:00", "lat": 51.4818, "lon": 7.6261, "intensity": 0.7, "source": "Tagesschau"}, {"title": "Eintracht: +++ Mainzer Hilfe f\u00fcr die Eintracht +++ Sommer-Trainingslager in den USA +++ Ekitik\u00e9 sieht noch Luft nach oben +++", "url": "https://www.tagesschau.de/inland/regional/hessen/hr--eintracht-wohl-mit-chaibi-einig--glasner-fast-nur-kolo-muani-der-tore-erzielt--bericht-eintracht-sagt-aouar-ab-100.html", "thumbnailUrl": "https://images.tagesschau.de/image/8ede3ef3-37fb-4724-bbb9-db8bbd6e8a1d/AAABjwIhbbk/AAABjcWesUg/16x9-512.jpg", "date": "2024-04-21T21:27:51.517+02:00", "lat": 50.110922, "lon": 8.682127, "intensity": 0.6, "source": "Tagesschau"}, {"title": "Mann bedroht in Mainz Schwiegereltern - Festnahme", "url": "https://www.tagesschau.de/inland/regional/rheinlandpfalz/swr-mann-bedroht-in-mainz-schwiegereltern-festnahme-100.html", "thumbnailUrl": "https://images.tagesschau.de/image/22ccac3c-35f6-42ac-9fa1-4c53cb4b9993/AAABjwIfYCA/AAABjcWesUg/16x9-512.jpg", "date": "2024-04-21T21:20:00.000+02:00", "lat": 50.012798, "lon": 8.247252, "intensity": 0.7, "source": "Tagesschau"}, {"title": "98:92 gegen Bamberg: Alba setzt Siegesserie fort", "url": "https://www.tagesschau.de/inland/regional/berlin/rbb-9892-gegen-bamberg-alba-setzt-siegesserie-fort-102.html", "thumbnailUrl": "https://images.tagesschau.de/image/7c92b888-8996-41bd-ba27-064a4e08ec73/AAABjwICJi4/AAABjcWesUg/16x9-512.jpg", "date": "2024-04-21T20:50:10.000+02:00", "lat": 52.520008, "lon": 13.404954, "intensity": 0.8, "source": "Tagesschau"}, {"title": "Mit Spezialgeschirr und Traktor: Kuh aus Bach bei Bonn gerettet", "url": "https://www.tagesschau.de/inland/regional/nordrheinwestfalen/wdr-mit-spezialgeschirr-und-traktor-kuh-aus-bach-bei-bonn-gerettet-100.html", "thumbnailUrl": "https://images.tagesschau.de/image/a8245a4c-c1da-4156-81b9-664f6a9856b3/AAABjwH46xQ/AAABjcWesUg/16x9-512.jpg", "date": "2024-04-21T20:43:00.000+02:00", "lat": 50.7359, "lon": 7.0868, "intensity": 0.7, "source": "Tagesschau"}, {"title": "Schnee und glatte Stra\u00dfen in NRW - auch neue Woche startet mit Frost", "url": "https://www.tagesschau.de/inland/regional/nordrheinwestfalen/wdr-wetter-in-nrw-viel-regen-und-kaum-sonne-am-wochenende-100.html", "thumbnailUrl": "https://images.tagesschau.de/image/d01a448f-9c32-4cfd-9ddc-ed41c5167e42/AAABjwHjEr0/AAABjcWesUg/16x9-512.jpg", "date": "2024-04-21T20:07:00.000+02:00", "lat": 51.9607, "lon": 7.6169, "intensity": 0.6, "source": "Tagesschau"}, {"title": "Reisebus mit 67 Sch\u00fclern auf A45 verungl\u00fcckt", "url": "https://www.tagesschau.de/inland/regional/nordrheinwestfalen/unfall-reisebus-nrw-100.html", "thumbnailUrl": "https://images.tagesschau.de/image/fd5d3b70-cb86-4ccb-9c42-a49768339883/AAABjwHi9lM/AAABjcWesUg/16x9-512.jpg", "date": "2024-04-21T20:04:00.000+02:00", "lat": 51.4818, "lon": 7.5926, "intensity": 0.8, "source": "Tagesschau"}, {"title": "Fliegenfischer zeigen Angelkunst im Strandbad Farmsen", "url": "https://www.tagesschau.de/inland/regional/hamburg/ndr-fliegenfischer-zeigen-angelkunst-im-strandbad-farmsen-100.html", "thumbnailUrl": "https://images.tagesschau.de/image/2718514e-f8c3-4c99-aa63-99b8a6508f1d/AAABjwEJGHU/AAABjcWesUg/16x9-512.jpg", "date": "2024-04-21T20:04:00.000+02:00", "lat": 53.6346, "lon": 10.1079, "intensity": 0.2, "source": "Tagesschau"}, {"title": "2:1-Sieg in Spiel drei: Eisb\u00e4ren Berlin sichern sich nach doppelter Overtime in Bremerhaven Final-F\u00fchrung", "url": "https://www.tagesschau.de/inland/regional/berlin/rbb-jetzt-live-hoeren-und-im-ticker-eisbaeren-treten-zu-drittem-finalspiel-in-bremerhaven-an-102.html", "thumbnailUrl": "https://images.tagesschau.de/image/b19f8f1f-329c-493f-9dce-3451fbd1961b/AAABjwG3C4k/AAABjcWesUg/16x9-512.jpg", "date": "2024-04-21T19:30:54.000+02:00", "lat": 52.520008, "lon": 13.404954, "intensity": 0.8, "source": "Tagesschau"}, {"title": "Kassel Huskies verlieren Spiel f\u00fcnf der Playoffs gegen Regensburg", "url": "https://www.tagesschau.de/inland/regional/hessen/hr-kassel-huskies-verlieren-spiel-fuenf-der-playoffs-gegen-regensburg-102.html", "thumbnailUrl": "https://images.tagesschau.de/image/ceec4730-99cb-44c8-904f-36dd9108e61a/AAABjwHFqjo/AAABjcWesUg/16x9-512.jpg", "date": "2024-04-21T19:30:36.069+02:00", "lat": 51.3127, "lon": 9.4895, "intensity": 0.7, "source": "Tagesschau"}, {"title": "Meyer Werft: Kreuzfahrtschiff \"Silver Ray\" hat Nordsee erreicht", "url": "https://www.tagesschau.de/inland/regional/niedersachsen/ndr-meyer-werft-ueberfuehrt-ultra-luxus-kreuzfahrtschiff-silver-ray-100.html", "thumbnailUrl": "https://images.tagesschau.de/image/248d1f9e-80d3-4533-85d1-1167ddea88e9/AAABjwG3JgY/AAABjcWesUg/16x9-512.jpg", "date": "2024-04-21T19:29:00.000+02:00", "lat": 53.1438, "lon": 7.18333, "intensity": 0.6, "source": "Tagesschau"}, {"title": "Gericht entscheidet: Fahrrad-Demo auf A39 verboten", "url": "https://www.tagesschau.de/inland/regional/niedersachsen/ndr-streit-um-fahrrad-demo-auf-der-a39-bei-bardowick-100.html", "thumbnailUrl": "https://images.tagesschau.de/image/96c75c9d-3e95-4554-9e6f-b7d2989ed025/AAABjvwFryw/AAABjcWesUg/16x9-512.jpg", "date": "2024-04-21T19:16:00.000+02:00", "lat": 53.3167, "lon": 10.4167, "intensity": 0.8, "source": "Tagesschau"}, {"title": "Herthas 2:3 in Karlsruhe in der Analyse: Eine vielversprechende Niederlage", "url": "https://www.tagesschau.de/inland/regional/berlin/rbb-herthas-23-in-karlsruhe-in-der-analyse-eine-vielversprechende-niederlage-102.html", "thumbnailUrl": "https://images.tagesschau.de/image/fa39b9c5-948f-4218-a05a-0c0947df7583/AAABjwFdZk8/AAABjcWesUg/16x9-512.jpg", "date": "2024-04-21T19:11:30.000+02:00", "lat": 52.52, "lon": 13.4023, "intensity": 0.7, "source": "Tagesschau"}, {"title": "Wetterlage und Temperaturen", "url": "https://www.tagesschau.de/wetter/europa-welt", "thumbnailUrl": "https://images.tagesschau.de/image/6e7d3b16-79c8-4308-822b-20c3035236b5/AAABjwGa0iY/AAABjcWesUg/16x9-512.jpg", "date": "2024-04-21T19:01:15.069+02:00", "lat": 51.1657, "lon": 10.4515, "intensity": 0.3, "source": "Tagesschau"}, {"title": "Gewalt gegen Polizisten und Politiker - was tun?", "url": "https://www.tagesschau.de/inland/regional/rheinlandpfalz/swr-gewalt-gegen-polizisten-und-politiker-was-tun-102.html", "thumbnailUrl": "https://images.tagesschau.de/image/9c61a24d-989c-45e2-aded-076f459ecf3e/AAABjwGdg6w/AAABjcWesUg/16x9-512.jpg", "date": "2024-04-21T18:57:10.000+02:00", "lat": 49.9929, "lon": 8.2718, "intensity": 0.8, "source": "Tagesschau"}, {"title": "Hass-Schmierereien in Obrigheim \u2013 Polizei ermittelt", "url": "https://www.tagesschau.de/inland/regional/rheinlandpfalz/swr-hass-schmierereien-in-obrigheim--polizei-ermittelt-100.html", "thumbnailUrl": "https://images.tagesschau.de/image/6fb801cc-4fc0-4001-9075-0e01c292183a/AAABjwGdkks/AAABjcWesUg/16x9-512.jpg", "date": "2024-04-21T18:50:01.000+02:00", "lat": 49.3482, "lon": 8.2248, "intensity": 0.7, "source": "Tagesschau"}, {"title": "Regionalliga Nordost der Frauen: Union feiert h\u00f6chsten Saisonsieg, Viktoria schl\u00e4gt Hertha", "url": "https://www.tagesschau.de/inland/regional/brandenburg/rbb-regionalliga-nordost-der-frauen-union-feiert-hoechsten-saisonsieg-viktoria-schlaegt-hertha-102.html", "thumbnailUrl": "https://images.tagesschau.de/image/7161a719-087a-441d-a8c3-b20db3c3296f/AAABjwF6sXg/AAABjcWesUg/16x9-512.jpg", "date": "2024-04-21T18:23:47.000+02:00", "lat": 52.520008, "lon": 13.404954, "intensity": 0.7, "source": "Tagesschau"}, {"title": "Sch\u00fclervertretungen besorgt: Mehr rechtsextreme F\u00e4lle an Schulen gemeldet", "url": "https://www.tagesschau.de/inland/regional/brandenburg/rbb-schuelervertretungen-besorgt-mehr-rechtsextreme-faelle-an-schulen-gemeldet-100.html", "thumbnailUrl": "https://images.tagesschau.de/image/15f4a2dd-fd27-4345-af95-16f5e85118a0/AAABjwFxqUk/AAABjcWesUg/16x9-512.jpg", "date": "2024-04-21T18:13:17.000+02:00", "lat": 52.520008, "lon": 13.404954, "intensity": 0.8, "source": "Tagesschau"}, {"title": "Noch Hunderte offene Corona-Bu\u00dfgeld-Verfahren im Saarland", "url": "https://www.tagesschau.de/inland/regional/saarland/sr-noch-hunderte-offene-corona-bussgeld-verfahren-im-saarland-100.html", "thumbnailUrl": "https://images.tagesschau.de/image/7321ff16-38d6-478d-87b8-9e595dd4824b/AAABjv9Y6d8/AAABjcWesUg/16x9-512.jpg", "date": "2024-04-21T18:04:00.000+02:00", "lat": 49.3964, "lon": 6.9964, "intensity": 0.4, "source": "Tagesschau"}, {"title": "Vor 20 Jahren: Zwei Bundeswehr-Tornados st\u00fcrzen bei Tating ab", "url": "https://www.tagesschau.de/inland/regional/schleswigholstein/ndr-vor-20-jahren-zwei-bundeswehr-tornados-stuerzen-bei-tating-ab-100.html", "thumbnailUrl": "https://images.tagesschau.de/image/73ae799a-c172-4ed8-856a-7a373df22ffd/AAABjv6YwZ0/AAABjcWesUg/16x9-512.jpg", "date": "2024-04-21T18:00:00.000+02:00", "lat": 54.342, "lon": 8.899, "intensity": 0.7, "source": "Tagesschau"}, {"title": "Auto \u00fcberschl\u00e4gt sich auf der L 422 bei Dunningen", "url": "https://www.tagesschau.de/inland/regional/badenwuerttemberg/swr-auto-ueberschlaegt-sich-auf-der-l-422-bei-dunningen-100.html", "thumbnailUrl": "https://images.tagesschau.de/image/94b8a7d8-398a-456a-b39e-d15444ee1ef6/AAABjwF6l1E/AAABjcWesUg/16x9-512.jpg", "date": "2024-04-21T17:57:21.000+02:00", "lat": 48.2424, "lon": 8.5702, "intensity": 0.7, "source": "Tagesschau"}, {"title": "Hamburger Fr\u00fchlingsdom 2024 endet - 1,3 Millionen Besucher", "url": "https://www.tagesschau.de/inland/regional/hamburg/ndr-hamburger-fruehlingsdom-2024-geht-nach-vier-wochen-zu-ende-100.html", "thumbnailUrl": "https://images.tagesschau.de/image/88e99f94-1d7c-4bfd-9c83-efece0807756/AAABjvx44YI/AAABjcWesUg/16x9-512.jpg", "date": "2024-04-21T17:56:00.000+02:00", "lat": 53.5511, "lon": 9.984, "intensity": 0.5, "source": "Tagesschau"}, {"title": "Delikte von Gefl\u00fcchteten: Einzelne f\u00fcr Gro\u00dfteil der Straftaten verantwortlich", "url": "https://www.tagesschau.de/inland/regional/hessen/hr-delikte-von-gefluechteten-einzelne-fuer-grossteil-der-straftaten-verantwortlich-100.html", "thumbnailUrl": "https://images.tagesschau.de/image/08112624-f5e7-46ef-a8f6-6865d44ce26a/AAABjwFdSnU/AAABjcWesUg/16x9-512.jpg", "date": "2024-04-21T17:53:43.382+02:00", "lat": 50.557, "lon": 9.692, "intensity": 0.8, "source": "Tagesschau"}, {"title": "Norderelbbr\u00fccke: Bauarbeiten behindern Verkehr auf der A1", "url": "https://www.tagesschau.de/inland/regional/hamburg/ndr-norderelbbruecke-100.html", "thumbnailUrl": "https://images.tagesschau.de/image/2119720b-227d-4b09-8231-ed268c71b979/AAABjwFZt50/AAABjcWesUg/16x9-512.jpg", "date": "2024-04-21T17:46:00.000+02:00", "lat": 53.541556, "lon": 9.999518, "intensity": 0.6, "source": "Tagesschau"}, {"title": "Polizei Betzdorf: Ungew\u00f6hnlicher Einsatz wegen Fahrerflucht", "url": "https://www.tagesschau.de/inland/regional/rheinlandpfalz/swr-polizei-betzdorf-ungewoehnlicher-einsatz-wegen-fahrerflucht-102.html", "thumbnailUrl": "https://images.tagesschau.de/image/94b8a7d8-398a-456a-b39e-d15444ee1ef6/AAABjwF6l1E/AAABjcWesUg/16x9-512.jpg", "date": "2024-04-21T17:38:34.000+02:00", "lat": 50.8258, "lon": 7.9395, "intensity": 0.4, "source": "Tagesschau"}, {"title": "Erste pflegebed\u00fcrftige Obdachlose kommen nach Niendorf", "url": "https://www.tagesschau.de/inland/regional/hamburg/ndr-erste-pflegebeduerftige-obdachlose-kommen-nach-niendorf-100.html", "thumbnailUrl": "https://images.tagesschau.de/image/4791ee66-dfd8-4ccd-a790-c112192b082d/AAABjwFQj8k/AAABjcWesUg/16x9-512.jpg", "date": "2024-04-21T17:30:00.000+02:00", "lat": 53.6532, "lon": 9.9542, "intensity": 0.7, "source": "Tagesschau"}, {"title": "Interview | Ein Jahr Regierender Kai Wegner: \"Ich wei\u00df wirklich nicht, wann ich das letzte Mal sieben Stunden geschlafen habe\"", "url": "https://www.tagesschau.de/inland/regional/berlin/rbb-interview-mit-kai-wegner--365-tage-regierender-ich-pflege-eine-sehr-gute-zusammenarbeit-mit-allen-zwoelf-bezirksbuergermeistern-100.html", "thumbnailUrl": "https://images.tagesschau.de/image/71740e02-0d6f-445f-91a1-aff72a9302ec/AAABjv9MNTw/AAABjcWesUg/16x9-512.jpg", "date": "2024-04-21T17:23:38.000+02:00", "lat": 52.520008, "lon": 13.404954, "intensity": 0.7, "source": "Tagesschau"}, {"title": "3:0-Erfolg in Babelsberg: Energie Cottbus verteidigt mit Derbysieg die Tabellenspitze", "url": "https://www.tagesschau.de/inland/regional/brandenburg/rbb-30-erfolg-in-babelsberg-energie-cottbus-springt-mit-derbysieg-zurueck-an-die-tabellenspitze-102.html", "thumbnailUrl": "https://images.tagesschau.de/image/23edbc05-cad2-4319-a029-5c77f5c6e480/AAABjwFDqvM/AAABjcWesUg/16x9-512.jpg", "date": "2024-04-21T17:23:10.000+02:00", "lat": 52.3931, "lon": 13.0814, "intensity": 0.7, "source": "Tagesschau"}, {"title": "47:68 gegen Titelverteidiger Keltern: Albas Basketballerinnen im zweiten Finalspiel chancenlos", "url": "https://www.tagesschau.de/inland/regional/berlin/rbb-4768-gegen-titelverteidiger-keltern-albas-basketballerinnen-im-zweiten-finalspiel-chancenlos-102.html", "thumbnailUrl": "https://images.tagesschau.de/image/d73e9bf8-5814-4b79-a36d-caecd9fc90eb/AAABjwEfEa8/AAABjcWesUg/16x9-512.jpg", "date": "2024-04-21T17:15:16.000+02:00", "lat": 52.520008, "lon": 13.404954, "intensity": 0.8, "source": "Tagesschau"}, {"title": "Tote bei neuer Gewalt im Westjordanland", "url": "https://www.tagesschau.de/ausland/asien/generalstreik-westjordanland-100.html", "thumbnailUrl": "https://images.tagesschau.de/image/91502ba7-6caa-4191-88d9-f8f9bd9f4e6b/AAABjwDVKEc/AAABjcWesUg/16x9-512.jpg", "date": "2024-04-21T17:09:12.839+02:00", "lat": 31.94657, "lon": 35.302722, "intensity": 0.8, "source": "Tagesschau"}, {"title": "Pleite im Duell unter Freunden: Hertha BSC verliert beim KSC mit 2:3", "url": "https://www.tagesschau.de/inland/regional/berlin/rbb-jetzt-live-hoeren-und-im-ticker-haelt-herthas-erfolgsserie-auch-in-karlsruhe-an-102.html", "thumbnailUrl": "https://images.tagesschau.de/image/187b2e3d-68a3-48cc-b5fb-1b396a9a6741/AAABjwFdZ88/AAABjcWesUg/16x9-512.jpg", "date": "2024-04-21T16:59:11.000+02:00", "lat": 52.52001, "lon": 13.37594, "intensity": 0.8, "source": "Tagesschau"}, {"title": "Geschwister verzweifeln: \u00c4rger mit z\u00e4her Kontoaufl\u00f6sung nach Erbfall", "url": "https://www.tagesschau.de/inland/regional/badenwuerttemberg/swr-geschwister-verzweifeln-aerger-mit-zaeher-kontoaufloesung-nach-erbfall-100.html", "thumbnailUrl": "https://images.tagesschau.de/image/0f44147a-f138-4ab5-a50e-9ea89b53e037/AAABjwGdZsI/AAABjcWesUg/16x9-512.jpg", "date": "2024-04-21T16:53:27.000+02:00", "lat": 48.6616, "lon": 9.9937, "intensity": 0.5, "source": "Tagesschau"}, {"title": "\"Kein Anlass\": Staatsregierung gibt Corona-Akten nicht raus", "url": "https://www.tagesschau.de/inland/regional/bayern/br-kein-anlass-staatsregierung-gibt-corona-akten-nicht-raus-102.html", "thumbnailUrl": "https://images.tagesschau.de/image/2de9630e-3a21-44f8-b64b-42e879283c6a/AAABjwEdPIg/AAABjcWesUg/16x9-512.jpg", "date": "2024-04-21T16:43:40.529+02:00", "lat": 48.7706, "lon": 11.4979, "intensity": 0.5, "source": "Tagesschau"}, {"title": "Fridays for Future: Vom Sch\u00fclerstreik zur politischen Bewegung", "url": "https://www.tagesschau.de/inland/regional/schleswigholstein/ndr-fridays-for-future-vom-schuelerstreik-zur-politischen-bewegung-100.html", "thumbnailUrl": "https://images.tagesschau.de/image/b026cede-fd46-4825-a832-610f5ec94c05/AAABjwFi32w/AAABjcWesUg/16x9-512.jpg", "date": "2024-04-21T16:42:00.000+02:00", "lat": 54.3282, "lon": 9.9888, "intensity": 0.8, "source": "Tagesschau"}, {"title": "Gilt die Winterreifenpflicht auch im Fr\u00fchjahr bei Schnee und Eis?", "url": "https://www.tagesschau.de/inland/regional/nordrheinwestfalen/wdr-gilt-die-winterreifenpflicht-auch-im-fruehjahr-bei-schnee-und-eis-100.html", "thumbnailUrl": "https://images.tagesschau.de/image/a50c8404-fe66-4fc5-b71b-27c6387f75fa/AAABjwFFd-E/AAABjcWesUg/16x9-512.jpg", "date": "2024-04-21T16:41:00.000+02:00", "lat": 51.9607, "lon": 7.5957, "intensity": 0.7, "source": "Tagesschau"}, {"title": "Zu viele Patzer: Hansa Rostock verliert gegen 1. FC Magdeburg", "url": "https://www.tagesschau.de/inland/regional/mecklenburgvorpommern/ndr-zu-viele-patzer-hansa-rostock-verliert-gegen-1-fc-magdeburg-102.html", "thumbnailUrl": "https://images.tagesschau.de/image/1000c97d-978c-4717-b83f-c74b09459047/AAABjwDXrj0/AAABjcWesUg/16x9-512.jpg", "date": "2024-04-21T16:41:00.000+02:00", "lat": 54.0805, "lon": 12.1496, "intensity": 0.7, "source": "Tagesschau"}, {"title": "Starke Schneef\u00e4lle vor allem in der Mitte Deutschlands", "url": "https://www.tagesschau.de/inland/winter-wetter-138.html", "thumbnailUrl": "https://images.tagesschau.de/image/976eecce-e83c-4e3f-a7eb-706df3fee295/AAABjv_OcHw/AAABjcWesUg/16x9-512.jpg", "date": "2024-04-21T16:38:41.363+02:00", "lat": 51.1657, "lon": 10.4515, "intensity": 0.8, "source": "Tagesschau"}, {"title": "Darknet-Experte \u00fcber sexuelle Gewalt im Internet: \"Potenziell ist jedes Kind betroffen\"", "url": "https://www.tagesschau.de/inland/regional/brandenburg/rbb-darknet-experte-ueber-sexuelle-gewalt-im-internet-potenziell-ist-jedes-kind-betroffen-100.html", "thumbnailUrl": "https://images.tagesschau.de/image/1c10740d-0b8f-43be-92eb-9c62777cf2fa/AAABjwExXbw/AAABjcWesUg/16x9-512.jpg", "date": "2024-04-21T16:38:05.000+02:00", "lat": 52.4125, "lon": 13.0583, "intensity": 0.8, "source": "Tagesschau"}, {"title": "Die Th\u00fcringer \"Waldb\u00fcrger-Initiative\": Zwischen Umweltengagement und rechtsextremer Agitation", "url": "https://www.tagesschau.de/inland/regional/thueringen/mdr-die-thueringer-waldbuerger-initiative-zwischen-umweltengagement-und-rechtsextremer-agitation-100.html", "thumbnailUrl": "https://images.tagesschau.de/image/c6a58940-4417-487a-adcb-1a89ea317b76/AAABjwLhfPo/AAABjcWesUg/16x9-512.jpg", "date": "2024-04-21T16:22:34.000+02:00", "lat": 50.9787, "lon": 11.3032, "intensity": 0.4, "source": "Tagesschau"}, {"title": "Handball-Bundesliga: F\u00fcchse Berlin nur mit Remis in packendem Spitzenspiel gegen Kiel", "url": "https://www.tagesschau.de/inland/regional/berlin/rbb-handball-bundesliga-fuechse-berlin-nur-mit-remis-in-packendem-spitzenspiel-gegen-kiel-102.html", "thumbnailUrl": "https://images.tagesschau.de/image/7f139ae9-8434-4114-a60e-177d5311ac77/AAABjwEDp8A/AAABjcWesUg/16x9-512.jpg", "date": "2024-04-21T16:20:51.000+02:00", "lat": 52.52, "lon": 13.405, "intensity": 0.8, "source": "Tagesschau"}, {"title": "Berliner Abgeordnetenhaus: Saleh will SPD-Fraktionschef bleiben", "url": "https://www.tagesschau.de/inland/regional/berlin/rbb-berliner-abgeordnetenhaus-saleh-will-spd-fraktionschef-bleiben-100.html", "thumbnailUrl": "https://images.tagesschau.de/image/57d2b029-92b5-400c-bb2a-41f042f62b18/AAABjwD-GHc/AAABjcWesUg/16x9-512.jpg", "date": "2024-04-21T16:06:08.000+02:00", "lat": 52.52437, "lon": 13.41053, "intensity": 0.6, "source": "Tagesschau"}, {"title": "Regionalliga S\u00fcdwest: FSV Frankfurt d\u00fcpiert den Tabellenf\u00fchrer ", "url": "https://www.tagesschau.de/inland/regional/hessen/hr-regionalliga-suedwest-fsv-frankfurt-duepiert-den-tabellenfuehrer-102.html", "thumbnailUrl": "https://images.tagesschau.de/image/43296027-21ae-47c0-92b1-badfedcc882b/AAABjwEDl5I/AAABjcWesUg/16x9-512.jpg", "date": "2024-04-21T16:03:30.072+02:00", "lat": 50.121, "lon": 8.6706, "intensity": 0.8, "source": "Tagesschau"}, {"title": "VfB L\u00fcbeck: Definitiver Abstieg noch einmal aufgeschoben", "url": "https://www.tagesschau.de/inland/regional/schleswigholstein/ndr-vfb-luebeck-abstieg-vielleicht-nur-noch-eine-frage-von-stunden-102.html", "thumbnailUrl": "https://images.tagesschau.de/image/3830d571-e5d1-41ac-bc0b-e70e8acb60c6/AAABjwD44zM/AAABjcWesUg/16x9-512.jpg", "date": "2024-04-21T16:01:00.000+02:00", "lat": 53.87464, "lon": 10.69938, "intensity": 0.8, "source": "Tagesschau"}, {"title": "Zweite Liga: Turbine gewinnt auch in Hoffenheim", "url": "https://www.tagesschau.de/inland/regional/brandenburg/rbb-zweite-liga-turbine-gewinnt-auch-in-hoffenheim-102.html", "thumbnailUrl": "https://images.tagesschau.de/image/b2267a26-4315-4142-8de4-daf83413a2ad/AAABjwD4uFE/AAABjcWesUg/16x9-512.jpg", "date": "2024-04-21T16:00:57.000+02:00", "lat": 52.3789, "lon": 12.4309, "intensity": 0.7, "source": "Tagesschau"}, {"title": "Harzer Wandernadel mit neuen Stempelstellen", "url": "https://www.tagesschau.de/inland/regional/sachsenanhalt/mdr-harzer-wandernadel-mit-neuen-stempelstellen-100.html", "thumbnailUrl": "https://images.tagesschau.de/image/cf7b5db9-dc7b-44d5-b212-1a02862626a7/AAABjwLh-7E/AAABjcWesUg/16x9-512.jpg", "date": "2024-04-21T15:58:59.000+02:00", "lat": 51.717, "lon": 11.1149, "intensity": 0.4, "source": "Tagesschau"}, {"title": "Ahaus: Demo gegen geplante Castor-Transporte", "url": "https://www.tagesschau.de/inland/regional/nordrheinwestfalen/wdr-ahaus-demo-gegen-geplante-castor-transporte-100.html", "thumbnailUrl": "https://images.tagesschau.de/image/9f9c63ea-a270-4779-a3b6-475bbfa49514/AAABjwH8lCY/AAABjcWesUg/16x9-512.jpg", "date": "2024-04-21T15:57:00.000+02:00", "lat": 52.1004, "lon": 7.0166, "intensity": 0.7, "source": "Tagesschau"}, {"title": "18-j\u00e4hriger Radfahrer bei Unfall in Jever schwer verletzt", "url": "https://www.tagesschau.de/inland/regional/niedersachsen/ndr-18-jaehriger-radfahrer-bei-unfall-in-jever-schwer-verletzt-100.html", "thumbnailUrl": "https://images.tagesschau.de/image/727dcba6-ac88-4df8-82af-54be1d2418f9/AAABjwD41Q4/AAABjcWesUg/16x9-512.jpg", "date": "2024-04-21T15:55:00.000+02:00", "lat": 53.5737, "lon": 7.8947, "intensity": 0.8, "source": "Tagesschau"}, {"title": "Autofahrer stirbt im Hunsr\u00fcck - Glatteisunf\u00e4lle auf der A1 in der Eifel", "url": "https://www.tagesschau.de/inland/regional/rheinlandpfalz/swr-autofahrer-stirbt-im-hunsrueck-frontalcrash-mit-sechs-verletzten-bei-ralingen-100.html", "thumbnailUrl": "https://images.tagesschau.de/image/59ab08d0-e70c-4537-abd7-9f1bce84446a/AAABjwE6g_0/AAABjcWesUg/16x9-512.jpg", "date": "2024-04-21T15:55:00.000+02:00", "lat": 49.7598, "lon": 7.502, "intensity": 0.8, "source": "Tagesschau"}, {"title": "Fit f\u00fcr die Europawahl", "url": "https://www.tagesschau.de/inland/gesellschaft/erstwaehler-europawahl-100.html", "thumbnailUrl": "https://images.tagesschau.de/image/4683f6e0-ddba-4344-a0bf-a31160ba349e/AAABjwGOpjQ/AAABjcWesUg/16x9-512.jpg", "date": "2024-04-21T15:51:11.445+02:00", "lat": 51.1657, "lon": 9.9976, "intensity": 0.4, "source": "Tagesschau"}, {"title": "THW Kiel erk\u00e4mpft im Topspiel bei den F\u00fcchsen Berlin ein Remis", "url": "https://www.tagesschau.de/inland/regional/schleswigholstein/ndr-thw-kiel-erkaempft-im-topspiel-bei-den-fuechsen-berlin-ein-remis-102.html", "thumbnailUrl": "https://images.tagesschau.de/image/bc23624f-466a-4553-a9f6-08d5409166de/AAABjwD4x38/AAABjcWesUg/16x9-512.jpg", "date": "2024-04-21T15:49:00.000+02:00", "lat": 52.52, "lon": 13.4583, "intensity": 0.7, "source": "Tagesschau"}, {"title": "95 Prozent aller F\u00fcnftkl\u00e4ssler in Hamburg kommen an Wunschschule", "url": "https://www.tagesschau.de/inland/regional/hamburg/ndr-95-prozent-aller-fuenftklaessler-in-hamburg-kommen-an-wunschschule-100.html", "thumbnailUrl": "https://images.tagesschau.de/image/b1c7bc4f-9b47-48d9-a448-5495ad8cd002/AAABjwDr1RU/AAABjcWesUg/16x9-512.jpg", "date": "2024-04-21T15:45:00.000+02:00", "lat": 53.5503, "lon": 10.0006, "intensity": 0.8, "source": "Tagesschau"}, {"title": "Sieg bei Hannover 96 - Aufstieg des FC St. Pauli r\u00fcckt n\u00e4her", "url": "https://www.tagesschau.de/inland/regional/hamburg/ndr-sieg-bei-hannover-96-fc-st-pauli-wieder-auf-aufstiegskurs-102.html", "thumbnailUrl": "https://images.tagesschau.de/image/8861172f-d67c-4a0a-a184-97d5ba0886a3/AAABjwH-d1Q/AAABjcWesUg/16x9-512.jpg", "date": "2024-04-21T15:45:00.000+02:00", "lat": 52.3759, "lon": 9.7423, "intensity": 0.8, "source": "Tagesschau"}, {"title": "M\u00f6nchengladbach: Fu\u00dfg\u00e4nger offenbar gezielt \u00fcberfahren", "url": "https://www.tagesschau.de/inland/regional/nordrheinwestfalen/wdr-moenchengladbach-fussgaenger-offenbar-gezielt-ueberfahren-100.html", "thumbnailUrl": "https://images.tagesschau.de/image/6223a56c-0135-4b55-89ec-2b9c71c81a29/AAABjwFB0JU/AAABjcWesUg/16x9-512.jpg", "date": "2024-04-21T15:27:00.000+02:00", "lat": 51.1805, "lon": 6.4353, "intensity": 0.8, "source": "Tagesschau"}, {"title": "Jetzt live: Freiburg gegen Mainz", "url": "https://www.sportschau.de/live-und-ergebnisse/fussball/deutschland-bundesliga/ma9685655/sc-freiburg_1-fsv-mainz-05/liveticker/", "thumbnailUrl": "https://images.tagesschau.de/image/9f8165ba-ca30-4328-b2f7-799fe3637a8c/AAABiNkNSio/AAABjcWesUg/16x9-512.jpg", "date": "2024-04-21T15:23:10.342+02:00", "lat": 50.1109, "lon": 8.6821, "intensity": 0.8, "source": "Tagesschau"}, {"title": "\"Dagobert\"-Festnahme vor 30 Jahren in Berlin: Der Lieblingserpresser", "url": "https://www.tagesschau.de/inland/regional/brandenburg/rbb-dagobert-festnahme-vor-30-jahren-der-lieblingserpresser-100.html", "thumbnailUrl": "https://images.tagesschau.de/image/9e3b5f65-96b9-4445-9db3-2ca77f69bacc/AAABjwA8DGk/AAABjcWesUg/16x9-512.jpg", "date": "2024-04-21T15:21:43.000+02:00", "lat": 52.520008, "lon": 13.404954, "intensity": 0.8, "source": "Tagesschau"}, {"title": "Zwei Tote bei Verkehrsunfall zwischen Sehnde und Lehrte", "url": "https://www.tagesschau.de/inland/regional/niedersachsen/ndr-zwei-tote-bei-verkehrsunfall-zwischen-sehnde-und-lehrte-100.html", "thumbnailUrl": "https://images.tagesschau.de/image/b5e2fb64-2c52-4965-b008-53142747114e/AAABjwC2tSU/AAABjcWesUg/16x9-512.jpg", "date": "2024-04-21T15:21:00.000+02:00", "lat": 52.3642, "lon": 10.0344, "intensity": 0.8, "source": "Tagesschau"}, {"title": "Leiter von Brandenburger KZ-Gedenkst\u00e4tten lehnt Pflichtbesuche f\u00fcr Sch\u00fcler ab", "url": "https://www.tagesschau.de/inland/regional/brandenburg/rbb-leiter-von-brandenburger-kz-gedenkstaetten-lehnt-pflichtbesuche-fuer-schueler-ab-100.html", "thumbnailUrl": "https://images.tagesschau.de/image/001670c8-6f86-4391-93d1-f7c1e04fc4e2/AAABjwDK2LI/AAABjcWesUg/16x9-512.jpg", "date": "2024-04-21T15:10:00.000+02:00", "lat": 52.5013, "lon": 13.7451, "intensity": 0.8, "source": "Tagesschau"}, {"title": "F\u00fcnf Leichtverletzte bei Gl\u00e4tteunfall auf der Autobahn 2", "url": "https://www.tagesschau.de/inland/regional/niedersachsen/ndr-fuenf-leichtverletzte-bei-glaetteunfall-auf-der-autobahn-2-100.html", "thumbnailUrl": "https://images.tagesschau.de/image/6cec4840-5fe2-4324-a146-884476872fd9/AAABjwDOgt4/AAABjcWesUg/16x9-512.jpg", "date": "2024-04-21T15:08:00.000+02:00", "lat": 52.3738, "lon": 9.8952, "intensity": 0.3, "source": "Tagesschau"}, {"title": "Stadtautobahn gesperrt: Dutzende Menschen protestieren auf der A100 gegen Weiterbau", "url": "https://www.tagesschau.de/inland/regional/berlin/rbb-ab-14-uhr-buendnis-ruft-zu-protest-gegen-weiterbau-der-stadtautobahn-a100-auf-100.html", "thumbnailUrl": "https://images.tagesschau.de/image/f23611af-e73b-4fe8-9c4c-0e2013d1918d/AAABjwEg7vg/AAABjcWesUg/16x9-512.jpg", "date": "2024-04-21T14:56:45.000+02:00", "lat": 52.518611, "lon": 13.448464, "intensity": 0.7, "source": "Tagesschau"}, {"title": "Leiche einer 69-J\u00e4hrigen in Waldbronn gefunden - vermutlich T\u00f6tungsdelikt", "url": "https://www.tagesschau.de/inland/regional/badenwuerttemberg/swr-leiche-einer-69-jaehrigen-in-waldbronn-gefunden-vermutlich-toetungsdelikt-100.html", "thumbnailUrl": "https://images.tagesschau.de/image/8c8ad894-4831-489b-863e-79a2132b8ceb/AAABjwC00xY/AAABjcWesUg/16x9-512.jpg", "date": "2024-04-21T14:48:00.000+02:00", "lat": 48.9145, "lon": 8.4391, "intensity": 0.8, "source": "Tagesschau"}, {"title": "Plakatwahlkampf zur Europawahl startet und macht sich in Berlin sichtbar", "url": "https://www.tagesschau.de/inland/regional/berlin/rbb-plakatwahlkampf-zur-europawahl-startet-und-macht-sich-in-berlin-sichtbar-100.html", "thumbnailUrl": "https://images.tagesschau.de/image/d9c20130-8a3e-4934-b2ad-8b449d06f9e7/AAABjwC049U/AAABjcWesUg/16x9-512.jpg", "date": "2024-04-21T14:45:58.000+02:00", "lat": 52.520008, "lon": 13.404954, "intensity": 0.6, "source": "Tagesschau"}, {"title": "Ermittlungen wegen verletzter Mitarbeiterin von Gr\u00fcnen-Politiker - wohl keine Straftat", "url": "https://www.tagesschau.de/inland/regional/badenwuerttemberg/swr-ermittlungen-wegen-verletzter-mitarbeiterin-von-gruenen-politiker-wohl-keine-straftat-100.html", "thumbnailUrl": "https://images.tagesschau.de/image/0db5268f-565e-4668-83fc-1902e28da2b0/AAABjwDKy6w/AAABjcWesUg/16x9-512.jpg", "date": "2024-04-21T14:38:51.000+02:00", "lat": 48.5236, "lon": 9.1079, "intensity": 0.6, "source": "Tagesschau"}, {"title": "Unfall im Engelbergtunnel: Autofahrer f\u00e4hrt Sportwagen zu Schrott", "url": "https://www.tagesschau.de/inland/regional/badenwuerttemberg/swr-unfall-im-engelbergtunnel-autofahrer-faehrt-teuren-sportwagen-zu-schrott-100.html", "thumbnailUrl": "https://images.tagesschau.de/image/1419e43a-140a-4ff7-a79d-da7dab4b4eea/AAABjwBrkxA/AAABjcWesUg/16x9-512.jpg", "date": "2024-04-21T14:23:00.000+02:00", "lat": 48.8224, "lon": 9.0752, "intensity": 0.8, "source": "Tagesschau"}, {"title": "Zeitreise: Zweitakter aus Pinneberg machen weltweit Furore", "url": "https://www.tagesschau.de/inland/regional/schleswigholstein/ndr-zeitreise-zweitakter-aus-pinneberg-machen-weltweit-furore-100.html", "thumbnailUrl": "https://images.tagesschau.de/image/adc0b823-2664-4176-b49f-ef53086667b6/AAABjwCe5Jc/AAABjcWesUg/16x9-512.jpg", "date": "2024-04-21T14:18:00.000+02:00", "lat": 53.6591, "lon": 9.7977, "intensity": 0.8, "source": "Tagesschau"}, {"title": "Unter Protest: AfD h\u00e4lt Landesparteitag in Unterl\u00fc\u00df ab", "url": "https://www.tagesschau.de/inland/regional/niedersachsen/ndr-unter-protest-afd-haelt-landesparteitag-in-unterluess-ab-100.html", "thumbnailUrl": "https://images.tagesschau.de/image/841cac51-215f-4c56-a62e-d07b9dde5a22/AAABjvxCAbg/AAABjcWesUg/16x9-512.jpg", "date": "2024-04-21T14:13:00.000+02:00", "lat": 52.9486, "lon": 9.9849, "intensity": 0.7, "source": "Tagesschau"}, {"title": "Programm zur Weiterbildung: Brandenburgs Spurwechsel-Projekt f\u00fcr Fl\u00fcchtlinge auf Abwegen? ", "url": "https://www.tagesschau.de/inland/regional/brandenburg/rbb-programm-zur-weiterbildung-brandenburgs-spurwechsel-projekt-fuer-fluechtlinge-auf-abwegen-100.html", "thumbnailUrl": "https://images.tagesschau.de/image/29b1756f-1df1-413a-b0d1-c36f7e3d20f3/AAABjwFqLP4/AAABjcWesUg/16x9-512.jpg", "date": "2024-04-21T14:10:24.000+02:00", "lat": 52.52, "lon": 13.4049, "intensity": 0.6, "source": "Tagesschau"}, {"title": "Brand zerst\u00f6rt Wohnhaus in Idar-Oberstein", "url": "https://www.tagesschau.de/inland/regional/rheinlandpfalz/swr-brand-zerstoert-wohnhaus-in-idar-oberstein-100.html", "thumbnailUrl": "https://images.tagesschau.de/image/d60e5928-4c56-4841-921f-a550a1261ed8/AAABjwCOYqM/AAABjcWesUg/16x9-512.jpg", "date": "2024-04-21T14:01:13.000+02:00", "lat": 49.713643, "lon": 7.308321, "intensity": 0.8, "source": "Tagesschau"}, {"title": "Pl\u00f6tzlicher Wintereinbruch bringt Autos ins Rutschen", "url": "https://www.tagesschau.de/inland/regional/hessen/hr-wetter-skandinavische-kaelte-hat-hessen-fest-im-griff-100.html", "thumbnailUrl": "https://images.tagesschau.de/image/701227d6-371a-42e3-a2e6-80c0f69d03e6/AAABjwJEA4w/AAABjcWesUg/16x9-512.jpg", "date": "2024-04-21T13:58:21.284+02:00", "lat": 50.5443, "lon": 9.6933, "intensity": 0.7, "source": "Tagesschau"}, {"title": "Wilhelmsburg: Mann mit Messer lebensgef\u00e4hrlich verletzt", "url": "https://www.tagesschau.de/inland/regional/hamburg/ndr-hamburg-wilhelmsburg-mann-mit-messer-lebensgefaehrlich-verletzt-100.html", "thumbnailUrl": "https://images.tagesschau.de/image/9057aa0b-43b6-42f5-ac67-a18fff60391d/AAABjwCBmwg/AAABjcWesUg/16x9-512.jpg", "date": "2024-04-21T13:52:00.000+02:00", "lat": 53.487, "lon": 10.0128, "intensity": 0.8, "source": "Tagesschau"}, {"title": "74-J\u00e4hrige st\u00fcrzt mit Quad und wird eingeklemmt", "url": "https://www.tagesschau.de/inland/regional/niedersachsen/ndr-74-jaehrige-stuerzt-mit-quad-und-wird-eingeklemmt-100.html", "thumbnailUrl": "https://images.tagesschau.de/image/7854d572-d70c-4d44-bb81-07d45a24e997/AAABjwCHbbk/AAABjcWesUg/16x9-512.jpg", "date": "2024-04-21T13:47:00.000+02:00", "lat": 52.265892, "lon": 10.423446, "intensity": 0.6, "source": "Tagesschau"}, {"title": "Neu gekaufter Oldtimer brennt aus - 125.000 Euro Schaden", "url": "https://www.tagesschau.de/inland/regional/niedersachsen/ndr-neu-gekaufter-oldtimer-brennt-aus-125-000-euro-schaden-100.html", "thumbnailUrl": "https://images.tagesschau.de/image/fe119887-667a-4741-8ad7-f6eac40c45af/AAABjwCHWq8/AAABjcWesUg/16x9-512.jpg", "date": "2024-04-21T13:44:00.000+02:00", "lat": 52.6367, "lon": 10.4515, "intensity": 0.8, "source": "Tagesschau"}, {"title": "\"Das w\u00e4re ein Desaster f\u00fcr den Weltsport\"", "url": "https://www.tagesschau.de/inland/faeser-dopingverdacht-china-100.html", "thumbnailUrl": "https://images.tagesschau.de/image/8e8c8fb1-7435-4a21-bb73-82a509091351/AAABjd5zSLw/AAABjcWesUg/16x9-512.jpg", "date": "2024-04-21T13:43:11.286+02:00", "lat": 35.86166, "lon": 104.195397, "intensity": 0.8, "source": "Tagesschau"}, {"title": "Salzwedeler Kult-Disko wird wieder zum Leben erweckt", "url": "https://www.tagesschau.de/inland/regional/sachsenanhalt/mdr-salzwedeler-kult-disko-wird-wieder-zum-leben-erweckt-100.html", "thumbnailUrl": "https://images.tagesschau.de/image/9d382ad4-53d8-45c7-859f-3c1ebbe29759/AAABjwLjKYc/AAABjcWesUg/16x9-512.jpg", "date": "2024-04-21T13:38:49.000+02:00", "lat": 52.8512, "lon": 11.1418, "intensity": 0.7, "source": "Tagesschau"}, {"title": "Ofterdingen: Erneuter Feuerwehreinsatz nach Gro\u00dfbrand auf Pferdehof ", "url": "https://www.tagesschau.de/inland/regional/badenwuerttemberg/swr-ofterdingen-erneuter-feuerwehreinsatz-nach-grossbrand-auf-pferdehof-100.html", "thumbnailUrl": "https://images.tagesschau.de/image/43139de3-2c66-4190-95fe-f8fcf61abb56/AAABjwB6OeQ/AAABjcWesUg/16x9-512.jpg", "date": "2024-04-21T13:36:40.000+02:00", "lat": 48.4091, "lon": 9.1212, "intensity": 0.8, "source": "Tagesschau"}, {"title": "Topspiel der Handball-Bundesliga: F\u00fcchse Berlin gegen THW Kiel jetzt im Livestream", "url": "https://www.tagesschau.de/inland/regional/berlin/rbb-topspiel-der-handball-bundesliga-fuechse-berlin-gegen-thw-kiel-jetzt-im-livestream-100.html", "thumbnailUrl": "https://images.tagesschau.de/image/28d8e9f1-1ac1-4760-980b-bd34751348c9/AAABjwBXeo0/AAABjcWesUg/16x9-512.jpg", "date": "2024-04-21T13:30:02.000+02:00", "lat": 52.542648, "lon": 13.447415, "intensity": 0.7, "source": "Tagesschau"}, {"title": "Mehrere Handgranaten bei Bauarbeiten in Bad Saarow (Oder-Spree) entdeckt", "url": "https://www.tagesschau.de/inland/regional/brandenburg/rbb-mehrere-handgranaten-bei-bauarbeiten-in-bad-saarow-oder-spree-entdeckt-100.html", "thumbnailUrl": "https://images.tagesschau.de/image/e440a59c-b231-47ca-9de3-0bab0150f2ba/AAABjwAZN1M/AAABjcWesUg/16x9-512.jpg", "date": "2024-04-21T13:13:00.000+02:00", "lat": 52.2317, "lon": 13.8833, "intensity": 0.8, "source": "Tagesschau"}, {"title": "Auto versinkt in einem Stra\u00dfenloch in Venlo", "url": "https://www.tagesschau.de/inland/regional/nordrheinwestfalen/wdr-auto-verschwindet-in-strassenloch-in-venlo-100.html", "thumbnailUrl": "https://images.tagesschau.de/image/4c0669f9-5b5c-4a09-853c-5c13d15b6d54/AAABjwCkVWM/AAABjcWesUg/16x9-512.jpg", "date": "2024-04-21T13:09:00.000+02:00", "lat": 51.3704, "lon": 6.1724, "intensity": 0.7, "source": "Tagesschau"}, {"title": "Wie diese zwei Bremerinnen Kinder mit Musik aufs Leben vorbereiten", "url": "https://www.tagesschau.de/inland/regional/bremen/rb-wie-diese-zwei-bremerinnen-kinder-mit-musik-aufs-leben-vorbereiten-100.html", "thumbnailUrl": "https://images.tagesschau.de/image/3644409f-6a2a-4abf-97c9-3f2f46e45802/AAABjwA7-cs/AAABjcWesUg/16x9-512.jpg", "date": "2024-04-21T12:35:00.000+02:00", "lat": 53.0793, "lon": 8.8017, "intensity": 0.6, "source": "Tagesschau"}, {"title": "Interview mit SEK-Leiter: \"Welche H\u00e4me \u00fcber die Polizei ausgekippt wurde - das \u00e4rgert mich bis heute\"", "url": "https://www.tagesschau.de/inland/regional/berlin/rbb-interview-mit-sek-leiter-welche-haeme-ueber-die-polizei-ausgekippt-wurde-das-aergert-mich-bis-heute-100.html", "thumbnailUrl": "https://images.tagesschau.de/image/d1aee230-d352-48a3-af53-71b2c154a730/AAABjwA8Hr8/AAABjcWesUg/16x9-512.jpg", "date": "2024-04-21T12:15:35.000+02:00", "lat": 52.52, "lon": 13.4049, "intensity": 0.8, "source": "Tagesschau"}, {"title": "Olejniczak gegen Slodownik: B\u00fcrgermeisterstichwahl in Slubice am Sonntag", "url": "https://www.tagesschau.de/inland/regional/brandenburg/rbb-olejniczak-gegen-slodownik-buergermeisterstichwahl-in-slubice-am-sonntag-100.html", "thumbnailUrl": "https://images.tagesschau.de/image/445712f0-cbd3-494a-b913-13256a78fae4/AAABjwAr3MU/AAABjcWesUg/16x9-512.jpg", "date": "2024-04-21T12:11:39.000+02:00", "lat": 52.3508, "lon": 14.5604, "intensity": 0.5, "source": "Tagesschau"}, {"title": "\"Entscheidung, die uns das Leben rettet\"", "url": "https://www.tagesschau.de/ausland/usa-ukraine-116.html", "thumbnailUrl": "https://images.tagesschau.de/image/c098fd9a-c772-4df7-8f93-185d4c044713/AAABjv8Z7Bs/AAABjcWesUg/16x9-512.jpg", "date": "2024-04-21T12:10:21.086+02:00", "lat": 50.4501, "lon": 30.5234, "intensity": 0.8, "source": "Tagesschau"}, {"title": "Explosion in Wohnhaus mit Asylsuchenden", "url": "https://www.tagesschau.de/inland/regional/sachsenanhalt/mdr-explosion-in-wohnhaus-mit-asylsuchenden-100.html", "thumbnailUrl": "https://images.tagesschau.de/image/91f805ee-1386-4439-b489-54fea4682c85/AAABjwLik2Q/AAABjcWesUg/16x9-512.jpg", "date": "2024-04-21T12:01:44.000+02:00", "lat": 51.36, "lon": 11.81, "intensity": 0.8, "source": "Tagesschau"}, {"title": "Mann bei Unfall in Ahlhorn lebensgef\u00e4hrlich verletzt", "url": "https://www.tagesschau.de/inland/regional/niedersachsen/ndr-mann-bei-unfall-in-ahlhorn-lebensgefaehrlich-verletzt-100.html", "thumbnailUrl": "https://images.tagesschau.de/image/83f5a2fa-a436-430e-834e-9ddd8765739c/AAABjwASGw4/AAABjcWesUg/16x9-512.jpg", "date": "2024-04-21T11:44:00.000+02:00", "lat": 52.9248, "lon": 8.1692, "intensity": 0.8, "source": "Tagesschau"}, {"title": "Automatisierbare T\u00e4tigkeiten: Ist mein Job durch KI und Digitalisierung ersetzbar? ", "url": "https://www.tagesschau.de/inland/regional/badenwuerttemberg/swr-automatisierbare-taetigkeiten-ist-mein-job-durch-ki-und-digitalisierung-ersetzbar-100.html", "thumbnailUrl": "https://images.tagesschau.de/image/ff645468-e852-4277-b280-3783fe732fd5/AAABjwAR6cs/AAABjcWesUg/16x9-512.jpg", "date": "2024-04-21T11:42:40.000+02:00", "lat": 48.775845, "lon": 9.993682, "intensity": 0.8, "source": "Tagesschau"}, {"title": "Sylt: Punks planen erneut Protestcamp im Sommer", "url": "https://www.tagesschau.de/inland/regional/schleswigholstein/ndr-sylt-punks-planen-erneut-protestcamp-im-sommer-100.html", "thumbnailUrl": "https://images.tagesschau.de/image/96dd48f9-c213-460b-a430-d5123cce0ef3/AAABjwAzDsI/AAABjcWesUg/16x9-512.jpg", "date": "2024-04-21T11:36:00.000+02:00", "lat": 54.9133, "lon": 8.31, "intensity": 0.6, "source": "Tagesschau"}, {"title": "Der HSV ist auf dem Weg zum Zweitliga-Dino", "url": "https://www.tagesschau.de/inland/regional/hamburg/ndr-der-hsv-ist-auf-dem-weg-zum-zweitliga-dino-102.html", "thumbnailUrl": "https://images.tagesschau.de/image/1c76d106-66f5-4e71-be2f-dcdf3112ec3f/AAABjwGJRKs/AAABjcWesUg/16x9-512.jpg", "date": "2024-04-21T11:34:00.000+02:00", "lat": 53.55, "lon": 10.0, "intensity": 0.8, "source": "Tagesschau"}, {"title": "Brandenburg bezuschusst Familienurlaub f\u00fcr Geringverdiener", "url": "https://www.tagesschau.de/inland/regional/brandenburg/rbb-brandenburg-bezuschusst-familienurlaub-fuer-geringverdiener-100.html", "thumbnailUrl": "https://images.tagesschau.de/image/5f85e5c5-9d7c-4f23-9fa2-85460073b9de/AAABjv_w7TU/AAABjcWesUg/16x9-512.jpg", "date": "2024-04-21T11:19:09.000+02:00", "lat": 52.412, "lon": 13.167, "intensity": 0.4, "source": "Tagesschau"}, {"title": "Neue Stadtbahnlinie w\u00fcrde Erfurt f\u00fcr Jahre zur Gro\u00dfbaustelle machen", "url": "https://www.tagesschau.de/inland/regional/thueringen/mdr-neue-stadtbahnlinie-wuerde-erfurt-fuer-jahre-zur-grossbaustelle-machen-100.html", "thumbnailUrl": "https://images.tagesschau.de/image/e946e07b-2aa0-42c0-a54b-ff783c5dd0d2/AAABjwLiUbU/AAABjcWesUg/16x9-512.jpg", "date": "2024-04-21T10:58:11.000+02:00", "lat": 50.9848, "lon": 11.0299, "intensity": 0.8, "source": "Tagesschau"}, {"title": "Hallescher Holocaust-\u00dcberlebender Max Schwab ist tot", "url": "https://www.tagesschau.de/inland/regional/sachsenanhalt/mdr-hallescher-holocaust-ueberlebender-max-schwab-ist-tot-100.html", "thumbnailUrl": "https://images.tagesschau.de/image/113e9879-4d78-40f9-9699-32b52155f887/AAABjv_XUb4/AAABjcWesUg/16x9-512.jpg", "date": "2024-04-21T10:46:56.000+02:00", "lat": 51.4818, "lon": 11.9771, "intensity": 0.8, "source": "Tagesschau"}, {"title": "Zehnj\u00e4hriger f\u00e4hrt auf Zweirad mit und wird schwer verletzt", "url": "https://www.tagesschau.de/inland/regional/niedersachsen/ndr-zehnjaehriger-faehrt-auf-zweirad-mit-und-wird-schwer-verletzt-100.html", "thumbnailUrl": "https://images.tagesschau.de/image/13a507a3-d6e1-4864-8e42-4b1f66100ee0/AAABjv_reNE/AAABjcWesUg/16x9-512.jpg", "date": "2024-04-21T10:43:00.000+02:00", "lat": 52.3759, "lon": 9.732, "intensity": 0.7, "source": "Tagesschau"}, {"title": "\"Strategie der Selbstverharmlosung\"", "url": "https://www.tagesschau.de/inland/innenpolitik/rechtsextremismus-hoecke-100.html", "thumbnailUrl": "https://images.tagesschau.de/image/c4fcb9c1-17af-4e21-8a51-704f8bafca27/AAABjva4Pug/AAABjcWesUg/16x9-512.jpg", "date": "2024-04-21T10:41:09.312+02:00", "lat": 51.4988, "lon": 11.9697, "intensity": 0.7, "source": "Tagesschau"}, {"title": "Motorrad-Fans diskutieren - Unf\u00e4lle auf Social Media posten oder nicht?", "url": "https://www.tagesschau.de/inland/regional/badenwuerttemberg/swr-motorrad-fans-diskutieren-unfaelle-auf-social-media-posten-oder-nicht-100.html", "thumbnailUrl": "https://images.tagesschau.de/image/7cb908ad-6274-4cec-90af-19673e1cf7c2/AAABjwAgf5g/AAABjcWesUg/16x9-512.jpg", "date": "2024-04-21T10:40:37.000+02:00", "lat": 48.7758, "lon": 9.2265, "intensity": 0.4, "source": "Tagesschau"}, {"title": "F\u00fcr zwei neue Schilder: Sangerhausen soll 181.000 Euro zahlen", "url": "https://www.tagesschau.de/inland/regional/sachsenanhalt/mdr-fuer-zwei-neue-schilder-sangerhausen-soll-181-000-euro-zahlen-100.html", "thumbnailUrl": "https://images.tagesschau.de/image/42968396-4e31-4eda-8eef-9ca800aff249/AAABjv_MVLQ/AAABjcWesUg/16x9-512.jpg", "date": "2024-04-21T10:35:36.000+02:00", "lat": 51.4753, "lon": 11.1577, "intensity": 0.7, "source": "Tagesschau"}, {"title": "Ein Verletzter bei Wohnhausbrand in Spiesen", "url": "https://www.tagesschau.de/inland/regional/saarland/sr-ein-verletzter-bei-wohnhausbrand-in-spiesen-100.html", "thumbnailUrl": "https://images.tagesschau.de/image/82a19b9c-0913-466a-8fae-e5b62488afef/AAABjv_4N1A/AAABjcWesUg/16x9-512.jpg", "date": "2024-04-21T10:23:00.000+02:00", "lat": 49.2975, "lon": 7.1384, "intensity": 0.8, "source": "Tagesschau"}, {"title": "Hansa Rostock will 1. FC Magdeburg im direkten Duell \u00fcberholen", "url": "https://www.tagesschau.de/inland/regional/mecklenburgvorpommern/ndr-hansa-rostock-will-1-fc-magdeburg-im-direkten-duell-ueberholen-102.html", "thumbnailUrl": "https://images.tagesschau.de/image/0b447dc3-ec62-4a15-bf7e-527ebf23bc99/AAABjv-u-4U/AAABjcWesUg/16x9-512.jpg", "date": "2024-04-21T10:03:00.000+02:00", "lat": 54.0895, "lon": 12.1286, "intensity": 0.7, "source": "Tagesschau"}, {"title": "Ministerin fordert vom Bund Geld f\u00fcr Frauenh\u00e4user in MV", "url": "https://www.tagesschau.de/inland/regional/mecklenburgvorpommern/ndr-ministerin-fordert-vom-bund-geld-fuer-frauenhaeuser-in-mv-100.html", "thumbnailUrl": "https://images.tagesschau.de/image/abbf1bd0-b7ba-4787-a6e3-cc31048888a0/AAABjv-ypX4/AAABjcWesUg/16x9-512.jpg", "date": "2024-04-21T10:03:00.000+02:00", "lat": 53.6127, "lon": 13.7506, "intensity": 0.8, "source": "Tagesschau"}, {"title": "St. Pauli bei Hannover 96: \"Charakter zeigen\" und Mini-Krise \u00fcberwinden", "url": "https://www.tagesschau.de/inland/regional/hamburg/ndr-st-pauli-bei-hannover-96-charakter-zeigen-und-mini-krise-ueberwinden-102.html", "thumbnailUrl": "https://images.tagesschau.de/image/e1138b1f-9928-4db3-a588-6ec186f86695/AAABjvufZLo/AAABjcWesUg/16x9-512.jpg", "date": "2024-04-21T10:02:00.000+02:00", "lat": 53.5544, "lon": 9.9623, "intensity": 0.8, "source": "Tagesschau"}, {"title": "Darmstadt 98: +++ Klarer freut sich \u00fcber \"unfassbares Gef\u00fchl\" +++ Lilien holen Sieg in K\u00f6ln +++ N\u00fcrnberger-Comeback gegen K\u00f6ln +++", "url": "https://www.tagesschau.de/inland/regional/hessen/hr--tietz-vermisst-fehlende-gier--lilien-fans-liefern-sich-raststaetten-pruegelei--die-niederlage-der-lilien-in-der-video-zusammenfassung-102.html", "thumbnailUrl": "https://images.tagesschau.de/image/54d9e973-2ede-400e-8dd1-3d24558a825f/AAABjv-ek6E/AAABjcWesUg/16x9-512.jpg", "date": "2024-04-21T09:29:16.750+02:00", "lat": 49.878, "lon": 8.6536, "intensity": 0.6, "source": "Tagesschau"}, {"title": "Schwerer Unfall auf der A8 bei Merchweiler", "url": "https://www.tagesschau.de/inland/regional/saarland/sr-schwerer-unfall-auf-der-a8-bei-merchweiler-100.html", "thumbnailUrl": "https://images.tagesschau.de/image/4d77922e-63ed-4fc6-98c2-9cc51de2a47b/AAABjv_E8to/AAABjcWesUg/16x9-512.jpg", "date": "2024-04-21T09:13:00.000+02:00", "lat": 49.3383, "lon": 7.1017, "intensity": 0.8, "source": "Tagesschau"}, {"title": "Repr\u00e4sentantenhaus stellt TikTok ein Ultimatum", "url": "https://www.tagesschau.de/ausland/amerika/tiktok-us-kongress-100.html", "thumbnailUrl": "https://images.tagesschau.de/image/9518fe50-e5d0-4738-8532-24d9f209a7da/AAABiySSmPE/AAABjcWesUg/16x9-512.jpg", "date": "2024-04-21T08:53:17.367+02:00", "lat": 38.9072, "lon": -77.0369, "intensity": 0.8, "source": "Tagesschau"}, {"title": "Kollision mit Stra\u00dfenlaterne: Unfall mit zwei lebensgef\u00e4hrlich Verletzten in Stuttgart-Nord", "url": "https://www.tagesschau.de/inland/regional/badenwuerttemberg/swr-kollision-mit-strassenlaterne-unfall-mit-zwei-lebensgefaehrlich-verletzten-in-stuttgart-nord-100.html", "thumbnailUrl": "https://images.tagesschau.de/image/117977e0-a358-45e2-863e-49b7cfa26c51/AAABjv9wvMs/AAABjcWesUg/16x9-512.jpg", "date": "2024-04-21T08:51:09.000+02:00", "lat": 48.8061, "lon": 9.1775, "intensity": 0.8, "source": "Tagesschau"}, {"title": "\"Alles aufgerissen, alles Murks\"", "url": "https://www.tagesschau.de/wirtschaft/digitales/glasfaserausbau-104.html", "thumbnailUrl": "https://images.tagesschau.de/image/7a593457-c906-4ccd-98fd-653136f372a2/AAABjcxPCLE/AAABjcWesUg/16x9-512.jpg", "date": "2024-04-21T08:37:00.422+02:00", "lat": 53.5511, "lon": 9.9937, "intensity": 0.7, "source": "Tagesschau"}, {"title": "Analyse der Union-Pleite gegen Bayern: \"Nicht widerstandsf\u00e4hig\" ", "url": "https://www.tagesschau.de/inland/regional/berlin/rbb-analyse-der-union-pleite-gegen-bayern-nicht-widerstandsfaehig-102.html", "thumbnailUrl": "https://images.tagesschau.de/image/3600336e-cdcd-4f75-9794-0effba317d00/AAABjv9iIyc/AAABjcWesUg/16x9-512.jpg", "date": "2024-04-21T08:35:05.000+02:00", "lat": 52.52, "lon": 13.4515, "intensity": 0.8, "source": "Tagesschau"}, {"title": "Funktionaler Analphabetismus: Richtig lesen und schreiben lernen - mit 54 Jahren", "url": "https://www.tagesschau.de/inland/regional/brandenburg/rbb-funktionaler-analphabetismus-richtig-lesen-und-schreiben-lernen-mit-54-jahren-100.html", "thumbnailUrl": "https://images.tagesschau.de/image/c78f21ab-73a4-4789-9c16-b4ca710c1b5c/AAABjv9MHyY/AAABjcWesUg/16x9-512.jpg", "date": "2024-04-21T08:11:45.000+02:00", "lat": 52.3007, "lon": 13.1684, "intensity": 0.8, "source": "Tagesschau"}, {"title": "Der Knoten ist gel\u00f6st", "url": "https://www.tagesschau.de/ausland/amerika/usa-hilfen-ukraine-100.html", "thumbnailUrl": "https://images.tagesschau.de/image/2d8f0b2c-48bb-4843-8437-fa3118f74638/AAABjv7BrHk/AAABjcWesUg/16x9-512.jpg", "date": "2024-04-21T08:03:52.228+02:00", "lat": 38.9072, "lon": -77.0369, "intensity": 0.8, "source": "Tagesschau"}, {"title": "Mann in Bensheim nach Streit get\u00f6tet - Tatverd\u00e4chtiger gefasst", "url": "https://www.tagesschau.de/inland/regional/hessen/hr-mann-in-bensheim-nach-streit-getoetet-tatverdaechtiger-gefasst-100.html", "thumbnailUrl": "https://images.tagesschau.de/image/69e1f5ee-69b7-4c3c-a01c-16e7420ccbd0/AAABjwBxFpM/AAABjcWesUg/16x9-512.jpg", "date": "2024-04-21T07:41:27.667+02:00", "lat": 49.6806, "lon": 8.6189, "intensity": 0.8, "source": "Tagesschau"}, {"title": "A1 bei Gevelsberg nach Gl\u00e4tte-Unf\u00e4llen zeitweise gesperrt", "url": "https://www.tagesschau.de/inland/regional/nordrheinwestfalen/wdr-a1-bei-gevelsberg-nach-glaette-unfaellen-zeitweise-gesperrt-100.html", "thumbnailUrl": "https://images.tagesschau.de/image/7409d502-011d-4936-aa34-3f90c791d8e5/AAABjv9pais/AAABjcWesUg/16x9-512.jpg", "date": "2024-04-21T07:20:00.000+02:00", "lat": 51.3333, "lon": 7.33, "intensity": 0.8, "source": "Tagesschau"}, {"title": "Mehr Kinder mit Sprachproblemen in Niedersachsen", "url": "https://www.tagesschau.de/inland/regional/niedersachsen/ndr-mehr-kinder-mit-sprachproblemen-in-niedersachsen-100.html", "thumbnailUrl": "https://images.tagesschau.de/image/c45b30e6-17b6-4e63-86a0-07e1cb002c31/AAABjwAgkvY/AAABjcWesUg/16x9-512.jpg", "date": "2024-04-21T07:00:00.000+02:00", "lat": 52.6367, "lon": 9.7344, "intensity": 0.7, "source": "Tagesschau"}, {"title": "S-Bahn in Hamburg: Sperrungen am Wochenende bei S1, S3 und S5", "url": "https://www.tagesschau.de/inland/regional/hamburg/ndr-s-bahn-sperrungen-am-wochenende-anreise-zum-hsv-spiel-erschwert-102.html", "thumbnailUrl": "https://images.tagesschau.de/image/69479ff0-4748-4bdf-b34d-6c8f30d543c4/AAABjv8N618/AAABjcWesUg/16x9-512.jpg", "date": "2024-04-21T06:59:00.000+02:00", "lat": 53.5511, "lon": 9.9937, "intensity": 0.7, "source": "Tagesschau"}, {"title": "10 Tipps f\u00fcr den privaten Anbau: Das r\u00e4t ein Bremer Cannabis-G\u00e4rtner", "url": "https://www.tagesschau.de/inland/regional/bremen/rb-10-tipps-fuer-den-privaten-anbau-das-raet-ein-bremer-cannabis-gaertner-100.html", "thumbnailUrl": "https://images.tagesschau.de/image/4ebf7fa6-5f43-40ff-9ea6-b246276ccee6/AAABjv8Es5E/AAABjcWesUg/16x9-512.jpg", "date": "2024-04-21T06:55:00.000+02:00", "lat": 53.079296, "lon": 8.801694, "intensity": 0.7, "source": "Tagesschau"}, {"title": "Etwas mehr Spielraum", "url": "https://www.tagesschau.de/ausland/asien/saudi-arabien-fussball-frauen-100.html", "thumbnailUrl": "https://images.tagesschau.de/image/6e1950ff-b76b-4f68-b0f8-99b9e8942499/AAABjvYeJSo/AAABjcWesUg/16x9-512.jpg", "date": "2024-04-21T05:48:54.596+02:00", "lat": 23.885942, "lon": 45.079162, "intensity": 0.7, "source": "Tagesschau"}, {"title": "B\u00fctikofer kritisiert laschen Umgang mit China", "url": "https://www.tagesschau.de/inland/innenpolitik/buetikhofer-100.html", "thumbnailUrl": "https://images.tagesschau.de/image/9812fe80-4189-4a5d-b6a0-017ecd441259/AAABjv7Dflc/AAABjcWesUg/16x9-512.jpg", "date": "2024-04-21T05:00:32.317+02:00", "lat": 52.520008, "lon": 13.404954, "intensity": 0.8, "source": "Tagesschau"}, {"title": "Kolumne: Zeckenkaviar", "url": "https://www.tagesschau.de/inland/regional/schleswigholstein/ndr-kolumne-zeckenkaviar-100.html", "thumbnailUrl": "https://images.tagesschau.de/image/c511b106-dd52-49ba-aaac-2600c04cc7b9/AAABjv6Y4AU/AAABjcWesUg/16x9-512.jpg", "date": "2024-04-21T05:00:00.000+02:00", "lat": 54.3707, "lon": 9.9976, "intensity": 0.8, "source": "Tagesschau"}, {"title": "F\u00fchrerschein f\u00fcr 3.000 Euro und mehr: \"Ich will frei sein\"", "url": "https://www.tagesschau.de/inland/regional/thueringen/mdr-fuehrerschein-fuer-3-000-euro-und-mehr-ich-will-frei-sein-100.html", "thumbnailUrl": "https://images.tagesschau.de/image/c5b4c7f2-43ea-4ed2-b5fe-f6ac4486ced4/AAABjwLirVU/AAABjcWesUg/16x9-512.jpg", "date": "2024-04-21T05:00:00.000+02:00", "lat": 50.827, "lon": 11.58, "intensity": 0.6, "source": "Tagesschau"}, {"title": "Zwei japanische Milit\u00e4rhubschrauber abgest\u00fcrzt", "url": "https://www.tagesschau.de/ausland/asien/japan-militaerhubschrauber-100.html", "thumbnailUrl": "https://images.tagesschau.de/image/dbb5f9f3-5bce-47e8-95b9-ed0c9e1f8236/AAABjv5973c/AAABjcWesUg/16x9-512.jpg", "date": "2024-04-21T04:34:06.518+02:00", "lat": 34.3853, "lon": 136.4725, "intensity": 0.8, "source": "Tagesschau"}, {"title": "Zypern will Migration mit EU-Abkommen begrenzen", "url": "https://www.tagesschau.de/ausland/europa/zypern-migration-libanon-100.html", "thumbnailUrl": "https://images.tagesschau.de/image/9f643515-8d01-4565-bb58-e8fed305eb6d/AAABjv5Ydf4/AAABjcWesUg/16x9-512.jpg", "date": "2024-04-21T03:56:16.103+02:00", "lat": 35.1264, "lon": 33.4299, "intensity": 0.8, "source": "Tagesschau"}, {"title": "Menschenrechtsaktivistin D\u00fczen Tekkal mit Theodor Heuss Preis ausgezeichnet", "url": "https://www.tagesschau.de/inland/regional/badenwuerttemberg/swr-menschenrechtsaktivistin-duezen-tekkal-mit-theodor-heuss-preis-ausgezeichnet-100.html", "thumbnailUrl": "https://images.tagesschau.de/image/9ab42a7e-e4ce-4004-adaa-9027a3f5e846/AAABjv3Na08/AAABjcWesUg/16x9-512.jpg", "date": "2024-04-21T01:12:03.000+02:00", "lat": 48.775845, "lon": 9.182932, "intensity": 0.7, "source": "Tagesschau"}, {"title": "Dutzende Tote bei Bootsungl\u00fcck", "url": "https://www.tagesschau.de/ausland/afrika/zentralafrikanische-republik-bootsunglueck-100.html", "thumbnailUrl": "https://images.tagesschau.de/image/f58db8b3-4c82-4c47-bd45-585f74fcc305/AAABjv2QBKg/AAABjcWesUg/16x9-512.jpg", "date": "2024-04-21T00:40:39.925+02:00", "lat": 6.6111, "lon": 20.9394, "intensity": 0.8, "source": "Tagesschau"}, {"title": "Weltweite Milit\u00e4rausgaben erreichen H\u00f6chststand", "url": "https://www.br.de/nachrichten/meldungen/index.html#n1", "thumbnailUrl": null, "date": "2024-04-22T03:04:37+02:00", "lat": 30.0444, "lon": 31.2357, "intensity": 0.8, "source": "Bayrischer Rundfunk"}, {"title": "Koalition streitet \u00fcber FDP-Konzept zur Sozialpolitik", "url": "https://www.br.de/nachrichten/meldungen/index.html#n2", "thumbnailUrl": null, "date": "2024-04-22T03:04:37+02:00", "lat": 33.5138, "lon": 36.2021, "intensity": 0.8, "source": "Bayrischer Rundfunk"}, {"title": "Scholz weist Kritik des BDI an Wirtschaftspolitik zur\u00fcck", "url": "https://www.br.de/nachrichten/meldungen/index.html#n3", "thumbnailUrl": null, "date": "2024-04-22T03:04:37+02:00", "lat": 39.9334, "lon": 32.8597, "intensity": 0.8, "source": "Bayrischer Rundfunk"}, {"title": "Staatsregierung will keine weiteren Corona-Akten offenlegen", "url": "https://www.br.de/nachrichten/meldungen/index.html#n4", "thumbnailUrl": null, "date": "2024-04-22T03:04:37+02:00", "lat": 52.520008, "lon": 13.404954, "intensity": 0.7, "source": "Bayrischer Rundfunk"}, {"title": "Netanjahu k\u00fcndigt weitere \"schmerzhafte Schl\u00e4ge\" gegen Hamas an", "url": "https://www.br.de/nachrichten/meldungen/index.html#n5", "thumbnailUrl": null, "date": "2024-04-22T03:04:37+02:00", "lat": 52.520008, "lon": 13.404954, "intensity": 0.6, "source": "Bayrischer Rundfunk"}, {"title": "Hunderte Menschen gedenken der Befreiung von KZ Flossenb\u00fcrg", "url": "https://www.br.de/nachrichten/meldungen/index.html#n6", "thumbnailUrl": null, "date": "2024-04-22T03:04:37+02:00", "lat": 48.135125, "lon": 11.581981, "intensity": 0.6, "source": "Bayrischer Rundfunk"}, {"title": "Bei Unfall mit zehn Fahrzeugen auf A95 gibt es einen Toten", "url": "https://www.br.de/nachrichten/meldungen/index.html#n7", "thumbnailUrl": null, "date": "2024-04-22T03:04:37+02:00", "lat": 50.110922, "lon": 8.682127, "intensity": 0.8, "source": "Bayrischer Rundfunk"}, {"title": "Rund 5.000 Radler nehmen an Sternfahrt in M\u00fcnchen teil", "url": "https://www.br.de/nachrichten/meldungen/index.html#n8", "thumbnailUrl": null, "date": "2024-04-22T03:04:37+02:00", "lat": 47.8684, "lon": 12.6394, "intensity": 0.8, "source": "Bayrischer Rundfunk"}, {"title": "In der Bundesliga trennen sich Dortmund und Leverkusen unentschieden", "url": "https://www.br.de/nachrichten/meldungen/index.html#n9", "thumbnailUrl": null, "date": "2024-04-22T03:04:37+02:00", "lat": 48.5844, "lon": 13.6722, "intensity": 0.8, "source": "Bayrischer Rundfunk"}, {"title": "Struff gewinnt ATP-Turnier, Verstappen siegt in der Formel 1", "url": "https://www.br.de/nachrichten/meldungen/index.html#n10", "thumbnailUrl": null, "date": "2024-04-22T03:04:37+02:00", "lat": 53.5396, "lon": 8.5761, "intensity": 0.4, "source": "Bayrischer Rundfunk"}, {"title": "Das Wetter: Vor allem im S\u00fcden Regen oder Schnee, bis -4 Grad", "url": "https://www.br.de/nachrichten/meldungen/index.html#n11", "thumbnailUrl": null, "date": "2024-04-22T03:04:37+02:00", "lat": 48.1351, "lon": 11.582, "intensity": 0.3, "source": "Bayrischer Rundfunk"}, {"title": "Video | Fu\u00dfball-Bundesliga: Union mit sehr viel Schatten und ganz wenig Licht gegen die Bayern", "url": "https://www.rbb24.de/sport/beitrag/av7/video-fussball-bundesliga-spielbericht-union-berlin-bayern-muenchen.html", "thumbnailUrl": null, "date": "Mon, 22 Apr 2024 00:00:00 +0200", "lat": 52.515132, "lon": 13.496274, "intensity": 0.7, "source": "RBB"}, {"title": "Video |\u00a0Zweite Fu\u00dfball-Bundesliga: Hertha bringt sich um den Lohn seiner Arbeit", "url": "https://www.rbb24.de/sport/beitrag/av7/video-fussball-zweite-bundesliga-spielbericht-karlsruher-sc-hertha-bsc.html", "thumbnailUrl": null, "date": "Mon, 22 Apr 2024 00:00:00 +0200", "lat": 52.52, "lon": 13.4077, "intensity": 0.8, "source": "RBB"}, {"title": "Deutsche Staatsb\u00fcrgerschaft: Deutlich mehr Einb\u00fcrgerungen in Brandenburg", "url": "https://www.rbb24.de/politik/beitrag/2024/04/brandenburg-einbuergerung-feier-deutsche-staatsbuergerschaft.html", "thumbnailUrl": null, "date": "Sun, 21 Apr 2024 21:53:29 +0200", "lat": 52.4068, "lon": 13.1381, "intensity": 0.7, "source": "RBB"}, {"title": "Video | Tafel f\u00fcr Bed\u00fcrftige - Potsdamer Nikolaikirche l\u00e4dt zum gedeckten Tisch", "url": "https://www.rbb24.de/panorama/beitrag/av7/video-brandenburg-potsdam-nikolaikirche-tafel.html", "thumbnailUrl": null, "date": "Sun, 21 Apr 2024 20:51:42 +0200", "lat": 52.396348, "lon": 13.060373, "intensity": 0.2, "source": "RBB"}, {"title": "98:92 gegen Bamberg: Alba setzt Siegesserie fort", "url": "https://www.rbb24.de/sport/beitrag/2024/04/basketball-bundesliga-bbl-hauptrunde-alba-berlin-bamberg-baskets.html", "thumbnailUrl": null, "date": "Sun, 21 Apr 2024 20:50:10 +0200", "lat": 52.520008, "lon": 13.404954, "intensity": 0.7, "source": "RBB"}, {"title": "Video | Brandenburg - Tausende Sportler beim Spreewaldmarathon", "url": "https://www.rbb24.de/panorama/beitrag/av7/video-brandenburg-spreewald-marathon-sport-lauf.html", "thumbnailUrl": null, "date": "Sun, 21 Apr 2024 20:29:00 +0200", "lat": 52.0336, "lon": 13.6313, "intensity": 0.6, "source": "RBB"}, {"title": "Video | Berlin - Kreuzberger D\u00f6ner f\u00fcr Istanbul", "url": "https://www.rbb24.de/panorama/beitrag/av7/video-berlin-kreuzberg-doener-istanbul-botschafter.html", "thumbnailUrl": null, "date": "Sun, 21 Apr 2024 20:18:00 +0200", "lat": 52.52, "lon": 13.4025, "intensity": 0.6, "source": "RBB"}, {"title": "2:1-Sieg in Spiel drei: Eisb\u00e4ren Berlin sichern sich nach doppelter Overtime in Bremerhaven Final-F\u00fchrung", "url": "https://www.rbb24.de/sport/beitrag/2024/04/eishockey-del-finale-bremerhaven-pinguins-eisbaeren-berlin-spiel-drei-liveticker-stream-highlights.html", "thumbnailUrl": null, "date": "Sun, 21 Apr 2024 19:30:00 +0200", "lat": 53.5396, "lon": 8.5976, "intensity": 0.8, "source": "RBB"}, {"title": "Herthas 2:3 in Karlsruhe in der Analyse: Eine vielversprechende Niederlage", "url": "https://www.rbb24.de/sport/beitrag/2024/04/fussball-zweite-liga-berlin-hertha-bsc-karlsruhe-ksc-analyse-statistik.html", "thumbnailUrl": null, "date": "Sun, 21 Apr 2024 19:11:30 +0200", "lat": 49.0069, "lon": 8.4037, "intensity": 0.6, "source": "RBB"}, {"title": "Regionalliga Nordost der Frauen: Union feiert h\u00f6chsten Saisonsieg, Viktoria schl\u00e4gt Hertha", "url": "https://www.rbb24.de/sport/beitrag/2024/04/fussball-frauen-regionalliga-nordost-union-berlin-viktoria-hertha-tuerkiemspor-berolina.html", "thumbnailUrl": null, "date": "Sun, 21 Apr 2024 18:23:47 +0200", "lat": 52.52, "lon": 13.4359, "intensity": 0.7, "source": "RBB"}, {"title": "Sch\u00fclervertretungen besorgt: Mehr rechtsextreme F\u00e4lle an Schulen gemeldet", "url": "https://www.rbb24.de/politik/beitrag/2024/04/rechtsextremismus-schulen.html", "thumbnailUrl": null, "date": "Sun, 21 Apr 2024 18:13:17 +0200", "lat": 52.52, "lon": 13.405, "intensity": 0.7, "source": "RBB"}, {"title": "3:0-Erfolg in Babelsberg: Energie Cottbus verteidigt mit Derbysieg die Tabellenspitze", "url": "https://www.rbb24.de/sport/beitrag/2024/04/fussball-regionalliga-nordost-babelsberg-cottbus-hertha-bak-jena.html", "thumbnailUrl": null, "date": "Sun, 21 Apr 2024 17:23:10 +0200", "lat": 52.3917, "lon": 13.0983, "intensity": 0.8, "source": "RBB"}, {"title": "47:68 gegen Titelverteidiger Keltern: Albas Basketballerinnen im zweiten Finalspiel chancenlos", "url": "https://www.rbb24.de/sport/beitrag/2024/04/basketball-dbbl-playoffs-finalserie-alba-berlin-keltern-spiel-zwei.html", "thumbnailUrl": null, "date": "Sun, 21 Apr 2024 17:15:00 +0200", "lat": 52.5292, "lon": 13.3633, "intensity": 0.6, "source": "RBB"}, {"title": "Pleite im Duell unter Freunden: Hertha BSC verliert beim KSC mit 2:3", "url": "https://www.rbb24.de/sport/beitrag/2024/04/fussball-zweite-liga-hertha-bsc-karlsruhe-ksc-livestream-ticker-spielbericht.html", "thumbnailUrl": null, "date": "Sun, 21 Apr 2024 16:59:11 +0200", "lat": 49.0069, "lon": 8.4058, "intensity": 0.8, "source": "RBB"}, {"title": "Stadtautobahn gesperrt: Etwa 280 Menschen protestieren auf der A100 gegen Weiterbau", "url": "https://www.rbb24.de/panorama/beitrag/2024/04/stadtautobahn-a100-behinderungen-autofahrer.html", "thumbnailUrl": null, "date": "Sun, 21 Apr 2024 16:46:19 +0200", "lat": 52.487267, "lon": 13.446528, "intensity": 0.8, "source": "RBB"}, {"title": "Darknet-Experte \u00fcber sexuelle Gewalt im Internet: \"Potenziell ist jedes Kind betroffen\"", "url": "https://www.rbb24.de/panorama/beitrag/2024/04/brandenburg-potsdam-sexuelle-gewalt-kinder-darknet.html", "thumbnailUrl": null, "date": "Sun, 21 Apr 2024 16:38:05 +0200", "lat": 52.4226, "lon": 13.1134, "intensity": 0.8, "source": "RBB"}, {"title": "Handball-Bundesliga: F\u00fcchse Berlin nur mit Remis in packendem Spitzenspiel gegen Kiel", "url": "https://www.rbb24.de/sport/beitrag/2024/04/handball-bundesliga-hbl-fuechse-berlin-thw-kiel-spitzenspiel.html", "thumbnailUrl": null, "date": "Sun, 21 Apr 2024 16:20:00 +0200", "lat": 52.507541, "lon": 13.469807, "intensity": 0.8, "source": "RBB"}, {"title": "Berliner Abgeordnetenhaus: Saleh will SPD-Fraktionschef bleiben", "url": "https://www.rbb24.de/politik/beitrag/2024/04/berlin-spd-agh-fraktionschef-saleh-mitglieder-befragung-parteispitze.html", "thumbnailUrl": null, "date": "Sun, 21 Apr 2024 16:06:00 +0200", "lat": 52.52, "lon": 13.4132, "intensity": 0.6, "source": "RBB"}, {"title": "Zweite Liga: Turbine gewinnt auch in Hoffenheim", "url": "https://www.rbb24.de/sport/beitrag/2024/04/fussball-frauen-zweite-liga-turbine-potsdam-tsg-hoffenheim.html", "thumbnailUrl": null, "date": "Sun, 21 Apr 2024 16:00:57 +0200", "lat": 49.2042, "lon": 8.6303, "intensity": 0.6, "source": "RBB"}, {"title": "Leiter von Brandenburger KZ-Gedenkst\u00e4tten lehnt Pflichtbesuche f\u00fcr Sch\u00fcler ab", "url": "https://www.rbb24.de/politik/beitrag/2024/04/brandenburg-kz-gedenkstaetten-sachsenhausen-pflichtbesuch-schulen-debatte.html", "thumbnailUrl": null, "date": "Sun, 21 Apr 2024 15:10:00 +0200", "lat": 52.5253, "lon": 13.3156, "intensity": 0.6, "source": "RBB"}, {"title": "Plakatwahlkampf zur Europawahl startet und macht sich in Berlin sichtbar", "url": "https://www.rbb24.de/politik/wahl/Europawahl/2024/berlin-europawahl-wahlkampf-werbung-plakate-start.html", "thumbnailUrl": null, "date": "Sun, 21 Apr 2024 14:45:00 +0200", "lat": 52.52, "lon": 13.405, "intensity": 0.5, "source": "RBB"}, {"title": "Mehrere Handgranaten bei Bauarbeiten in Bad Saarow (Oder-Spree) entdeckt", "url": "https://www.rbb24.de/panorama/beitrag/2024/04/brandenburg-bad-saarow-bauarbeiten-munition-handgranaten-gefunden.html", "thumbnailUrl": null, "date": "Sun, 21 Apr 2024 13:13:00 +0200", "lat": 52.2937, "lon": 14.1274, "intensity": 0.8, "source": "RBB"}, {"title": "Polizei findet nach Explosion mutma\u00dfliches Drogenlabor in Berlin-Britz", "url": "https://www.rbb24.de/panorama/beitrag/2024/04/berlin-britz-drogen-labor-kokain-cannabis-explosion-wohnung.html", "thumbnailUrl": null, "date": "Sun, 21 Apr 2024 13:04:00 +0200", "lat": 52.4451, "lon": 13.4219, "intensity": 0.8, "source": "RBB"}, {"title": "Bildergalerie | Festnahme vor 30 Jahren: Die Jagd auf Dagobert", "url": "https://www.rbb24.de/panorama/beitrag/2024/04/berlin-30-jahre-festnahme-dagobert-arno-funke-bildergalerie.html", "thumbnailUrl": null, "date": "Sun, 21 Apr 2024 12:16:24 +0200", "lat": 48.135125, "lon": 11.58198, "intensity": 0.8, "source": "RBB"}, {"title": "Interview mit SEK-Leiter: \"Welche H\u00e4me \u00fcber die Polizei ausgekippt wurde - das \u00e4rgert mich bis heute\"", "url": "https://www.rbb24.de/panorama/beitrag/2024/04/berlin-dagobert-arno-funke-30-jahre-festnahme-interview-martin-textor-polizei.html", "thumbnailUrl": null, "date": "Sun, 21 Apr 2024 12:15:35 +0200", "lat": 52.520008, "lon": 13.404954, "intensity": 0.6, "source": "RBB"}, {"title": "\"Dagobert\"-Festnahme vor 30 Jahren in Berlin: Der Lieblingserpresser", "url": "https://www.rbb24.de/panorama/beitrag/2024/04/berlin-festnahme-kaufhaus-erpresser-dagobert-arno-funke-30-jahre-1994.html", "thumbnailUrl": null, "date": "Sun, 21 Apr 2024 12:15:00 +0200", "lat": 52.520008, "lon": 13.404954, "intensity": 0.7, "source": "RBB"}, {"title": "Olejniczak gegen Slodownik: B\u00fcrgermeisterstichwahl in Slubice am Sonntag", "url": "https://www.rbb24.de/politik/beitrag/2024/04/slubice-buergermeister-stichwahlen-mariusz-olejniczak-marzena-slodownik.html", "thumbnailUrl": null, "date": "Sun, 21 Apr 2024 12:11:00 +0200", "lat": 52.35111, "lon": 14.83889, "intensity": 0.6, "source": "RBB"}, {"title": "Interview | Ein Jahr Regierender Kai Wegner: \"Ich wei\u00df wirklich nicht, wann ich das letzte Mal sieben Stunden geschlafen habe\"", "url": "https://www.rbb24.de/politik/beitrag/2024/04/interview-regierender-buergermeister-kai-wegner-ein-jahr-schwarz-rot-verhaeltnis-bezirke-senat-berlin.html", "thumbnailUrl": null, "date": "Sun, 21 Apr 2024 11:29:00 +0200", "lat": 52.52, "lon": 13.405, "intensity": 0.6, "source": "RBB"}, {"title": "Brandenburg bezuschusst Familienurlaub f\u00fcr Geringverdiener", "url": "https://www.rbb24.de/politik/beitrag/2024/04/brandenburg-sozialministerium-zuschuss-familien-geringe-einkommen-urlaub.html", "thumbnailUrl": null, "date": "Sun, 21 Apr 2024 11:19:00 +0200", "lat": 52.5166, "lon": 13.3769, "intensity": 0.6, "source": "RBB"}, {"title": "Analyse der Union-Pleite gegen Bayern: \"Nicht widerstandsf\u00e4hig\"", "url": "https://www.rbb24.de/sport/beitrag/2024/04/fussball-bundesliga-union-berlin-bayern-muenchen-niederlage-abstiegskampf-analyse.html", "thumbnailUrl": null, "date": "Sun, 21 Apr 2024 08:35:05 +0200", "lat": 52.4574, "lon": 13.4931, "intensity": 0.7, "source": "RBB"}, {"title": "Bildergalerie | Ein Jahr schwarz-roter Senat: Das sind die Senatorinnen und Senatoren der Berliner Regierung", "url": "https://www.rbb24.de/politik/beitrag/2024/04/fotos-bildergalerie-100-tage-berliner-senat-buergermeister-kai-wegner-landesregierung-kabinett-hauptstadt.html", "thumbnailUrl": null, "date": "Sun, 21 Apr 2024 08:09:38 +0200", "lat": 52.520008, "lon": 13.404954, "intensity": 0.5, "source": "RBB"}, {"title": "Video | Schul-Neubau geplant: Anwohner fordern Erhalt des Quartiersparks in Berlin-Lichtenberg", "url": "https://www.rbb24.de/panorama/beitrag/av7/video-berlin-lichtenberg-quartierspark-schule-kritik.html", "thumbnailUrl": null, "date": "Sat, 20 Apr 2024 21:05:53 +0200", "lat": 52.5286, "lon": 13.5024, "intensity": 0.7, "source": "RBB"}, {"title": "3:1-Heimerfolg: BR Volleys melden sich in der Volleyball-Finalserie gegen Friedrichshafen zur\u00fcck", "url": "https://www.rbb24.de/sport/beitrag/2024/04/volleyball-br-volleys-friedrichshafen-playoffs-finalserie-spiel-drei-spielbericht.html", "thumbnailUrl": null, "date": "Sat, 20 Apr 2024 20:51:00 +0200", "lat": 52.52, "lon": 13.4459, "intensity": 0.6, "source": "RBB"}, {"title": "Propal\u00e4stinensische Demo gegen deutsche Waffenlieferungen an Israel", "url": "https://www.rbb24.de/politik/beitrag/2024/04/pro-palaestina-demo-strafverfahren.html", "thumbnailUrl": null, "date": "Sat, 20 Apr 2024 20:18:44 +0200", "lat": 51.5413, "lon": 7.1518, "intensity": 0.6, "source": "RBB"}, {"title": "Klatsche f\u00fcr SPD-Landeschef Raed Saleh bei Wahl zu Berliner Parteispitze", "url": "https://www.rbb24.de/politik/beitrag/2024/04/berlin-spd-mitgliederentscheid-landesspitze-raed-saleh-niederlag.html", "thumbnailUrl": null, "date": "Sat, 20 Apr 2024 19:21:00 +0200", "lat": 52.52, "lon": 13.405, "intensity": 0.8, "source": "RBB"}, {"title": "Potsdamerin Pefestorff ist erste Frau an der Spitze des Deutschen Kanuverbands", "url": "https://www.rbb24.de/sport/beitrag/2024/04/kanusport-verbandspraesidentin-erste-frau-pefestorff-potsdamerin.html", "thumbnailUrl": null, "date": "Sat, 20 Apr 2024 18:49:00 +0200", "lat": 52.3906, "lon": 13.0657, "intensity": 0.4, "source": "RBB"}, {"title": "Fu\u00dfball-Regionalliga: Greifswald legt vor im Aufstiegsrennen - Altglienicke nur Unentschieden", "url": "https://www.rbb24.de/sport/beitrag/2024/04/regionalliga-nordost-altglienicke-greifswald-.html", "thumbnailUrl": null, "date": "Sat, 20 Apr 2024 18:06:50 +0200", "lat": 54.09416, "lon": 13.387726, "intensity": 0.6, "source": "RBB"}, {"title": "4.000 Kiffer feiern in Berlin Cannabis-Legalisierung", "url": "https://www.rbb24.de/panorama/beitrag/2024/04/berlin-demonstration-cannabis-smoke-in-brandenburger-tor.html", "thumbnailUrl": null, "date": "Sat, 20 Apr 2024 17:47:00 +0200", "lat": 52.520008, "lon": 13.404954, "intensity": 0.7, "source": "RBB"}, {"title": "Beschluss des Kirchenparlaments: Evangelische Kirche will bestimmte \u00c4mter nicht mehr an AfD-Mitglieder vergeben", "url": "https://www.rbb24.de/politik/beitrag/2024/04/evangelische-kirche-afd-vergabe-aemter.html", "thumbnailUrl": null, "date": "Sat, 20 Apr 2024 17:24:00 +0200", "lat": 51.3397, "lon": 9.9937, "intensity": 0.7, "source": "RBB"}, {"title": "Wahl f\u00fcr neue Berliner SPD-Parteispitze: Landeschef Saleh ist aus dem Rennen", "url": "https://www.rbb24.de/politik/beitrag/2024/04/spd-berlin-wahl-parteispitze-saleh-lehmann-gescheitert.html", "thumbnailUrl": null, "date": "Sat, 20 Apr 2024 17:05:00 +0200", "lat": 52.52, "lon": 13.405, "intensity": 0.5, "source": "RBB"}, {"title": "Cannabis-Legalisierung: Deutsche Bahn verbietet Kiffen an Bahnh\u00f6fen", "url": "https://www.rbb24.de/panorama/beitrag/2024/04/cannabis-verbot-bahnhoefe-deutsche-bahn.html", "thumbnailUrl": null, "date": "Sat, 20 Apr 2024 16:09:00 +0200", "lat": 51.1657, "lon": 10.4515, "intensity": 0.6, "source": "RBB"}, {"title": "Berliner BIM pr\u00fcft Einrichtung von Trainingsst\u00e4tte der Bundespolizei in Bogensee", "url": "https://www.rbb24.de/politik/beitrag/2024/04/plaene-bogensee-wandlitz-goebbels-villa-bim-berlin.html", "thumbnailUrl": null, "date": "Sat, 20 Apr 2024 12:43:00 +0200", "lat": 52.6564, "lon": 13.5254, "intensity": 0.7, "source": "RBB"}, {"title": "Blitzermarathon: Brandenburger Polizei registriert mehr als 2.000 Verst\u00f6\u00dfe binnen eines Tages", "url": "https://www.rbb24.de/panorama/beitrag/2024/04/brandenburg-blitzermarathon-polizei-verstoesse.html", "thumbnailUrl": null, "date": "Sat, 20 Apr 2024 12:31:00 +0200", "lat": 52.3796, "lon": 13.1798, "intensity": 0.8, "source": "RBB"}, {"title": "Schiedsrichterlegende: Ehemaliger Brandenburger Fu\u00dfball-Verbandspr\u00e4sident Kirschen ist tot", "url": "https://www.rbb24.de/sport/beitrag/2024/04/fussballverband-brandenburg-siegfried-kirschen-tot-ehrenpraeside.html", "thumbnailUrl": null, "date": "Sat, 20 Apr 2024 12:23:00 +0200", "lat": 52.4794, "lon": 13.5684, "intensity": 0.7, "source": "RBB"}, {"title": "Alkohol und zu schnelles Fahren: Brandenburger Polizei will zum Vatertag verst\u00e4rkt auf Gew\u00e4ssern kontrollieren", "url": "https://www.rbb24.de/panorama/beitrag/2024/04/brandenburg-himmelfahrt-vatertag-polizei-verstaerkte-kontrollen-alkohol.html", "thumbnailUrl": null, "date": "Sat, 20 Apr 2024 10:56:37 +0200", "lat": 52.4125, "lon": 13.1543, "intensity": 0.7, "source": "RBB"}, {"title": "Lehrer in Burg werfen Landesregierung fehlende Unterst\u00fctzung vor", "url": "https://www.rbb24.de/studiocottbus/politik/2023/07/brandenburg-burg-rechtsextremismus-schule-lehrer-ministerium-recherche.html", "thumbnailUrl": null, "date": "Thu, 27 Jul 2023 07:48:00 +0200", "lat": 52.4256, "lon": 13.2133, "intensity": 0.8, "source": "RBB"}, {"title": "Hannover Messe: Kanzler Scholz hofft auf Impulse f\u00fcr Energiewende", "url": "https://www.ndr.de/nachrichten/niedersachsen/hannover_weser-leinegebiet/Hannover-Messe-Kanzler-Scholz-hofft-auf-Impulse-fuer-Energiewende,hannovermesse2198.html", "thumbnailUrl": "https://www.ndr.de/nachrichten/niedersachsen/hannover_weser-leinegebiet/hannovermesse2202_v-contentwidescreen.jpg", "date": "2024-04-22T00:01:00.099+02:00", "lat": 52.3759, "lon": 9.7423, "intensity": 0.8, "source": "NDR"}, {"title": "Frost und Schneeschauer: Glatte Stra\u00dfen zum Wochenbeginn m\u00f6glich", "url": "https://www.ndr.de/nachrichten/info/Frost-und-Schneeschauer-Glatte-Strassen-zum-Wochenbeginn-moeglich,glaette600.html", "thumbnailUrl": "https://www.ndr.de/nachrichten/info/glaette602_v-contentwidescreen.jpg", "date": "2024-04-22T00:01:01.382+02:00", "lat": 53.14345, "lon": 8.215144, "intensity": 0.7, "source": "NDR"}, {"title": "Meyer Werft: Kreuzfahrtschiff \"Silver Ray\" hat Nordsee erreicht", "url": "https://www.ndr.de/nachrichten/niedersachsen/oldenburg_ostfriesland/Meyer-Werft-Kreuzfahrtschiff-Silver-Ray-hat-Nordsee-erreicht,kreuzfahrtschiff406.html", "thumbnailUrl": "https://www.ndr.de/nachrichten/niedersachsen/oldenburg_ostfriesland/kreuzfahrtschiff410_v-contentwidescreen.jpg", "date": "2024-04-21T19:29:49.142+02:00", "lat": 53.0804, "lon": 7.3919, "intensity": 0.8, "source": "NDR"}, {"title": "Werder Bremen entledigt sich der gr\u00f6\u00dften Abstiegssorgen", "url": "https://www.ndr.de/sport/fussball/Werder-Bremen-entledigt-sich-der-groessten-Abstiegssorgen,werder15798.html", "thumbnailUrl": "https://www.ndr.de/sport/fussball/zweitebundesliga/werder15804_v-contentwidescreen.jpg", "date": "2024-04-21T21:46:14.015+02:00", "lat": 53.06466, "lon": 8.82001, "intensity": 0.8, "source": "NDR"}, {"title": "Sieg bei Hannover 96 - Aufstieg des FC St. Pauli r\u00fcckt n\u00e4her", "url": "https://www.ndr.de/sport/fussball/Sieg-bei-Hannover-96-Aufstieg-des-FC-St-Pauli-rueckt-naeher,nordduell1096.html", "thumbnailUrl": "https://www.ndr.de/sport/fussball/zweitebundesliga/hannoverstpauli138_v-contentwidescreen.jpg", "date": "2024-04-21T23:18:58.316+02:00", "lat": 52.369, "lon": 9.732, "intensity": 0.8, "source": "NDR"}, {"title": "95 Prozent aller F\u00fcnftkl\u00e4ssler in Hamburg kommen an Wunschschule", "url": "https://www.ndr.de/nachrichten/hamburg/95-Prozent-aller-Fuenftklaessler-in-Hamburg-kommen-an-Wunschschule,schule3462.html", "thumbnailUrl": "https://www.ndr.de/nachrichten/hamburg/schule3460_v-contentwidescreen.jpg", "date": "2024-04-21T16:33:29.358+02:00", "lat": 53.5511, "lon": 10.0003, "intensity": 0.8, "source": "NDR"}, {"title": "Wilhelmsburg: Mann mit Messer lebensgef\u00e4hrlich verletzt", "url": "https://www.ndr.de/nachrichten/hamburg/Wilhelmsburg-Mann-mit-Messer-lebensgefaehrlich-verletzt,wilhelmsburg456.html", "thumbnailUrl": "https://www.ndr.de/nachrichten/hamburg/screenshot1736472_v-contentwidescreen.jpg", "date": "2024-04-21T13:59:31.480+02:00", "lat": 53.487, "lon": 10.0053, "intensity": 0.7, "source": "NDR"}, {"title": "Sylt: Punks planen erneut Protestcamp im Sommer", "url": "https://www.ndr.de/nachrichten/schleswig-holstein/Sylt-Punks-planen-erneut-Protestcamp-im-Sommer,sylt1660.html", "thumbnailUrl": "https://www.ndr.de/nachrichten/schleswig-holstein/punks188_v-contentwidescreen.jpg", "date": "2024-04-21T14:07:49.507+02:00", "lat": 54.9179, "lon": 8.3065, "intensity": 0.3, "source": "NDR"}, {"title": "Erste pflegebed\u00fcrftige Obdachlose kommen nach Niendorf", "url": "https://www.ndr.de/nachrichten/hamburg/Erste-pflegebeduerftige-Obdachlose-kommen-nach-Niendorf,niendorf338.html", "thumbnailUrl": "https://www.ndr.de/nachrichten/hamburg/niendorf336_v-contentwidescreen.jpg", "date": "2024-04-21T17:38:11.338+02:00", "lat": 53.6388, "lon": 9.9646, "intensity": 0.8, "source": "NDR"}, {"title": "Gelber Sack: Viel mehr Plastik k\u00f6nnte recycelt werden", "url": "https://www.ndr.de/nachrichten/info/Gelber-Sack-Viel-mehr-Plastik-koennte-recycelt-werden,plastikrecycling120.html", "thumbnailUrl": "https://www.ndr.de/nachrichten/niedersachsen/osnabrueck_emsland/umweltpreis196_v-contentwidescreen.jpg", "date": "2024-04-21T06:50:36.530+02:00", "lat": 53.5511, "lon": 9.9937, "intensity": 0.7, "source": "NDR"}, {"title": "Ministerin fordert vom Bund Geld f\u00fcr Frauenh\u00e4user in MV", "url": "https://www.ndr.de/nachrichten/mecklenburg-vorpommern/Ministerin-fordert-vom-Bund-Geld-fuer-Frauenhaeuser-in-MV,frauenhausmv100.html", "thumbnailUrl": "https://www.n-joy.de/leben/hass184_v-contentwidescreen.jpg", "date": "2024-04-21T18:58:17.839+02:00", "lat": 53.6127, "lon": 12.5547, "intensity": 0.7, "source": "NDR"}, {"title": "Mehr Kinder mit Sprachproblemen in Niedersachsen", "url": "https://www.ndr.de/nachrichten/niedersachsen/Mehr-Kinder-mit-Sprachproblemen-in-Niedersachsen,einschulung388.html", "thumbnailUrl": "https://www.ndr.de/nachrichten/niedersachsen/schule2594_v-contentwidescreen.jpg", "date": "2024-04-21T12:06:47.139+02:00", "lat": 52.3732, "lon": 9.7356, "intensity": 0.7, "source": "NDR"}, {"title": "S-Bahn in Hamburg: Sperrungen am Wochenende bei S1, S3 und S5", "url": "https://www.ndr.de/nachrichten/hamburg/S-Bahn-in-Hamburg-Sperrungen-am-Wochenende-bei-S1-S3-und-S5,sbahn978.html", "thumbnailUrl": "https://www.ndr.de/nachrichten/hamburg/bahnstreik1270_v-contentwidescreen.jpg", "date": "2024-04-21T07:00:40.035+02:00", "lat": 53.5511, "lon": 9.9833, "intensity": 0.6, "source": "NDR"}, {"title": "Gericht entscheidet: Fahrrad-Demo auf A39 verboten", "url": "https://www.ndr.de/nachrichten/niedersachsen/lueneburg_heide_unterelbe/Gericht-entscheidet-Fahrrad-Demo-auf-A39-verboten,aktuelllueneburg10432.html", "thumbnailUrl": "https://www.ndr.de/home/hamburg/justiz133_v-contentwidescreen.jpg", "date": "2024-04-21T19:16:52.666+02:00", "lat": 53.2525, "lon": 10.4643, "intensity": 0.8, "source": "NDR"}, {"title": "Hamburger Fr\u00fchlingsdom endet - 1,3 Millionen Besucher", "url": "https://www.ndr.de/nachrichten/hamburg/Hamburger-Fruehlingsdom-2024-geht-nach-vier-Wochen-zu-Ende,fruehlingsdom128.html", "thumbnailUrl": "https://www.ndr.de/nachrichten/hamburg/dom820_v-contentwidescreen.jpg", "date": "2024-04-21T17:56:18.600+02:00", "lat": 53.566, "lon": 9.978, "intensity": 0.6, "source": "NDR"}, {"title": "So war der Plattdeutsche Tag in Hamburg", "url": "https://www.ndr.de/903/veranstaltungen/So-war-der-Plattdeutsche-Tag-in-Hamburg,plattdeutschertaghamburg102.html", "thumbnailUrl": "https://www.ndr.de/903/sendungen/wi_snackt_platt/flaggehamburg100_v-contentwidescreen.jpg", "date": "2024-04-21T14:29:45.120+02:00", "lat": 53.5511, "lon": 9.9937, "intensity": 0.3, "source": "NDR"}, {"title": "Unter Protest: AfD h\u00e4lt Landesparteitag in Unterl\u00fc\u00df ab", "url": "https://www.ndr.de/nachrichten/niedersachsen/lueneburg_heide_unterelbe/Unter-Protest-AfD-haelt-Landesparteitag-in-Unterluess-ab,afdparteitag134.html", "thumbnailUrl": "https://www.ndr.de/nachrichten/niedersachsen/lueneburg_heide_unterelbe/afd3242_v-contentwidescreen.jpg", "date": "2024-04-21T14:15:08.906+02:00", "lat": 52.9125, "lon": 10.3833, "intensity": 0.8, "source": "NDR"}, {"title": "A7 bei Rendsburg erneut gesperrt", "url": "https://www.ndr.de/nachrichten/schleswig-holstein/A7-bei-Rendsburg-an-diesem-Wochenende-erneut-gesperrt,sperrung768.html", "thumbnailUrl": "https://www.ndr.de/nachrichten/schleswig-holstein/sperrung770_v-contentwidescreen.jpg", "date": "2024-04-20T11:35:44.317+02:00", "lat": 54.3069, "lon": 9.6642, "intensity": 0.6, "source": "NDR"}, {"title": "Demos gegen Rechtsextremismus: Ebbt die Protestwelle ab?", "url": "https://www.ndr.de/fernsehen/sendungen/schleswig-holstein_magazin/Demos-gegen-Rechtsextremismus-Ebbt-die-Protestwelle-ab,shmag115744.html", "thumbnailUrl": "https://www.ndr.de/fernsehen/sendungen/schleswig-holstein_magazin/logo200_v-contentwidescreen.jpg", "date": "2024-04-21T20:19:57.491+02:00", "lat": 54.3233, "lon": 10.1393, "intensity": 0.6, "source": "NDR"}, {"title": "\"Wohnschmiede\" bietet Unterkunft f\u00fcr obdachlose EU-B\u00fcrger", "url": "https://www.ndr.de/fernsehen/sendungen/hamburg_journal/Wohnschmiede-bietet-Unterkunft-fuer-obdachlose-EU-Buerger,hamj146316.html", "thumbnailUrl": "https://www.ndr.de/fernsehen/screenshot1736478_v-contentwidescreen.jpg", "date": "2024-04-21T18:07:32.854+02:00", "lat": 53.5796, "lon": 9.9306, "intensity": 0.7, "source": "NDR"}, {"title": "Mecklenburgische Schweiz will anerkannte Tourismusregion werden", "url": "https://www.ndr.de/fernsehen/sendungen/nordmagazin/Mecklenburgische-Schweiz-will-anerkannte-Tourismusregion-werden,nordmagazin117466.html", "thumbnailUrl": "https://www.ndr.de/fernsehen/screenshot1736624_v-contentwidescreen.jpg", "date": "2024-04-21T20:34:51.537+02:00", "lat": 53.7013, "lon": 12.9116, "intensity": 0.5, "source": "NDR"}, {"title": "Kanaren am Limit - Proteste gegen Folgen des Massentourismus", "url": "https://www.ndr.de/nachrichten/info/Kanaren-am-Limit-Proteste-gegen-Folgen-des-Massentourismus,audio1619022.html", "thumbnailUrl": "https://www.ndr.de/nachrichten/info/teneriffa142_v-contentwidescreen.jpg", "date": "2024-04-21T10:57:02.194+02:00", "lat": 28.2915637, "lon": -16.6291304, "intensity": 0.8, "source": "NDR"}, {"title": "Harz: Freiwillige pflanzen B\u00e4ume gegen den Klimawandel", "url": "https://www.ndr.de/fernsehen/sendungen/hallo_niedersachsen/Harz-Freiwillige-pflanzen-Baeume-gegen-den-Klimawandel,hallonds87050.html", "thumbnailUrl": "https://www.ndr.de/fernsehen/screenshot1736422_v-contentwidescreen.jpg", "date": "2024-04-21T13:18:49.110+02:00", "lat": 51.7731, "lon": 10.6551, "intensity": 0.7, "source": "NDR"}, {"title": "Seit mehr als sechs Wochen Hungerstreik f\u00fcr Klimaschutz", "url": "https://www.ndr.de/nachrichten/info/Seit-mehr-als-sechs-Wochen-Hungerstreik-fuer-Klimaschutz,audio1618948.html", "thumbnailUrl": "https://www.ndr.de/nachrichten/info/hungerstreik166_v-contentwidescreen.jpg", "date": "2024-04-21T13:22:43.708+02:00", "lat": 52.51704, "lon": 13.37594, "intensity": 0.8, "source": "NDR"}, {"title": "Jetzt anmelden: Workshops zum Tag der Pressefreiheit", "url": "https://www.ndr.de/ratgeber/medienkompetenz/Jetzt-anmelden-Workshops-zum-Tag-der-Pressefreiheit,tdpressefreiheit100.html", "thumbnailUrl": "https://www.ndr.de/ratgeber/medienkompetenz/pressefreiheit418_v-contentwidescreen.jpg", "date": "2024-04-18T15:25:01.210+02:00", "lat": 53.5511, "lon": 10.0103, "intensity": 0.3, "source": "NDR"}, {"title": "Relaunch der vier NDR L\u00e4nder-Apps: Nachrichten aus Ihrer Region!", "url": "https://www.ndr.de/Relaunch-der-vier-NDR-Laender-Apps-Nachrichten-aus-Ihrer-Region,laenderapprelaunch100.html", "thumbnailUrl": "https://www.ndr.de/laenderapprelaunch102_v-contentwidescreen.jpg", "date": "2024-03-19T09:22:34.719+01:00", "lat": 53.8659, "lon": 9.8606, "intensity": 0.4, "source": "NDR"}, {"title": "Gaspreis Dashboard", "url": "https://www.ndr.de/home/gaspreis176.html", "thumbnailUrl": null, "date": "2023-04-06T14:49:06.409+02:00", "lat": 51.3426, "lon": 9.9976, "intensity": 0.7, "source": "NDR"}, {"title": "NDR Radioprogramme", "url": "https://www.ndr.de/radio/radiologobox100.html", "thumbnailUrl": null, "date": "2020-12-01T14:04:26.700+01:00", "lat": 53.5511, "lon": 9.9937, "intensity": 0.3, "source": "NDR"}, {"title": "Krieg und Terror - Die Lage im Nahen Osten und in der Ukraine", "url": "https://www.ndr.de/nachrichten/info/podcast5342.html", "thumbnailUrl": "https://www.ndr.de/nachrichten/info/podcastbild412_v-contentwidescreen.jpg", "date": "2024-04-21T17:19:27.570+02:00", "lat": 46.79651, "lon": 30.739834, "intensity": 0.8, "source": "NDR"}, {"title": "Unsere Comedy \"Die Kur-Oase\"!", "url": "https://www.ndr.de/ndr2/podcasts/podcast5816.html", "thumbnailUrl": "https://www.ndr.de/ndr2/podcasts/podcast5812_v-contentwidescreen.jpg", "date": "2024-04-19T07:15:08.225+02:00", "lat": 54.9069, "lon": 8.7386, "intensity": 0.2, "source": "NDR"}, {"title": "eat.READ.sleep. B\u00fccher f\u00fcr dich", "url": "https://www.ndr.de/kultur/sendungen/eat_read_sleep/index.html", "thumbnailUrl": "https://www.ndr.de/mediathek/podcastbild434_v-contentwidescreen.jpg", "date": "2024-04-12T06:00:31.991+02:00", "lat": 53.5511, "lon": 9.9937, "intensity": 0.2, "source": "NDR"}, {"title": "Die Ern\u00e4hrungs-Docs - Essen als Medizin", "url": "https://www.ndr.de/fernsehen/sendungen/die-ernaehrungsdocs/audio-podcast/index.html", "thumbnailUrl": "https://www.ndr.de/fernsehen/sendungen/die-ernaehrungsdocs/podcastbild338_v-contentwidescreen.jpg", "date": "2024-04-19T14:29:34.944+02:00", "lat": 53.5511, "lon": 9.9876, "intensity": 0.3, "source": "NDR"}, {"title": "Streitkr\u00e4fte und Strategien", "url": "https://www.ndr.de/nachrichten/info/podcast2998.html", "thumbnailUrl": "https://www.ndr.de/mediathek/mediathekbild652_v-contentwidescreen.jpg", "date": "2024-04-19T16:42:59.605+02:00", "lat": 53.5511, "lon": 9.9937, "intensity": 0.8, "source": "NDR"}, {"title": "Standpunkte", "url": "https://www.ndr.de/nachrichten/info/podcast4700.html", "thumbnailUrl": "https://www.ndr.de/mediathek/podcast5332_v-contentwidescreen.jpg", "date": "2024-04-22T00:04:01.543+02:00", "lat": 53.5511, "lon": 9.9937, "intensity": 0.5, "source": "NDR"}, {"title": "Mein Einsatz - der Feuerwehr-Podcast von NDR Niedersachsen", "url": "https://www.ndr.de/ndr1niedersachsen/podcast5774.html", "thumbnailUrl": "https://www.ndr.de/ndr1niedersachsen/podcasts/podcastbild364_v-contentwidescreen.jpg", "date": "2024-04-11T04:00:07.819+02:00", "lat": 52.3759, "lon": 9.7345, "intensity": 0.7, "source": "NDR"}, {"title": "\"Feel Hamburg\" - alle Folgen", "url": "https://www.ndr.de/903/podcasts/podcast5108.html", "thumbnailUrl": "https://www.ndr.de/mediathek/mediathekbild514_v-contentwidescreen.jpg", "date": "2024-04-17T05:00:09.432+02:00", "lat": 53.55, "lon": 10.0, "intensity": 0.4, "source": "NDR"}, {"title": "Intensiv-Station - Satire von NDR Info", "url": "https://www.ndr.de/nachrichten/info/podcast4274.html", "thumbnailUrl": "https://www.ndr.de/nachrichten/info/programm/intensivstation3272_v-contentwidescreen.jpg", "date": "2024-04-15T20:31:27.934+02:00", "lat": 54.3706, "lon": 10.5038, "intensity": 0.8, "source": "NDR"}, {"title": "Amerika, wir m\u00fcssen reden!", "url": "https://www.ndr.de/nachrichten/info/podcast4932.html", "thumbnailUrl": "https://www.ndr.de/nachrichten/info/podcastbild488_v-contentwidescreen.jpg", "date": "2024-04-15T18:53:54.188+02:00", "lat": 39.78373, "lon": -100.445882, "intensity": 0.7, "source": "NDR"}, {"title": "Reisebus mit 67 Sch\u00fclern auf A45 bei Wenden umgekippt", "url": "https://www1.wdr.de/nachrichten/reisebus-umgekippt-olpe-freudenberg-a45-100.html", "thumbnailUrl": null, "date": "2024-04-21T18:19:21Z", "lat": 50.9885, "lon": 7.9059, "intensity": 0.8, "source": "WDR"}, {"title": "Schnee und glatte Stra\u00dfen in NRW - auch neue Woche startet mit Frost", "url": "https://www1.wdr.de/nachrichten/nrw-wetter-wochenende-100.html", "thumbnailUrl": null, "date": "2024-04-21T18:17:48Z", "lat": 51.5, "lon": 7.6, "intensity": 0.6, "source": "WDR"}, {"title": "Verfassungsschutzchef fordert KI-Einsatz gegen Extremismus", "url": "https://www1.wdr.de/nachrichten/landespolitik/ki-nrw-verfassungsschutz-100.html", "thumbnailUrl": null, "date": "2024-04-21T19:45:56Z", "lat": 51.951, "lon": 7.6261, "intensity": 0.6, "source": "WDR"}, {"title": "72-Stunden-Aktion: Kinder und Jugendliche engagieren sich", "url": "https://www1.wdr.de/nachrichten/nrw-aktion-bdkj-kirche-sozialaktion-freiwillige-kinder-jugendliche100.html", "thumbnailUrl": null, "date": "2024-04-21T17:14:15Z", "lat": 51.1657, "lon": 10.4515, "intensity": 0.7, "source": "WDR"}, {"title": "Gilt die Winterreifenpflicht auch im Fr\u00fchjahr bei Schnee und Eis?", "url": "https://www1.wdr.de/nachrichten/winterreifen-142.html", "thumbnailUrl": null, "date": "2024-04-21T15:28:23Z", "lat": 51.4332, "lon": 7.0123, "intensity": 0.6, "source": "WDR"}, {"title": "Mit Spezialgeschirr und Traktor: Kuh aus Bach bei Bonn gerettet", "url": "https://www1.wdr.de/nachrichten/rheinland/wachtberg-kuh-rettung-100.html", "thumbnailUrl": null, "date": "2024-04-21T18:43:34Z", "lat": 50.6153, "lon": 7.1907, "intensity": 0.6, "source": "WDR"}, {"title": "Auto versinkt in einem Stra\u00dfenloch in Venlo", "url": "https://www1.wdr.de/nachrichten/auto-verschwindet-in-loch-venlo-100.html", "thumbnailUrl": null, "date": "2024-04-21T12:28:22Z", "lat": 51.3704, "lon": 6.1689, "intensity": 0.7, "source": "WDR"}, {"title": "Ahaus: Demo gegen geplante Castor-Transporte", "url": "https://www1.wdr.de/nachrichten/ahaus-demo-atommuell-100.html", "thumbnailUrl": null, "date": "2024-04-21T18:48:18Z", "lat": 52.091, "lon": 7.0096, "intensity": 0.7, "source": "WDR"}, {"title": "Unfall in M\u00f6nchengladbach geschah offenbar absichtlich", "url": "https://www1.wdr.de/nachrichten/rheinland/moenchengladbach-unfall-mord-33-jaehriger-tot-taeter-untersuchungshaft-100.html", "thumbnailUrl": null, "date": "2024-04-21T15:42:24Z", "lat": 51.1805, "lon": 6.4353, "intensity": 0.8, "source": "WDR"}, {"title": "Krieg in Nahost: Nahost-Liveblog: ++ Generalstabschef billigt weitere Kriegspl\u00e4ne ++", "url": "https://www.tagesschau.de/newsticker/liveblog-nahost-sonntag-132.html", "thumbnailUrl": null, "date": "2024-04-21T22:03:03Z", "lat": 31.7961, "lon": 34.4431, "intensity": 1, "source": "WDR"}, {"title": "Nahost-Konflikt: Tote und Verletzte bei Auseinandersetzungen im Westjordanland", "url": "https://www.tagesschau.de/ausland/asien/generalstreik-westjordanland-100.html", "thumbnailUrl": null, "date": "2024-04-21T15:12:02Z", "lat": 31.9466, "lon": 35.3029, "intensity": 0.9, "source": "WDR"}, {"title": "Iran und Israel: Droht ein neuer Krieg im Nahen Osten?", "url": "https://www1.wdr.de/nachrichten/iran-israel-angriff-faq-102.html", "thumbnailUrl": null, "date": "2024-04-19T13:29:16Z", "lat": 32.6546, "lon": 51.6736, "intensity": 0.8, "source": "WDR"}, {"title": "Gewalt im Westjordanland: EU verh\u00e4ngt Sanktionen gegen israelische Siedler und Jugendgruppen", "url": "https://www.tagesschau.de/ausland/europa/eu-sanktionen-siedler-westjordanland-100.html", "thumbnailUrl": null, "date": "2024-04-19T17:33:03Z", "lat": 31.667, "lon": 35.2988, "intensity": 0.8, "source": "WDR"}, {"title": "Treffen der G7-Au\u00dfenminister: G7-Au\u00dfenminister wollen Eskalation in Nahost verhindern", "url": "https://www.tagesschau.de/ausland/g7-nahost-iran-israel-100.html", "thumbnailUrl": null, "date": "2024-04-19T13:09:02Z", "lat": 40.5504, "lon": 14.2631, "intensity": 0.7, "source": "WDR"}, {"title": "Aachen: Nahostkonflikt im Klassenzimmer", "url": "https://www1.wdr.de/nachrichten/rheinland/nahostkonflikt-im-klassenzimmer-102.html", "thumbnailUrl": null, "date": "2024-04-19T12:03:07Z", "lat": 31.526, "lon": 34.4506, "intensity": 0.8, "source": "WDR"}, {"title": "WDR aktuell Whatsapp-Kanal abonnieren - so geht's", "url": "https://www1.wdr.de/nachrichten/wdr-aktuell-whatsapp-kanal-100.html", "thumbnailUrl": null, "date": "2023-12-22T20:22:52Z", "lat": 51.4818, "lon": 7.6261, "intensity": 0.1, "source": "WDR"}, {"title": "Krieg gegen die Ukraine: Ukraine-Liveblog: ++ Explosion auf Schiff im Hafen von Sewastopol ++", "url": "https://www.tagesschau.de/newsticker/liveblog-ukraine-sonntag-416.html", "thumbnailUrl": null, "date": "2024-04-21T22:00:06Z", "lat": 44.6166, "lon": 33.5072, "intensity": 0.8, "source": "WDR"}, {"title": "Nach US-Votum im US-Repr\u00e4sentantenhaus: Votum im US-Repr\u00e4sentantenhaus: Selenskyj dankt f\u00fcr \"bedeutendes Paket\"", "url": "https://www.tagesschau.de/ausland/usa-ukraine-116.html", "thumbnailUrl": null, "date": "2024-04-21T10:12:01Z", "lat": 37.0902, "lon": -95.7129, "intensity": 0.8, "source": "WDR"}, {"title": "US-Repr\u00e4sentantenhaus billigt Ukraine-Hilfen: US-Repr\u00e4sentantenhaus segnet Ukraine-Hilfen ab", "url": "https://www.tagesschau.de/ausland/amerika/usa-hilfen-ukraine-100.html", "thumbnailUrl": null, "date": "2024-04-21T07:21:50Z", "lat": 37.0902, "lon": -95.7129, "intensity": 0.8, "source": "WDR"}, {"title": "Region Dnipropetrowsk: Tote nach russischen Angriffen auf Millionenstadt Dnipro", "url": "https://www.tagesschau.de/ausland/europa/ukraine-tote-angriffe-langstreckenbomber-100.html", "thumbnailUrl": null, "date": "2024-04-19T13:09:02Z", "lat": 48.4647, "lon": 35.0462, "intensity": 1, "source": "WDR"}, {"title": "Russland: Die Sanktionen gegen Russland wirken - und nutzen dennoch wenig", "url": "https://www.tagesschau.de/faktenfinder/kontext/russland-sanktionen-eu-114.html", "thumbnailUrl": null, "date": "2024-04-19T10:54:02Z", "lat": 55.7558, "lon": 37.6176, "intensity": 0.5, "source": "WDR"}, {"title": "Sitzung des NATO-Ukraine-Rats: NATO-Ukraine-Rat: Was tun f\u00fcr die ukrainische Flugabwehr?", "url": "https://www.tagesschau.de/ausland/europa/luftabwehr-ukraine-104.html", "thumbnailUrl": null, "date": "2024-04-19T05:03:03Z", "lat": 50.4501, "lon": 30.5234, "intensity": 0.7, "source": "WDR"},