[{"title": "52-J\u00e4hrige in Irish Pub mit Messer lebensgef\u00e4hrlich verletzt", "url": "https://www.tagesschau.de/inland/regional/niedersachsen/ndr-53-jaehrige-mit-messer-lebensgefaehrlich-verletzt-100.html", "thumbnailUrl": "https://images.tagesschau.de/image/3fed300a-ceef-426b-8828-4a3d5585c274/AAABjqzSu7o/AAABjcWesUg/16x9-512.jpg", "date": "2024-04-05T07:54:00.000+02:00", "lat": 52.9548, "lon": 9.4113, "intensity": 0.8, "source": "Tagesschau"}, {"title": "Berlin-Tiergarten: Alle Stra\u00dfensperrungen durch Berliner Halbmarathon", "url": "https://www.tagesschau.de/inland/regional/berlin/rbb-berlin-tiergarten-alle-strassensperrungen-durch-berliner-halbmarathon-100.html", "thumbnailUrl": "https://images.tagesschau.de/image/01571134-07b8-4cd1-bd93-8048faa04385/AAABjqzSnPQ/AAABjcWesUg/16x9-512.jpg", "date": "2024-04-05T07:51:03.000+02:00", "lat": 52.5145, "lon": 13.3655, "intensity": 0.7, "source": "Tagesschau"}, {"title": "++ CIA-Chef reist offenbar nach \u00c4gypten ++", "url": "https://www.tagesschau.de/newsticker/liveblog-nahost-freitag-124.html", "thumbnailUrl": "https://images.tagesschau.de/image/729d0c50-3d2e-4d3c-b1d8-9ec97294010f/AAABjqvuPeE/AAABjcWesUg/16x9-512.jpg", "date": "2024-04-05T07:46:16.307+02:00", "lat": 30.0444, "lon": 31.2357, "intensity": 0.8, "source": "Tagesschau"}, {"title": "Israel k\u00fcndigt \"sofortige\" Aufstockung von Hilfen an", "url": "https://www.tagesschau.de/ausland/asien/biden-netanyahu-zivilisten-104.html", "thumbnailUrl": "https://images.tagesschau.de/image/96f169b0-65d8-4a54-97d4-deff6a47116c/AAABjqvk-hY/AAABjcWesUg/16x9-512.jpg", "date": "2024-04-05T07:45:41.723+02:00", "lat": 31.9522, "lon": 34.9513, "intensity": 0.7, "source": "Tagesschau"}, {"title": "DAX vor Kursrutsch", "url": "https://www.tagesschau.de/wirtschaft/finanzen/marktberichte/marktbericht-dax-kursrutsch-gold-oel-aktien-dow-kurssturz-boerse-100.html", "thumbnailUrl": "https://images.tagesschau.de/image/40bb9fe2-c0ff-423e-95ba-8fc13edc8b5c/AAABhnP_c94/AAABjcWesUg/16x9-512.jpg", "date": "2024-04-05T07:42:00.224+02:00", "lat": 51.9607, "lon": 7.5986, "intensity": 0.8, "source": "Tagesschau"}, {"title": "Feuer in Asylbewerberunterkunft in Forchtenberg ausgebrochen", "url": "https://www.tagesschau.de/inland/regional/badenwuerttemberg/swr-feuer-in-asylbewerberunterkunft-in-forchtenberg-ausgebrochen-102.html", "thumbnailUrl": "https://images.tagesschau.de/image/4ce4bedc-0ccd-4f25-9ab8-633672e7a6f1/AAABjqzQd3E/AAABjcWesUg/16x9-512.jpg", "date": "2024-04-05T07:40:00.000+02:00", "lat": 49.2925, "lon": 9.5188, "intensity": 0.8, "source": "Tagesschau"}, {"title": "Hamburger Verfassungsschutz warnt vor Propaganda von Islamisten", "url": "https://www.tagesschau.de/inland/regional/hamburg/ndr-hamburger-verfassungsschutz-warnt-vor-propaganda-von-islamisten-100.html", "thumbnailUrl": "https://images.tagesschau.de/image/0c02729d-020f-41a9-80a5-30aaeda9769c/AAABjqzFuVk/AAABjcWesUg/16x9-512.jpg", "date": "2024-04-05T07:38:00.000+02:00", "lat": 53.5511, "lon": 9.9937, "intensity": 0.8, "source": "Tagesschau"}, {"title": "Ohne Ticket: Bus und Bahn fahren sollte Straftat bleiben", "url": "https://www.tagesschau.de/inland/regional/badenwuerttemberg/swr-ohne-ticket-bus-und-bahn-fahren-sollte-straftat-bleiben-100.html", "thumbnailUrl": "https://images.tagesschau.de/image/af91ce1a-140c-489c-98e7-f1796e752a05/AAABjqzJIDo/AAABjcWesUg/16x9-512.jpg", "date": "2024-04-05T07:37:58.000+02:00", "lat": 48.6616, "lon": 9.6605, "intensity": 0.5, "source": "Tagesschau"}, {"title": "Darmstadt 98: +++ Mainz-Trainer sieht \"ein Finale\" +++ Lilien haben nichts mehr zu verlieren +++ Skarke \"will unbedingt spielen\" +++", "url": "https://www.tagesschau.de/inland/regional/hessen/hr--tietz-vermisst-fehlende-gier--lilien-fans-liefern-sich-raststaetten-pruegelei--die-niederlage-der-lilien-in-der-video-zusammenfassung-102.html", "thumbnailUrl": "https://images.tagesschau.de/image/712abeb3-31bb-4ac0-b7bd-1b475ff2760c/AAABjqk-5Qg/AAABjcWesUg/16x9-512.jpg", "date": "2024-04-05T07:36:47.257+02:00", "lat": 49.8717, "lon": 8.65, "intensity": 0.5, "source": "Tagesschau"}, {"title": "Neues Buch: Was Nirvana-S\u00e4nger Kurt Cobain unsterblich macht ", "url": "https://www.tagesschau.de/inland/regional/hessen/hr-neues-buch-was-nirvana-saenger-kurt-cobain-unsterblich-macht-100.html", "thumbnailUrl": "https://images.tagesschau.de/image/6add6aae-32e4-4205-86c8-b0e8824a1fa6/AAABjqzHWw8/AAABjcWesUg/16x9-512.jpg", "date": "2024-04-05T07:34:22.757+02:00", "lat": 50.1167, "lon": 8.6833, "intensity": 0.6, "source": "Tagesschau"}, {"title": "Hessen am Morgen: +++ Vater schl\u00e4gt Kind beim Fu\u00dfballspielen +++ Frankfurt hat soviele Einwohner wie noch nie +++ Polizei warnt Motorradfahrer zum Saisonstart +++", "url": "https://www.tagesschau.de/inland/regional/hessen/hr-hessen-am-morgen--vater-schlaegt-kind-beim-fussballspielen--polizei-warnt-motorradfahrer-zum-saisonstart-100.html", "thumbnailUrl": "https://images.tagesschau.de/image/b16b3028-681c-4e78-9585-1e544b98194b/AAABjqxr2aU/AAABjcWesUg/16x9-512.jpg", "date": "2024-04-05T07:11:13.376+02:00", "lat": 50.110922, "lon": 8.682127, "intensity": 0.7, "source": "Tagesschau"}, {"title": "BW-Newsticker am Morgen: Ermittlungen nach Messerangriff auf Vierj\u00e4hrige, Feuer in Asylbewerberunterkunft in Forchtenberg", "url": "https://www.tagesschau.de/inland/regional/badenwuerttemberg/swr-bw-newsticker-am-morgen-ermittlungen-nach-messerangriff-auf-vierjaehrige-bw-landwirtschaftsminister-will-problemwoelfe-schneller-abschiessen-lassen-100.html", "thumbnailUrl": "https://images.tagesschau.de/image/843dfaa5-7e9a-4c86-ad50-cbf01bbb349f/AAABjqxtqXY/AAABjcWesUg/16x9-512.jpg", "date": "2024-04-05T07:21:00.000+02:00", "lat": 49.2976, "lon": 9.4948, "intensity": 0.8, "source": "Tagesschau"}, {"title": "Dem Pf\u00e4lzerwald geht es so gut wie lange nicht", "url": "https://www.tagesschau.de/inland/regional/rheinlandpfalz/swr-dem-pfaelzerwald-geht-es-so-gut-wie-lange-nicht-100.html", "thumbnailUrl": "https://images.tagesschau.de/image/e4994e5c-2b28-46f1-88dc-6fc9a196c1ea/AAABjqy4nds/AAABjcWesUg/16x9-512.jpg", "date": "2024-04-05T07:20:24.000+02:00", "lat": 49.2621, "lon": 7.9838, "intensity": 0.5, "source": "Tagesschau"}, {"title": "Eintracht: +++ Bremen Lieblingsgegner von G\u00f6tze +++ Eintracht-Schutzdeckel gegen K.o.-Tropfen +++ Toppm\u00f6ller appelliert an Fans +++ ", "url": "https://www.tagesschau.de/inland/regional/hessen/hr--eintracht-wohl-mit-chaibi-einig--glasner-fast-nur-kolo-muani-der-tore-erzielt--bericht-eintracht-sagt-aouar-ab-100.html", "thumbnailUrl": "https://images.tagesschau.de/image/c59129bf-4b70-4f59-ad19-8c7e6de2023b/AAABjqy-Qo0/AAABjcWesUg/16x9-512.jpg", "date": "2024-04-05T07:19:32.841+02:00", "lat": 50.1109, "lon": 8.6821, "intensity": 0.7, "source": "Tagesschau"}, {"title": "Wilhelmshaven: Versorger \"Bonn\" kehrt aus Nordatlantik zur\u00fcck", "url": "https://www.tagesschau.de/inland/regional/niedersachsen/ndr-wilhelmshaven-versorger-bonn-kehrt-aus-nordatlantik-zurueck-100.html", "thumbnailUrl": "https://images.tagesschau.de/image/271dbc3a-1f3e-4a2f-b607-b14a7f4e5fab/AAABjqpG2DE/AAABjcWesUg/16x9-512.jpg", "date": "2024-04-05T07:12:00.000+02:00", "lat": 53.5185, "lon": 8.1486, "intensity": 0.8, "source": "Tagesschau"}, {"title": "Russischer Gouverneur bei Messerattacke verletzt", "url": "https://www.tagesschau.de/ausland/europa/russischer-gouverneur-messerattacke-102.html", "thumbnailUrl": "https://images.tagesschau.de/image/d4d8bc1a-633c-4934-9fa9-efc27009dd6b/AAABjqyU5IE/AAABjcWesUg/16x9-512.jpg", "date": "2024-04-05T06:52:40.841+02:00", "lat": 55.7512, "lon": 38.0364, "intensity": 0.8, "source": "Tagesschau"}, {"title": "A1: Lkw mit Bierkisten kippt um - Autobahn bei Stuhr wieder frei", "url": "https://www.tagesschau.de/inland/regional/niedersachsen/ndr-a1-lkw-mit-bierkisten-kippt-um-autobahn-bei-stuhr-gesperrt-100.html", "thumbnailUrl": "https://images.tagesschau.de/image/bbd36dfe-1ac8-46c8-897c-b12498bdf800/AAABjqyWLaA/AAABjcWesUg/16x9-512.jpg", "date": "2024-04-05T06:47:00.000+02:00", "lat": 53.0426, "lon": 8.7863, "intensity": 0.8, "source": "Tagesschau"}, {"title": "Auf der Saarbr\u00fccker Metzer Stra\u00dfe drohen ab heute Staus", "url": "https://www.tagesschau.de/inland/regional/saarland/sr-auf-der-saarbruecker-metzer-strasse-drohen-am-wochenende-staus-100.html", "thumbnailUrl": "https://images.tagesschau.de/image/99abfc86-af9a-4c6f-af24-4cada2d3debe/AAABjqpA3dc/AAABjcWesUg/16x9-512.jpg", "date": "2024-04-05T06:43:00.000+02:00", "lat": 49.2401, "lon": 6.9911, "intensity": 0.6, "source": "Tagesschau"}, {"title": "A7 in Hamburg: Vollsperrung des Elbtunnels am Wochenende", "url": "https://www.tagesschau.de/inland/regional/hamburg/ndr-a7-in-hamburg-vollsperrung-des-elbtunnels-am-wochenende-100.html", "thumbnailUrl": "https://images.tagesschau.de/image/53194636-f72e-4972-81fe-472631c630a5/AAABjqyQsnQ/AAABjcWesUg/16x9-512.jpg", "date": "2024-04-05T06:40:00.000+02:00", "lat": 53.5511, "lon": 9.9526, "intensity": 0.7, "source": "Tagesschau"}, {"title": "Nach Messerangriff in Wangen im Allg\u00e4u: 34-J\u00e4hriger dem Haftrichter vorgef\u00fchrt", "url": "https://www.tagesschau.de/inland/regional/badenwuerttemberg/swr-wangen-im-allgaeu-mann-verletzt-kind-in-supermarkt-mit-messer-100.html", "thumbnailUrl": "https://images.tagesschau.de/image/865b49dc-7e9a-4093-bcc0-9b538df4791e/AAABjqpwowg/AAABjcWesUg/16x9-512.jpg", "date": "2024-04-05T06:37:00.000+02:00", "lat": 47.6866, "lon": 9.8373, "intensity": 0.8, "source": "Tagesschau"}, {"title": "Ausbau von S\u00fcdschnellweg: B3 ab heute Abend l\u00e4nger dicht", "url": "https://www.tagesschau.de/inland/regional/niedersachsen/ndr-ausbau-von-suedschnellweg-b3-in-hannover-heute-abend-gesperrt-100.html", "thumbnailUrl": "https://images.tagesschau.de/image/e5008b51-bcb4-430d-9aea-17af970de027/AAABjqySjmw/AAABjcWesUg/16x9-512.jpg", "date": "2024-04-05T06:34:00.000+02:00", "lat": 52.3759, "lon": 9.7332, "intensity": 0.6, "source": "Tagesschau"}, {"title": "Deutlich mehr E-Lades\u00e4ulen im Saarland als vor einem Jahr", "url": "https://www.tagesschau.de/inland/regional/saarland/sr-deutlich-mehr-e-ladesaeulen-im-saarland-als-vor-einem-jahr-100.html", "thumbnailUrl": "https://images.tagesschau.de/image/8af08229-7ba7-4ce9-b6c4-7a46d085d6c9/AAABjqyKzWY/AAABjcWesUg/16x9-512.jpg", "date": "2024-04-05T06:32:00.000+02:00", "lat": 49.3964, "lon": 6.9102, "intensity": 0.7, "source": "Tagesschau"}, {"title": "A8 bei Neunkirchen Richtung Pirmasens bis Montag voll gesperrt", "url": "https://www.tagesschau.de/inland/regional/saarland/sr-a8-bei-neunkirchen-richtung-pirmasens-bis-montag-voll-gesperrt-100.html", "thumbnailUrl": "https://images.tagesschau.de/image/0ccda861-3c7e-43e7-ba5f-61559e6a4a16/AAABjqyI-Ps/AAABjcWesUg/16x9-512.jpg", "date": "2024-04-05T06:31:59.090+02:00", "lat": 49.3436, "lon": 7.1814, "intensity": 0.8, "source": "Tagesschau"}, {"title": "Fu\u00dfball-Bundesliga: Union Berlin muss gegen Tabellenf\u00fchrer Leverkusen \"Au\u00dferirdisches\" leisten", "url": "https://www.tagesschau.de/inland/regional/berlin/rbb-fussball-bundesliga-union-berlin-muss-gegen-tabellenfuehrer-leverkusen-ausserirdisches-leisten-102.html", "thumbnailUrl": "https://images.tagesschau.de/image/1cd665ff-daff-4944-a516-0d5ec6a22a8d/AAABjqyM9CQ/AAABjcWesUg/16x9-512.jpg", "date": "2024-04-05T06:31:06.000+02:00", "lat": 52.4724, "lon": 13.4894, "intensity": 0.8, "source": "Tagesschau"}, {"title": "Karlsberg-Mitarbeitende heute zum Streik aufgerufen", "url": "https://www.tagesschau.de/inland/regional/saarland/sr-karlsberg-mitarbeitende-zum-streik-aufgerufen-100.html", "thumbnailUrl": "https://images.tagesschau.de/image/f71ff4fb-6ad6-48c2-b11e-ff8f23ae2970/AAABjqjsSpo/AAABjcWesUg/16x9-512.jpg", "date": "2024-04-05T06:28:00.000+02:00", "lat": 49.3123, "lon": 7.3403, "intensity": 0.8, "source": "Tagesschau"}, {"title": "Poppenb\u00fcttel: Starker Rauch nach Brand in Tiefgarage", "url": "https://www.tagesschau.de/inland/regional/hamburg/ndr-poppenbuettel-starker-rauch-nach-brand-in-tiefgarage-100.html", "thumbnailUrl": "https://images.tagesschau.de/image/e228c4fd-a911-4c0b-bc5a-6d8013af4bf9/AAABjqmh5Cs/AAABjcWesUg/16x9-512.jpg", "date": "2024-04-05T06:23:00.000+02:00", "lat": 53.6467, "lon": 10.0903, "intensity": 0.8, "source": "Tagesschau"}, {"title": "Schwertransport im Emsland: Bahnhof Leschede gesperrt", "url": "https://www.tagesschau.de/inland/regional/niedersachsen/ndr-schwertransport-im-emsland-bahnhof-leschede-gesperrt-100.html", "thumbnailUrl": "https://images.tagesschau.de/image/53600d54-d610-444e-b338-ab5cf1975524/AAABjqyD2eE/AAABjcWesUg/16x9-512.jpg", "date": "2024-04-05T06:18:00.000+02:00", "lat": 52.2811, "lon": 7.3296, "intensity": 0.7, "source": "Tagesschau"}, {"title": "Ph\u00e4nomen der Feenkreise in Namibia entschl\u00fcsselt?", "url": "https://www.tagesschau.de/wissen/forschung/feenkreise-namibia-100.html", "thumbnailUrl": "https://images.tagesschau.de/image/55de1e36-10b6-4d83-865d-38c91f8c4e0f/AAABjqPIZjc/AAABjcWesUg/16x9-512.jpg", "date": "2024-04-05T06:13:25.533+02:00", "lat": -23.4213564, "lon": 15.9783487, "intensity": 0.8, "source": "Tagesschau"}, {"title": "Traditionssport Kegelbillard fehlt der Nachwuchs", "url": "https://www.tagesschau.de/inland/regional/brandenburg/rbb-traditionssport-kegelbillard-fehlt-der-nachwuchs-100.html", "thumbnailUrl": "https://images.tagesschau.de/image/095524f3-50e0-484a-80e5-01e6048bb041/AAABjqx4sdg/AAABjcWesUg/16x9-512.jpg", "date": "2024-04-05T06:09:22.000+02:00", "lat": 52.3007, "lon": 13.1619, "intensity": 0.6, "source": "Tagesschau"}, {"title": "Wetter am Wochenende: Temperatursprung auf \u00fcber 20 Grad im Norden", "url": "https://www.tagesschau.de/inland/regional/hamburg/ndr-wetter-am-wochenende-temperatursprung-auf-ueber-20-grad-im-norden-100.html", "thumbnailUrl": "https://images.tagesschau.de/image/b0583702-374e-475f-8e2f-51bf574cf4ce/AAABjqyk2jQ/AAABjcWesUg/16x9-512.jpg", "date": "2024-04-05T06:00:00.000+02:00", "lat": 53.5511, "lon": 9.9937, "intensity": 0.8, "source": "Tagesschau"}, {"title": "A42: Vollsperrung bei Herne wegen Br\u00fcckenbauarbeiten", "url": "https://www.tagesschau.de/inland/regional/nordrheinwestfalen/wdr-a42-vollsperrung-bei-herne-wegen-brueckenbauarbeiten-102.html", "thumbnailUrl": "https://images.tagesschau.de/image/34e99850-d2ef-4ea0-aac5-3633a79dd91e/AAABjqzDjwQ/AAABjcWesUg/16x9-512.jpg", "date": "2024-04-05T06:00:00.000+02:00", "lat": 51.5366, "lon": 7.2286, "intensity": 0.5, "source": "Tagesschau"}, {"title": "GEW verurteilt Schwesigs Schoko-Werbeaktion an Schweriner Kitas", "url": "https://www.tagesschau.de/inland/regional/mecklenburgvorpommern/ndr-gew-verurteilt-schwesigs-schoko-werbeaktion-an-schweriner-kitas-100.html", "thumbnailUrl": "https://images.tagesschau.de/image/ccb31d2d-8404-4e91-a40d-e8ca3339e8af/AAABjqxtvA8/AAABjcWesUg/16x9-512.jpg", "date": "2024-04-05T05:25:00.000+02:00", "lat": 53.6297, "lon": 11.4036, "intensity": 0.7, "source": "Tagesschau"}, {"title": "Redderstorf: Vermutlich 19 Schafe von Wolf gerissen ", "url": "https://www.tagesschau.de/inland/regional/mecklenburgvorpommern/ndr-redderstorf-vermutlich-19-schafe-von-wolf-gerissen-100.html", "thumbnailUrl": "https://images.tagesschau.de/image/8a993395-e9c0-4c83-9c9d-500378a73246/AAABjqxtkUs/AAABjcWesUg/16x9-512.jpg", "date": "2024-04-05T05:22:00.000+02:00", "lat": 53.8385, "lon": 11.1769, "intensity": 0.8, "source": "Tagesschau"}, {"title": "Auftrag Naturschutz: Ranger an Schleswig-Holsteins Ostseek\u00fcste", "url": "https://www.tagesschau.de/inland/regional/schleswigholstein/ndr-auftrag-naturschutz-ranger-an-schleswig-holsteins-ostseekueste-100.html", "thumbnailUrl": "https://images.tagesschau.de/image/85c083e5-b511-45cc-b37c-4a2a63fa351e/AAABjqw1GgM/AAABjcWesUg/16x9-512.jpg", "date": "2024-04-05T05:00:00.000+02:00", "lat": 54.4701, "lon": 9.5491, "intensity": 0.5, "source": "Tagesschau"}, {"title": "++ Luftabwehr in Rostow am Don aktiv ++", "url": "https://www.tagesschau.de/newsticker/liveblog-ukraine-freitag-374.html", "thumbnailUrl": "https://images.tagesschau.de/image/5b073b67-29bf-4703-b6b1-71469e4c25bb/AAABizMn-kk/AAABjcWesUg/16x9-512.jpg", "date": "2024-04-05T03:06:40.051+02:00", "lat": 47.235713, "lon": 39.701505, "intensity": 0.8, "source": "Tagesschau"}, {"title": "Ein Zauberwort im Kampf gegen die Inflation", "url": "https://www.tagesschau.de/ausland/europa/inflation-tuerkei-urlaubssaison-100.html", "thumbnailUrl": "https://images.tagesschau.de/image/e6d31ce9-4441-4eb5-8389-b5957820b10d/AAABjquQ59U/AAABjcWesUg/16x9-512.jpg", "date": "2024-04-05T02:08:04.240+02:00", "lat": 38.9637, "lon": 35.2433, "intensity": 0.8, "source": "Tagesschau"}, {"title": "++ WHO beklagt Angriffe auf Notfallteams ++", "url": "https://www.tagesschau.de/newsticker/liveblog-ukraine-donnerstag-328.html", "thumbnailUrl": "https://images.tagesschau.de/image/5d0b30fb-fadc-4457-a389-59fc8b8331ee/AAABjqptLi8/AAABjcWesUg/16x9-512.jpg", "date": "2024-04-04T22:54:21.872+02:00", "lat": 49.9935, "lon": 36.231389, "intensity": 0.8, "source": "Tagesschau"}, {"title": "20 Jahre alter Bergsteiger aus Neuwied stirbt am Watzmann ", "url": "https://www.tagesschau.de/inland/regional/rheinlandpfalz/swr-bergsteiger-aus-dem-kreis-neuwied-verunglueckt-am-watzmann-100.html", "thumbnailUrl": "https://images.tagesschau.de/image/1ac50f41-e2da-44cc-b746-6092c0a45655/AAABjqpgHoo/AAABjcWesUg/16x9-512.jpg", "date": "2024-04-04T22:39:00.000+02:00", "lat": 47.55, "lon": 12.9183, "intensity": 0.8, "source": "Tagesschau"}, {"title": "Basketball-EuroLeague: Alba verliert letztes internationales Heimspiel gegen Partizan Belgrad", "url": "https://www.tagesschau.de/inland/regional/berlin/rbb-basketball-euroleague-alba-verliert-letztes-internationales-heimspiel-gegen-partizan-belgrad-102.html", "thumbnailUrl": "https://images.tagesschau.de/image/4d45f58a-d5fa-4f47-a10a-268d1f1a095a/AAABjqrXWdA/AAABjcWesUg/16x9-512.jpg", "date": "2024-04-04T22:36:40.000+02:00", "lat": 52.5200066, "lon": 13.4060912, "intensity": 0.8, "source": "Tagesschau"}, {"title": "Bidens deutliche Warnung an Netanyahu", "url": "https://www.tagesschau.de/ausland/asien/biden-netanyahu-zivilisten-102.html", "thumbnailUrl": "https://images.tagesschau.de/image/cb087b36-b50f-48c8-8b25-8aa8002a70cc/AAABjqqUWXw/AAABjcWesUg/16x9-512.jpg", "date": "2024-04-04T22:29:14.203+02:00", "lat": 31.7683, "lon": 35.2134, "intensity": 0.7, "source": "Tagesschau"}, {"title": "Sicherheit auf Busreisen: \"Am stressigsten sind die Baustellen\"", "url": "https://www.tagesschau.de/inland/regional/niedersachsen/ndr-sicherheit-auf-busreisen-am-stressigsten-sind-die-baustellen-100.html", "thumbnailUrl": "https://images.tagesschau.de/image/4740c388-e942-423a-9da4-ead1db592ef4/AAABjqqy4Xw/AAABjcWesUg/16x9-512.jpg", "date": "2024-04-04T21:55:00.000+02:00", "lat": 52.37392, "lon": 9.768167, "intensity": 0.7, "source": "Tagesschau"}, {"title": "30 Jahre Haft f\u00fcr Helfer des Stra\u00dfburg-Attent\u00e4ters ", "url": "https://www.tagesschau.de/ausland/europa/strassburg-attentat-helfer-haft-100.html", "thumbnailUrl": "https://images.tagesschau.de/image/93796f09-84a1-471b-88d7-3b0d0817eb8a/AAABjqqgbhk/AAABjcWesUg/16x9-512.jpg", "date": "2024-04-04T21:54:34.619+02:00", "lat": 48.5734, "lon": 7.7521, "intensity": 0.8, "source": "Tagesschau"}, {"title": "Lange Haftstrafe nach Anschlag auf Stra\u00dfburger Weihnachtsmarkt", "url": "https://www.tagesschau.de/inland/regional/badenwuerttemberg/swr-nach-terroranschlag-auf-strassburger-weihnachtsmarkt-urteile-erwartet-100.html", "thumbnailUrl": "https://images.tagesschau.de/image/ac87759a-e7a9-473c-90b9-03579cd21abe/AAABjqx05GY/AAABjcWesUg/16x9-512.jpg", "date": "2024-04-04T21:50:00.000+02:00", "lat": 48.5839, "lon": 7.7521, "intensity": 0.8, "source": "Tagesschau"}, {"title": "T\u00f6dliche Sch\u00fcsse in Nienburg: Zweifel an Angaben der Polizei?", "url": "https://www.tagesschau.de/inland/regional/niedersachsen/ndr-toedliche-polizeischuesse-in-nienburg-staatsanwaltschaft-aeussert-sich-100.html", "thumbnailUrl": "https://images.tagesschau.de/image/fe871530-9d7b-4384-a451-80d7445cc255/AAABjqpP8fg/AAABjcWesUg/16x9-512.jpg", "date": "2024-04-04T21:50:00.000+02:00", "lat": 52.6317, "lon": 9.1655, "intensity": 0.8, "source": "Tagesschau"}, {"title": "D\u00e4nemark: Sperrung des Gro\u00dfen Belts nach Raketen-Panne beendet", "url": "https://www.tagesschau.de/inland/regional/schleswigholstein/ndr-panne-an-raketenwerfer-grosser-belt-gesperrt-oslo-faehre-betroffen-100.html", "thumbnailUrl": "https://images.tagesschau.de/image/f67257e4-9118-496e-952d-505845dcbdab/AAABjqqn1P8/AAABjcWesUg/16x9-512.jpg", "date": "2024-04-04T21:47:00.000+02:00", "lat": 55.394, "lon": 11.155, "intensity": 0.7, "source": "Tagesschau"}, {"title": "Kultur: +++ \"Land in Sicht\"-Stipendium in Lauterbach f\u00fcr Lea Weber +++ Frankfurter Oper-Dirigent wechselt zur Met nach New York +++", "url": "https://www.tagesschau.de/inland/regional/hessen/hr--schauspiel-frankfurt-bringt-putin-und-macbeth-zusammen--die-filmfestival-saison-2023-startet--lichter-filmfest-zum-thema-liebe-startet-am-dienstag-100.html", "thumbnailUrl": "https://images.tagesschau.de/image/974ceb03-953b-4260-ada8-d38b120760ef/AAABjqqY6XA/AAABjcWesUg/16x9-512.jpg", "date": "2024-04-04T21:16:32.771+02:00", "lat": 50.3155, "lon": 9.6862, "intensity": 0.7, "source": "Tagesschau"}, {"title": "Mutma\u00dfliche T\u00f6tung im Dortmunder Hafen", "url": "https://www.tagesschau.de/inland/regional/nordrheinwestfalen/wdr-mutmassliche-toetung-im-dortmunder-hafen-100.html", "thumbnailUrl": "https://images.tagesschau.de/image/2e979a1e-d4ba-4eda-a46d-2169c7e6d911/AAABjqqpOng/AAABjcWesUg/16x9-512.jpg", "date": "2024-04-04T21:11:00.000+02:00", "lat": 51.5237, "lon": 7.4952, "intensity": 0.8, "source": "Tagesschau"}, {"title": "K\u00fcnstliche Intelligenz: Hamburger Schulbeh\u00f6rde legt Leitlinien vor", "url": "https://www.tagesschau.de/inland/regional/hamburg/ndr-kuenstliche-intelligenz-hamburger-schulbehoerde-legt-leitlinien-vor-100.html", "thumbnailUrl": "https://images.tagesschau.de/image/08a089d8-6438-4b52-819d-9cb62bde1470/AAABjqzSjzA/AAABjcWesUg/16x9-512.jpg", "date": "2024-04-04T21:05:00.000+02:00", "lat": 53.55, "lon": 10.0, "intensity": 0.7, "source": "Tagesschau"}, {"title": "\"Das ist anders als alles, was wir je erlebt haben\"", "url": "https://www.tagesschau.de/ausland/israel-angriffe-hilfsorganisationen-100.html", "thumbnailUrl": "https://images.tagesschau.de/image/0dbe224d-c30b-4017-8eb4-d4c047000679/AAABjqpSDoU/AAABjcWesUg/16x9-512.jpg", "date": "2024-04-04T21:00:38.939+02:00", "lat": 31.1656, "lon": 34.3955, "intensity": 0.8, "source": "Tagesschau"}, {"title": "CDU will wieder st\u00e4rkste Kraft in Hamburg werden", "url": "https://www.tagesschau.de/inland/regional/hamburg/ndr-cdu-will-wieder-staerkste-kraft-in-hamburg-werden-100.html", "thumbnailUrl": "https://images.tagesschau.de/image/87c2cf20-205e-42a3-ad58-47870bf678ab/AAABjqppj_c/AAABjcWesUg/16x9-512.jpg", "date": "2024-04-04T20:56:00.000+02:00", "lat": 53.55, "lon": 10.0, "intensity": 0.7, "source": "Tagesschau"}, {"title": "Handball-Bundesliga: F\u00fcchse Berlin nach Sieg in G\u00f6ppingen weiter Tabellenf\u00fchrer", "url": "https://www.tagesschau.de/inland/regional/berlin/rbb-handball-bundesliga-fuechse-berlin-nach-sieg-in-goeppingen-weiter-tabellenfuehrer-102.html", "thumbnailUrl": "https://images.tagesschau.de/image/c6478a91-f519-4009-a7b9-dd711ad3e2ac/AAABjqp5_O4/AAABjcWesUg/16x9-512.jpg", "date": "2024-04-04T20:55:04.000+02:00", "lat": 48.7026, "lon": 9.6606, "intensity": 0.7, "source": "Tagesschau"}, {"title": "Gro\u00dfaktion Ludwigshafen: Eidechsen an Hochstra\u00dfe Nord m\u00fcssen weg", "url": "https://www.tagesschau.de/inland/regional/rheinlandpfalz/swr-grossaktion-ludwigshafen-eidechsen-an-hochstrasse-nord-muessen-weg-100.html", "thumbnailUrl": "https://images.tagesschau.de/image/62f4c6b7-973e-4e47-817f-f63bb5c794f4/AAABjqmlVlo/AAABjcWesUg/16x9-512.jpg", "date": "2024-04-04T20:50:00.000+02:00", "lat": 49.4827, "lon": 8.4208, "intensity": 0.7, "source": "Tagesschau"}, {"title": "Rechtsextremismus: Auch Ermittlungen gegen Polizisten im Norden", "url": "https://www.tagesschau.de/inland/regional/niedersachsen/ndr-rechtsextremismus-auch-ermittlungen-gegen-polizisten-im-norden-100.html", "thumbnailUrl": "https://images.tagesschau.de/image/8f728b88-03cb-4657-a15f-c2cf116cdb2b/AAABjqo5nDc/AAABjcWesUg/16x9-512.jpg", "date": "2024-04-04T20:46:00.000+02:00", "lat": 52.3759, "lon": 9.3732, "intensity": 0.6, "source": "Tagesschau"}, {"title": "Was Sie schon immer \u00fcber Spargel wissen wollten", "url": "https://www.tagesschau.de/inland/regional/brandenburg/rbb-faqwas-sie-schon-immer-ueber-spargel-wissen-wollten-100.html", "thumbnailUrl": "https://images.tagesschau.de/image/bd599678-02a0-4562-aed2-b4acf5f69d6b/AAABjqppcbs/AAABjcWesUg/16x9-512.jpg", "date": "2024-04-04T20:38:08.000+02:00", "lat": 52.520008, "lon": 13.404954, "intensity": 0.5, "source": "Tagesschau"}, {"title": "\"Unterst\u00fctzung ist keine Zusammenarbeit\": Wie die AfD ihren Corona-Untersuchungsausschuss doch noch retten will", "url": "https://www.tagesschau.de/inland/regional/hessen/hr-wie-die-afd-ihren-corona-untersuchungsausschuss-doch-noch-retten-will-100.html", "thumbnailUrl": "https://images.tagesschau.de/image/9237f584-21ea-40c2-8cf9-8ae2e1710717/AAABjqplrjg/AAABjcWesUg/16x9-512.jpg", "date": "2024-04-04T20:34:53.155+02:00", "lat": 51.31, "lon": 9.49, "intensity": 0.8, "source": "Tagesschau"}, {"title": "Neues Ausbildungszentrum der Bundeswehr in Kropp er\u00f6ffnet", "url": "https://www.tagesschau.de/inland/regional/schleswigholstein/ndr-neues-ausbildungszentrum-der-bundeswehr-in-kropp-eroeffnet-100.html", "thumbnailUrl": "https://images.tagesschau.de/image/15d08536-061e-4b50-9c03-b07af0c2ef24/AAABjqpl7PA/AAABjcWesUg/16x9-512.jpg", "date": "2024-04-04T20:32:00.000+02:00", "lat": 54.4525, "lon": 9.3689, "intensity": 0.8, "source": "Tagesschau"}, {"title": "Stundenlanger Polizeieinsatz in Greiz: Sieben Personen festgenommen", "url": "https://www.tagesschau.de/inland/regional/thueringen/mdr-stundenlanger-polizeieinsatz-in-greiz-sieben-personen-festgenommen-100.html", "thumbnailUrl": "https://images.tagesschau.de/image/de020323-ae4a-4cf5-8635-d46f62e4860d/AAABjqvBpR0/AAABjcWesUg/16x9-512.jpg", "date": "2024-04-04T20:30:00.000+02:00", "lat": 50.6549, "lon": 12.1934, "intensity": 0.8, "source": "Tagesschau"}, {"title": "Halbfinalbegegnungen im Saarlandpokal stehen fest", "url": "https://www.tagesschau.de/inland/regional/saarland/sr-halbfinalbegegnungen-im-saarlandpokal-stehen-fest-102.html", "thumbnailUrl": "https://images.tagesschau.de/image/024fe56b-f8f9-43f9-aaca-a7362a717c7a/AAABjqpf_mU/AAABjcWesUg/16x9-512.jpg", "date": "2024-04-04T20:22:00.000+02:00", "lat": 49.3964, "lon": 7.0, "intensity": 0.5, "source": "Tagesschau"}, {"title": "Vier Streitkr\u00e4fte und ein zentrales Kommando", "url": "https://www.tagesschau.de/inland/innenpolitik/bundeswehr-fuehrungskommando-plaene-100.html", "thumbnailUrl": "https://images.tagesschau.de/image/dc782cc8-a10f-45e2-9803-da09741171d7/AAABjqo7Id8/AAABjcWesUg/16x9-512.jpg", "date": "2024-04-04T20:11:48.083+02:00", "lat": 51.1657, "lon": 10.4515, "intensity": 0.7, "source": "Tagesschau"}, {"title": "Duell mit Hansa Rostock: W\u00fctender SV Wehen Wiesbaden hofft auf traurigen St\u00fcrmer ", "url": "https://www.tagesschau.de/inland/regional/hessen/hr-duell-mit-hansa-rostock-wuetender-sv-wehen-wiesbaden-hofft-auf-traurigen-stuermer-102.html", "thumbnailUrl": "https://images.tagesschau.de/image/8af1c899-fd69-45d0-8246-95986b49fff9/AAABjqpGisY/AAABjcWesUg/16x9-512.jpg", "date": "2024-04-04T19:57:19.212+02:00", "lat": 50.0782, "lon": 8.2396, "intensity": 0.4, "source": "Tagesschau"}, {"title": "Weniger Motorradl\u00e4rm im Schwarzwald? Zwei Gemeinden setzen auf neue Regeln", "url": "https://www.tagesschau.de/inland/regional/badenwuerttemberg/swr-weniger-motorradlaerm-im-schwarzwald-zwei-gemeinden-setzen-auf-neue-regeln-100.html", "thumbnailUrl": "https://images.tagesschau.de/image/affad5a3-8343-4fee-9400-4d88fcc910c1/AAABjqqu56Y/AAABjcWesUg/16x9-512.jpg", "date": "2024-04-04T19:46:37.000+02:00", "lat": 48.3953, "lon": 8.2319, "intensity": 0.6, "source": "Tagesschau"}, {"title": "Politisch motivierte Dienstvergehen: Bei Berliner Polizei laufen 96 Disziplinarverfahren gegen Beamte", "url": "https://www.tagesschau.de/inland/regional/berlin/rbb-politisch-motivierte-dienstvergehen-bei-berliner-polizei-laufen-96-disziplinarverfahren-gegen-beamte-100.html", "thumbnailUrl": "https://images.tagesschau.de/image/a0b72729-d691-47de-b01e-4713ca899af8/AAABjqou4d4/AAABjcWesUg/16x9-512.jpg", "date": "2024-04-04T19:32:59.000+02:00", "lat": 52.52, "lon": 13.4061, "intensity": 0.8, "source": "Tagesschau"}, {"title": "Berliner Polizei durchsucht in Gropiusstadt Wohnungen von mutma\u00dflichen Silvester-Randalierern", "url": "https://www.tagesschau.de/inland/regional/berlin/rbb-berliner-polizei-durchsucht-in-gropiusstadt-wohnungen-von-mutmasslichen-silvester-randalierern-100.html", "thumbnailUrl": "https://images.tagesschau.de/image/4d7bba58-c0e5-4713-9efa-9afd316c6ec4/AAABjqopd9c/AAABjcWesUg/16x9-512.jpg", "date": "2024-04-04T19:27:25.000+02:00", "lat": 52.4326, "lon": 13.4445, "intensity": 0.6, "source": "Tagesschau"}, {"title": "Tod nach Zahn-OP: Hamburger Zahn\u00e4rztin und An\u00e4sthesist vor Gericht", "url": "https://www.tagesschau.de/inland/regional/hamburg/ndr-hamburger-zahnaerztin-und-anaesthesist-vor-landgericht-angeklagt-100.html", "thumbnailUrl": "https://images.tagesschau.de/image/8422dafa-5206-484a-802a-3d7a1a7cf44f/AAABjqkhuSQ/AAABjcWesUg/16x9-512.jpg", "date": "2024-04-04T19:25:00.000+02:00", "lat": 53.5511, "lon": 9.9416, "intensity": 0.8, "source": "Tagesschau"}, {"title": "300 Menschen erinnern in Dortmund mit Schweigemarsch an Mehmet Kuba\u015f\u0131k", "url": "https://www.tagesschau.de/inland/regional/nordrheinwestfalen/wdr-300-menschen-erinnern-in-dortmund-mit-schweigemarsch-an-mehmet-kubak-100.html", "thumbnailUrl": "https://images.tagesschau.de/image/4a99721d-7acb-47bd-8782-fa343b00149b/AAABjqplfYo/AAABjcWesUg/16x9-512.jpg", "date": "2024-04-04T19:24:00.000+02:00", "lat": 51.513587, "lon": 7.468926, "intensity": 0.8, "source": "Tagesschau"}, {"title": "Zu fr\u00fch plakatiert: Erfurter OB Bausewein verst\u00f6\u00dft gegen Wahlkampf-Regeln", "url": "https://www.tagesschau.de/inland/regional/thueringen/mdr-zu-frueh-plakatiert-erfurter-ob-bausewein-verstoesst-gegen-wahlkampf-regeln-100.html", "thumbnailUrl": "https://images.tagesschau.de/image/107ea0e7-4222-45f6-94c7-2997cafe1546/AAABjqvBhRs/AAABjcWesUg/16x9-512.jpg", "date": "2024-04-04T19:17:06.000+02:00", "lat": 50.9787, "lon": 11.0328, "intensity": 0.6, "source": "Tagesschau"}, {"title": "Festnahme: Mann soll mehrere \u00f6ffentliche Geb\u00e4ude besch\u00e4digt haben", "url": "https://www.tagesschau.de/inland/regional/badenwuerttemberg/swr-festnahme-mann-soll-mehrere-oeffentliche-gebaeude-beschaedigt-haben-100.html", "thumbnailUrl": "https://images.tagesschau.de/image/1ba634ad-3b34-44e9-a276-a6f51007effd/AAABjqof8n8/AAABjcWesUg/16x9-512.jpg", "date": "2024-04-04T19:09:06.000+02:00", "lat": 49.1427, "lon": 9.2223, "intensity": 0.7, "source": "Tagesschau"}, {"title": "Experten \u00fcberpr\u00fcfen Corona-Ma\u00dfnahmen", "url": "https://www.tagesschau.de/inland/regional/sachsenanhalt/mdr-experten-ueberpruefen-corona-massnahmen-100.html", "thumbnailUrl": "https://images.tagesschau.de/image/e2331716-cba2-4b3f-9a8a-e7838f75220f/AAABjqu8R1s/AAABjcWesUg/16x9-512.jpg", "date": "2024-04-04T19:05:56.000+02:00", "lat": 52.1205, "lon": 11.6276, "intensity": 0.7, "source": "Tagesschau"}, {"title": "Auslosung Berliner Landespokal: Makkabi im Pokal-Halbfinale gegen Sparta Lichtenberg, Viktoria gegen SV Lichtenberg", "url": "https://www.tagesschau.de/inland/regional/berlin/rbb-auslosung-berliner-landespokal-makkabi-im-pokal-halbfinale-gegen-sparta-lichtenberg-viktoria-gegen-sv-lichtenberg-102.html", "thumbnailUrl": "https://images.tagesschau.de/image/4e61f87c-967e-4eed-b080-ad27e4674cc1/AAABjqoVSBE/AAABjcWesUg/16x9-512.jpg", "date": "2024-04-04T19:02:41.000+02:00", "lat": 52.52, "lon": 13.405, "intensity": 0.5, "source": "Tagesschau"}, {"title": "Deutschland-Achter f\u00fcr Olympia: Schlagmann Ocik zur\u00fcck im Boot", "url": "https://www.tagesschau.de/inland/regional/mecklenburgvorpommern/ndr-deutschland-achter-fuer-olympia-schlagmann-ocik-zurueck-im-boot-102.html", "thumbnailUrl": "https://images.tagesschau.de/image/29222cc4-8cd9-4ab1-a61c-6cf8a40334b1/AAABjqlTKQM/AAABjcWesUg/16x9-512.jpg", "date": "2024-04-04T18:56:00.000+02:00", "lat": 53.6127, "lon": 12.5924, "intensity": 0.7, "source": "Tagesschau"}, {"title": "Eher kein gro\u00dfer Wurf", "url": "https://www.tagesschau.de/kommentar/kommentar-bundeswehrreform-100.html", "thumbnailUrl": "https://images.tagesschau.de/image/58ba6d37-0e50-472e-9ac1-28e875f945dd/AAABjqoNfCk/AAABjcWesUg/16x9-512.jpg", "date": "2024-04-04T18:55:15.066+02:00", "lat": 51.1634, "lon": 9.9869, "intensity": 0.3, "source": "Tagesschau"}, {"title": "47 Disziplinarverfahren in hessischer Polizei wegen rechter Verdachtsf\u00e4lle", "url": "https://www.tagesschau.de/inland/regional/hessen/hr-47-disziplinarverfahren-in-hessischer-polizei-wegen-rechter-verdachtsfaelle-100.html", "thumbnailUrl": "https://images.tagesschau.de/image/c79fef36-7598-462c-b615-02c85f6fed55/AAABjqn9TFc/AAABjcWesUg/16x9-512.jpg", "date": "2024-04-04T18:43:20.223+02:00", "lat": 50.6521, "lon": 9.6752, "intensity": 0.6, "source": "Tagesschau"}, {"title": "Justiz muss deutlich mehr Cannabis-Verfahren \u00fcberpr\u00fcfen als zun\u00e4chst erwartet", "url": "https://www.tagesschau.de/inland/regional/brandenburg/rbb-justiz-muss-deutlich-mehr-cannabis-verfahren-ueberpruefen-als-zunaechst-erwartet-102.html", "thumbnailUrl": "https://images.tagesschau.de/image/a07bc43c-4da7-4f57-9f6e-711548afeac4/AAABjqn_dg8/AAABjcWesUg/16x9-512.jpg", "date": "2024-04-04T18:43:10.000+02:00", "lat": 52.520008, "lon": 13.404954, "intensity": 0.8, "source": "Tagesschau"}, {"title": "Merkel, die CSU und der Putsch-Versuch: Verzwickte Beziehung", "url": "https://www.tagesschau.de/inland/regional/bayern/br-merkel-die-csu-und-der-putsch-versuch-verzwickte-beziehung-100.html", "thumbnailUrl": "https://images.tagesschau.de/image/cdea88d8-024c-4ee6-8ed9-15cd82013f0e/AAABjqn2e4c/AAABjcWesUg/16x9-512.jpg", "date": "2024-04-04T18:34:03.135+02:00", "lat": 48.1351, "lon": 11.582, "intensity": 0.5, "source": "Tagesschau"}, {"title": "Fahrermangel und Brandschutz: Busse und U-Bahnen mit Problemen", "url": "https://www.tagesschau.de/inland/regional/bayern/br-fahrermangel-und-brandschutz-busse-und-u-bahnen-mit-problemen-102.html", "thumbnailUrl": "https://images.tagesschau.de/image/f46f526a-ae61-427c-ad18-5ff9bf191ba4/AAABjqn2kFQ/AAABjcWesUg/16x9-512.jpg", "date": "2024-04-04T18:33:04.538+02:00", "lat": 48.135125, "lon": 11.581981, "intensity": 0.7, "source": "Tagesschau"}, {"title": "Super-Teleskop aus NRW soll Entstehung des Universums zeigen", "url": "https://www.tagesschau.de/inland/regional/nordrheinwestfalen/wdr-weltraumforschung-modernstes-teleskop-in-xanten-praesentiert-104.html", "thumbnailUrl": "https://images.tagesschau.de/image/b184f630-02f1-4814-8eca-62dd5170257c/AAABjqqGbtw/AAABjcWesUg/16x9-512.jpg", "date": "2024-04-04T18:31:00.000+02:00", "lat": 51.6607, "lon": 6.4541, "intensity": 0.8, "source": "Tagesschau"}, {"title": "Mehrj\u00e4hrige Haftstrafe f\u00fcr Supermarkt-Diebesbande", "url": "https://www.tagesschau.de/inland/regional/saarland/sr-mehrjaehrige-haftstrafe-fuer-supermarkt-diebesbande-100.html", "thumbnailUrl": "https://images.tagesschau.de/image/416ff58e-0b84-4c85-8502-c2a69bc64a79/AAABjqoeLjg/AAABjcWesUg/16x9-512.jpg", "date": "2024-04-04T18:30:00.000+02:00", "lat": 49.3964, "lon": 6.9538, "intensity": 0.8, "source": "Tagesschau"}, {"title": "Rechtsextreme Verdachtsf\u00e4lle bei Bayerns Polizei", "url": "https://www.tagesschau.de/inland/regional/bayern/br-rechtsextreme-verdachtsfaelle-bei-bayerns-polizei-100.html", "thumbnailUrl": "https://images.tagesschau.de/image/f37b32a5-5435-4572-b26a-bf56a97548fc/AAABjqnyfEU/AAABjcWesUg/16x9-512.jpg", "date": "2024-04-04T18:28:23.181+02:00", "lat": 48.1351, "lon": 11.582, "intensity": 0.8, "source": "Tagesschau"}, {"title": "Defekter Raketenwerfer - D\u00e4nemark sperrt Schiffspassage", "url": "https://www.tagesschau.de/ausland/europa/daenemark-grosser-belt-passage-warnung-100.html", "thumbnailUrl": "https://images.tagesschau.de/image/078a8929-0e0b-49ed-94ee-b5d39f4ff5f4/AAABjqmSsiI/AAABjcWesUg/16x9-512.jpg", "date": "2024-04-04T18:10:19.632+02:00", "lat": 55.2631, "lon": 11.0498, "intensity": 0.8, "source": "Tagesschau"}, {"title": "Rekord-W\u00e4rme am Wochenende m\u00f6glich - Saharastaub erwartet", "url": "https://www.tagesschau.de/inland/regional/nordrheinwestfalen/wdr-aprilwetter-am-wochenende-gewitter-rekordverdaechtige-waerme-und-saharastaub-moeglich-100.html", "thumbnailUrl": "https://images.tagesschau.de/image/2f563cc9-84c6-4cdb-9716-6b42d329be0e/AAABjqytlV0/AAABjcWesUg/16x9-512.jpg", "date": "2024-04-04T18:02:00.000+02:00", "lat": 51.4332367, "lon": 7.5885761, "intensity": 0.8, "source": "Tagesschau"}, {"title": "Mehrheit sieht den Frieden in Europa bedroht ", "url": "https://www.tagesschau.de/inland/deutschlandtrend/deutschlandtrend-3418.html", "thumbnailUrl": "https://images.tagesschau.de/image/cc3708c1-f48c-43a9-ad65-499b2ce07d74/AAABhzI07lE/AAABjcWesUg/16x9-512.jpg", "date": "2024-04-04T18:00:08.856+02:00", "lat": 51.1657, "lon": 9.9876, "intensity": 0.6, "source": "Tagesschau"}, {"title": "Mann bedroht Menschen mit Messer: Polizei setzt Schusswaffe ein", "url": "https://www.tagesschau.de/inland/regional/badenwuerttemberg/swr-bedrohung-mit-messer-polizei-setzt-schusswaffe-ein-100.html", "thumbnailUrl": "https://images.tagesschau.de/image/88b6eeeb-d73a-4b00-b5d5-cd8d43a976c7/AAABjqy20Fs/AAABjcWesUg/16x9-512.jpg", "date": "2024-04-04T18:00:00.000+02:00", "lat": 47.7177, "lon": 9.2613, "intensity": 0.8, "source": "Tagesschau"}, {"title": "Vorurteil Platte: Was Jena-Lobeda f\u00fcr mehr Attraktivit\u00e4t tut", "url": "https://www.tagesschau.de/inland/regional/thueringen/mdr-vorurteil-platte-was-jena-lobeda-fuer-mehr-attraktivitaet-tut-100.html", "thumbnailUrl": "https://images.tagesschau.de/image/2af5cccc-c0f6-4a87-82e8-ce7daf1f8743/AAABjqvBwj4/AAABjcWesUg/16x9-512.jpg", "date": "2024-04-04T17:58:06.000+02:00", "lat": 50.9271, "lon": 11.5994, "intensity": 0.7, "source": "Tagesschau"}, {"title": "Cannabis: Viele Gastronomen wollen das Kiffen nicht erlauben", "url": "https://www.tagesschau.de/inland/regional/schleswigholstein/ndr-cannabis-viele-gastronomen-wollen-das-kiffen-nicht-erlauben-100.html", "thumbnailUrl": "https://images.tagesschau.de/image/953a6b20-fd89-4d83-b8dd-2f7a907ce93e/AAABjqnVOSY/AAABjcWesUg/16x9-512.jpg", "date": "2024-04-04T17:55:00.000+02:00", "lat": 54.219367, "lon": 9.696789, "intensity": 0.7, "source": "Tagesschau"}, {"title": "Berliner Wasserbetriebe erneuern bis 2029 Rohre in Landsberger Allee", "url": "https://www.tagesschau.de/inland/regional/berlin/rbb-berliner-wasserbetriebe-erneuern-bis-2029-rohre-in-landsberger-allee-100.html", "thumbnailUrl": "https://images.tagesschau.de/image/af04103a-cfb2-4e1b-b9ac-16842ccdcf26/AAABjqnXBO0/AAABjcWesUg/16x9-512.jpg", "date": "2024-04-04T17:47:46.000+02:00", "lat": 52.5346, "lon": 13.4601, "intensity": 0.5, "source": "Tagesschau"}, {"title": "Wochenm\u00e4rkte und Stra\u00dfenfeste: Betreiber fordern Entlastung", "url": "https://www.tagesschau.de/inland/regional/hamburg/ndr-wochenmaerkte-und-strassenfeste-betreiber-fordern-entlastung-100.html", "thumbnailUrl": "https://images.tagesschau.de/image/67d98b35-4ae7-4f4d-8090-f4bd1c03e7a7/AAABjqnL-pI/AAABjcWesUg/16x9-512.jpg", "date": "2024-04-04T17:45:00.000+02:00", "lat": 53.55, "lon": 10.0, "intensity": 0.7, "source": "Tagesschau"}, {"title": "Bombe bei Bauarbeiten an Grundschule in Bitburg gefunden", "url": "https://www.tagesschau.de/inland/regional/rheinlandpfalz/swr-bombe-bei-bauarbeiten-an-grundschule-in-bitburg-gefunden-100.html", "thumbnailUrl": "https://images.tagesschau.de/image/fcbaf7aa-470f-4150-9b51-e3a401ed0102/AAABjqoIIdI/AAABjcWesUg/16x9-512.jpg", "date": "2024-04-04T17:40:58.000+02:00", "lat": 49.9675, "lon": 6.53, "intensity": 0.7, "source": "Tagesschau"}, {"title": "\"Rekordverd\u00e4chtige\" Temperaturen erwartet", "url": "https://www.tagesschau.de/inland/sommerwetter-april-100.html", "thumbnailUrl": "https://images.tagesschau.de/image/9fa7e176-2299-445a-9a30-5569f3172d7f/AAABjqmYUGM/AAABjcWesUg/16x9-512.jpg", "date": "2024-04-04T17:40:31.885+02:00", "lat": 51.1657, "lon": 10.4515, "intensity": 0.6, "source": "Tagesschau"}, {"title": "Fliegerbombe in Amberg nach Komplikationen entsch\u00e4rft", "url": "https://www.tagesschau.de/inland/regional/bayern/br-fliegerbombe-in-amberg-nach-komplikationen-entschaerft-102.html", "thumbnailUrl": "https://images.tagesschau.de/image/51944ea9-c14f-49ac-95c9-01515a0db215/AAABjqnA_iA/AAABjcWesUg/16x9-512.jpg", "date": "2024-04-04T17:35:06.993+02:00", "lat": 49.441, "lon": 11.854, "intensity": 0.8, "source": "Tagesschau"}, {"title": "NRW-Karte zu Wohnungseinbr\u00fcchen: Wo wird viel, wo wenig eingebrochen?", "url": "https://www.tagesschau.de/inland/regional/nordrheinwestfalen/wdr-nrw-karte-zu-wohnungseinbruechen-wo-wird-viel-wo-wenig-eingebrochen-100.html", "thumbnailUrl": "https://images.tagesschau.de/image/d5e1005a-bb6c-47d1-8641-803b58dea231/AAABjqyQSaA/AAABjcWesUg/16x9-512.jpg", "date": "2024-04-04T17:35:00.000+02:00", "lat": 51.8133, "lon": 7.6261, "intensity": 0.8, "source": "Tagesschau"}, {"title": "Meppen: Seniorin liegt wochenlang tot in ihrer Wohnung", "url": "https://www.tagesschau.de/inland/regional/niedersachsen/ndr-meppen-seniorin-liegt-wochenlang-tot-in-ihrer-wohnung-100.html", "thumbnailUrl": "https://images.tagesschau.de/image/97c72692-65b2-4228-816e-b2f9d56a4a57/AAABjqopjuo/AAABjcWesUg/16x9-512.jpg", "date": "2024-04-04T17:34:00.000+02:00", "lat": 52.6879, "lon": 7.3056, "intensity": 0.7, "source": "Tagesschau"}, {"title": "\"Hessengeld\" f\u00fcrs Eigenheim soll ab Herbst ausgezahlt werden", "url": "https://www.tagesschau.de/inland/regional/hessen/hr-hessengeld-fuers-eigenheim-soll-ab-herbst-ausgezahlt-werden-100.html", "thumbnailUrl": "https://images.tagesschau.de/image/8449abb1-3288-4e86-9821-2e15987dacab/AAABjqm7Vxk/AAABjcWesUg/16x9-512.jpg", "date": "2024-04-04T17:28:53.578+02:00", "lat": 50.6521, "lon": 9.6751, "intensity": 0.6, "source": "Tagesschau"}, {"title": "Umweltsenatorin Schreiner: Berliner Forsten sollen Mischwald-Programm nicht fortsetzen", "url": "https://www.tagesschau.de/inland/regional/berlin/rbb-umweltsenatorin-schreiner-mischwald-programm-in-berliner-forsten-soll-nicht-fortgesetzt-werden-100.html", "thumbnailUrl": "https://images.tagesschau.de/image/2a0d53c1-4f39-4358-bf62-33df915ea6e0/AAABjqm9YCI/AAABjcWesUg/16x9-512.jpg", "date": "2024-04-04T17:28:38.000+02:00", "lat": 52.520008, "lon": 13.404954, "intensity": 0.7, "source": "Tagesschau"}, {"title": "Fliegerbombe in Berlin-Schmargendorf entsch\u00e4rft - Sperrkreis aufgehoben", "url": "https://www.tagesschau.de/inland/regional/berlin/rbb-tausende-in-charlottenburg-muessen-fuer-bombenentschaerfung-weichen-102.html", "thumbnailUrl": "https://images.tagesschau.de/image/88c44344-a9ec-4bd8-b5a0-aee0a6f99bba/AAABjqkIHLM/AAABjcWesUg/16x9-512.jpg", "date": "2024-04-04T17:21:53.000+02:00", "lat": 52.5046, "lon": 13.284, "intensity": 0.8, "source": "Tagesschau"}, {"title": "Ganztag f\u00fcr Grundschulkinder ab 2026 nicht \u00fcberall m\u00f6glich?", "url": "https://www.tagesschau.de/inland/regional/niedersachsen/ndr-ganztag-fuer-grundschulkinder-ab-2026-nicht-ueberall-moeglich-100.html", "thumbnailUrl": "https://images.tagesschau.de/image/cdc313de-b004-4789-b25b-569f25dd6183/AAABjqp6I3Y/AAABjcWesUg/16x9-512.jpg", "date": "2024-04-04T17:20:00.000+02:00", "lat": 52.3732, "lon": 9.9937, "intensity": 0.7, "source": "Tagesschau"}, {"title": "Sommerwetter am Wochenende: Bis zu 30 Grad in BW m\u00f6glich", "url": "https://www.tagesschau.de/inland/regional/badenwuerttemberg/swr-sommerwetter-am-wochenende-bis-zu-30-grad-in-bw-moeglich-100.html", "thumbnailUrl": "https://images.tagesschau.de/image/b1916522-2aa3-4025-b901-5abc89659a35/AAABjqmqw_k/AAABjcWesUg/16x9-512.jpg", "date": "2024-04-04T17:08:48.000+02:00", "lat": 48.7904, "lon": 9.0238, "intensity": 0.7, "source": "Tagesschau"}, {"title": "Hohe Tabakpreise in den Niederlanden - Ansturm in Aachen", "url": "https://www.tagesschau.de/inland/regional/nordrheinwestfalen/wdr-hohe-tabakpreise-in-den-niederlanden-ansturm-in-aachen-100.html", "thumbnailUrl": "https://images.tagesschau.de/image/b7c1b31e-5b25-4617-90e5-45fcc3342d8c/AAABjqnyJzM/AAABjcWesUg/16x9-512.jpg", "date": "2024-04-04T17:07:00.000+02:00", "lat": 50.776, "lon": 6.083, "intensity": 0.8, "source": "Tagesschau"}, {"title": "Stuttgart: Klima-Aktivist wegen N\u00f6tigung verurteilt", "url": "https://www.tagesschau.de/inland/regional/badenwuerttemberg/swr-stuttgart-klima-aktivist-wegen-noetigung-verurteilt-100.html", "thumbnailUrl": "https://images.tagesschau.de/image/efb1e4a6-092a-451c-a4e7-b6b6fc6f9913/AAABjqnhsdM/AAABjcWesUg/16x9-512.jpg", "date": "2024-04-04T17:05:00.000+02:00", "lat": 48.7758, "lon": 9.1829, "intensity": 0.6, "source": "Tagesschau"}, {"title": "Sch\u00f6neck will AfD-Nachwuchsmann aus Ortsfeuerwehr ausschlie\u00dfen", "url": "https://www.tagesschau.de/inland/regional/hessen/hr-schoeneck-will-ja-funktionaer-aus-der-ortsfeuerwehr-ausschliessen-100.html", "thumbnailUrl": "https://images.tagesschau.de/image/6169eec7-c517-4e61-9222-0e2a34f297b3/AAABjqxoIWg/AAABjcWesUg/16x9-512.jpg", "date": "2024-04-04T17:04:11.168+02:00", "lat": 50.1896, "lon": 8.8255, "intensity": 0.8, "source": "Tagesschau"}, {"title": "Vorfreude in Heidenheim: Wenn der gro\u00dfe FC Bayern auf die Ostalb reist", "url": "https://www.tagesschau.de/inland/regional/badenwuerttemberg/swr-vorfreude-in-heidenheim-wenn-der-grosse-fc-bayern-auf-die-ostalb-reist-100.html", "thumbnailUrl": "https://images.tagesschau.de/image/d2c78376-d771-4424-b1db-79f0c487dc76/AAABjqxtzCk/AAABjcWesUg/16x9-512.jpg", "date": "2024-04-04T17:03:12.000+02:00", "lat": 48.6777, "lon": 10.1548, "intensity": 0.7, "source": "Tagesschau"}, {"title": "Land stoppt Abschuss von Wolf vorerst: Was sagen die J\u00e4ger?", "url": "https://www.tagesschau.de/inland/regional/niedersachsen/ndr-niedersachsen-stoppt-wolfs-abschuss-in-region-hannover-100.html", "thumbnailUrl": "https://images.tagesschau.de/image/9d218fcc-e3de-406e-8cb1-8b46c3940e0a/AAABjqnPwoM/AAABjcWesUg/16x9-512.jpg", "date": "2024-04-04T16:57:00.000+02:00", "lat": 52.3759, "lon": 9.7371, "intensity": 0.4, "source": "Tagesschau"}, {"title": "R\u00e4tselhafte Holzkonstruktion aus dem 13. Jahrhundert in Prenzlau gefunden", "url": "https://www.tagesschau.de/inland/regional/brandenburg/rbb-raetselhafte-holzkonstruktion-aus-dem-13-jahrhundert-in-prenzlau-gefunden-102.html", "thumbnailUrl": "https://images.tagesschau.de/image/b36b98bf-223d-4efb-8c8a-bba69cd02ac0/AAABjqmaSK0/AAABjcWesUg/16x9-512.jpg", "date": "2024-04-04T16:48:10.000+02:00", "lat": 53.3364, "lon": 13.8636, "intensity": 0.7, "source": "Tagesschau"}, {"title": "Brandenburg: Spargelsaison ist offiziell er\u00f6ffnet", "url": "https://www.tagesschau.de/inland/regional/brandenburg/rbb-brandenburg-spargelsaison-ist-offiziell-eroeffnet-100.html", "thumbnailUrl": "https://images.tagesschau.de/image/93a866fe-adc5-4e32-8846-1a8a8cf93950/AAABjqppeDs/AAABjcWesUg/16x9-512.jpg", "date": "2024-04-04T16:47:46.000+02:00", "lat": 52.414488, "lon": 13.199077, "intensity": 0.6, "source": "Tagesschau"}, {"title": "9 Bremer Polizisten wegen rechter Tendenzen unter Verdacht", "url": "https://www.tagesschau.de/inland/regional/bremen/rb-9-bremer-polizisten-wegen-rechter-tendenzen-unter-verdacht-100.html", "thumbnailUrl": "https://images.tagesschau.de/image/199b3403-880f-4b61-95d0-40a828382682/AAABjqk9BFc/AAABjcWesUg/16x9-512.jpg", "date": "2024-04-04T16:38:00.000+02:00", "lat": 53.0793, "lon": 8.8017, "intensity": 0.7, "source": "Tagesschau"}, {"title": "Im Alter von 83 Jahren: Schauspielerin Vera Tschechowa gestorben ", "url": "https://www.tagesschau.de/inland/regional/berlin/rbb-im-alter-von-83-jahren-schauspielerin-vera-tschechowa-gestorben-100.html", "thumbnailUrl": "https://images.tagesschau.de/image/3eb15648-dc40-4a01-9bad-c457bb33f858/AAABjqmNzpw/AAABjcWesUg/16x9-512.jpg", "date": "2024-04-04T16:35:18.000+02:00", "lat": 52.520008, "lon": 13.404954, "intensity": 0.8, "source": "Tagesschau"}, {"title": "Ferdinandshof hofft trotz vieler Umz\u00fcge auf neue Mitb\u00fcrger ", "url": "https://www.tagesschau.de/inland/regional/mecklenburgvorpommern/ndr-ferdinandshof-hofft-trotz-vieler-umzuege-auf-neue-mitbuerger-100.html", "thumbnailUrl": "https://images.tagesschau.de/image/07080020-2cbd-43c9-9e10-c5d47490a9e7/AAABjqmPSAU/AAABjcWesUg/16x9-512.jpg", "date": "2024-04-04T16:34:00.000+02:00", "lat": 53.77535, "lon": 14.00396, "intensity": 0.4, "source": "Tagesschau"}, {"title": "Falschgeld via \"Telegram\": Verhinderter Betr\u00fcger wurde betrogen", "url": "https://www.tagesschau.de/inland/regional/niedersachsen/ndr-falschgeld-via-telegram-verhinderter-betrueger-wurde-betrogen-100.html", "thumbnailUrl": "https://images.tagesschau.de/image/ccc8acaf-f492-4402-86e4-e8e486cca147/AAABjql30us/AAABjcWesUg/16x9-512.jpg", "date": "2024-04-04T16:15:00.000+02:00", "lat": 52.7271, "lon": 8.2833, "intensity": 0.7, "source": "Tagesschau"}, {"title": "Zerst\u00f6rtes Biotop bei Hermeskeil: Sofortma\u00dfnahmen am Bibersee eingeleitet", "url": "https://www.tagesschau.de/inland/regional/rheinlandpfalz/swr-biotop-bei-hermeskeil-zerstoert-das-sagen-die-verantwortlichen-100.html", "thumbnailUrl": "https://images.tagesschau.de/image/12cea8bf-34f0-4960-9c60-ce86c306b04a/AAABjqpgNPg/AAABjcWesUg/16x9-512.jpg", "date": "2024-04-04T16:13:00.000+02:00", "lat": 49.645, "lon": 6.9417, "intensity": 0.7, "source": "Tagesschau"}, {"title": "Nach dem Feuer in der IGS Bothfeld: War es Brandstiftung? ", "url": "https://www.tagesschau.de/inland/regional/niedersachsen/ndr-hannover-feuerwehr-loescht-brand-in-igs-bothfeld-100.html", "thumbnailUrl": "https://images.tagesschau.de/image/872ecbac-f4e2-4d7d-96c5-952cbbd76167/AAABjqmVKSg/AAABjcWesUg/16x9-512.jpg", "date": "2024-04-04T16:09:00.000+02:00", "lat": 52.412, "lon": 9.8045, "intensity": 0.7, "source": "Tagesschau"}, {"title": "Diebstahl von E-Bikes: Polizei startet Kampagne \"Protect your bike\"", "url": "https://www.tagesschau.de/inland/regional/niedersachsen/ndr-diebstahl-von-e-bikes-polizei-startet-kampagne-protect-your-bike-100.html", "thumbnailUrl": "https://images.tagesschau.de/image/08be3932-aefc-4c2a-adc6-9e521d8167bf/AAABjqlusmQ/AAABjcWesUg/16x9-512.jpg", "date": "2024-04-04T16:03:00.000+02:00", "lat": 52.3732, "lon": 9.7356, "intensity": 0.8, "source": "Tagesschau"}, {"title": "Trinkwasserversorger k\u00e4mpfen gegen Quagga-Muschel im Bodensee", "url": "https://www.tagesschau.de/inland/regional/nordrheinwestfalen/wdr-trinkwasserversorger-kaempfen-gegen-quagga-muschel-im-bodensee-100.html", "thumbnailUrl": "https://images.tagesschau.de/image/09e3c97a-e291-4567-bd1e-547da3594ebe/AAABjqmsiNA/AAABjcWesUg/16x9-512.jpg", "date": "2024-04-04T16:02:00.000+02:00", "lat": 47.655, "lon": 9.272, "intensity": 0.8, "source": "Tagesschau"}, {"title": "Hansa Rostock gegen Wehen Wiesbaden: Wer entfacht den Sturm?", "url": "https://www.tagesschau.de/inland/regional/mecklenburgvorpommern/ndr-hansa-rostock-gegen-wehen-wiesbaden-wer-entfacht-den-sturm-102.html", "thumbnailUrl": "https://images.tagesschau.de/image/9cbcfcce-324c-4039-b4bc-a8c0e5fc271d/AAABjqlsn7g/AAABjcWesUg/16x9-512.jpg", "date": "2024-04-04T16:02:00.000+02:00", "lat": 54.0834, "lon": 12.1141, "intensity": 0.7, "source": "Tagesschau"}, {"title": "Kurioser Diebstahl in D\u00fcren: Bei Einbruch nur linke Schuhe geklaut", "url": "https://www.tagesschau.de/inland/regional/nordrheinwestfalen/wdr-kurioser-diebstahl-in-dueren-bei-einbruch-nur-linke-schuhe-geklaut-100.html", "thumbnailUrl": "https://images.tagesschau.de/image/b3c86dfb-75c3-466d-b093-fee18fe69c2a/AAABjqpRWHA/AAABjcWesUg/16x9-512.jpg", "date": "2024-04-04T16:00:00.000+02:00", "lat": 50.8083, "lon": 6.4833, "intensity": 0.5, "source": "Tagesschau"}, {"title": "Verfahren gegen Homburger Ex-B\u00fcrgermeister Roth wird eingestellt", "url": "https://www.tagesschau.de/inland/regional/saarland/sr-verfahren-gegen-homburger-ex-buergermeister-roth-eingestellt-100.html", "thumbnailUrl": "https://images.tagesschau.de/image/637dc31e-cea5-40df-9227-b8a756867541/AAABjqlozXM/AAABjcWesUg/16x9-512.jpg", "date": "2024-04-04T16:00:00.000+02:00", "lat": 49.316111, "lon": 7.314501, "intensity": 0.8, "source": "Tagesschau"}, {"title": "Eintracht Frankfurt: Sorgenkind Ekitik\u00e9 f\u00e4llt erneut aus", "url": "https://www.tagesschau.de/inland/regional/hessen/hr-eintracht-frankfurt-sorgenkind-ekitik-faellt-erneut-aus-102.html", "thumbnailUrl": "https://images.tagesschau.de/image/9e1fcb41-b34d-4d3f-a2bc-d37e645875d8/AAABjqls2K4/AAABjcWesUg/16x9-512.jpg", "date": "2024-04-04T15:51:36.249+02:00", "lat": 50.1109, "lon": 8.6821, "intensity": 0.4, "source": "Tagesschau"}, {"title": "Zickzack-Kurs der SPD bei Wahlwerbung in Kitas in MV", "url": "https://www.tagesschau.de/inland/regional/mecklenburgvorpommern/ndr-zickzack-kurs-der-spd-bei-wahlwerbung-in-kitas-in-mv-100.html", "thumbnailUrl": "https://images.tagesschau.de/image/ccb31d2d-8404-4e91-a40d-e8ca3339e8af/AAABjqxtvA8/AAABjcWesUg/16x9-512.jpg", "date": "2024-04-04T15:50:00.000+02:00", "lat": 53.6355, "lon": 11.4139, "intensity": 0.6, "source": "Tagesschau"}, {"title": "Mehrere Gro\u00dfprojekte: Was die Hamburger Hochbahn plant", "url": "https://www.tagesschau.de/inland/regional/hamburg/ndr-mehrere-grossprojekte-was-die-hamburger-hochbahn-plant-100.html", "thumbnailUrl": "https://images.tagesschau.de/image/4dd1ce49-f3fe-4b9d-8e31-366bd148ecae/AAABjqlh0Oc/AAABjcWesUg/16x9-512.jpg", "date": "2024-04-04T15:48:00.000+02:00", "lat": 53.5511, "lon": 9.9937, "intensity": 0.8, "source": "Tagesschau"}, {"title": "Tresor mit Schmuck gefunden -  Polizei Hameln sucht Besitzer", "url": "https://www.tagesschau.de/inland/regional/niedersachsen/ndr-tresor-mit-schmuck-gefunden-polizei-hameln-sucht-besitzer-100.html", "thumbnailUrl": "https://images.tagesschau.de/image/eb0f75cd-a4ca-4b25-8dee-7c6d7c3efc9c/AAABjqlh-CI/AAABjcWesUg/16x9-512.jpg", "date": "2024-04-04T15:48:00.000+02:00", "lat": 52.1036, "lon": 9.3609, "intensity": 0.4, "source": "Tagesschau"}, {"title": "Legalisierung von Cannabis: Kiffen bleibt in Berliner Freib\u00e4dern verboten", "url": "https://www.tagesschau.de/inland/regional/berlin/rbb-legalisierung-von-cannabis-kiffen-bleibt-in-berliner-freibaedern-verboten-100.html", "thumbnailUrl": "https://images.tagesschau.de/image/12583c27-575f-4630-9c17-f6ae9b265348/AAABjqlgA8M/AAABjcWesUg/16x9-512.jpg", "date": "2024-04-04T15:45:59.000+02:00", "lat": 52.520008, "lon": 13.404954, "intensity": 0.6, "source": "Tagesschau"}, {"title": "Schwindende Auftr\u00e4ge: Bauverband MV fordert Impulse aus Politik", "url": "https://www.tagesschau.de/inland/regional/mecklenburgvorpommern/ndr-schwindende-auftraege-bauverband-mv-fordert-impulse-aus-politik-100.html", "thumbnailUrl": "https://images.tagesschau.de/image/0075bd00-de98-4aa5-9b7f-6e8c127bf842/AAABjqlYcSc/AAABjcWesUg/16x9-512.jpg", "date": "2024-04-04T15:37:00.000+02:00", "lat": 53.6355, "lon": 11.4136, "intensity": 0.8, "source": "Tagesschau"}, {"title": "Nach Einbu\u00dfen im Vorjahr: Werder feiert Baumbl\u00fcte 2024 mit verk\u00fcrztem Stadtfest", "url": "https://www.tagesschau.de/inland/regional/brandenburg/rbb-nach-einbussen-im-vorjahr-werder-feiert-baumbluete-2024-mit-verkuerztem-stadtfest-100.html", "thumbnailUrl": "https://images.tagesschau.de/image/77fbdea2-3cd9-4af8-9fa0-f1b5fa08b7f1/AAABjqlWpx8/AAABjcWesUg/16x9-512.jpg", "date": "2024-04-04T15:35:51.000+02:00", "lat": 52.4507, "lon": 13.2175, "intensity": 0.6, "source": "Tagesschau"}, {"title": "70 eingeschlossene Bergarbeiter gerettet", "url": "https://www.tagesschau.de/ausland/asien/vermisstensuche-taiwan-erdbeben-102.html", "thumbnailUrl": "https://images.tagesschau.de/image/b832218d-6eb2-4efd-8ae4-6bcec96b555a/AAABjqo9TPQ/AAABjcWesUg/16x9-512.jpg", "date": "2024-04-04T15:33:27.732+02:00", "lat": 24.697501, "lon": 120.960515, "intensity": 0.8, "source": "Tagesschau"}, {"title": "Comeback auf dem Rathausplatz: Freiburger Klimacamp wird wieder aufgebaut", "url": "https://www.tagesschau.de/inland/regional/badenwuerttemberg/swr-comeback-auf-dem-rathausplatz-freiburger-klimacamp-wird-wieder-aufgebaut-100.html", "thumbnailUrl": "https://images.tagesschau.de/image/35b58640-fef0-4410-b77f-6728703f1dc4/AAABjqmUxw0/AAABjcWesUg/16x9-512.jpg", "date": "2024-04-04T15:30:35.000+02:00", "lat": 47.9959, "lon": 7.8526, "intensity": 0.8, "source": "Tagesschau"}, {"title": "Neuzulassungen von E-Autos eingebrochen", "url": "https://www.tagesschau.de/wirtschaft/verbraucher/autobranche-e-autos-100.html", "thumbnailUrl": "https://images.tagesschau.de/image/05c3779e-46fa-48d2-8bd7-64cf77c605b9/AAABjqkcAhU/AAABjcWesUg/16x9-512.jpg", "date": "2024-04-04T15:26:05.870+02:00", "lat": 51.1657, "lon": 10.4515, "intensity": 0.7, "source": "Tagesschau"}, {"title": "Kollektiver Freudentaumel: Wie die Niners Chemnitz ihre Fans mitrei\u00dfen", "url": "https://www.tagesschau.de/inland/regional/sachsen/mdr-kollektiver-freudentaumel-wie-die-niners-chemnitz-ihre-fans-mitreissen-102.html", "thumbnailUrl": "https://images.tagesschau.de/image/5801d2b3-22ff-49ac-9f25-dbaec6719c8d/AAABjqu-Ndw/AAABjcWesUg/16x9-512.jpg", "date": "2024-04-04T15:24:58.000+02:00", "lat": 50.8278, "lon": 12.9228, "intensity": 0.8, "source": "Tagesschau"}, {"title": "Bundeswehr strukturiert an Standorten in Berlin und Brandenburg um - ein operatives F\u00fchrungskommando statt zwei", "url": "https://www.tagesschau.de/inland/regional/brandenburg/rbb-reform-plaene-bundeswehr-erhaelt-neues-operatives-fuehrungskommando-100.html", "thumbnailUrl": "https://images.tagesschau.de/image/5f97ee03-450b-4ab0-8cc2-e641c6854aa9/AAABjqlLqCI/AAABjcWesUg/16x9-512.jpg", "date": "2024-04-04T15:24:17.000+02:00", "lat": 52.52, "lon": 13.405, "intensity": 0.7, "source": "Tagesschau"}, {"title": "FC St. Pauli: Mit Kart-Philosophie beim Karlsruher SC bestehen", "url": "https://www.tagesschau.de/inland/regional/hamburg/ndr-fc-st-pauli-mit-kart-philosophie-beim-karlsruher-sc-bestehen-102.html", "thumbnailUrl": "https://images.tagesschau.de/image/83dbb76c-c8e0-4fbe-9028-5004ab5b4619/AAABjqms6PM/AAABjcWesUg/16x9-512.jpg", "date": "2024-04-04T15:22:00.000+02:00", "lat": 53.551086, "lon": 9.993682, "intensity": 0.6, "source": "Tagesschau"}, {"title": "Rechtsextremer Verein \"Combat 18\": Ein Anf\u00fchrer stammt aus Region Trier", "url": "https://www.tagesschau.de/inland/regional/rheinlandpfalz/swr-anklage-gegen-mutmasslichen-rechtsextremen-aus-region-trier-100.html", "thumbnailUrl": "https://images.tagesschau.de/image/432d83c4-93e3-400d-8667-ff6014217374/AAABjqlNZEA/AAABjcWesUg/16x9-512.jpg", "date": "2024-04-04T15:20:57.000+02:00", "lat": 49.7493, "lon": 6.6431, "intensity": 0.8, "source": "Tagesschau"}, {"title": "Berlin: Bundeskartellamt erlaubt Senat Kauf von Vattenfall-Fernw\u00e4rmenetz", "url": "https://www.tagesschau.de/inland/regional/berlin/rbb-berlin-bundeskartellamt-erlaubt-senat-kauf-von-vattenfall-fernwaermenetz-100.html", "thumbnailUrl": "https://images.tagesschau.de/image/fcd7be7b-eca0-488c-a467-e9ad5028cced/AAABjqlIPzs/AAABjcWesUg/16x9-512.jpg", "date": "2024-04-04T15:20:53.000+02:00", "lat": 52.520008, "lon": 13.404954, "intensity": 0.4, "source": "Tagesschau"}, {"title": "Vor Kellerduell in Mainz: Oscar Vilhelmsson macht Darmstadt 98 Hoffnung", "url": "https://www.tagesschau.de/inland/regional/hessen/hr-vor-kellerduell-in-mainz-oscar-vilhelmsson-macht-darmstadt-98-hoffnung-102.html", "thumbnailUrl": "https://images.tagesschau.de/image/eec6eb80-2d0e-4af9-8291-264de6509b25/AAABjqlGNpU/AAABjcWesUg/16x9-512.jpg", "date": "2024-04-04T15:20:47.718+02:00", "lat": 49.992862, "lon": 8.247252, "intensity": 0.8, "source": "Tagesschau"}, {"title": "Werder Bremen: N\u00e4chstes Eigengew\u00e4chs weg - Dinkci geht nach Freiburg", "url": "https://www.tagesschau.de/inland/regional/niedersachsen/ndr-werder-bremen-naechstes-eigengewaechs-weg-dinkci-geht-nach-freiburg-102.html", "thumbnailUrl": "https://images.tagesschau.de/image/1e86bc05-7e12-4dce-a38c-d74d8717e8df/AAABjqlC1CI/AAABjcWesUg/16x9-512.jpg", "date": "2024-04-04T15:18:00.000+02:00", "lat": 53.07498, "lon": 8.810853, "intensity": 0.3, "source": "Tagesschau"}, {"title": "Katzenhai vor Cuxhaven von Wattwanderern gerettet", "url": "https://www.tagesschau.de/inland/regional/niedersachsen/ndr-katzenhai-vor-cuxhaven-von-wattwanderern-gerettet-100.html", "thumbnailUrl": "https://images.tagesschau.de/image/52e58fc4-2111-423f-a672-fdb699a4f35d/AAABjqlA6no/AAABjcWesUg/16x9-512.jpg", "date": "2024-04-04T15:11:00.000+02:00", "lat": 53.8712, "lon": 8.6879, "intensity": 0.7, "source": "Tagesschau"}, {"title": "Bodensee: Bergung der versunkenen \"S\u00e4ntis\" verz\u00f6gert sich ", "url": "https://www.tagesschau.de/inland/regional/bayern/br-bodensee-bergung-der-versunkenen-saentis-verzoegert-sich-102.html", "thumbnailUrl": "https://images.tagesschau.de/image/0ffb82e1-8753-43d7-9544-8ed7dfc93e17/AAABjqk3rXY/AAABjcWesUg/16x9-512.jpg", "date": "2024-04-04T15:04:31.388+02:00", "lat": 47.6667, "lon": 9.5833, "intensity": 0.8, "source": "Tagesschau"}, {"title": "\"Weniger, daf\u00fcr bewusster\"", "url": "https://www.tagesschau.de/inland/gesellschaft/sinkender-fleischkonsum-deutschland-100.html", "thumbnailUrl": "https://images.tagesschau.de/image/7a414591-816c-4eb2-8c03-f31bb099804a/AAABjqj6byY/AAABjcWesUg/16x9-512.jpg", "date": "2024-04-04T15:02:17.873+02:00", "lat": 51.3396, "lon": 9.9937, "intensity": 0.5, "source": "Tagesschau"}, {"title": "Wie gehen Bayerns Staatstheater mit dem Gender-Verbot um?", "url": "https://www.tagesschau.de/inland/regional/bayern/br-wie-gehen-bayerns-staatstheater-mit-dem-gender-verbot-um-102.html", "thumbnailUrl": "https://images.tagesschau.de/image/c70fb2c2-9226-4627-bbb9-d165d6300fdc/AAABjqk0Di8/AAABjcWesUg/16x9-512.jpg", "date": "2024-04-04T15:01:15.899+02:00", "lat": 48.1371, "lon": 11.5797, "intensity": 0.7, "source": "Tagesschau"}, {"title": "Letztes Verfahren nach Amoktat in Hamburg eingestellt", "url": "https://www.tagesschau.de/inland/regional/hamburg/amoktat-hamburg-zeugen-jehovas-verfahren-eingestellt-100.html", "thumbnailUrl": "https://images.tagesschau.de/image/4e2f5dae-10bc-4555-aaff-6d3e71b7c9a3/AAABjqk3vyM/AAABjcWesUg/16x9-512.jpg", "date": "2024-04-04T15:01:00.000+02:00", "lat": 53.5511, "lon": 9.9937, "intensity": 0.8, "source": "Tagesschau"}, {"title": "Fracht aus Russland - Staatsanwaltschaft ermittelt ", "url": "https://www.tagesschau.de/inland/regional/mecklenburgvorpommern/atlantic-navigator-rostock-100.html", "thumbnailUrl": "https://images.tagesschau.de/image/5bd5070a-ae6f-4e24-a04a-4ba4194b8ef3/AAABjqUCuN4/AAABjcWesUg/16x9-512.jpg", "date": "2024-04-04T14:59:00.000+02:00", "lat": 54.0887, "lon": 12.1403, "intensity": 0.7, "source": "Tagesschau"}, {"title": "Gr\u00fcn statt grau: Land weitet Schottergarten-Verbot auf Bremerhaven aus", "url": "https://www.tagesschau.de/inland/regional/bremen/rb-gruen-statt-grau-land-weitet-schottergarten-verbot-auf-bremerhaven-aus-100.html", "thumbnailUrl": "https://images.tagesschau.de/image/ba62e98e-a1fb-4df2-bba5-7e14d2d2d1b2/AAABjqkz90U/AAABjcWesUg/16x9-512.jpg", "date": "2024-04-04T14:59:00.000+02:00", "lat": 53.0793, "lon": 8.8017, "intensity": 0.8, "source": "Tagesschau"}, {"title": "Pragsdorf-Prozess: Angeklagter Jugendlicher legt Teilgest\u00e4ndnis ab", "url": "https://www.tagesschau.de/inland/regional/mecklenburgvorpommern/ndr-prozess-um-getoeteten-sechsjaehrigen-aus-pragsdorf-urteil-verschoben-100.html", "thumbnailUrl": "https://images.tagesschau.de/image/1a53ea90-82dc-4363-8ce5-ed5259a489d4/AAABjqlEMds/AAABjcWesUg/16x9-512.jpg", "date": "2024-04-04T14:59:00.000+02:00", "lat": 53.7931, "lon": 12.8806, "intensity": 0.5, "source": "Tagesschau"}, {"title": "Nach Diesel-Unfall: B437 vor Wesertunnel wieder frei", "url": "https://www.tagesschau.de/inland/regional/niedersachsen/ndr-nach-diesel-unfall-b437-vor-wesertunnel-am-donnerstag-gesperrt-100.html", "thumbnailUrl": "https://images.tagesschau.de/image/fd90d294-e153-47e9-a9a4-06f2628bc8e3/AAABjqkuqQU/AAABjcWesUg/16x9-512.jpg", "date": "2024-04-04T14:56:00.000+02:00", "lat": 53.5275, "lon": 8.6531, "intensity": 0.8, "source": "Tagesschau"}, {"title": "Mit Eisenstange bewaffnet: Polizei erschie\u00dft Mann in Dortmund", "url": "https://www.tagesschau.de/inland/regional/nordrheinwestfalen/wdr-mann-in-dortmund-von-polizei-niedergeschossen-100.html", "thumbnailUrl": "https://images.tagesschau.de/image/29214cf5-f20e-4957-a929-cf230ac7e240/AAABjqlCV_g/AAABjcWesUg/16x9-512.jpg", "date": "2024-04-04T14:55:00.000+02:00", "lat": 51.5142, "lon": 7.4669, "intensity": 0.8, "source": "Tagesschau"}, {"title": "Neugew\u00e4hlter Tesla-Betriebsrat in Gr\u00fcnheide best\u00e4tigt Michaela Schmitz als Vorsitzende", "url": "https://www.tagesschau.de/inland/regional/brandenburg/rbb-neugewaehlter-tesla-betriebsrat-in-gruenheide-bestaetigt-michaela-schmitz-als-vorsitzende-100.html", "thumbnailUrl": "https://images.tagesschau.de/image/e65a782a-c431-4805-af54-98ffd57c073e/AAABjqmaT7E/AAABjcWesUg/16x9-512.jpg", "date": "2024-04-04T14:50:40.000+02:00", "lat": 52.378699, "lon": 13.891977, "intensity": 0.6, "source": "Tagesschau"}, {"title": "Stolz und Sorgen in Br\u00fcssel", "url": "https://www.tagesschau.de/ausland/europa/feier-nato-jubilaeum-100.html", "thumbnailUrl": "https://images.tagesschau.de/image/e9ff5b91-7f83-4ac1-973f-43c44fd76989/AAABjqo6iLM/AAABjcWesUg/16x9-512.jpg", "date": "2024-04-04T14:40:01.532+02:00", "lat": 50.8503, "lon": 4.3517, "intensity": 0.8, "source": "Tagesschau"}, {"title": "HSV auch gegen Kaiserslautern ohne Torj\u00e4ger Robert Glatzel ", "url": "https://www.tagesschau.de/inland/regional/hamburg/ndr-hsv-auch-gegen-kaiserslautern-ohne-torjaeger-robert-glatzel-106.html", "thumbnailUrl": "https://images.tagesschau.de/image/84913972-c63c-45fc-bc1d-5cb9dc9284ef/AAABjqlpL1E/AAABjcWesUg/16x9-512.jpg", "date": "2024-04-04T14:40:00.000+02:00", "lat": 53.5511, "lon": 9.9937, "intensity": 0.5, "source": "Tagesschau"}, {"title": "Matratzen-K\u00e4uferin liegt falsch - Klage vor Gericht scheitert", "url": "https://www.tagesschau.de/inland/regional/niedersachsen/ndr-matratzen-kaeuferin-liegt-falsch-klage-vor-gericht-scheitert-100.html", "thumbnailUrl": "https://images.tagesschau.de/image/07761591-2675-40c7-afe9-6123286a9246/AAABjqkeMiU/AAABjcWesUg/16x9-512.jpg", "date": "2024-04-04T14:35:00.000+02:00", "lat": 52.3759, "lon": 9.732, "intensity": 0.3, "source": "Tagesschau"}, {"title": "Korruptionsermittlungen im Ordnungsamt Frankfurt weiten sich aus", "url": "https://www.tagesschau.de/inland/regional/hessen/hr-taxi-und-mietwagenkonzessionen-ermittlungen-wegen-korruption-im-ordnungsamt-weiten-sich-aus-100.html", "thumbnailUrl": "https://images.tagesschau.de/image/77bc69bb-d642-43dc-82a3-e03c14797341/AAABjqkTD9I/AAABjcWesUg/16x9-512.jpg", "date": "2024-04-04T14:24:56.945+02:00", "lat": 50.110922, "lon": 8.682127, "intensity": 0.8, "source": "Tagesschau"}, {"title": "Strandkorb gebraucht kaufen: Wo das geht und was es kostet", "url": "https://www.tagesschau.de/inland/regional/schleswigholstein/ndr-strandkorb-gebraucht-kaufen-wo-das-geht-und-was-es-kostet-100.html", "thumbnailUrl": "https://images.tagesschau.de/image/a3010f89-bc76-4cb6-91b9-6cc4e556e918/AAABjqcM_60/AAABjcWesUg/16x9-512.jpg", "date": "2024-04-04T14:24:00.000+02:00", "lat": 54.0767, "lon": 9.9977, "intensity": 0.5, "source": "Tagesschau"}, {"title": "Katze in Bad Rappenau verst\u00fcmmelt: Waschb\u00e4r oder Serient\u00e4ter?", "url": "https://www.tagesschau.de/inland/regional/badenwuerttemberg/swr-katze-in-bad-rappenau-verstuemmelt-waschbaer-oder-serientaeter-100.html", "thumbnailUrl": "https://images.tagesschau.de/image/17804d8d-22ab-4c19-a7b4-82e8668c5ed5/AAABjqof-vI/AAABjcWesUg/16x9-512.jpg", "date": "2024-04-04T14:22:00.000+02:00", "lat": 49.2369, "lon": 9.1172, "intensity": 0.8, "source": "Tagesschau"}, {"title": "Lkw-Fahrer nach Unfall auf dem s\u00fcdlichen Berliner Ring gestorben", "url": "https://www.tagesschau.de/inland/regional/brandenburg/rbb-schwerer-unfall-auf-dem-suedlichen-berliner-ring-a10-in-richtung-potsdam-gesperrt-100.html", "thumbnailUrl": "https://images.tagesschau.de/image/9eb76ccb-1896-4d5b-8c42-19e609b5a296/AAABjqkPTGM/AAABjcWesUg/16x9-512.jpg", "date": "2024-04-04T14:19:51.000+02:00", "lat": 52.5011, "lon": 13.2884, "intensity": 0.8, "source": "Tagesschau"}, {"title": "Datenanalyse: Hat sich der HSV unter Trainer Baumgart verbessert?", "url": "https://www.tagesschau.de/inland/regional/hamburg/ndr-datenanalyse-hat-sich-der-hsv-unter-trainer-baumgart-verbessert-102.html", "thumbnailUrl": "https://images.tagesschau.de/image/ef6b3e83-5170-4d55-ba22-c2b01b07a84c/AAABjqlpNE4/AAABjcWesUg/16x9-512.jpg", "date": "2024-04-04T14:17:00.000+02:00", "lat": 53.551086, "lon": 9.993682, "intensity": 0.5, "source": "Tagesschau"}, {"title": "Nach Eisb\u00e4ren-Krimi in Straubing: Die l\u00e4ngste Eishockey-Partie endet um 02:33 Uhr in der Nacht", "url": "https://www.tagesschau.de/inland/regional/berlin/rbb-nach-eisbaeren-krimi-in-straubing-die-laengste-eishockey-partie-endet-um-0233-uhr-102.html", "thumbnailUrl": "https://images.tagesschau.de/image/37bee5eb-1a3e-416c-917b-81678d13ffd3/AAABjqx4uE8/AAABjcWesUg/16x9-512.jpg", "date": "2024-04-04T14:16:24.000+02:00", "lat": 48.99442, "lon": 12.57361, "intensity": 0.8, "source": "Tagesschau"}, {"title": "Wo sich Immobilien als Geldanlage besonders lohnen", "url": "https://www.tagesschau.de/wirtschaft/verbraucher/iw-immobilien-kauf-miete-100.html", "thumbnailUrl": "https://images.tagesschau.de/image/f0974dae-d54d-4fe3-8540-acd71c4bfd92/AAABhoMQ4lY/AAABjcWesUg/16x9-512.jpg", "date": "2024-04-04T14:14:54.056+02:00", "lat": 51.1657, "lon": 10.4515, "intensity": 0.4, "source": "Tagesschau"}, {"title": "Cannabis-Rauchen wird auf dem gesamten Stuttgarter Fr\u00fchlingsfest verboten", "url": "https://www.tagesschau.de/inland/regional/badenwuerttemberg/swr-stuttgarter-fruehlingsfest-in-den-festzelten-darf-kein-cannabis-geraucht-werden-100.html", "thumbnailUrl": "https://images.tagesschau.de/image/fe0ac453-18db-4205-993e-7db1aaeb7813/AAABjqiYFdQ/AAABjcWesUg/16x9-512.jpg", "date": "2024-04-04T14:03:00.000+02:00", "lat": 48.7758, "lon": 9.1829, "intensity": 0.6, "source": "Tagesschau"}, {"title": "Vier Jahre und zehn Monate Haft f\u00fcr Vergewaltiger", "url": "https://www.tagesschau.de/inland/regional/sachsenanhalt/mdr-vier-jahre-und-zehn-monate-haft-fuer-vergewaltiger-100.html", "thumbnailUrl": "https://images.tagesschau.de/image/3fd76526-ecaa-47bf-8d15-77b39805ffba/AAABjqu8hqs/AAABjcWesUg/16x9-512.jpg", "date": "2024-04-04T13:59:54.000+02:00", "lat": 51.8387, "lon": 12.2452, "intensity": 0.8, "source": "Tagesschau"}, {"title": "Baum abgebrochen: Landgericht Baden-Baden hat Klage abgewiesen", "url": "https://www.tagesschau.de/inland/regional/badenwuerttemberg/swr-urteil-erwartet-mann-durch-abgebrochenen-ast-in-rastatt-schwerverletzt-100.html", "thumbnailUrl": "https://images.tagesschau.de/image/c0c4f771-4b23-4115-b6ae-5f35037db139/AAABjqi8svI/AAABjcWesUg/16x9-512.jpg", "date": "2024-04-04T13:50:00.000+02:00", "lat": 48.8566, "lon": 8.2023, "intensity": 0.7, "source": "Tagesschau"}, {"title": "Holstein Kiel: Auch in N\u00fcrnberg so sicher wie die Bank von England?", "url": "https://www.tagesschau.de/inland/regional/schleswigholstein/ndr-holstein-kiel-auch-in-nuernberg-so-sicher-wie-die-bank-von-england-100.html", "thumbnailUrl": "https://images.tagesschau.de/image/9f825dc5-6975-4abc-8c9d-681a9b753dd2/AAABjqlC4Fc/AAABjcWesUg/16x9-512.jpg", "date": "2024-04-04T13:47:00.000+02:00", "lat": 49.452, "lon": 11.0806, "intensity": 0.7, "source": "Tagesschau"}, {"title": "Zuckerwasser im Brief: Entwarnung nach Gro\u00dfeinsatz am Polizeipr\u00e4sidium K\u00f6ln", "url": "https://www.tagesschau.de/inland/regional/nordrheinwestfalen/wdr-unbekannte-substanz-im-brief-feuerwehr-grosseinsatz-am-polizeipraesidium-koeln-100.html", "thumbnailUrl": "https://images.tagesschau.de/image/d3610586-de13-42c0-9dd1-f2baa0f96eec/AAABjqk3WgA/AAABjcWesUg/16x9-512.jpg", "date": "2024-04-04T13:42:00.000+02:00", "lat": 50.9375, "lon": 6.9582, "intensity": 0.8, "source": "Tagesschau"}, {"title": "Anglerverband: Fischsterben 2023 war Folge von Starkregen", "url": "https://www.tagesschau.de/inland/regional/niedersachsen/ndr-anglerverband-fischsterben-2023-war-folge-von-starkregen-100.html", "thumbnailUrl": "https://images.tagesschau.de/image/1c8e7a9c-a1bf-45f9-a65d-671c25aef94f/AAABjqnrRmA/AAABjcWesUg/16x9-512.jpg", "date": "2024-04-04T13:42:00.000+02:00", "lat": 52.6367, "lon": 10.4703, "intensity": 0.7, "source": "Tagesschau"}, {"title": "Rechte Chatgruppen und \"Reichsb\u00fcrger\"-Verdacht: Immer wieder BW-Polizisten im Blickfeld", "url": "https://www.tagesschau.de/inland/regional/badenwuerttemberg/swr-rechte-chatgruppen-und-reichsbuerger-verdacht-immer-wieder-bw-polizisten-im-blickfeld-100.html", "thumbnailUrl": "https://images.tagesschau.de/image/c66584e1-0326-4683-8b2c-225cc251e36a/AAABjqj3TeE/AAABjcWesUg/16x9-512.jpg", "date": "2024-04-04T13:28:37.000+02:00", "lat": 48.7, "lon": 9.0, "intensity": 0.8, "source": "Tagesschau"}, {"title": "Gro\u00dfst\u00f6rung bei Kartenzahlung - Fehler bei der Sparkasse", "url": "https://www.tagesschau.de/inland/regional/hessen/hr-stoerungen-bei-kartenzahlungen-in-supermaerkten-auch-frankfurter-sparkasse-betroffen-100.html", "thumbnailUrl": "https://images.tagesschau.de/image/e8fbd6d4-9fc5-4c80-a120-8a0724c25166/AAABjqjm8ck/AAABjcWesUg/16x9-512.jpg", "date": "2024-04-04T13:13:16.559+02:00", "lat": 50.1109, "lon": 8.6821, "intensity": 0.8, "source": "Tagesschau"}, {"title": "A8 bei Pforzheim wegen Unfall in Richtung Karlsruhe gesperrt", "url": "https://www.tagesschau.de/inland/regional/badenwuerttemberg/swr-a8-bei-pforzheim-wegen-unfall-in-richtung-karlsruhe-gesperrt-100.html", "thumbnailUrl": "https://images.tagesschau.de/image/ee4e7ce9-2f1e-45f6-884c-008854394853/AAABjqiUcSM/AAABjcWesUg/16x9-512.jpg", "date": "2024-04-04T13:04:00.000+02:00", "lat": 48.92823, "lon": 8.69472, "intensity": 0.8, "source": "Tagesschau"}, {"title": "Zu wenig Gem\u00fcse auf Speisepl\u00e4nen in Niedersachsens Kitas", "url": "https://www.tagesschau.de/inland/regional/niedersachsen/ndr-zu-wenig-gemuese-auf-speiseplaenen-in-niedersachsens-kitas-100.html", "thumbnailUrl": "https://images.tagesschau.de/image/f33fb7ae-a9e5-4550-94c7-d7d0c9ff7841/AAABjqjKHDY/AAABjcWesUg/16x9-512.jpg", "date": "2024-04-04T13:01:00.000+02:00", "lat": 52.3732, "lon": 9.7356, "intensity": 0.6, "source": "Tagesschau"}, {"title": "Israel beruft Reservisten zur Luftverteidigung ein", "url": "https://www.tagesschau.de/ausland/asien/israel-reservisten-mobilisierung-100.html", "thumbnailUrl": "https://images.tagesschau.de/image/880b76f6-a12c-4edc-b429-771587053fc4/AAABjqfj1kU/AAABjcWesUg/16x9-512.jpg", "date": "2024-04-04T12:59:09.492+02:00", "lat": 31.7683, "lon": 35.2137, "intensity": 0.8, "source": "Tagesschau"}, {"title": "NRW-Polizei identifiziert Rechtsextreme in den eigenen Reihen", "url": "https://www.tagesschau.de/inland/regional/nordrheinwestfalen/wdr-nrw-polizei-identifiziert-rund-80-rechtsextreme-in-den-eigenen-reihen-100.html", "thumbnailUrl": "https://images.tagesschau.de/image/28e653de-50f3-427d-ac7f-71f50c8ffec0/AAABjqm1tgc/AAABjcWesUg/16x9-512.jpg", "date": "2024-04-04T12:47:00.000+02:00", "lat": 51.4332, "lon": 7.0106, "intensity": 0.8, "source": "Tagesschau"}, {"title": "Berliner Hedwigs-Kathedrale wird im November er\u00f6ffnet - nach sechs Jahren Umbauarbeiten", "url": "https://www.tagesschau.de/inland/regional/berlin/rbb-berliner-hedwigs-kathedrale-wird-im-november-eroeffnet-nach-sechs-jahren-umbauarbeiten-100.html", "thumbnailUrl": "https://images.tagesschau.de/image/3d854977-de0b-481b-bb7f-42ecbfa0b07e/AAABjqi5kXA/AAABjcWesUg/16x9-512.jpg", "date": "2024-04-04T12:42:52.000+02:00", "lat": 52.518611, "lon": 13.396389, "intensity": 0.7, "source": "Tagesschau"}, {"title": "Sorge vor Klagen: Modellprojekt gegen Motorradl\u00e4rm verz\u00f6gert sich", "url": "https://www.tagesschau.de/inland/regional/niedersachsen/ndr-sorge-vor-klagen-modellprojekt-gegen-motorradlaerm-verzoegert-sich-100.html", "thumbnailUrl": "https://images.tagesschau.de/image/a4b04eaf-7c8a-4bf6-9e2e-2cf97ad3bdd8/AAABjqi3ZjA/AAABjcWesUg/16x9-512.jpg", "date": "2024-04-04T12:37:00.000+02:00", "lat": 51.8892, "lon": 9.4992, "intensity": 0.6, "source": "Tagesschau"}, {"title": "OLG Zweibr\u00fccken: Gutachter soll wegen Sonntags\u00f6ffnungen im Outlet geh\u00f6rt werden", "url": "https://www.tagesschau.de/inland/regional/rheinlandpfalz/swr-olg-zweibruecken-was-wird-aus-den-sonntagsoeffnungen-im-outlet-100.html", "thumbnailUrl": "https://images.tagesschau.de/image/c610d61c-3d98-45f1-8d02-36a4463ee225/AAABjqjqfHI/AAABjcWesUg/16x9-512.jpg", "date": "2024-04-04T12:33:00.000+02:00", "lat": 49.2448, "lon": 7.3676, "intensity": 0.5, "source": "Tagesschau"}, {"title": "Millionenschaden nach Hubschrauber-Absturz - Baumf\u00e4llarbeiten sollen bald fortgesetzt werden", "url": "https://www.tagesschau.de/inland/regional/thueringen/mdr-hubschrauber-bei-holzernte-im-kreis-sonneberg-abgestuerzt-100.html", "thumbnailUrl": "https://images.tagesschau.de/image/288af287-be81-4b80-9a5e-ab25861db2a0/AAABjqlROCU/AAABjcWesUg/16x9-512.jpg", "date": "2024-04-04T12:32:00.000+02:00", "lat": 50.3506, "lon": 11.1753, "intensity": 0.8, "source": "Tagesschau"}, {"title": "F\u00fcr Russland ausgesp\u00e4ht", "url": "https://www.tagesschau.de/investigativ/oesterreich-spionage-russland-marsalek-egisto-100.html", "thumbnailUrl": "https://images.tagesschau.de/image/1ef750e2-d9dd-4df9-9e4e-281e2cb54bc7/AAABhnbfqGM/AAABjcWesUg/16x9-512.jpg", "date": "2024-04-04T12:29:35.711+02:00", "lat": 47.5162, "lon": 14.5501, "intensity": 0.8, "source": "Tagesschau"}, {"title": "Anklage erhoben: 27-j\u00e4hriger Rechtsextremist soll Anschlag vorbereitet haben", "url": "https://www.tagesschau.de/inland/regional/hessen/hr-anklage-erhoben-27-jaehriger-rechtsextremist-soll-anschlag-vorbereitet-haben-100.html", "thumbnailUrl": "https://images.tagesschau.de/image/a142b171-17dd-432f-a5ca-0bac261328e6/AAABjqkjY-Q/AAABjcWesUg/16x9-512.jpg", "date": "2024-04-04T12:22:26.968+02:00", "lat": 50.1109, "lon": 8.6821, "intensity": 0.8, "source": "Tagesschau"}, {"title": "Sohn soll Vater in B\u00f6hl-Iggelheim get\u00f6tet haben - Todesursache steht fest", "url": "https://www.tagesschau.de/inland/regional/rheinlandpfalz/swr-sohn-soll-vater-in-boehl-iggelheim-getoetet-haben-100.html", "thumbnailUrl": "https://images.tagesschau.de/image/a0249551-2a00-4d2e-a6a2-e96d6967a1a6/AAABjqkLeMg/AAABjcWesUg/16x9-512.jpg", "date": "2024-04-04T12:22:00.000+02:00", "lat": 49.3095, "lon": 8.3349, "intensity": 0.8, "source": "Tagesschau"}, {"title": "Diebe stehlen Felgen aus Autohaus - Zehntausende Euro Schaden", "url": "https://www.tagesschau.de/inland/regional/niedersachsen/ndr-felgendiebe-pluendern-autohaus-zehntausende-euro-schaden-100.html", "thumbnailUrl": "https://images.tagesschau.de/image/a6c7f9de-848c-4453-a5d3-ca5abd397bfb/AAABjqio9EM/AAABjcWesUg/16x9-512.jpg", "date": "2024-04-04T12:20:00.000+02:00", "lat": 53.5973, "lon": 9.4752, "intensity": 0.8, "source": "Tagesschau"}, {"title": "Berlin-Reinickendorf: 31 Katzen aus Wohnung im M\u00e4rkischen Viertel gerettet ", "url": "https://www.tagesschau.de/inland/regional/berlin/rbb-berlin-reinickendorf-31-katzen-aus-wohnung-im-maerkischen-viertel-gerettet-100.html", "thumbnailUrl": "https://images.tagesschau.de/image/fe2ff349-70a5-4b85-b40e-d7d540a4cbf3/AAABjqilYsg/AAABjcWesUg/16x9-512.jpg", "date": "2024-04-04T12:18:10.000+02:00", "lat": 52.595, "lon": 13.3686, "intensity": 0.5, "source": "Tagesschau"}, {"title": "Mutma\u00dflicher IS-K\u00e4mpfer in Isny festgenommen", "url": "https://www.tagesschau.de/inland/regional/badenwuerttemberg/swr-mutmasslicher-is-kaempfer-in-isny-festgenommen-100.html", "thumbnailUrl": "https://images.tagesschau.de/image/ee405a64-1e76-4647-843b-b6e0951718c0/AAABjqydITk/AAABjcWesUg/16x9-512.jpg", "date": "2024-04-04T12:18:07.000+02:00", "lat": 47.69, "lon": 9.9333, "intensity": 0.8, "source": "Tagesschau"}, {"title": "Verbindungsoffizier warnte vor Problemen", "url": "https://www.tagesschau.de/investigativ/swr/flutkatastrophe-ahrtal-krisenstab-bundeswehr-100.html", "thumbnailUrl": "https://images.tagesschau.de/image/568ba104-d07d-43a5-88ba-8ec4b3c6a757/AAABhnPrUP8/AAABjcWesUg/16x9-512.jpg", "date": "2024-04-04T12:07:24.261+02:00", "lat": 50.5433, "lon": 7.1007, "intensity": 0.7, "source": "Tagesschau"}, {"title": "Anklage gegen mutma\u00dfliche Rechtsextreme erhoben", "url": "https://www.tagesschau.de/inland/anklage-bundesanwaltschaft-combat18-100.html", "thumbnailUrl": "https://images.tagesschau.de/image/01e14bf7-b158-4fac-9831-4029b5655fb2/AAABikDMkVs/AAABjcWesUg/16x9-512.jpg", "date": "2024-04-04T12:07:00.020+02:00", "lat": 53.5511, "lon": 9.9937, "intensity": 0.8, "source": "Tagesschau"}, {"title": "Bilanz nach drei Monaten E-Rezept: Woran es noch hakt", "url": "https://www.tagesschau.de/inland/regional/bayern/br-drei-monate-e-rezept-bilanz-durchwachsen-104.html", "thumbnailUrl": "https://images.tagesschau.de/image/ba85957e-b46d-445a-ab7c-35b2b19a73a1/AAABjqgop0c/AAABjcWesUg/16x9-512.jpg", "date": "2024-04-04T12:01:34.397+02:00", "lat": 51.1657, "lon": 10.4515, "intensity": 0.6, "source": "Tagesschau"}, {"title": "Prozess gegen \"Maddie\"-Verd\u00e4chtigen: Zeuge belastet Angeklagten B.", "url": "https://www.tagesschau.de/inland/regional/niedersachsen/ndr-prozess-gegen-maddie-verdaechtigen-zeuge-belastet-angeklagten-b-100.html", "thumbnailUrl": "https://images.tagesschau.de/image/028fd795-8e62-4daa-99a9-533043250065/AAABjqiNg9k/AAABjcWesUg/16x9-512.jpg", "date": "2024-04-04T11:59:00.000+02:00", "lat": 52.3759, "lon": 9.7533, "intensity": 0.8, "source": "Tagesschau"}, {"title": "Tote bei Angriffen auf Revolutionsgarden", "url": "https://www.tagesschau.de/ausland/asien/iran-kaempfe-revolutionsgarden-100.html", "thumbnailUrl": "https://images.tagesschau.de/image/5a0ea4e9-2ad9-4c55-9251-bf72b1327bc8/AAABjqmaOWI/AAABjcWesUg/16x9-512.jpg", "date": "2024-04-04T11:47:06.813+02:00", "lat": 32.427908, "lon": 53.688046, "intensity": 0.8, "source": "Tagesschau"}, {"title": "Energie Cottbus in Jena: Ein Schl\u00fcsselspiel mit Risiken", "url": "https://www.tagesschau.de/inland/regional/brandenburg/rbb-energie-cottbus-in-jena-ein-schluesselspiel-mit-risiken-102.html", "thumbnailUrl": "https://images.tagesschau.de/image/e0c0b26b-5c18-4ad4-9203-a30799c71673/AAABjqiAaFY/AAABjcWesUg/16x9-512.jpg", "date": "2024-04-04T11:39:13.000+02:00", "lat": 50.9288, "lon": 11.5861, "intensity": 0.7, "source": "Tagesschau"}, {"title": "Tod bei Osterfeuer: Feuerwehr soll vor Baum gewarnt haben", "url": "https://www.tagesschau.de/inland/regional/niedersachsen/ndr-toedliches-unglueck-bei-osterfeuer-22-jaehrige-von-baum-getroffen-100.html", "thumbnailUrl": "https://images.tagesschau.de/image/40c22a82-d804-4d8e-9a62-0eed1554dbf7/AAABjqh9Fxc/AAABjcWesUg/16x9-512.jpg", "date": "2024-04-04T11:31:00.000+02:00", "lat": 52.3764, "lon": 9.2733, "intensity": 0.8, "source": "Tagesschau"}, {"title": "Frankfurt: Polizisten nach rabiatem Einsatz in Sachsenhausen angeklagt", "url": "https://www.tagesschau.de/inland/regional/hessen/hr-frankfurt-polizisten-nach-rabiatem-einsatz-in-sachsenhausen-angeklagt-100.html", "thumbnailUrl": "https://images.tagesschau.de/image/80c26eca-27bf-457c-b2c4-f7976909527f/AAABjqhxvPQ/AAABjcWesUg/16x9-512.jpg", "date": "2024-04-04T11:29:50.181+02:00", "lat": 50.1109, "lon": 8.6842, "intensity": 0.8, "source": "Tagesschau"}, {"title": "\"L\u00fctti\": Neue Busse fahren auf Abruf im Landkreis Osnabr\u00fcck", "url": "https://www.tagesschau.de/inland/regional/niedersachsen/ndr-luetti-neue-busse-fahren-auf-abruf-im-landkreis-osnabrueck-100.html", "thumbnailUrl": "https://images.tagesschau.de/image/86b0b587-d80f-4d14-8633-9cfbab4eabd5/AAABjqfzsTg/AAABjcWesUg/16x9-512.jpg", "date": "2024-04-04T11:29:00.000+02:00", "lat": 52.2812, "lon": 8.0479, "intensity": 0.3, "source": "Tagesschau"}, {"title": "Unfall mit sechs Fahrzeugen: Messeschnellweg in Hannover gesperrt", "url": "https://www.tagesschau.de/inland/regional/niedersachsen/ndr-unfall-mit-sechs-fahrzeugen-messeschnellweg-in-hannover-gesperrt-100.html", "thumbnailUrl": "https://images.tagesschau.de/image/ee96c967-f538-4359-8e04-7d0f2ef4c09e/AAABjqho4w0/AAABjcWesUg/16x9-512.jpg", "date": "2024-04-04T11:19:00.000+02:00", "lat": 52.3759, "lon": 9.7314, "intensity": 0.8, "source": "Tagesschau"}, {"title": "Sozialkaufhaus \"M\u00f6belkiste Hamburg\" \u00f6ffnet an neuem Standort", "url": "https://www.tagesschau.de/inland/regional/hamburg/ndr-sozialkaufhaus-moebelkiste-hamburg-wird-in-barmbek-eroeffnet-100.html", "thumbnailUrl": "https://images.tagesschau.de/image/2d770c0d-189b-4a1b-9789-9941943afb0e/AAABjqdfTUg/AAABjcWesUg/16x9-512.jpg", "date": "2024-04-04T11:15:00.000+02:00", "lat": 53.5921, "lon": 10.0357, "intensity": 0.6, "source": "Tagesschau"}, {"title": "T\u00f6dliche Sch\u00fcsse vor Shisha-Bar: Prozess in Hamburg", "url": "https://www.tagesschau.de/inland/regional/hamburg/ndr-toedliche-schuesse-vor-shisha-bar-prozess-in-hamburg-100.html", "thumbnailUrl": "https://images.tagesschau.de/image/653732ee-3588-4832-af5d-1bd5a3f3b090/AAABjqS0T1I/AAABjcWesUg/16x9-512.jpg", "date": "2024-04-04T11:14:00.000+02:00", "lat": 53.5511, "lon": 9.9937, "intensity": 0.8, "source": "Tagesschau"}, {"title": "BW-Minister Lucha verteidigt Ma\u00dfnahmen - Kinder nicht optimal ber\u00fccksichtigt", "url": "https://www.tagesschau.de/inland/regional/badenwuerttemberg/swr-bw-gesundheitsminister-kritisiert-debatte-um-corona-aufarbeitung-man-vergisst-jetzt-die-bilder-aus-italien-100.html", "thumbnailUrl": "https://images.tagesschau.de/image/fdda7697-4973-4f97-80ae-19603f4c29bc/AAABjqhk0nk/AAABjcWesUg/16x9-512.jpg", "date": "2024-04-04T11:12:07.000+02:00", "lat": 48.6618, "lon": 9.9876, "intensity": 0.3, "source": "Tagesschau"}, {"title": "Scharfe Kritik an Cornelia Nenz: CDU fordert Ordensr\u00fcckgabe", "url": "https://www.tagesschau.de/inland/regional/mecklenburgvorpommern/ndr-kritik-an-friedensaktivistin-nenz-cdu-fordert-ordensrueckgabe-100.html", "thumbnailUrl": "https://images.tagesschau.de/image/9e88135d-66f2-4e58-9883-d20962c10747/AAABjqjAa1w/AAABjcWesUg/16x9-512.jpg", "date": "2024-04-04T11:08:00.000+02:00", "lat": 53.6127, "lon": 13.663, "intensity": 0.6, "source": "Tagesschau"}, {"title": "B\u00fcrger in Mansfeld-S\u00fcdharz sollen Erdl\u00f6cher melden", "url": "https://www.tagesschau.de/inland/regional/sachsenanhalt/mdr-erdloecher-in-mansfeld-suedharz-buerger-zu-mithilfe-aufgerufen-100.html", "thumbnailUrl": "https://images.tagesschau.de/image/2137f0f0-d600-46af-8926-a5d5b1a955c9/AAABjqhd188/AAABjcWesUg/16x9-512.jpg", "date": "2024-04-04T11:06:56.000+02:00", "lat": 51.446, "lon": 11.441, "intensity": 0.7, "source": "Tagesschau"}, {"title": "Wachgek\u00fcsst: Wie cool ist das \"neue\" CCH?", "url": "https://www.tagesschau.de/inland/regional/hamburg/ndr-wachgekuesst-wie-cool-ist-das-neue-cch-100.html", "thumbnailUrl": "https://images.tagesschau.de/image/c1d3ca68-d5b0-44a6-89ab-76dab1a5a6ad/AAABjqkrAsw/AAABjcWesUg/16x9-512.jpg", "date": "2024-04-04T11:01:00.000+02:00", "lat": 53.5511, "lon": 9.9792, "intensity": 0.7, "source": "Tagesschau"}, {"title": "Wohnungsbau: Hamburg will Bauordnung vereinfachen", "url": "https://www.tagesschau.de/inland/regional/hamburg/ndr-wohnungsbau-hamburg-will-bauordnung-vereinfachen-100.html", "thumbnailUrl": "https://images.tagesschau.de/image/843556bb-b878-4e09-b8e5-ceb7960f62a4/AAABjqeD8Ao/AAABjcWesUg/16x9-512.jpg", "date": "2024-04-04T11:00:00.000+02:00", "lat": 53.55, "lon": 10.0, "intensity": 0.7, "source": "Tagesschau"}, {"title": "Hamilton: R\u00fcckkehr von Sebastian Vettel in die Formel 1 w\u00e4re \"gro\u00dfartig\"", "url": "https://www.tagesschau.de/inland/regional/hessen/hr-hamilton-rueckkehr-von-sebastian-vettel-in-die-formel-1-waere-grossartig-102.html", "thumbnailUrl": "https://images.tagesschau.de/image/abc77ae9-42cb-461c-b2f0-4a0b24f86147/AAABjqh80nk/AAABjcWesUg/16x9-512.jpg", "date": "2024-04-04T10:58:17.989+02:00", "lat": 50.1109, "lon": 8.6833, "intensity": 0.6, "source": "Tagesschau"}, {"title": "Auto erfasst Frau mit Rollator - 95-J\u00e4hrige verstorben", "url": "https://www.tagesschau.de/inland/regional/niedersachsen/ndr-auto-erfasst-frau-mit-rollator-95-jaehrige-schwer-verletzt-100.html", "thumbnailUrl": "https://images.tagesschau.de/image/eeeb4e03-669b-4ee5-bdd3-9539dba6ddcc/AAABjqhPQ14/AAABjcWesUg/16x9-512.jpg", "date": "2024-04-04T10:47:00.000+02:00", "lat": 52.3759, "lon": 9.7332, "intensity": 0.8, "source": "Tagesschau"}, {"title": "Anklage gegen Berliner Rentner nach mutma\u00dflichem Mord an pflegebed\u00fcrftiger Ehefrau erhoben ", "url": "https://www.tagesschau.de/inland/regional/berlin/rbb-anklage-gegen-berliner-rentner-nach-mutmasslichem-mord-an-pflegebeduerftiger-ehefrau-erhoben-100.html", "thumbnailUrl": "https://images.tagesschau.de/image/9a5e4a14-dab8-4b37-8749-b6d02bd113bc/AAABjqhLlA8/AAABjcWesUg/16x9-512.jpg", "date": "2024-04-04T10:44:08.000+02:00", "lat": 52.520008, "lon": 13.404954, "intensity": 0.8, "source": "Tagesschau"}, {"title": "Schneidewind reicht Bewerbung f\u00fcr Homburger OB-Wahl ein", "url": "https://www.tagesschau.de/inland/regional/saarland/sr-schneidewind-reicht-bewerbung-fuer-homburger-ob-wahl-ein-100.html", "thumbnailUrl": "https://images.tagesschau.de/image/63f45853-d21f-4167-a6c9-dff5318410a8/AAABjqhSiDc/AAABjcWesUg/16x9-512.jpg", "date": "2024-04-04T10:41:00.000+02:00", "lat": 49.3, "lon": 7.3356, "intensity": 0.8, "source": "Tagesschau"}, {"title": "\"Telemoritz\": Was wird aus Hannovers altem Fernsehturm?", "url": "https://www.tagesschau.de/inland/regional/niedersachsen/ndr-telemoritz-was-wird-aus-hannovers-altem-fernsehturm-100.html", "thumbnailUrl": "https://images.tagesschau.de/image/1c4d57b5-71db-459a-b7c0-10628a2b24e5/AAABjqhLqIE/AAABjcWesUg/16x9-512.jpg", "date": "2024-04-04T10:39:00.000+02:00", "lat": 52.3759, "lon": 9.7539, "intensity": 0.5, "source": "Tagesschau"}, {"title": "Musicals\u00e4nger Thomas Borchert: \"Es passiert eine Art Magie\"", "url": "https://www.tagesschau.de/inland/regional/hamburg/ndr-musicalsaenger-thomas-borchert-es-passiert-eine-art-magie-100.html", "thumbnailUrl": "https://images.tagesschau.de/image/01c27659-63bc-4a4b-b6e2-37fea0f35e73/AAABjqhLets/AAABjcWesUg/16x9-512.jpg", "date": "2024-04-04T10:37:00.000+02:00", "lat": 53.5511, "lon": 9.9937, "intensity": 0.7, "source": "Tagesschau"}, {"title": "Oberspreewald-Lausitz: Post kommt im Spreewald ab sofort wieder per Kahn", "url": "https://www.tagesschau.de/inland/regional/brandenburg/rbb-oberspreewald-lausitz-post-kommt-im-spreewald-ab-sofort-wieder-per-kahn-100.html", "thumbnailUrl": "https://images.tagesschau.de/image/ec84f8ef-dae0-4c45-a454-ba092b907d7f/AAABjqhAjC0/AAABjcWesUg/16x9-512.jpg", "date": "2024-04-04T10:32:26.000+02:00", "lat": 51.6197, "lon": 13.9899, "intensity": 0.7, "source": "Tagesschau"}, {"title": "Forscherteam aus Trippstadt zeigt, was der Feldhase im Pf\u00e4lzerwald treibt", "url": "https://www.tagesschau.de/inland/regional/rheinlandpfalz/swr-forscherteam-aus-trippstadt-zeigt-was-der-feldhase-im-pfaelzerwald-treibt-100.html", "thumbnailUrl": "https://images.tagesschau.de/image/54c951d6-5c08-4833-b53c-dc543ea36d06/AAABjqOF60o/AAABjcWesUg/16x9-512.jpg", "date": "2024-04-04T10:27:00.000+02:00", "lat": 49.4312, "lon": 7.7992, "intensity": 0.4, "source": "Tagesschau"}, {"title": "THW Kiel trifft im Champions-League-Viertelfinale auf Montpellier HB", "url": "https://www.tagesschau.de/inland/regional/schleswigholstein/ndr-thw-kiel-trifft-im-champions-league-viertelfinale-auf-montpellier-hb-102.html", "thumbnailUrl": "https://images.tagesschau.de/image/4e0f3d84-8831-47d7-bdf3-3841fd74c135/AAABjqhRBJ4/AAABjcWesUg/16x9-512.jpg", "date": "2024-04-04T10:26:00.000+02:00", "lat": 54.3233, "lon": 10.1403, "intensity": 0.7, "source": "Tagesschau"}, {"title": "Polizei l\u00f6st Autoposer-Treffen mit 500 Fahrzeugen auf", "url": "https://www.tagesschau.de/inland/regional/bayern/br-polizei-loest-autoposer-treffen-mit-500-fahrzeugen-auf-104.html", "thumbnailUrl": "https://images.tagesschau.de/image/d594598e-aa7f-4516-9af4-c1ee458ea9b6/AAABjqgwBlQ/AAABjcWesUg/16x9-512.jpg", "date": "2024-04-04T10:16:26.941+02:00", "lat": 48.137, "lon": 11.572, "intensity": 0.8, "source": "Tagesschau"}, {"title": "Einbruch in Hanstedter Kaufhaus: Polizei schnappt 19-J\u00e4hrigen", "url": "https://www.tagesschau.de/inland/regional/niedersachsen/ndr-einbruch-in-hanstedter-kaufhaus-polizei-schnappt-19-jaehrigen-100.html", "thumbnailUrl": "https://images.tagesschau.de/image/13640ee7-8888-4ff3-8ae8-7ae4e019b4d9/AAABjqqy-uY/AAABjcWesUg/16x9-512.jpg", "date": "2024-04-04T10:15:00.000+02:00", "lat": 53.2833, "lon": 9.85, "intensity": 0.8, "source": "Tagesschau"}, {"title": "Hessen am Morgen: +++ Mehr Pollen in Hessen unterwegs +++ Leiche am Lohrberg in Frankfurt gefunden +++ AfD-Mann droht Feuerwehr-Ausschluss +++", "url": "https://www.tagesschau.de/inland/regional/hessen/hr-hessen-am-morgen--leiche-am-lohrberg-in-frankfurt-gefunden--angeklagter-reichsbuerger-um-prinz-reuss-spricht-erstmals-100.html", "thumbnailUrl": "https://images.tagesschau.de/image/c3c4a246-d58d-4b82-a02a-2c0d17eab5f3/AAABjqhb1Y4/AAABjcWesUg/16x9-512.jpg", "date": "2024-04-04T10:02:29.933+02:00", "lat": 50.1343, "lon": 8.7293, "intensity": 0.8, "source": "Tagesschau"}, {"title": "Lufthansa, Opel, Deutsche Bank: Wie hessische Unternehmen ihre Besch\u00e4ftigten bei Laune halten", "url": "https://www.tagesschau.de/inland/regional/hessen/hr-lufthansa-opel-deutsche-bank-wie-hessische-unternehmen-ihre-beschaeftigten-bei-laune-halten-100.html", "thumbnailUrl": "https://images.tagesschau.de/image/d8a3f81c-3817-463d-96d6-4f2d7e5be9f1/AAABjqgjMPs/AAABjcWesUg/16x9-512.jpg", "date": "2024-04-04T10:02:20.493+02:00", "lat": 50.7753, "lon": 9.5065, "intensity": 0.4, "source": "Tagesschau"}, {"title": "BW-Newsticker am Morgen: Mann sticht in Supermarkt auf Vierj\u00e4hrige ein, Waldbesitzer einigt sich mit B\u00e4rlauch-T\u00e4tern", "url": "https://www.tagesschau.de/inland/regional/badenwuerttemberg/swr-bw-newsticker-am-morgen-mann-sticht-in-supermarkt-auf-vierjaehrige-ein-csu-politiker-reagieren-auf-schaeuble-memoiren-israelisches-auberginen-gericht-sorgt-in-freiburg-fuer-wirbel-100.html", "thumbnailUrl": "https://images.tagesschau.de/image/2e0b27c1-e373-4bb7-8f1d-ae1b21447a55/AAABjqdHOz4/AAABjcWesUg/16x9-512.jpg", "date": "2024-04-04T10:00:00.000+02:00", "lat": 47.996, "lon": 7.849, "intensity": 0.8, "source": "Tagesschau"}, {"title": "Im Saarland ist Tanken derzeit besonders g\u00fcnstig", "url": "https://www.tagesschau.de/inland/regional/saarland/sr-im-saarland-ist-tanken-derzeit-besonders-guenstig-100.html", "thumbnailUrl": "https://images.tagesschau.de/image/b98d5cdc-33f3-415a-97b1-0e1caa850a89/AAABjqgxheA/AAABjcWesUg/16x9-512.jpg", "date": "2024-04-04T09:53:00.000+02:00", "lat": 49.4, "lon": 7.0, "intensity": 0.3, "source": "Tagesschau"}, {"title": "Rattenproblem an G\u00fctersloher Kita", "url": "https://www.tagesschau.de/inland/regional/nordrheinwestfalen/wdr-rattenproblem-an-guetersloher-kita-100.html", "thumbnailUrl": "https://images.tagesschau.de/image/32c8a2b8-b27d-41fb-b212-70da8b4e7ec3/AAABjqhX9Ts/AAABjcWesUg/16x9-512.jpg", "date": "2024-04-04T09:50:00.000+02:00", "lat": 51.9, "lon": 8.38333, "intensity": 0.7, "source": "Tagesschau"}, {"title": "Trend zu Urne und Friedwald: Hoher Leerstand auf Friedh\u00f6fen", "url": "https://www.tagesschau.de/inland/regional/bayern/br-trend-zu-urne-und-friedwald-hoher-leerstand-auf-friedhoefen-100.html", "thumbnailUrl": "https://images.tagesschau.de/image/ad433ab3-5a77-4914-95f3-a716e7b3cbb4/AAABjqgSrVk/AAABjcWesUg/16x9-512.jpg", "date": "2024-04-04T09:44:31.856+02:00", "lat": 49.4503, "lon": 11.077, "intensity": 0.7, "source": "Tagesschau"}, {"title": "Lettland k\u00f6nnte bei Digitalisierung Vorbild f\u00fcr Hamburg werden", "url": "https://www.tagesschau.de/inland/regional/hamburg/ndr-lettland-koennte-bei-digitalisierung-vorbild-fuer-hamburg-werden-100.html", "thumbnailUrl": "https://images.tagesschau.de/image/b70d4563-5be6-46b0-be38-a7dfc01a3eb7/AAABjqgSvog/AAABjcWesUg/16x9-512.jpg", "date": "2024-04-04T09:44:00.000+02:00", "lat": 56.9496, "lon": 24.6032, "intensity": 0.7, "source": "Tagesschau"}, {"title": "Agrarfahrzeugbauer Reisch: Die Insolvenz und ihre Folgen", "url": "https://www.tagesschau.de/inland/regional/bayern/br-agrarfahrzeugbauer-reisch-die-insolvenz-und-ihre-folgen-102.html", "thumbnailUrl": "https://images.tagesschau.de/image/cca72dab-c7c2-4d06-bb5b-5378af7f4d0c/AAABjqgNMXU/AAABjcWesUg/16x9-512.jpg", "date": "2024-04-04T09:39:10.426+02:00", "lat": 48.1319, "lon": 11.54, "intensity": 0.8, "source": "Tagesschau"}, {"title": "Wieder mehr Kinder gehen zur Kommunion im Saarland", "url": "https://www.tagesschau.de/inland/regional/saarland/sr-wieder-mehr-kinder-gehen-zur-kommunion-im-saarland-100.html", "thumbnailUrl": "https://images.tagesschau.de/image/88e20a09-a3c1-42c7-be71-c02dc9cf9262/AAABjqgdYMg/AAABjcWesUg/16x9-512.jpg", "date": "2024-04-04T09:33:00.000+02:00", "lat": 49.3964, "lon": 7.0232, "intensity": 0.6, "source": "Tagesschau"}, {"title": "Weiter Probleme mit Stellwerk in M\u00f6nchengladbach - Versp\u00e4tungen und Zugausf\u00e4lle", "url": "https://www.tagesschau.de/inland/regional/nordrheinwestfalen/wdr-weiter-probleme-mit-stellwerk-in-moenchengladbach-verspaetungen-und-zugausfaelle-100.html", "thumbnailUrl": "https://images.tagesschau.de/image/a5178bdf-ee5c-4a2b-9fdc-386b34467022/AAABjqhSnlE/AAABjcWesUg/16x9-512.jpg", "date": "2024-04-04T09:30:00.000+02:00", "lat": 51.1805, "lon": 6.4358, "intensity": 0.8, "source": "Tagesschau"}, {"title": "T\u00f6dlicher Kutschenunfall: Prozess am Amtsgericht Biberach beginnt", "url": "https://www.tagesschau.de/inland/regional/badenwuerttemberg/swr-toedlicher-kutschenunfall-prozess-am-amtsgericht-biberach-beginnt-100.html", "thumbnailUrl": "https://images.tagesschau.de/image/23016d67-9b11-4968-9748-2a2ca51b3022/AAABjqhv2Ns/AAABjcWesUg/16x9-512.jpg", "date": "2024-04-04T09:29:55.000+02:00", "lat": 48.09937, "lon": 9.79102, "intensity": 0.8, "source": "Tagesschau"}, {"title": "Anteil der \u00fcber 80-J\u00e4hrigen in Berlin und Brandenburg w\u00e4chst", "url": "https://www.tagesschau.de/inland/regional/berlin/rbb-anteil-der-ueber-80-jaehrigen-waechst-100.html", "thumbnailUrl": "https://images.tagesschau.de/image/b0c6744f-ffbb-414f-8832-bcff006ab93f/AAABjqf3HMA/AAABjcWesUg/16x9-512.jpg", "date": "2024-04-04T09:13:31.000+02:00", "lat": 52.520008, "lon": 13.404954, "intensity": 0.7, "source": "Tagesschau"}, {"title": "Eisb\u00e4ren, Volleys, Alba und SC Potsdam: So pr\u00e4sentieren sich die Top-Teams derzeit in den Playoffs", "url": "https://www.tagesschau.de/inland/regional/brandenburg/rbb-eisbaeren-volleys-alba-und-scp-so-praesentieren-sich-die-top-teams-derzeit-in-den-playoffs-102.html", "thumbnailUrl": "https://images.tagesschau.de/image/c222971e-a39e-4d70-aa75-ec043c4e22d1/AAABjqrXWw0/AAABjcWesUg/16x9-512.jpg", "date": "2024-04-04T09:01:36.000+02:00", "lat": 52.52, "lon": 13.405, "intensity": 0.5, "source": "Tagesschau"},