[{"title": "BW-Newsticker am Morgen: Diebe wollen tonnenweise B\u00e4rlauch klauen, Feuerwehr rettet Pferd aus Bach, Halmich will es gegen Raab knallen lassen", "url": "https://www.tagesschau.de/inland/regional/badenwuerttemberg/swr-bw-newsticker-am-morgen-weniger-komasaufen-bei-jugendlichen-diebe-wollen-tonnenweise-baerlauch-klauen-halmich-will-es-gegen-raab-knallen-lassen-100.html", "thumbnailUrl": "https://images.tagesschau.de/image/a115f24e-0cef-4265-8b78-74d0ba8b7b66/AAABjqJg7yU/AAABjcWesUg/16x9-512.jpg", "date": "2024-04-03T08:59:00.000+02:00", "lat": 48.6617, "lon": 9.4895, "intensity": 0.5, "source": "Tagesschau"}, {"title": "FCK feiert Einzug in DFB-Pokalfinale, Vollsperrung am Schiersteiner Kreuz, Unfall mit Pferd", "url": "https://www.tagesschau.de/inland/regional/rheinlandpfalz/swr-fck-feiert-einzug-in-dfb-pokalfinale-vollsperrung-am-schiersteiner-kreuz-wildschweine-verwuesten-graeber-100.html", "thumbnailUrl": "https://images.tagesschau.de/image/2e11680f-b4cc-49dd-843a-279f7184b705/AAABjqKM97A/AAABjcWesUg/16x9-512.jpg", "date": "2024-04-03T08:48:00.000+02:00", "lat": 49.9929, "lon": 8.2394, "intensity": 0.8, "source": "Tagesschau"}, {"title": "Doku \u00fcber die \"G\u00f6hrde-Morde\" und das Verschwinden von Birgit Meier", "url": "https://www.tagesschau.de/inland/regional/niedersachsen/ndr-doku-ueber-die-goehrde-morde-und-das-verschwinden-von-birgit-meier-100.html", "thumbnailUrl": "https://images.tagesschau.de/image/cf382c2e-d633-4892-b4dd-2682d67d0a36/AAABjqK7D50/AAABjcWesUg/16x9-512.jpg", "date": "2024-04-03T08:45:00.000+02:00", "lat": 53.2405, "lon": 10.5293, "intensity": 0.8, "source": "Tagesschau"}, {"title": "W\u00f6lfe: Brandenburger J\u00e4ger dr\u00e4ngen auf baldige Einf\u00fchrung von Schnellabsch\u00fcssen", "url": "https://www.tagesschau.de/inland/regional/brandenburg/rbb-woelfe-brandenburger-jaeger-draengen-auf-baldige-einfuehrung-von-schnellabschuessen-100.html", "thumbnailUrl": "https://images.tagesschau.de/image/6bce7b03-47e3-477d-8866-4cef0df49ae0/AAABjqKsHhk/AAABjcWesUg/16x9-512.jpg", "date": "2024-04-03T08:44:58.000+02:00", "lat": 52.3001, "lon": 13.1683, "intensity": 0.8, "source": "Tagesschau"}, {"title": "Seltene Funde an der Nordsee: Kehren verschwundene Arten zur\u00fcck?", "url": "https://www.tagesschau.de/inland/regional/schleswigholstein/ndr-seltene-funde-an-der-nordsee-kehren-verschwundene-arten-zurueck-100.html", "thumbnailUrl": "https://images.tagesschau.de/image/66d39a31-4098-40c1-b670-8ff72574ed96/AAABjp5BBJ4/AAABjcWesUg/16x9-512.jpg", "date": "2024-04-03T08:44:00.000+02:00", "lat": 53.5444, "lon": 8.8139, "intensity": 0.7, "source": "Tagesschau"}, {"title": "A31 bei D\u00f6rpen nach Unfall wieder frei - Vorfahrt missachtet?", "url": "https://www.tagesschau.de/inland/regional/niedersachsen/ndr-a31-bei-doerpen-nach-unfall-wieder-frei-vorfahrt-missachtet-100.html", "thumbnailUrl": "https://images.tagesschau.de/image/22d00e2d-a5bc-496a-a8ca-59185248c115/AAABjqK1pAQ/AAABjcWesUg/16x9-512.jpg", "date": "2024-04-03T08:44:00.000+02:00", "lat": 52.8567, "lon": 7.3357, "intensity": 0.6, "source": "Tagesschau"}, {"title": "Mieten steigen in Niedersachsen: So sieht es in Ihrem Landkreis aus", "url": "https://www.tagesschau.de/inland/regional/niedersachsen/ndr-mieten-steigen-in-niedersachsen-so-sieht-es-in-ihrem-landkreis-aus-100.html", "thumbnailUrl": "https://images.tagesschau.de/image/e3931de4-cb6f-43a5-b0b7-abd7fa7f0295/AAABjqKzxXY/AAABjcWesUg/16x9-512.jpg", "date": "2024-04-02T18:09:00.000+02:00", "lat": 52.6367, "lon": 9.7356, "intensity": 0.8, "source": "Tagesschau"}, {"title": "Frau muss nach Betrug ihres Ex-Partners 11.000 Euro bezahlen", "url": "https://www.tagesschau.de/inland/regional/niedersachsen/ndr-frau-muss-fuer-betrug-ihres-ex-partners-11-000-euro-bezahlen-100.html", "thumbnailUrl": "https://images.tagesschau.de/image/9c5ed984-b994-48d7-a953-9845e5428680/AAABjqKx_xI/AAABjcWesUg/16x9-512.jpg", "date": "2024-04-03T08:40:00.000+02:00", "lat": 52.6367, "lon": 10.4234, "intensity": 0.7, "source": "Tagesschau"}, {"title": "Weniger Br\u00fctereien seit K\u00fckent\u00f6tungsverbot", "url": "https://www.tagesschau.de/wirtschaft/unternehmen/bruetereien-kuekentoeten-landwirtschaft-100.html", "thumbnailUrl": "https://images.tagesschau.de/image/31f8d8c7-daff-409d-9466-69fbb62f9f49/AAABhnRYNcE/AAABjcWesUg/16x9-512.jpg", "date": "2024-04-03T08:36:01.507+02:00", "lat": 53.5511, "lon": 9.9937, "intensity": 0.8, "source": "Tagesschau"}, {"title": "Bayern und seine Muslime \u2013 kein unkompliziertes Verh\u00e4ltnis", "url": "https://www.tagesschau.de/inland/regional/bayern/br-bayern-und-seine-muslime--kein-unkompliziertes-verhaeltnis-102.html", "thumbnailUrl": "https://images.tagesschau.de/image/7d46c95b-ff3c-4339-9326-263131b50e07/AAABjqKsPr0/AAABjcWesUg/16x9-512.jpg", "date": "2024-04-03T08:34:22.691+02:00", "lat": 48.1351, "lon": 11.582, "intensity": 0.7, "source": "Tagesschau"}, {"title": "Firmen unterst\u00fctzen Klimaschutzma\u00dfnahmen von Landwirten", "url": "https://www.tagesschau.de/inland/regional/bayern/br-firmen-unterstuetzen-klimaschutzmassnahmen-von-landwirten-102.html", "thumbnailUrl": "https://images.tagesschau.de/image/0e64ac67-7e79-44df-b79a-21ab478c6d6f/AAABjqKqZ5g/AAABjcWesUg/16x9-512.jpg", "date": "2024-04-03T08:32:50.157+02:00", "lat": 49.0379, "lon": 10.4515, "intensity": 0.6, "source": "Tagesschau"}, {"title": "++ Biden kritisiert Israel nach Tod von Helfern scharf ++", "url": "https://www.tagesschau.de/newsticker/liveblog-nahost-mittwoch-118.html", "thumbnailUrl": "https://images.tagesschau.de/image/722e3c01-e40d-4e44-9efb-286c6e59a109/AAABjqKgoiM/AAABjcWesUg/16x9-512.jpg", "date": "2024-04-03T08:30:04.162+02:00", "lat": 31.7683, "lon": 35.2137, "intensity": 0.8, "source": "Tagesschau"}, {"title": "Solarbike: 19-j\u00e4hriger \"Sonnenradler\" auf dem Weg zur Sahara", "url": "https://www.tagesschau.de/inland/regional/bayern/br-solarbike-19-jaehriger-sonnenradler-auf-dem-weg-zur-sahara-102.html", "thumbnailUrl": "https://images.tagesschau.de/image/e2e936e1-a883-417b-9667-005ee969f79e/AAABjqKmyng/AAABjcWesUg/16x9-512.jpg", "date": "2024-04-03T08:29:37.237+02:00", "lat": 48.135125, "lon": 11.581981, "intensity": 0.7, "source": "Tagesschau"}, {"title": "Lkw-Fahrer stirbt auf A7 bei Kassel - Gegenrichtung nach Brand blockiert", "url": "https://www.tagesschau.de/inland/regional/hessen/hr-lkw-fahrer-stirbt-auf-a7-bei-kassel-gegenrichtung-nach-brand-blockiert-100.html", "thumbnailUrl": "https://images.tagesschau.de/image/90cc87e6-6596-4cd4-a4ef-f1572ddc480b/AAABjqKmnnQ/AAABjcWesUg/16x9-512.jpg", "date": "2024-04-03T08:28:47.175+02:00", "lat": 51.3114, "lon": 9.4158, "intensity": 0.8, "source": "Tagesschau"}, {"title": "Was die Bahn mit vergessenen Fahrr\u00e4dern macht", "url": "https://www.tagesschau.de/wirtschaft/verbraucher/bahn-fahrraeder-versteigerung-bauprogramm-puenktlichkeit-100.html", "thumbnailUrl": "https://images.tagesschau.de/image/c69b1a6d-5635-4daf-8fb3-9cf3c6a6b740/AAABjqKHpX4/AAABjcWesUg/16x9-512.jpg", "date": "2024-04-03T08:26:40.922+02:00", "lat": 51.515, "lon": 9.998, "intensity": 0.6, "source": "Tagesschau"}, {"title": "Polizei ermittelt nach Fund von Bomben in Wolfsburg", "url": "https://www.tagesschau.de/inland/regional/niedersachsen/ndr-polizei-findet-sprengvorrichtungen-in-wohnung-drei-festnahmen-100.html", "thumbnailUrl": "https://images.tagesschau.de/image/8f728b88-03cb-4657-a15f-c2cf116cdb2b/AAABjqKhcg0/AAABjcWesUg/16x9-512.jpg", "date": "2024-04-03T08:12:00.000+02:00", "lat": 52.4226, "lon": 10.7769, "intensity": 0.8, "source": "Tagesschau"}, {"title": "Tote und Verletzte nach schwerem Erdbeben", "url": "https://www.tagesschau.de/ausland/asien/taiwan-erdbeben-106.html", "thumbnailUrl": "https://images.tagesschau.de/image/bb68d11f-ab44-4f62-acf5-5e0959571dcb/AAABjqG32iA/AAABjcWesUg/16x9-512.jpg", "date": "2024-04-03T08:10:04.382+02:00", "lat": 23.69781, "lon": 121.509062, "intensity": 0.8, "source": "Tagesschau"}, {"title": "Kinder zum Essen gezwungen? Kita-Mitarbeiterin geht in Berufung", "url": "https://www.tagesschau.de/inland/regional/niedersachsen/ndr-kinder-zum-essen-gezwungen-kita-mitarbeiterin-geht-in-berufung-100.html", "thumbnailUrl": "https://images.tagesschau.de/image/f6d7fbc7-5d4a-42b0-b7db-f609f53e5969/AAABjqKS5eg/AAABjcWesUg/16x9-512.jpg", "date": "2024-04-03T08:04:00.000+02:00", "lat": 51.5414, "lon": 9.8867, "intensity": 0.6, "source": "Tagesschau"}, {"title": "Weiter viel Kritik an Pl\u00e4nen f\u00fcr autoarmes Ottensen ", "url": "https://www.tagesschau.de/inland/regional/hamburg/ndr-weiter-viel-kritik-an-plaenen-fuer-autoarmes-ottensen-100.html", "thumbnailUrl": "https://images.tagesschau.de/image/ea050f7f-eaef-48b0-b274-367f27b29c51/AAABjqKSveA/AAABjcWesUg/16x9-512.jpg", "date": "2024-04-03T08:02:00.000+02:00", "lat": 53.5511, "lon": 9.9372, "intensity": 0.6, "source": "Tagesschau"}, {"title": "BDI-Pr\u00e4sident kritisiert Kanzler Scholz scharf", "url": "https://www.tagesschau.de/wirtschaft/konjunktur/kritik-bdi-regierung-100.html", "thumbnailUrl": "https://images.tagesschau.de/image/4ecc6647-a7a6-4461-b8e2-c68c37883baf/AAABjqKJKlo/AAABjcWesUg/16x9-512.jpg", "date": "2024-04-03T07:58:02.325+02:00", "lat": 53.5511, "lon": 9.9937, "intensity": 0.7, "source": "Tagesschau"}, {"title": "Unbekannte legen N\u00e4gel vor Rettungszufahrt am St\u00f6ffel-Park aus", "url": "https://www.tagesschau.de/inland/regional/rheinlandpfalz/swr-unbekannte-legen-naegel-vor-rettungszufahrt-am-stoeffel-park-aus-100.html", "thumbnailUrl": "https://images.tagesschau.de/image/3459fb19-b3ba-4b82-a863-23fd14414867/AAABjqLD3gU/AAABjcWesUg/16x9-512.jpg", "date": "2024-04-03T07:55:46.000+02:00", "lat": 50.6674, "lon": 7.9156, "intensity": 0.6, "source": "Tagesschau"}, {"title": "Tochter Quecksilber gespritzt? Lange Haftstrafe f\u00fcr Vater gefordert", "url": "https://www.tagesschau.de/inland/regional/niedersachsen/ndr-tochter-quecksilber-gespritzt-lange-haftstrafe-fuer-vater-gefordert-100.html", "thumbnailUrl": "https://images.tagesschau.de/image/2a555426-4b6c-46c4-b031-d2d5fc04c14f/AAABjqKuRfw/AAABjcWesUg/16x9-512.jpg", "date": "2024-04-03T07:54:00.000+02:00", "lat": 52.3759, "lon": 9.7332, "intensity": 0.8, "source": "Tagesschau"}, {"title": "Geht dem deutschen Aktienmarkt die Puste aus?", "url": "https://www.tagesschau.de/wirtschaft/finanzen/marktberichte/marktbericht-dax-dow-jones-boerse-aktien-100.html", "thumbnailUrl": "https://images.tagesschau.de/image/f3dd9fdb-76a5-4e84-bb9e-64b12a39e641/AAABjqKH-Yc/AAABjcWesUg/16x9-512.jpg", "date": "2024-04-03T07:53:42.037+02:00", "lat": 51.226, "lon": 10.412, "intensity": 0.6, "source": "Tagesschau"}, {"title": "Postbankbesch\u00e4ftigte heute zu Streiks aufgerufen", "url": "https://www.tagesschau.de/inland/regional/saarland/sr-verdi-ruft-postbankbeschaeftigte-erneut-zu-streiks-auf-100.html", "thumbnailUrl": "https://images.tagesschau.de/image/18eb5b36-c5eb-424c-b3bc-0d77131dd0a7/AAABjp4fZsQ/AAABjcWesUg/16x9-512.jpg", "date": "2024-04-03T07:50:00.000+02:00", "lat": 49.2354, "lon": 6.9815, "intensity": 0.8, "source": "Tagesschau"}, {"title": "Unbekannte bewerfen NordWestBahn mit Stein und Glasflasche", "url": "https://www.tagesschau.de/inland/regional/niedersachsen/ndr-unbekannte-bewerfen-nordwestbahn-mit-stein-und-glasflasche-100.html", "thumbnailUrl": "https://images.tagesschau.de/image/89c7a875-b64c-47da-bee0-8df2a596aeb6/AAABjqKF8l4/AAABjcWesUg/16x9-512.jpg", "date": "2024-04-03T07:48:00.000+02:00", "lat": 52.2796, "lon": 8.2275, "intensity": 0.7, "source": "Tagesschau"}, {"title": "Anteil der \u00fcber 80-J\u00e4hrigen w\u00e4chst", "url": "https://www.tagesschau.de/inland/regional/berlin/rbb-anteil-der-ueber-80-jaehrigen-waechst-100.html", "thumbnailUrl": "https://images.tagesschau.de/image/b0c6744f-ffbb-414f-8832-bcff006ab93f/AAABjqKD5Hs/AAABjcWesUg/16x9-512.jpg", "date": "2024-04-03T07:47:27.000+02:00", "lat": 52.520008, "lon": 13.404954, "intensity": 0.6, "source": "Tagesschau"}, {"title": "Litauens Angst vor Putin", "url": "https://www.tagesschau.de/ausland/europa/podcast-11km-litauen-russland-100.html", "thumbnailUrl": "https://images.tagesschau.de/image/499d663f-437f-4dc5-90de-2ab19a80aa0a/AAABjqIopOI/AAABjcWesUg/16x9-512.jpg", "date": "2024-04-03T07:46:35.489+02:00", "lat": 54.6872, "lon": 25.2797, "intensity": 0.8, "source": "Tagesschau"}, {"title": "\"Unglaubliche Reise mit unfassbar beschissenem Ende\"", "url": "https://www.tagesschau.de/inland/regional/saarland/sr-unglaubliche-reise-mit-unfassbar-beschissenem-ende-102.html", "thumbnailUrl": "https://images.tagesschau.de/image/881e04f2-eee8-438a-ad2b-8ed476dc6523/AAABjqKtxW8/AAABjcWesUg/16x9-512.jpg", "date": "2024-04-03T07:43:00.000+02:00", "lat": 49.2367, "lon": 6.9684, "intensity": 0.8, "source": "Tagesschau"}, {"title": "Erneut Weltkriegsbombe in Berlin-Schmargendorf gefunden - Entsch\u00e4rfung am Mittwoch oder Donnerstag", "url": "https://www.tagesschau.de/inland/regional/berlin/rbb-medienberichte-erneut-weltkriegsbombe-in-schmargendorf-gefunden-100.html", "thumbnailUrl": "https://images.tagesschau.de/image/c1c23bfd-eb63-49ba-a4c7-cc37453d0fa2/AAABjqJxvDM/AAABjcWesUg/16x9-512.jpg", "date": "2024-04-03T07:29:52.000+02:00", "lat": 52.4699, "lon": 13.2854, "intensity": 0.8, "source": "Tagesschau"}, {"title": "Hessen am Morgen: +++ T\u00f6dlicher Lkw-Unfall auf A7 bei Kassel +++ Lkw-Brand auf A7 - langer Stau +++ Bombenfund in Wiesbaden-Biebrich - Evakuierung am Morgen +++", "url": "https://www.tagesschau.de/inland/regional/hessen/hr-hessen-am-morgen--bombenfund-in-wiesbaden-biebrich-evakuierung-am-morgen-100.html", "thumbnailUrl": "https://images.tagesschau.de/image/90cc87e6-6596-4cd4-a4ef-f1572ddc480b/AAABjqKmnnQ/AAABjcWesUg/16x9-512.jpg", "date": "2024-04-03T07:19:30.390+02:00", "lat": 51.3126, "lon": 9.4952, "intensity": 0.8, "source": "Tagesschau"}, {"title": "Traktor kippt um: 14 Tonnen Getreide auf Landstra\u00dfe", "url": "https://www.tagesschau.de/inland/regional/niedersachsen/ndr-traktor-kippt-um-14-tonnen-getreide-auf-landstrasse-100.html", "thumbnailUrl": "https://images.tagesschau.de/image/cb324d2f-66a2-4622-83f9-5fe8c1cb63bc/AAABjqLAkkY/AAABjcWesUg/16x9-512.jpg", "date": "2024-04-03T07:07:00.000+02:00", "lat": 52.7784, "lon": 8.3803, "intensity": 0.7, "source": "Tagesschau"}, {"title": "Bombe in Wiesbaden-Biebrich: 10.000 Anwohner von Evakuierung betroffen", "url": "https://www.tagesschau.de/inland/regional/hessen/hr-500-kilo-bombe-in-wiesbaden-biebrich-gefunden-10-000-anwohner-betroffen-100.html", "thumbnailUrl": "https://images.tagesschau.de/image/422f2409-7854-4f80-bcc4-80c7f6d922cb/AAABjqJ6w30/AAABjcWesUg/16x9-512.jpg", "date": "2024-04-03T07:00:23.335+02:00", "lat": 50.0408, "lon": 8.2087, "intensity": 0.8, "source": "Tagesschau"}, {"title": "Alarm in Chemiebetrieb: Feuerwehr r\u00fcckt in Schutzanz\u00fcgen vor", "url": "https://www.tagesschau.de/inland/regional/niedersachsen/ndr-alarm-in-chemiebetrieb-feuerwehr-rueckt-in-schutzanzuegen-vor-100.html", "thumbnailUrl": "https://images.tagesschau.de/image/993a6e2a-0883-42ca-b21b-0eb5e7ea1578/AAABjqKb_Ig/AAABjcWesUg/16x9-512.jpg", "date": "2024-04-03T06:58:00.000+02:00", "lat": 53.10904, "lon": 8.890938, "intensity": 0.7, "source": "Tagesschau"}, {"title": "Frachter aus Russland in Rostock festgesetzt", "url": "https://www.tagesschau.de/inland/regional/mecklenburgvorpommern/frachter-rostock-festgesetzt-100.html", "thumbnailUrl": "https://images.tagesschau.de/image/a39e991a-ed1a-4a68-b2ce-e7d32fcde83a/AAABjp-YoLM/AAABjcWesUg/16x9-512.jpg", "date": "2024-04-03T06:46:00.000+02:00", "lat": 54.083, "lon": 12.099, "intensity": 0.6, "source": "Tagesschau"}, {"title": "Auto f\u00e4hrt in Magdeburger Caf\u00e9 \u2013 mehrere Verletzte", "url": "https://www.tagesschau.de/inland/regional/sachsenanhalt/mdr-auto-faehrt-in-magdeburger-caf--mehrere-verletzte-100.html", "thumbnailUrl": "https://images.tagesschau.de/image/11bd4b3c-b0eb-49e7-a1fb-c0e65fa618c1/AAABjqJD_hw/AAABjcWesUg/16x9-512.jpg", "date": "2024-04-03T06:40:33.000+02:00", "lat": 52.1285, "lon": 11.6276, "intensity": 0.8, "source": "Tagesschau"}, {"title": "Gasleitung wird bei Bauarbeiten in Hamburg besch\u00e4digt", "url": "https://www.tagesschau.de/inland/regional/hamburg/ndr-gasleitung-wird-bei-bauarbeiten-beschaedigt-100.html", "thumbnailUrl": "https://images.tagesschau.de/image/2c1f749d-f6d5-4497-8af0-c5bbe15ae0d3/AAABjqJsTmA/AAABjcWesUg/16x9-512.jpg", "date": "2024-04-03T06:36:00.000+02:00", "lat": 53.6336, "lon": 9.9392, "intensity": 0.7, "source": "Tagesschau"}, {"title": "Stra\u00dfenbahnen der BSAG fahren wieder nach Plan \u2013 Busse aber nicht", "url": "https://www.tagesschau.de/inland/regional/bremen/rb-strassenbahnen-der-bsag-fahren-wieder-nach-plan--busse-aber-nicht-102.html", "thumbnailUrl": "https://images.tagesschau.de/image/851224ce-a6e9-4231-b99d-6623a6a4913d/AAABjqI1CuI/AAABjcWesUg/16x9-512.jpg", "date": "2024-04-03T06:24:00.000+02:00", "lat": 53.0793, "lon": 8.8017, "intensity": 0.6, "source": "Tagesschau"}, {"title": "Hochbegabte im Job: Schlauer als der Boss", "url": "https://www.tagesschau.de/inland/regional/brandenburg/rbb-hochbegabte-im-job-schlauer-als-der-boss-100.html", "thumbnailUrl": "https://images.tagesschau.de/image/4f8284f4-7030-488b-b082-d1d0c0f77459/AAABjqIv0-A/AAABjcWesUg/16x9-512.jpg", "date": "2024-04-03T06:15:00.000+02:00", "lat": 52.52, "lon": 13.405, "intensity": 0.7, "source": "Tagesschau"}, {"title": "Mediziner abgesprungen: B\u00fchlertal wieder ohne \u00e4rztliche Versorgung", "url": "https://www.tagesschau.de/inland/regional/badenwuerttemberg/swr-mediziner-abgesprungen-buehlertal-wieder-ohne-aerztliche-versorgung-100.html", "thumbnailUrl": "https://images.tagesschau.de/image/a01fc478-fe32-40b1-8616-3248a043537d/AAABjqK1H9k/AAABjcWesUg/16x9-512.jpg", "date": "2024-04-03T06:14:13.000+02:00", "lat": 49.2611, "lon": 9.7272, "intensity": 0.8, "source": "Tagesschau"}, {"title": "Neuer Stopp in Brunsb\u00fcttel: \u00dcber Hamburg und Cuxhaven nach Helgoland", "url": "https://www.tagesschau.de/inland/regional/niedersachsen/ndr-neuer-stopp-in-brunsbuettel-ueber-hamburg-und-cuxhaven-nach-helgoland-100.html", "thumbnailUrl": "https://images.tagesschau.de/image/cbd452e2-f3f2-457d-8cf0-16dc1612afe0/AAABjqI3KY0/AAABjcWesUg/16x9-512.jpg", "date": "2024-04-03T06:13:00.000+02:00", "lat": 53.8948, "lon": 9.1192, "intensity": 0.7, "source": "Tagesschau"}, {"title": "Nutzen Islamisten in Hamburg den Ramadan f\u00fcr ihre Ideologien?", "url": "https://www.tagesschau.de/inland/regional/hamburg/ndr-nutzen-islamisten-in-hamburg-den-ramadan-fuer-ihre-ideologien-100.html", "thumbnailUrl": "https://images.tagesschau.de/image/efbbfc7f-f651-4a35-8a37-075fa4eee533/AAABjp6Ay5E/AAABjcWesUg/16x9-512.jpg", "date": "2024-04-03T06:11:00.000+02:00", "lat": 53.5511, "lon": 9.9937, "intensity": 0.8, "source": "Tagesschau"}, {"title": "Freilichtmuseum am Kiekeberg pflanzt \"Apfel des Jahres\" 2024", "url": "https://www.tagesschau.de/inland/regional/niedersachsen/ndr-freilichtmuseum-am-kiekeberg-pflanzt-100.html", "thumbnailUrl": "https://images.tagesschau.de/image/43ee7790-46a3-4b22-9653-aa77645e4484/AAABjqI3Rb0/AAABjcWesUg/16x9-512.jpg", "date": "2024-04-03T06:10:00.000+02:00", "lat": 53.3777, "lon": 9.8442, "intensity": 0.3, "source": "Tagesschau"}, {"title": "R\u00fcgener LNG-Terminal: Regelbetrieb soll genehmigt werden", "url": "https://www.tagesschau.de/inland/regional/mecklenburgvorpommern/ndr-ruegener-lng-terminal-regelbetrieb-soll-genehmigt-werden-100.html", "thumbnailUrl": "https://images.tagesschau.de/image/97dbb740-273b-48bd-9e7b-189feead52e6/AAABjqIoLaE/AAABjcWesUg/16x9-512.jpg", "date": "2024-04-03T06:09:00.000+02:00", "lat": 54.383, "lon": 13.468, "intensity": 0.5, "source": "Tagesschau"}, {"title": "Schwesigs SPD-Ostergru\u00df an Schweriner Kita-Kinder \"unanst\u00e4ndig\"?", "url": "https://www.tagesschau.de/inland/regional/mecklenburgvorpommern/ndr-schwesigs-spd-ostergruss-an-schweriner-kita-kinder-unanstaendig-100.html", "thumbnailUrl": "https://images.tagesschau.de/image/ccb31d2d-8404-4e91-a40d-e8ca3339e8af/AAABjqIoXCU/AAABjcWesUg/16x9-512.jpg", "date": "2024-04-03T06:09:00.000+02:00", "lat": 53.6297, "lon": 11.4075, "intensity": 0.6, "source": "Tagesschau"}, {"title": "Hochbegabung bei Kindern - Wie Eltern das erkennen k\u00f6nnen", "url": "https://www.tagesschau.de/inland/regional/nordrheinwestfalen/wdr-hochbegabung-bei-kindern-wie-eltern-das-erkennen-koennen-100.html", "thumbnailUrl": "https://images.tagesschau.de/image/3cc9212e-3267-467b-b7d4-3626a3c4fda2/AAABjqIxRjw/AAABjcWesUg/16x9-512.jpg", "date": "2024-04-03T06:00:00.000+02:00", "lat": 51.9607, "lon": 7.6261, "intensity": 0.3, "source": "Tagesschau"}, {"title": "Noch immer kein Strom f\u00fcr K\u00f6lner Blitzer", "url": "https://www.tagesschau.de/inland/regional/nordrheinwestfalen/wdr-noch-immer-kein-strom-fuer-koelner-blitzer-100.html", "thumbnailUrl": "https://images.tagesschau.de/image/0e13ac23-59f6-4f77-ae7e-7be38ad64d8b/AAABjqIxWqk/AAABjcWesUg/16x9-512.jpg", "date": "2024-04-03T06:00:00.000+02:00", "lat": 50.9469, "lon": 6.9694, "intensity": 0.4, "source": "Tagesschau"}, {"title": "Industrialisierung an der Westk\u00fcste: Die gr\u00fcne Zukunft?", "url": "https://www.tagesschau.de/inland/regional/schleswigholstein/ndr-industrialisierung-an-der-westkueste-die-gruene-zukunft-100.html", "thumbnailUrl": "https://images.tagesschau.de/image/a88cdc73-5ee9-432a-becd-e49666c51690/AAABjqHmn_Y/AAABjcWesUg/16x9-512.jpg", "date": "2024-04-03T05:00:00.000+02:00", "lat": 54.2194, "lon": 9.6963, "intensity": 0.6, "source": "Tagesschau"}, {"title": "Israelische Armee gesteht \"schweren Fehler\" ein", "url": "https://www.tagesschau.de/ausland/asien/netanyahu-wck-angriff-102.html", "thumbnailUrl": "https://images.tagesschau.de/image/e69bdd78-75d7-417a-8e6f-25ece38e6959/AAABjqFmVNE/AAABjcWesUg/16x9-512.jpg", "date": "2024-04-03T03:00:15.403+02:00", "lat": 31.51, "lon": 34.3449, "intensity": 0.8, "source": "Tagesschau"}, {"title": "DFB-Pokal: Mehr Zuschauer beim Public Viewing des FCK als in Saarbr\u00fccken im Stadion", "url": "https://www.tagesschau.de/inland/regional/rheinlandpfalz/swr-dfb-pokal-mehr-zuschauer-beim-public-viewing-des-fck-als-in-saarbruecken-102.html", "thumbnailUrl": "https://images.tagesschau.de/image/4fa2ac47-22e6-4118-b631-7bb1fd1ef3f5/AAABjqJg_xw/AAABjcWesUg/16x9-512.jpg", "date": "2024-04-03T02:44:00.000+02:00", "lat": 49.758076, "lon": 7.28134, "intensity": 0.7, "source": "Tagesschau"}, {"title": "\"Der Fu\u00dfball schreibt die sch\u00f6nsten Geschichten\" - Der FCK steht im DFB-Pokalfinale", "url": "https://www.tagesschau.de/inland/regional/rheinlandpfalz/swr-der-fussball-schreibt-die-schoensten-geschichten-der-fck-steht-im-dfb-pokalfinale-102.html", "thumbnailUrl": "https://images.tagesschau.de/image/d95c31d1-481b-48a6-bb3e-7dcb57596c75/AAABjqJg_SE/AAABjcWesUg/16x9-512.jpg", "date": "2024-04-03T01:06:14.000+02:00", "lat": 49.4444, "lon": 7.7551, "intensity": 0.7, "source": "Tagesschau"}, {"title": "Sozialverb\u00e4nde unterst\u00fctzen neue Stellen f\u00fcr Kindergrundsicherung", "url": "https://www.br.de/nachrichten/meldungen/index.html#n1", "thumbnailUrl": null, "date": "2024-04-03T09:01:38+02:00", "lat": 30.0444, "lon": 31.2357, "intensity": 0.8, "source": "Bayrischer Rundfunk"}, {"title": "BDI-Chef macht Scholz f\u00fcr langsames Wachstum mitverantwortlich", "url": "https://www.br.de/nachrichten/meldungen/index.html#n2", "thumbnailUrl": null, "date": "2024-04-03T09:01:38+02:00", "lat": 33.5138, "lon": 36.2021, "intensity": 0.8, "source": "Bayrischer Rundfunk"}, {"title": "BA-Chefin: Vermittlung in den n\u00e4chstbesten Job ist nicht immer sinnvoll", "url": "https://www.br.de/nachrichten/meldungen/index.html#n3", "thumbnailUrl": null, "date": "2024-04-03T09:01:38+02:00", "lat": 39.9334, "lon": 32.8597, "intensity": 0.8, "source": "Bayrischer Rundfunk"}, {"title": "Druck auf Israel nach Tod von Gaza-Helfern w\u00e4chst", "url": "https://www.br.de/nachrichten/meldungen/index.html#n4", "thumbnailUrl": null, "date": "2024-04-03T09:01:38+02:00", "lat": 52.520008, "lon": 13.404954, "intensity": 0.7, "source": "Bayrischer Rundfunk"}, {"title": "Mehrere Menschen sterben bei Erdbeben in Taiwan", "url": "https://www.br.de/nachrichten/meldungen/index.html#n5", "thumbnailUrl": null, "date": "2024-04-03T09:01:38+02:00", "lat": 52.520008, "lon": 13.404954, "intensity": 0.6, "source": "Bayrischer Rundfunk"}, {"title": "Stoltenberg schl\u00e4gt 100-Milliarden-Euro-Paket f\u00fcr Ukraine vor", "url": "https://www.br.de/nachrichten/meldungen/index.html#n6", "thumbnailUrl": null, "date": "2024-04-03T09:01:38+02:00", "lat": 48.135125, "lon": 11.581981, "intensity": 0.6, "source": "Bayrischer Rundfunk"}, {"title": "US-Musiker klagen gegen den Einsatz von KI in der Branche", "url": "https://www.br.de/nachrichten/meldungen/index.html#n7", "thumbnailUrl": null, "date": "2024-04-03T09:01:38+02:00", "lat": 50.110922, "lon": 8.682127, "intensity": 0.8, "source": "Bayrischer Rundfunk"}, {"title": "\"Ultravox\"-Bassist Chris Cross ist tot", "url": "https://www.br.de/nachrichten/meldungen/index.html#n8", "thumbnailUrl": null, "date": "2024-04-03T09:01:38+02:00", "lat": 47.8684, "lon": 12.6394, "intensity": 0.8, "source": "Bayrischer Rundfunk"}, {"title": "Kaiserslautern zieht ins DFB-Pokal Finale ein", "url": "https://www.br.de/nachrichten/meldungen/index.html#n9", "thumbnailUrl": null, "date": "2024-04-03T09:01:38+02:00", "lat": 48.5844, "lon": 13.6722, "intensity": 0.8, "source": "Bayrischer Rundfunk"}, {"title": "Das Wetter: anfangs freundlich, sp\u00e4ter Regen von Westen", "url": "https://www.br.de/nachrichten/meldungen/index.html#n10", "thumbnailUrl": null, "date": "2024-04-03T09:01:38+02:00", "lat": 53.5396, "lon": 8.5761, "intensity": 0.4, "source": "Bayrischer Rundfunk"}, {"title": "W\u00f6lfe: Brandenburger J\u00e4ger dr\u00e4ngen auf baldige Einf\u00fchrung von Schnellabsch\u00fcssen", "url": "https://www.rbb24.de/panorama/beitrag/2024/04/jaeger-fordern-zuegige-regelung-fuer-schnellabschuesse-von-woelf.html", "thumbnailUrl": null, "date": "Wed, 03 Apr 2024 08:44:58 +0200", "lat": 52.5131, "lon": 13.4803, "intensity": 0.7, "source": "RBB"}, {"title": "Corona-Sp\u00e4tfolgen: Berliner Clubs k\u00e4mpfen mit finanziellen Schwierigkeiten", "url": "https://www.rbb24.de/wirtschaft/beitrag/2024/04/berlin-club-sommer-betreiber-finanzen-probleme-clubcommission.html", "thumbnailUrl": null, "date": "Wed, 03 Apr 2024 07:43:49 +0200", "lat": 52.52, "lon": 13.4066, "intensity": 0.8, "source": "RBB"}, {"title": "Erneut Weltkriegsbombe in Berlin-Schmargendorf gefunden - Entsch\u00e4rfung am Mittwoch oder Donnerstag", "url": "https://www.rbb24.de/panorama/beitrag/2024/04/berlin-schmargendorf-erneut-weltkriegsbombe-gefunden.html", "thumbnailUrl": null, "date": "Wed, 03 Apr 2024 07:29:00 +0200", "lat": 52.4773, "lon": 13.2889, "intensity": 0.8, "source": "RBB"}, {"title": "Sanierung: DB-Reisezentrum im Berliner Hauptbahnhof zieht vor\u00fcbergehend um", "url": "https://www.rbb24.de/wirtschaft/beitrag/2024/04/berlin-hauptbahnhof-db-reisezentrum-zieht-um.html", "thumbnailUrl": null, "date": "Wed, 03 Apr 2024 06:34:00 +0200", "lat": 52.525, "lon": 13.369, "intensity": 0.5, "source": "RBB"}, {"title": "Sieg gegen Schaffhausen: F\u00fcchse ziehen souver\u00e4n ins Viertelfinale der European League ein", "url": "https://www.rbb24.de/sport/beitrag/2024/04/berlin-sport-handball-european-league-playoff-rueckspiel-fuechse-schaffhausen-spielbericht.html", "thumbnailUrl": null, "date": "Tue, 02 Apr 2024 22:22:53 +0200", "lat": 47.706, "lon": 8.571, "intensity": 0.6, "source": "RBB"}, {"title": "Video | Neues Format: Aus rbbKultur wird radio3", "url": "https://www.rbb24.de/panorama/beitrag/av7/video-berlin-brandenburg-rbbkultur-wird-zu-radio3-umbenennung-programmaenderung-rbb.html", "thumbnailUrl": null, "date": "Tue, 02 Apr 2024 21:33:14 +0200", "lat": 52.520008, "lon": 13.404954, "intensity": 0.5, "source": "RBB"}, {"title": "Osterfeiertage: Fast 10.000 Besucher beim Anbaden im Strandbad Wannsee", "url": "https://www.rbb24.de/panorama/beitrag/2024/04/anbaden-strandbad-berlin-wannsee-10000-besucher-ostern.html", "thumbnailUrl": null, "date": "Tue, 02 Apr 2024 21:01:00 +0200", "lat": 52.4372, "lon": 13.1848, "intensity": 0.7, "source": "RBB"}, {"title": "Tesla macht Brandanschlag in Gr\u00fcnheide f\u00fcr Absatzr\u00fcckgang mitverantwortlich", "url": "https://www.rbb24.de/wirtschaft/beitrag/2024/04/tesla-absatz-sinkt-acht-prozent-musk-gruenheide-brandanschlag.html", "thumbnailUrl": null, "date": "Tue, 02 Apr 2024 19:21:00 +0200", "lat": 52.3791, "lon": 13.7534, "intensity": 0.8, "source": "RBB"}, {"title": "Agrarpolitik in Brandenburg: Ostdeutsche Landwirte fordern Verkauf von bundeseigenen Agrarfl\u00e4chen", "url": "https://www.rbb24.de/wirtschaft/beitrag/2024/04/ostdeutsche-bauern-fordern-von-bund-weiteren-verkauf-flaechen.html", "thumbnailUrl": null, "date": "Tue, 02 Apr 2024 18:16:00 +0200", "lat": 52.4125, "lon": 13.6416, "intensity": 0.7, "source": "RBB"}, {"title": "Ammoniak auf Firmengel\u00e4nde in Berlin-Bohnsdorf ausgetreten", "url": "https://www.rbb24.de/panorama/beitrag/2024/04/ammoniak-austritt-bohnsdorf-feuerwehr-einsatz.html", "thumbnailUrl": null, "date": "Tue, 02 Apr 2024 17:47:25 +0200", "lat": 52.3787, "lon": 13.5786, "intensity": 0.7, "source": "RBB"}, {"title": "Brandenburger Polizei z\u00e4hlt 60 Prozent mehr Betrugsf\u00e4lle mit \"Enkeltrick\"", "url": "https://www.rbb24.de/panorama/beitrag/2024/04/enkeltrick-faelle-brandenburg-polizei-betrug-telefon-senioren.html", "thumbnailUrl": null, "date": "Tue, 02 Apr 2024 17:35:00 +0200", "lat": 52.405476, "lon": 13.249043, "intensity": 0.7, "source": "RBB"}, {"title": "\u00d6kolandbau in Brandenburg w\u00e4chst", "url": "https://www.rbb24.de/wirtschaft/beitrag/2024/04/oekolandbau-brandenburg-wachstum-bio-bio-produkte-axel-vogel.html", "thumbnailUrl": null, "date": "Tue, 02 Apr 2024 17:08:00 +0200", "lat": 52.4125, "lon": 13.9001, "intensity": 0.6, "source": "RBB"}, {"title": "W\u00e4rmster M\u00e4rz in Berlin und Brandenburg seit Beginn der Aufzeichnungen", "url": "https://www.rbb24.de/panorama/beitrag/2024/04/brandenburg-cottbus-temperatur-rekord-maerz-klitzschen-dwd.html", "thumbnailUrl": null, "date": "Tue, 02 Apr 2024 16:55:00 +0200", "lat": 51.756, "lon": 14.3333, "intensity": 0.6, "source": "RBB"}, {"title": "Gericht er\u00f6ffnet Insolvenzverfahren f\u00fcr Galeria Karstadt Kaufhof", "url": "https://www.rbb24.de/wirtschaft/beitrag/2024/04/berlin-brandenburg-amtsgericht-essen-insolvenzverfahren-warenhauskonzern-galeria-karstadt-kaufhof.html", "thumbnailUrl": null, "date": "Tue, 02 Apr 2024 16:38:56 +0200", "lat": 51.4556, "lon": 7.0131, "intensity": 0.8, "source": "RBB"}, {"title": "Eisb\u00e4ren, Volleys, Alba und SCP: So pr\u00e4sentieren sich die Top-Teams derzeit in den Playoffs", "url": "https://www.rbb24.de/sport/beitrag/2024/04/playoffs-ueberblick-teams-alba-sc-potsdam-eisbaeren-volleys.html", "thumbnailUrl": null, "date": "Tue, 02 Apr 2024 16:29:20 +0200", "lat": 52.52, "lon": 13.405, "intensity": 0.5, "source": "RBB"}, {"title": "Mitgliederbefragung: Berliner SPD verschickt Wahlunterlagen f\u00fcr k\u00fcnftigen Parteivorsitz", "url": "https://www.rbb24.de/politik/beitrag/2024/04/berlin-spd-mitgliederbefragung-briefwahl-saleh-parteivorsitz.html", "thumbnailUrl": null, "date": "Tue, 02 Apr 2024 16:27:00 +0200", "lat": 52.520008, "lon": 13.404954, "intensity": 0.6, "source": "RBB"}, {"title": "Burg im Spreewald: 22-J\u00e4hriger von Vermummtem attackiert - Sch\u00e4delbruch", "url": "https://www.rbb24.de/panorama/beitrag/2024/04/brandenburg-mueschen-burg-angriff-osterfeuer-auf-mann-schaedelbruch-polizei.html", "thumbnailUrl": null, "date": "Tue, 02 Apr 2024 15:11:00 +0200", "lat": 52.033, "lon": 14.065, "intensity": 0.8, "source": "RBB"}, {"title": "Staus zum Ende der Osterferien am Wochenende erwartet", "url": "https://www.rbb24.de/panorama/beitrag/2024/04/stau-ostern-adac-berlin-brandenburg-verkehr-autobahn-auto.html", "thumbnailUrl": null, "date": "Tue, 02 Apr 2024 14:20:07 +0200", "lat": 51.5143, "lon": 9.9937, "intensity": 0.3, "source": "RBB"}, {"title": "Verkehr in Berlin und Brandenburg: Kreisverkehr am Gro\u00dfen Stern gesperrt - Einschr\u00e4nkungen auch bei der Bahn", "url": "https://www.rbb24.de/panorama/beitrag/2024/04/berlin-brandenburg-verkehr-einschraenkungen-grosser-stern-ampelanlage-kraneinsatz-tiefbauarbeiten-re1-bahn-a100.html", "thumbnailUrl": null, "date": "Tue, 02 Apr 2024 13:53:03 +0200", "lat": 52.517, "lon": 13.3696, "intensity": 0.6, "source": "RBB"}, {"title": "Identit\u00e4t aller Todesopfer von Busunfall auf A9 gekl\u00e4rt", "url": "https://www.rbb24.de/panorama/beitrag/2024/04/busunfall-a9-flixbus-todesopfer-leipzig-busfahrer-unfall.html", "thumbnailUrl": null, "date": "Tue, 02 Apr 2024 13:46:00 +0200", "lat": 51.3401, "lon": 12.3926, "intensity": 1, "source": "RBB"}, {"title": "Kommunalwahlen 2024: Brandenburg w\u00e4hlt mehr als 10.000 Kommunalpolitiker:innen", "url": "https://www.rbb24.de/politik/wahl/kommunalwahlen/2024/brandenburg-buergermeister-kreistage-stadtverordnete-gemeinden-ortsbeiraete.html", "thumbnailUrl": null, "date": "Tue, 02 Apr 2024 13:26:27 +0200", "lat": 52.6367, "lon": 13.7373, "intensity": 0.5, "source": "RBB"}, {"title": "Auf der Flucht Waffen und Munition aus Fahrzeug geworfen", "url": "https://www.rbb24.de/panorama/beitrag/2024/04/auto-schnell-berlin-kontrolle-polizei-waffen-aus-fenster.html", "thumbnailUrl": null, "date": "Tue, 02 Apr 2024 13:18:37 +0200", "lat": 41.8902, "lon": 12.4924, "intensity": 0.6, "source": "RBB"}, {"title": "\"Reichsb\u00fcrger\"-Netzwerk: Prozess gegen Malsack-Winkemann und acht weitere Angeklagte startet im Mai", "url": "https://www.rbb24.de/panorama/beitrag/2024/04/prozess-reichsbrger-frankfurt-verfahren-berliner-richterin-malsack-winkemann.html", "thumbnailUrl": null, "date": "Tue, 02 Apr 2024 12:32:00 +0200", "lat": 50.1109, "lon": 8.6821, "intensity": 0.8, "source": "RBB"}, {"title": "Trotz Warnstreiks bei Lidl und Kaufland in Berlin und Brandenburg sind keine Filialschlie\u00dfungen zu erwarten", "url": "https://www.rbb24.de/wirtschaft/beitrag/2024/04/warnstreik-kaufland-lidl-verdi-tarifstreit-lohn-luebbenau.html", "thumbnailUrl": null, "date": "Tue, 02 Apr 2024 12:29:00 +0200", "lat": 52.520008, "lon": 13.404954, "intensity": 0.7, "source": "RBB"}, {"title": "Bob-Bahn am Marzahner Kienberg wird nach Brandstiftung wieder aufgebaut", "url": "https://www.rbb24.de/panorama/beitrag/2024/04/bobbahn-rodelbahn-gaerten-der-welt-kienberg-marzahn.html", "thumbnailUrl": null, "date": "Tue, 02 Apr 2024 10:42:00 +0200", "lat": 52.5407, "lon": 13.6298, "intensity": 0.8, "source": "RBB"}, {"title": "Barnim: Motorradfahrer stirbt bei Verkehrsunfall in Joachimsthal", "url": "https://www.rbb24.de/panorama/beitrag/2024/04/motorrad-fahrer-tot-verkehr-unfall-joachimsthal-barnim-brandenburg.html", "thumbnailUrl": null, "date": "Tue, 02 Apr 2024 10:27:16 +0200", "lat": 52.9821, "lon": 13.7858, "intensity": 0.8, "source": "RBB"}, {"title": "Martin Matz: Berliner SPD-Innenexperte erwartet kaum Probleme durch Cannabis-Teil-Legalisierung", "url": "https://www.rbb24.de/politik/beitrag/2024/04/innenexperte-spd-martin-matz-legalisierung-cannabis-wenige-probleme.html", "thumbnailUrl": null, "date": "Tue, 02 Apr 2024 10:08:00 +0200", "lat": 52.520008, "lon": 13.404954, "intensity": 0.2, "source": "RBB"}, {"title": "Berlin: Autofahrer st\u00f6\u00dft mit Motorradfahrer in Kreuzberg zusammen", "url": "https://www.rbb24.de/panorama/beitrag/2024/04/motorradfahrer-berlin-kreuzberg-auto-zusammengestossen-prinzenstrasse.html", "thumbnailUrl": null, "date": "Tue, 02 Apr 2024 08:32:30 +0200", "lat": 52.4931, "lon": 13.3986, "intensity": 0.6, "source": "RBB"}, {"title": "Gro\u00dfer Stern in Berlin-Tiergarten f\u00fcr vier Tage gesperrt", "url": "https://www.rbb24.de/panorama/beitrag/2024/03/berlin-tiergarten-grosser-stern-sperrung-neue-ampeln.html", "thumbnailUrl": null, "date": "Tue, 02 Apr 2024 06:52:00 +0200", "lat": 52.5146, "lon": 13.3503, "intensity": 0.6, "source": "RBB"}, {"title": "Landkreis Spree-Nei\u00dfe: Vier Menschen bei Verkehrsunfall in Kolkwitz schwer verletzt", "url": "https://www.rbb24.de/panorama/beitrag/2024/03/brandenburg-kolkwitz-verkehrsunfall-verletzte.html", "thumbnailUrl": null, "date": "Mon, 01 Apr 2024 14:53:24 +0200", "lat": 51.722, "lon": 14.308, "intensity": 0.8, "source": "RBB"}, {"title": "Berlin-Nikolassee: Zwei Schwerverletzte nach mutma\u00dflichem illegalen Rennen", "url": "https://www.rbb24.de/panorama/beitrag/2024/04/illegales-rennen-unfall-zehlendorf.html", "thumbnailUrl": null, "date": "Mon, 01 Apr 2024 13:47:00 +0200", "lat": 52.431, "lon": 13.2377, "intensity": 0.8, "source": "RBB"}, {"title": "Kind mit Spielzeugwaffe auf A11 l\u00f6st Polizeieinsatz aus", "url": "https://www.rbb24.de/panorama/beitrag/2024/04/polizeieinsatz-kind-spielzeugwaffe-autobahn-11-prenzlau.html", "thumbnailUrl": null, "date": "Mon, 01 Apr 2024 12:39:31 +0200", "lat": 52.518, "lon": 11.632, "intensity": 0.6, "source": "RBB"}, {"title": "Waldbrandgefahr im Brandenburger S\u00fcden steigt leicht", "url": "https://www.rbb24.de/panorama/beitrag/2024/04/suedbrandenburg-waldbrandgefahr-steigt-leicht.html", "thumbnailUrl": null, "date": "Mon, 01 Apr 2024 12:20:00 +0200", "lat": 52.5016, "lon": 13.3326, "intensity": 0.4, "source": "RBB"}, {"title": "Video: Union Berlin entf\u00fchrt einen Punkt aus Frankfurt", "url": "https://www.rbb24.de/sport/beitrag/av7/video-fussball-berlin-1-fc-union-bundesliga-eintracht-frankfurt.html", "thumbnailUrl": null, "date": "Mon, 01 Apr 2024 00:00:00 +0200", "lat": 52.457778, "lon": 13.494167, "intensity": 0.7, "source": "RBB"}, {"title": "Video: Hertha und N\u00fcrnberg trennen sich nach furiosem Spiel mit 3:3", "url": "https://www.rbb24.de/sport/beitrag/av7/video-fussball-berlin-hertha-bsc-zweite-bundesliga-1-fc-nuernberg.html", "thumbnailUrl": null, "date": "Mon, 01 Apr 2024 00:00:00 +0200", "lat": 52.52, "lon": 13.5007, "intensity": 0.8, "source": "RBB"}, {"title": "Video | Spreewald: Sorbische Ostern", "url": "https://www.rbb24.de/panorama/beitrag/av7/video-sorbisch-ostern-ostersingen-tradition.html", "thumbnailUrl": null, "date": "Sun, 31 Mar 2024 21:40:56 +0200", "lat": 51.8667, "lon": 14.0833, "intensity": 0.2, "source": "RBB"}, {"title": "Video | Baustopp: Wie es um das Bauprojekt \"Upside Berlin\" steht", "url": "https://www.rbb24.de/panorama/beitrag/av7/video-baustopp-hochhaeuser-friedrichshain-berlin.html", "thumbnailUrl": null, "date": "Fri, 29 Mar 2024 21:13:11 +0100", "lat": 52.466, "lon": 13.739, "intensity": 0.8, "source": "RBB"}, {"title": "Video | Lost Place Fotografie: Auf den Spuren der Tuberkuloseklinik Kolkwitz", "url": "https://www.rbb24.de/panorama/beitrag/av7/video-lost-place-fotografie-kunst-verborgen.html", "thumbnailUrl": null, "date": "Fri, 29 Mar 2024 20:57:05 +0100", "lat": 51.751525, "lon": 14.323335, "intensity": 0.7, "source": "RBB"}, {"title": "Video | Frankfurt-Oder: Experimentelles Ballett im Kleist Forum", "url": "https://www.rbb24.de/kultur/beitrag/av7/video-kleist-ballett-tanz-kultur-kunst.html", "thumbnailUrl": null, "date": "Fri, 29 Mar 2024 20:50:15 +0100", "lat": 52.3412, "lon": 14.5471, "intensity": 0.4, "source": "RBB"}, {"title": "Video | Teltow-Fl\u00e4ming: Wie die Evangelische Kirche mit sexualisierter Gewalt umgeht", "url": "https://www.rbb24.de/panorama/beitrag/av7/video-sexualisiert-gewalt-evangelisch-kirche-konfirmanten.html", "thumbnailUrl": null, "date": "Fri, 29 Mar 2024 20:41:17 +0100", "lat": 52.3321, "lon": 13.2457, "intensity": 0.6, "source": "RBB"}, {"title": "Signa-Immobilie KaDeWe wird verkauft - Gl\u00e4ubiger stimmen zu", "url": "https://www.rbb24.de/wirtschaft/beitrag/2024/03/signa-insolvenz-kadewe-berlin-wird-verkauft.html", "thumbnailUrl": null, "date": "Mon, 18 Mar 2024 19:19:20 +0100", "lat": 52.5072, "lon": 13.3375, "intensity": 0.8, "source": "RBB"}, {"title": "R\u00fcgener LNG-Terminal: Regelbetrieb soll genehmigt werden", "url": "https://www.ndr.de/nachrichten/mecklenburg-vorpommern/Ruegener-LNG-Terminal-Regelbetrieb-soll-genehmigt-werden,lng956.html", "thumbnailUrl": "https://www.ndr.de/nachrichten/schleswig-holstein/lng312_v-contentwidescreen.jpg", "date": "2024-04-03T06:24:00.595+02:00", "lat": 54.4183, "lon": 13.6646, "intensity": 0.8, "source": "NDR"}, {"title": "Industrialisierung an der Westk\u00fcste: Die gr\u00fcne Zukunft?", "url": "https://www.ndr.de/nachrichten/schleswig-holstein/Industrialisierung-an-der-Westkueste-Die-gruene-Zukunft,industrie188.html", "thumbnailUrl": "https://www.ndr.de/nachrichten/schleswig-holstein/brunsbuettel742_v-contentwidescreen.jpg", "date": "2024-04-03T07:18:31.477+02:00", "lat": 54.1961, "lon": 9.0945, "intensity": 0.5, "source": "NDR"}, {"title": "Temperaturrekord im Norden: M\u00e4rz deutlich zu warm und zu trocken", "url": "https://www.ndr.de/nachrichten/info/Temperaturrekord-im-Norden-Maerz-deutlich-zu-warm-und-zu-trocken,temperatur320.html", "thumbnailUrl": "https://www.ndr.de/fernsehen/sendungen/nordmagazin/bilderaktion/bilderaktionmv1074_v-contentwidescreen.jpg", "date": "2024-04-03T08:29:45.208+02:00", "lat": 53.55, "lon": 10.0, "intensity": 0.6, "source": "NDR"}, {"title": "Katamaran f\u00e4hrt ab heute von Brunsb\u00fcttel nach Helgoland", "url": "https://www.ndr.de/nachrichten/schleswig-holstein/Katamaran-faehrt-ab-heute-von-Brunsbuettel-nach-Helgoland,brunsbuettel738.html", "thumbnailUrl": "https://www.ndr.de/nachrichten/schleswig-holstein/brunsbuettel740_v-contentwidescreen.jpg", "date": "2024-04-03T07:22:24.649+02:00", "lat": 54.1796, "lon": 9.1392, "intensity": 0.4, "source": "NDR"}, {"title": "Schwesigs SPD-Ostergru\u00df an Schweriner Kita-Kinder \"unanst\u00e4ndig\"?", "url": "https://www.ndr.de/nachrichten/mecklenburg-vorpommern/Schwesigs-SPD-Ostergruss-an-Schweriner-Kita-Kinder-unanstaendig,ostergruss102.html", "thumbnailUrl": "https://www.ndr.de/nachrichten/mecklenburg-vorpommern/ostergruss104_v-contentwidescreen.jpg", "date": "2024-04-03T06:10:39.853+02:00", "lat": 53.6336, "lon": 11.4167, "intensity": 0.5, "source": "NDR"}, {"title": "Kinder zum Essen gezwungen? Kita-Mitarbeiterin geht in Berufung", "url": "https://www.ndr.de/nachrichten/niedersachsen/braunschweig_harz_goettingen/Kinder-zum-Essen-gezwungen-Kita-Mitarbeiterin-geht-in-Berufung,nesselroeden110.html", "thumbnailUrl": "https://www.ndr.de/nachrichten/niedersachsen/braunschweig_harz_goettingen/kita1574_v-contentwidescreen.jpg", "date": "2024-04-03T08:06:59.367+02:00", "lat": 51.4933, "lon": 10.1083, "intensity": 0.6, "source": "NDR"}, {"title": "Polizei ermittelt nach Fund von Bomben in Wolfsburg", "url": "https://www.ndr.de/nachrichten/niedersachsen/Polizei-ermittelt-nach-Fund-von-Bomben-in-Wolfsburg,wolfsburg19602.html", "thumbnailUrl": "https://www.ndr.de/nachrichten/schleswig-holstein/polizei6418_v-contentwidescreen.jpg", "date": "2024-04-03T08:20:49.579+02:00", "lat": 52.4226, "lon": 10.7865, "intensity": 1, "source": "NDR"}, {"title": "Gasleitung wird bei Bauarbeiten in Hamburg besch\u00e4digt", "url": "https://www.ndr.de/nachrichten/hamburg/Gasleitung-wird-bei-Bauarbeiten-in-Hamburg-beschaedigt,gasleck198.html", "thumbnailUrl": "https://www.ndr.de/blaulicht176_v-contentwidescreen.jpg", "date": "2024-04-03T07:31:31.667+02:00", "lat": 53.621, "lon": 9.9286, "intensity": 0.8, "source": "NDR"}, {"title": "Freilichtmuseum am Kiekeberg pflanzt \"Apfel des Jahres\" 2024", "url": "https://www.ndr.de/nachrichten/niedersachsen/Freilichtmuseum-am-Kiekeberg-pflanzt-Apfel-des-Jahres-2024,apfel556.html", "thumbnailUrl": "https://www.ndr.de/fernsehen/screenshot1631038_v-contentwidescreen.jpg", "date": "2024-04-03T06:17:09.219+02:00", "lat": 53.387, "lon": 9.787, "intensity": 0.2, "source": "NDR"}, {"title": "Eine Million Euro f\u00fcr die Tafeln in Schleswig-Holstein", "url": "https://www.ndr.de/nachrichten/schleswig-holstein/Eine-Million-Euro-fuer-die-Tafeln-in-Schleswig-Holstein,tafeln232.html", "thumbnailUrl": "https://www.ndr.de/nachrichten/schleswig-holstein/toure202_v-contentwidescreen.jpg", "date": "2024-04-02T17:45:59.869+02:00", "lat": 54.3233, "lon": 9.6869, "intensity": 0.8, "source": "NDR"}, {"title": "Mieten steigen in Niedersachsen: So sieht es in Ihrem Landkreis aus", "url": "https://www.ndr.de/nachrichten/niedersachsen/Mieten-steigen-in-Niedersachsen-So-ist-die-Lage-in-Ihrem-Landkreis,mietpreise128.html", "thumbnailUrl": "https://www.ndr.de/nachrichten/niedersachsen/wohnungen218_v-contentwidescreen.jpg", "date": "2024-04-03T08:43:09.411+02:00", "lat": 52.3759, "lon": 9.732, "intensity": 0.8, "source": "NDR"}, {"title": "T\u00f6dliche Sch\u00fcsse in Nienburg: Messer-Angreifer achtmal getroffen", "url": "https://www.ndr.de/nachrichten/niedersachsen/hannover_weser-leinegebiet/Toedliche-Schuesse-in-Nienburg-Messer-Angreifer-achtmal-getroffen,nienburg404.html", "thumbnailUrl": "https://www.ndr.de/nachrichten/niedersachsen/nienburg390_v-contentwidescreen.jpg", "date": "2024-04-02T22:00:44.820+02:00", "lat": 52.6365, "lon": 9.2294, "intensity": 0.8, "source": "NDR"}, {"title": "Gr\u00fcnen-Politiker: Sozialleistungen zu k\u00fcrzen ist nicht wirtschaftlich", "url": "https://www.ndr.de/nachrichten/info/sendungen/interviews/Gruenen-Politiker-Sozialleistungen-zu-kuerzen-ist-nicht-wirtschaftlich,audio1606274.html", "thumbnailUrl": "https://www.ndr.de/nachrichten/niedersachsen/kindler120_v-contentwidescreen.jpg", "date": "2024-04-03T08:26:15.945+02:00", "lat": 52.3759, "lon": 9.732, "intensity": 0.6, "source": "NDR"}, {"title": "Prora-Zentrum auf R\u00fcgen beantragt Insolvenz", "url": "https://www.ndr.de/nachrichten/info/Prora-Zentrum-auf-Ruegen-beantragt-Insolvenz-,ndrinfo58088.html", "thumbnailUrl": "https://www.ndr.de/fernsehen/screenshot1726074_v-contentwidescreen.jpg", "date": "2024-04-03T08:22:37.120+02:00", "lat": 54.3844, "lon": 13.5789, "intensity": 0.7, "source": "NDR"}, {"title": "Niedersachsen: Seepferdchen kehren in die Nordsee zur\u00fcck", "url": "https://www.ndr.de/nachrichten/info/Niedersachsen-Seepferdchen-kehren-in-die-Nordsee-zurueck,ndrinfo58080.html", "thumbnailUrl": "https://www.ndr.de/fernsehen/screenshot1726042_v-contentwidescreen.jpg", "date": "2024-04-03T08:16:51.240+02:00", "lat": 53.0736, "lon": 8.8135, "intensity": 0.6, "source": "NDR"}, {"title": "Alkoholverbot gilt nun am Hamburger Hauptbahnhof", "url": "https://www.ndr.de/fernsehen/sendungen/hamburg_journal/Alkoholverbot-gilt-nun-am-Hamburger-Hauptbahnhof,hamj145688.html", "thumbnailUrl": "https://www.ndr.de/fernsehen/screenshot1725778_v-contentwidescreen.jpg", "date": "2024-04-02T21:30:34.892+02:00", "lat": 53.552767, "lon": 9.999464, "intensity": 0.7, "source": "NDR"}, {"title": "Cannabis-Legalisierung: Fehlt es an Pr\u00e4ventionsma\u00dfnahmen?", "url": "https://www.ndr.de/nachrichten/info/Cannabis-Legalisierung-Fehlt-es-an-Praeventionsmassnahmen,ndrinfo58048.html", "thumbnailUrl": "https://www.ndr.de/fernsehen/screenshot1725582_v-contentwidescreen.jpg", "date": "2024-04-02T15:14:27.434+02:00", "lat": 53.56, "lon": 9.986, "intensity": 0.7, "source": "NDR"}, {"title": "Zahl der Straftaten in MV 2023 steigt auf Vor-Corona-Niveau", "url": "https://www.ndr.de/fernsehen/sendungen/nordmagazin/Zahl-der-Straftaten-in-MV-2023-steigt-auf-Vor-Corona-Niveau,nordmagazin116868.html", "thumbnailUrl": "https://www.ndr.de/fernsehen/screenshot1725858_v-contentwidescreen.jpg", "date": "2024-04-02T21:08:56.680+02:00", "lat": 53.6127, "lon": 12.5927, "intensity": 0.6, "source": "NDR"}, {"title": "Zweckehe statt Liebe - Warum tun wir uns mit der EU so schwer?", "url": "https://www.ndr.de/nachrichten/info/NDR-Info-Redezeit-Video-Mitschnitt-Thema-der-Sendung,ndrinforedezeit448.html", "thumbnailUrl": "https://www.ndr.de/nachrichten/info/sendungen/reden107_v-contentwidescreen.jpg", "date": "2024-04-02T22:10:09.831+02:00", "lat": 51.1657, "lon": 10.4233, "intensity": 0.2, "source": "NDR"}, {"title": "\"W\u00fcnsch Dir Deinen NDR\" - Jetzt f\u00fcr die Publikumsaktion bewerben!", "url": "https://www.ndr.de/wuensch_dir_deinen_ndr/index.html", "thumbnailUrl": "https://www.ndr.de/der_ndr/wunschprogramm131_v-contentwidescreen.jpg", "date": "2024-03-26T07:59:24.876+01:00", "lat": 53.551086, "lon": 9.993682, "intensity": 0.2, "source": "NDR"}, {"title": "Relaunch der vier NDR L\u00e4nder-Apps: Nachrichten aus Ihrer Region!", "url": "https://www.ndr.de/Relaunch-der-vier-NDR-Laender-Apps-Nachrichten-aus-Ihrer-Region,laenderapprelaunch100.html", "thumbnailUrl": "https://www.ndr.de/laenderapprelaunch102_v-contentwidescreen.jpg", "date": "2024-03-19T09:22:34.719+01:00", "lat": 53.8659, "lon": 9.8606, "intensity": 0.4, "source": "NDR"}, {"title": "Gaspreis Dashboard", "url": "https://www.ndr.de/home/gaspreis176.html", "thumbnailUrl": null, "date": "2023-04-06T14:49:06.409+02:00", "lat": 51.3426, "lon": 9.9976, "intensity": 0.7, "source": "NDR"}, {"title": "NDR Radioprogramme", "url": "https://www.ndr.de/radio/radiologobox100.html", "thumbnailUrl": null, "date": "2020-12-01T14:04:26.700+01:00", "lat": 53.5511, "lon": 9.9937, "intensity": 0.3, "source": "NDR"}, {"title": "Krieg und Terror - Die Lage im Nahen Osten und in der Ukraine", "url": "https://www.ndr.de/nachrichten/info/podcast5342.html", "thumbnailUrl": "https://www.ndr.de/nachrichten/info/podcastbild412_v-contentwidescreen.jpg", "date": "2024-04-03T07:42:21.875+02:00", "lat": 46.79651, "lon": 30.739834, "intensity": 0.8, "source": "NDR"}, {"title": "Die Ern\u00e4hrungs-Docs - Essen als Medizin", "url": "https://www.ndr.de/fernsehen/sendungen/die-ernaehrungsdocs/audio-podcast/index.html", "thumbnailUrl": "https://www.ndr.de/fernsehen/sendungen/die-ernaehrungsdocs/podcastbild338_v-contentwidescreen.jpg", "date": "2024-03-27T08:00:08.131+01:00", "lat": 53.5511, "lon": 9.9876, "intensity": 0.3, "source": "NDR"}, {"title": "Unsere Comedy \"Die Kur-Oase\"!", "url": "https://www.ndr.de/ndr2/podcasts/podcast5816.html", "thumbnailUrl": "https://www.ndr.de/ndr2/podcasts/podcast5812_v-contentwidescreen.jpg", "date": "2024-04-03T07:15:07.686+02:00", "lat": 54.9069, "lon": 8.7386, "intensity": 0.2, "source": "NDR"}, {"title": "Organisiertes Verbrechen - Recherchen im Verborgenen", "url": "https://www.ndr.de/nachrichten/info/podcast4992.html", "thumbnailUrl": "https://www.ndr.de/nachrichten/info/podcastbildov100_v-contentwidescreen.jpg", "date": "2024-03-01T06:00:27.490+01:00", "lat": 45.9432, "lon": 24.9668, "intensity": 0.8, "source": "NDR"}, {"title": "eat.READ.sleep. B\u00fccher f\u00fcr dich", "url": "https://www.ndr.de/kultur/sendungen/eat_read_sleep/index.html", "thumbnailUrl": "https://www.ndr.de/mediathek/podcastbild434_v-contentwidescreen.jpg", "date": "2024-03-29T06:00:20.892+01:00", "lat": 53.5511, "lon": 9.9937, "intensity": 0.2, "source": "NDR"}, {"title": "Killed in Action: Afghanistan - Mission ohne Ziel", "url": "https://www.ndr.de/nachrichten/info/sendungen/podcast4574.html", "thumbnailUrl": "https://www.ndr.de/nachrichten/info/podcasts/podcastbild478_v-contentwidescreen.jpg", "date": "2024-02-16T17:44:01.214+01:00", "lat": 33.9391, "lon": 66.2385, "intensity": 0.8, "source": "NDR"}, {"title": "Streitkr\u00e4fte und Strategien", "url": "https://www.ndr.de/nachrichten/info/podcast2998.html", "thumbnailUrl": "https://www.ndr.de/mediathek/mediathekbild566_v-contentwidescreen.jpg", "date": "2024-04-02T16:00:06.249+02:00", "lat": 53.5511, "lon": 9.9937, "intensity": 0.8, "source": "NDR"}, {"title": "Standpunkte", "url": "https://www.ndr.de/nachrichten/info/podcast4700.html", "thumbnailUrl": "https://www.ndr.de/mediathek/podcast5332_v-contentwidescreen.jpg", "date": "2024-04-03T00:06:40.282+02:00", "lat": 53.5511, "lon": 9.9937, "intensity": 0.5, "source": "NDR"}, {"title": "Mein Einsatz - der Feuerwehr-Podcast von NDR Niedersachsen", "url": "https://www.ndr.de/ndr1niedersachsen/podcast5774.html", "thumbnailUrl": "https://www.ndr.de/ndr1niedersachsen/podcasts/podcastbild364_v-contentwidescreen.jpg", "date": "2024-03-28T04:00:07.923+01:00", "lat": 52.3759, "lon": 9.7345, "intensity": 0.7, "source": "NDR"}, {"title": "\"Feel Hamburg\" - alle Folgen", "url": "https://www.ndr.de/903/podcasts/podcast5108.html", "thumbnailUrl": "https://www.ndr.de/mediathek/mediathekbild514_v-contentwidescreen.jpg", "date": "2024-04-03T05:00:09.975+02:00", "lat": 53.55, "lon": 10.0, "intensity": 0.4, "source": "NDR"}, {"title": "Intensiv-Station - Satire von NDR Info", "url": "https://www.ndr.de/nachrichten/info/podcast4274.html", "thumbnailUrl": "https://www.ndr.de/nachrichten/info/programm/intensivstation3272_v-contentwidescreen.jpg", "date": "2024-03-25T22:56:23.803+01:00", "lat": 54.3706, "lon": 10.5038, "intensity": 0.8, "source": "NDR"}, {"title": "Amerika, wir m\u00fcssen reden!", "url": "https://www.ndr.de/nachrichten/info/podcast4932.html", "thumbnailUrl": "https://www.ndr.de/nachrichten/info/podcastbild488_v-contentwidescreen.jpg", "date": "2024-03-15T17:30:07.058+01:00", "lat": 39.78373, "lon": -100.445882, "intensity": 0.7, "source": "NDR"}, {"title": "Nachrichten f\u00fcr NRW am Morgen", "url": "https://www1.wdr.de/nachrichten/nrw-nachrichten-kriminalitaetsstatistik-hochbegabte-nato-aussenminister-100.html", "thumbnailUrl": null, "date": "2024-04-03T05:19:29Z", "lat": 51.4344, "lon": 6.7744, "intensity": 0.5, "source": "WDR"}, {"title": "Schlechtes Netz: So gro\u00df ist das Problem bei Handys wirklich", "url": "https://www1.wdr.de/nachrichten/nrw-funkloecher-netzabdeckung-internet-handy-empfang-100.html", "thumbnailUrl": null, "date": "2024-04-02T14:52:31Z", "lat": 51.9607, "lon": 7.6261, "intensity": 0.8, "source": "WDR"}, {"title": "Comeback von Stefan Raab: Regina Halmich best\u00e4tigt Box-Kampf", "url": "https://www1.wdr.de/nachrichten/stefan-raab-comeback-oder-aprilscherz-100.html", "thumbnailUrl": null, "date": "2024-04-02T19:36:47Z", "lat": 50.0344, "lon": 8.5365, "intensity": 0.6, "source": "WDR"}, {"title": "Wetter-Bilanz Winterhalbjahr: In NRW war es zu warm und so nass wie noch nie", "url": "https://www1.wdr.de/nachrichten/wetter-niederschlag-winterhalbjahr-rekord-100.html", "thumbnailUrl": null, "date": "2024-04-02T18:32:15Z", "lat": 51.4332, "lon": 7.6261, "intensity": 0.8, "source": "WDR"}, {"title": "Ratinger Hochhaus ohne Stromversorgung", "url": "https://www1.wdr.de/nachrichten/rheinland/ratingen-hochhaus-wasserschaden-stromversorgung-100.html", "thumbnailUrl": null, "date": "2024-04-03T07:01:03Z", "lat": 51.297197, "lon": 6.851508, "intensity": 0.7, "source": "WDR"}, {"title": "Noch immer kein Strom f\u00fcr K\u00f6lner Blitzer", "url": "https://www1.wdr.de/nachrichten/rheinland/kein-strom-fuer-koelner-blitzer-100.html", "thumbnailUrl": null, "date": "2024-04-03T05:26:35Z", "lat": 50.9483, "lon": 6.991, "intensity": 0.6, "source": "WDR"}, {"title": "Brandstiftung in Solingen: Verletzte au\u00dfer Lebensgefahr", "url": "https://www1.wdr.de/nachrichten/rheinland/solingen-brand-verletzte-lebensgefahr-100.html", "thumbnailUrl": null, "date": "2024-04-02T19:14:03Z", "lat": 51.1657, "lon": 7.082, "intensity": 0.8, "source": "WDR"}, {"title": "Neues Cannabisgesetz bewahrte ihn vor dem Gef\u00e4ngnis", "url": "https://www1.wdr.de/nachrichten/rheinland/cannabis-duesseldorf-gesetz-100.html", "thumbnailUrl": null, "date": "2024-04-02T19:17:15Z", "lat": 51.2277, "lon": 6.7735, "intensity": 0.8, "source": "WDR"}, {"title": "Nahost-Krieg: Nahost-Liveblog: ++ Biden kritisiert Israel nach Tod von Helfern scharf ++", "url": "https://www.tagesschau.de/newsticker/liveblog-nahost-mittwoch-118.html", "thumbnailUrl": null, "date": "2024-04-03T06:33:03Z", "lat": 31.046051, "lon": 34.851612, "intensity": 0.8, "source": "WDR"}, {"title": "Sieben Helfer get\u00f6tet: Netanyahu gesteht \"unbeabsichtigten Angriff\" auf Helfer in Gaza ein", "url": "https://www.tagesschau.de/ausland/asien/netanyahu-wck-angriff-100.html", "thumbnailUrl": null, "date": "2024-04-02T15:48:20Z", "lat": 31.5, "lon": 34.45, "intensity": 0.8, "source": "WDR"}, {"title": "Gazastreifen: Mitarbeiter von Hilfsorganisation im Gazastreifen get\u00f6tet", "url": "https://www.tagesschau.de/ausland/asien/nahost-isreal-luftangriff-hilfsorganisation-100.html", "thumbnailUrl": null, "date": "2024-04-02T06:51:01Z", "lat": 31.5107, "lon": 34.3956, "intensity": 0.8, "source": "WDR"}, {"title": "Die wichtigsten Fakten \u00fcber den Gazastreifen", "url": "https://www1.wdr.de/nachrichten/gaza-gazastreifen-israel-hintergrund-100.html", "thumbnailUrl": null, "date": "2023-10-11T15:33:25Z", "lat": 31.5107, "lon": 34.3445, "intensity": 0.8, "source": "WDR"}, {"title": "WDR aktuell Whatsapp-Kanal abonnieren - so geht's", "url": "https://www1.wdr.de/nachrichten/wdr-aktuell-whatsapp-kanal-100.html", "thumbnailUrl": null, "date": "2023-12-22T20:22:52Z", "lat": 51.4818, "lon": 7.6261, "intensity": 0.1, "source": "WDR"}, {"title": "Krieg gegen die Ukraine: Ukraine-Liveblog: ++ Stoltenberg plant 100-Milliarden-Euro-Fonds ++", "url": "https://www.tagesschau.de/newsticker/liveblog-ukraine-mittwoch-350.html", "thumbnailUrl": null, "date": "2024-04-03T04:51:02Z", "lat": 50.4501, "lon": 30.5234, "intensity": 0.8, "source": "WDR"}, {"title": "Kommt Russland wegen Kriegsverbrechen vor den Internationalen Strafgerichtshof?", "url": "https://www1.wdr.de/nachrichten/kriegsverbrechen-fragen-antworten-100.html", "thumbnailUrl": null, "date": "2024-04-02T16:04:42Z", "lat": 52.0705, "lon": 4.3007, "intensity": 0.8, "source": "WDR"}, {"title": "Teilrepublik Tatarstan: Ukraine greift russische Drohnenfabrik in Tatarstan an", "url": "https://www.tagesschau.de/ausland/tatarstan-russland-drohnenangriff-100.html", "thumbnailUrl": null, "date": "2024-04-02T13:09:02Z", "lat": 55.7964, "lon": 49.1197, "intensity": 0.9, "source": "WDR"}, {"title": "Rekrutierung in der Ukraine: Rekrutierung in der Ukraine: \"Ich habe ja keine Wahl\"", "url": "https://www.tagesschau.de/ausland/europa/ukraine-rekrutierung-soldaten-100.html", "thumbnailUrl": null, "date": "2024-04-01T02:00:08Z", "lat": 50.4501, "lon": 30.5234, "intensity": 0.7, "source": "WDR"}, {"title": "Wegen Blockade von US-Hilfen: Selenskyj bef\u00fcrchtet R\u00fcckzug der Streitkr\u00e4fte wegen blockierter Hilfen", "url": "https://www.tagesschau.de/ausland/europa/ukraine-selenskyj-hilfen-usa-100.html", "thumbnailUrl": null, "date": "2024-03-30T15:06:03Z", "lat": 50.4501, "lon": 30.5234, "intensity": 0.8, "source": "WDR"}, {"title": "Ukraine gedenkt der Irpin-Opfer: Suche nach Erinnerungskultur zum Jahrestag der Irpin-Befreiung", "url": "https://www.tagesschau.de/ausland/europa/irpin-bruecke-ukraine-100.html", "thumbnailUrl": null, "date": "2024-03-29T21:36:02Z", "lat": 50.531783, "lon": 30.22409, "intensity": 0.8, "source": "WDR"}, {"title": "Ukraine: Zwischen Krieg und Normalit\u00e4t", "url": "https://www1.wdr.de/mediathek/audio/wdr5/wdr5-mittagsecho/audio-ukraine-zwischen-krieg-und-normalitaet-100.html", "thumbnailUrl": null, "date": "2024-03-27T13:17:56Z", "lat": 50.4501, "lon": 30.5234, "intensity": 0.7, "source": "WDR"}, {"title": "Campino h\u00e4lt erste Vorlesung als Gastprofessor in D\u00fcsseldorf", "url": "https://www1.wdr.de/nachrichten/rheinland/duesseldorf-campino-gastprofessor-vorlesung-100.html", "thumbnailUrl": null, "date": "2024-04-03T06:51:46Z", "lat": 51.2277, "lon": 6.7924, "intensity": 0.5, "source": "WDR"}, {"title": "Cannabis legal - wer soll das alles kontrollieren?", "url": "https://www1.wdr.de/nachrichten/landespolitik/cannabis-gesetz-start-100.html", "thumbnailUrl": null, "date": "2024-04-02T19:13:35Z", "lat": 51.4521, "lon": 7.6261, "intensity": 0.6, "source": "WDR"}, {"title": "Sexpuppe sorgt f\u00fcr Gro\u00dfeinsatz am Baldeneysee", "url": "https://www1.wdr.de/nachrichten/ruhrgebiet/sexpuppe-baldeneysee-grosseinsatz-100.html", "thumbnailUrl": null, "date": "2024-04-02T13:39:15Z", "lat": 51.4062, "lon": 7.0024, "intensity": 0.6, "source": "WDR"}, {"title": "K\u00f6lner Wirte wollen Stilllegung ihrer Grills verhindern", "url": "https://www1.wdr.de/nachrichten/rheinland/wirte-stillegung-grills-eigensteinviertel-100.html", "thumbnailUrl": null, "date": "2024-04-02T19:14:42Z", "lat": 50.9385, "lon": 6.9583, "intensity": 0.3, "source": "WDR"}, {"title": "Wei\u00dfer Ring: Ehemaliger Opferbetreuer wegen Vergewaltigung verurteilt", "url": "https://www1.wdr.de/nachrichten/westfalen-lippe/urteil-prozess-weisser-ring-100.html", "thumbnailUrl": null, "date": "2024-04-02T19:12:49Z", "lat": 51.1495, "lon": 8.6333, "intensity": 0.9, "source": "WDR"}, {"title": "\"Ich musste mir einen Plan schmieden, aus der AfD rauszukommen\"", "url": "https://1.ard.de/afd-aussteiger-schild", "thumbnailUrl": null, "date": "2024-04-02T08:27:16Z", "lat": 51.959, "lon": 7.6261, "intensity": 0.3, "source": "WDR"}, {"title": "Verbote am Karfreitag: Das sind die Regeln in NRW", "url": "https://www1.wdr.de/nachrichten/landespolitik/tanzverbot-ostern-keine-aenderungen-100.html", "thumbnailUrl": null, "date": "2024-03-30T05:17:01Z", "lat": 51.9607, "lon": 7.5964, "intensity": 0.4, "source": "WDR"}, {"title": "Organspende: Laumann f\u00fcr Widerspruchsl\u00f6sung", "url": "https://www1.wdr.de/nachrichten/landespolitik/organspende-laumann-widerspruchsloesung-100.html", "thumbnailUrl": null, "date": "2024-03-28T19:23:22Z", "lat": 51.9607, "lon": 7.6261, "intensity": 0.8, "source": "WDR"}, {"title": "Warum viele Kinder in NRW nicht schwimmen k\u00f6nnen", "url": "https://www1.wdr.de/nachrichten/viele-kinder-koennen-nicht-schwimmen-100.html", "thumbnailUrl": null, "date": "2024-03-27T19:11:15Z", "lat": 51.4818, "lon": 7.6124, "intensity": 0.8, "source": "WDR"}, {"title": "Verfassungsbeschwerde: OVG wohl noch lange ohne neuen Chef", "url": "https://www1.wdr.de/nachrichten/landespolitik/besetzung-limbach-ovg-verfassungsbeschwerde-100.html", "thumbnailUrl": null, "date": "2024-03-27T13:49:43Z", "lat": 51.4818, "lon": 7.1443, "intensity": 0.6, "source": "WDR"}, {"title": "Nach Messerattacke in K\u00f6ln - 18-j\u00e4hriger Intensivt\u00e4ter stellt sich", "url": "https://www1.wdr.de/nachrichten/rheinland/messerattacke-schildergasse-fahndung-erfolgreich-100.html", "thumbnailUrl": null, "date": "2024-04-02T18:08:06Z", "lat": 50.9369, "lon": 7.1216, "intensity": 0.8, "source": "WDR"}, {"title": "Kreis Siegen-Wittgenstein steigt bei \"Siegtal pur\" aus", "url": "https://www1.wdr.de/nachrichten/westfalen-lippe/kreis-siegtal-pur-ausstieg-100.html", "thumbnailUrl": null, "date": "2024-04-02T16:16:25Z", "lat": 50.9018, "lon": 8.0253, "intensity": 0.4, "source": "WDR"}, {"title": "B\u00fcrgerbusse k\u00e4mpfen um Fahrg\u00e4ste: Ein Blick ins Oberbergische Land", "url": "https://www1.wdr.de/nachrichten/rheinland/erkarth-hueckeswagen-buergerbus-zukunft-100.html", "thumbnailUrl": null, "date": "2024-04-03T04:55:51Z", "lat": 51.2224, "lon": 7.1452, "intensity": 0.7, "source": "WDR"}, {"title": "Kinofest L\u00fcnen k\u00e4mpft um Existenz", "url": "https://www1.wdr.de/nachrichten/rheinland/kinofest-luenen-vor-dem-aus100.html", "thumbnailUrl": null, "date": "2024-04-03T05:39:48Z", "lat": 51.6177, "lon": 7.5207, "intensity": 0.8, "source": "WDR"}, {"title": "Insolvenzverfahren f\u00fcr Galeria Karstadt Kaufhof er\u00f6ffnet", "url": "https://www1.wdr.de/nachrichten/ruhrgebiet/insolvenzverfahren-galeria-karstadt-kaufhof-100.html", "thumbnailUrl": null, "date": "2024-04-02T18:01:29Z", "lat": 51.462245, "lon": 7.014022, "intensity": 0.8, "source": "WDR"}, {"title": "Arsen-belastete B\u00fccher in Unibibs laut Bibliotheksverband unbedenklich", "url": "https://www1.wdr.de/nachrichten/arsen-buecher-unbedenklich-bibliotheken-100.html", "thumbnailUrl": null, "date": "2024-04-02T08:29:12Z", "lat": 50.7753, "lon": 8.6761, "intensity": 0.4, "source": "WDR"}, {"title": "Wie der Regen den Spargelbauern in der Senne zu schaffen macht", "url": "https://www1.wdr.de/nachrichten/westfalen-lippe/spargel-regen-ernte-senne-landwirte-reportage-100.html", "thumbnailUrl": null, "date": "2024-04-03T05:41:54Z", "lat": 51.9481, "lon": 8.6074, "intensity": 0.3, "source": "WDR"}, {"title": "\u00c4rger um Wohnungsbau-Projekt in Detmold", "url": "https://www1.wdr.de/nachrichten/westfalen-lippe/detmold-wohnraum-streit-bundesbehoerde-100.html", "thumbnailUrl": null, "date": "2024-04-03T05:43:48Z", "lat": 51.9366, "lon": 8.8783, "intensity": 0.7, "source": "WDR"}, {"title": "Abwasser wird in M\u00fcnster zum Energielieferant", "url": "https://www1.wdr.de/nachrichten/westfalen-lippe/heizung-abwasser-muenster-100.html", "thumbnailUrl": null, "date": "2024-04-02T19:11:49Z", "lat": 51.9607, "lon": 7.6261, "intensity": 0.7, "source": "WDR"}, {"title": "Die App WDR aktuell begleitet Sie durch den Tag", "url": "https://www1.wdr.de/nachrichten/wdr-aktuell-app-stores-100.html", "thumbnailUrl": null, "date": "2023-10-30T11:49:53Z", "lat": 51.4508, "lon": 7.6261, "intensity": 0.3, "source": "WDR"}, {"title": "WDR Newsroom: Informationen f\u00fcr den Westen rund um die Uhr auf allen Kan\u00e4len", "url": "https://www1.wdr.de/nachrichten/newsroom-information-nrw-westen-100.html", "thumbnailUrl": null, "date": "2021-04-14T22:00:15Z", "lat": 51.4556, "lon": 7.0116, "intensity": 0.1, "source": "WDR"}, {"title": "Das Leitungsteam des Newsrooms im WDR (Programmbereich Aktuelles)", "url": "https://www1.wdr.de/nachrichten/newsroom-leitung-team-programmbereich-aktuelles-100.html", "thumbnailUrl": null, "date": "2024-03-08T15:34:21Z", "lat": 51.460021, "lon": 7.014026, "intensity": 0.3, "source": "WDR"}, {"title": "Das sind die Regeln f\u00fcr Cannabis-Konsum nach der Teil-Legalisierung", "url": "https://www.mdr.de/nachrichten/deutschland/politik/cannabis-legal-kiffen-regeln-gesetz-100.html", "thumbnailUrl": null, "date": "Wed, 03 Apr 2024 05:00:00 +0200", "lat": 51.5426, "lon": 9.9937, "intensity": 0.6, "source": "MDR"}, {"title": "Folgen des Kohleausstiegs \u00fcbertrieben? Lausitz findet kaum Fachkr\u00e4fte", "url": "https://www.mdr.de/nachrichten/sachsen/bautzen/kohleausstieg-arbeit-fachkraeftemangel-lausitz-jobangebote-100.html", "thumbnailUrl": null, "date": "Wed, 03 Apr 2024 05:15:00 +0200", "lat": 51.3667, "lon": 14.0833, "intensity": 0.6, "source": "MDR"}, {"title": "KI-generierte Bilder: Wie kann sich die Gesellschaft gegen Manipulation wehren?", "url": "https://www.mdr.de/nachrichten/deutschland/politik/ki-bilder-wahlkampf-desinformation-kennzeichnungspflicht-100.html", "thumbnailUrl": null, "date": "Wed, 03 Apr 2024 08:42:31 +0200", "lat": 53.5511, "lon": 9.9876, "intensity": 0.7, "source": "MDR"}, {"title": "Eingriff in Stra\u00dfenverkehr: Biederitzer Verwaltung ver\u00e4rgert \u00fcber FCM-Aufkleber", "url": "https://www.mdr.de/nachrichten/sachsen-anhalt/magdeburg/jerichow/biederitz-fcm-aufkleber-veraergerung-100.html", "thumbnailUrl": null, "date": "Wed, 03 Apr 2024 05:00:00 +0200", "lat": 52.1152, "lon": 11.7951, "intensity": 0.7, "source": "MDR"}, {"title": "Wie verteidigungsf\u00e4hig ist die Nato?", "url": "https://www.mdr.de/nachrichten/welt/politik/nato-verteidigung-europa-russland-100.html", "thumbnailUrl": null, "date": "Wed, 03 Apr 2024 05:00:00 +0200", "lat": 50.4501, "lon": 30.5234, "intensity": 0.8, "source": "MDR"}, {"title": "200 Menschen betroffen: Polizei evakuiert Geb\u00e4ude in Chemnitz", "url": "https://www.mdr.de/nachrichten/sachsen/chemnitz/chemnitz-stollberg/buergerhaus-geruch-polizei-evakuierung-100.html", "thumbnailUrl": null, "date": "Tue, 02 Apr 2024 20:45:21 +0200", "lat": 50.8278, "lon": 12.9279, "intensity": 0.7, "source": "MDR"}, {"title": "A2 in Sachsen-Anhalt: Kilometerlange Staus nach LKW-Unf\u00e4llen", "url": "https://www.mdr.de/nachrichten/sachsen-anhalt/magdeburg/boerde/unfall-autobahn-zwei-stau100.html", "thumbnailUrl": null, "date": "Wed, 03 Apr 2024 08:25:31 +0200", "lat": 51.14139, "lon": 11.45433, "intensity": 0.8, "source": "MDR"}, {"title": "Ostdeutsche Bauern wollen Agrarfl\u00e4chen weiter privatisieren", "url": "https://www.mdr.de/nachrichten/deutschland/politik/agrarflaechen-verkauf-bauern-ostdeutschland-102.html", "thumbnailUrl": null, "date": "Wed, 03 Apr 2024 08:32:11 +0200", "lat": 48.1351, "lon": 11.582, "intensity": 0.7, "source": "MDR"}, {"title": "Halle: Unbekannte durchtrennen Bahn-Kabel", "url": "https://www.mdr.de/nachrichten/sachsen-anhalt/halle/halle/stoerungen-bahnverkehr-kabel-durchtrennt-100.html", "thumbnailUrl": null, "date": "Tue, 02 Apr 2024 17:00:21 +0200", "lat": 51.482504, "lon": 12.004547, "intensity": 0.7, "source": "MDR"}, {"title": "Osteuropa", "url": "https://www.mdr.de/nachrichten/welt/osteuropa/index.html", "thumbnailUrl": null, "date": "Tue, 25 Apr 2023 13:02:57 +0200", "lat": 45.9432, "lon": 23.8859, "intensity": 0.5, "source": "MDR"}, {"title": "Verkehr", "url": "https://www.mdrjump.de/verkehr/index.html", "thumbnailUrl": null, "date": "Thu, 09 Jun 2022 11:05:09 +0200", "lat": 51.1657, "lon": 11.6229, "intensity": 0.2, "source": "MDR"}, {"title": "So ver\u00e4ndert sich das Klima in Sachsen, Sachsen-Anhalt und Th\u00fcringen", "url": "https://www.mdr.de/nachrichten/deutschland/panorama/wetter-klima-wandel-daten-archiv-region-100.html", "thumbnailUrl": null, "date": "Mon, 04 Mar 2024 10:27:56 +0100", "lat": 51.339695, "lon": 12.496365, "intensity": 0.6, "source": "MDR"}, {"title": "40 Milliarden f\u00fcr den Ausstieg aus der Braunkohle", "url": "https://www.mdr.de/nachrichten/deutschland/wirtschaft/kohlemilliarden/kohle-ausstieg-foerderung-steuergeld-100.html", "thumbnailUrl": null, "date": "Thu, 07 Dec 2023 14:06:43 +0100", "lat": 52.52, "lon": 13.405, "intensity": 0.7, "source": "MDR"}, {"title": "Schaffen wir die Energiewende? Live-Daten zum Ausbau der Windkraft in Deutschland", "url": "https://www.mdr.de/wissen/windkraft-windenergie-ausbau-deutschland-live-daten-aktuell-100.html", "thumbnailUrl": null, "date": "Thu, 16 Mar 2023 10:28:43 +0100", "lat": 51.1657, "lon": 10.4515, "intensity": 0.8, "source": "MDR"}, {"title": "Was tun, Herr General? - Der Podcast zum Ukraine-Krieg", "url": "https://www.mdr.de/nachrichten/podcast/general/russland-angriff-krieg-ukraine100.html", "thumbnailUrl": null, "date": "Wed, 29 Nov 2023 12:04:11 +0100", "lat": 50.4501, "lon": 30.5234, "intensity": 0.8, "source": "MDR"}, {"title": "Basketball: Niners Chemnitz wollen Europapokal-Finale klarmachen", "url": "https://www.mdr.de/sport/basketball/europe-cup-halbfinale-niners-chemnitz-vor-bilbao-rueckspiel-100.html", "thumbnailUrl": null, "date": "Tue, 02 Apr 2024 17:14:00 +0200", "lat": 43.26301, "lon": -3.37705, "intensity": 0.7, "source": "MDR"}, {"title": "RB Leipzig: Schr\u00f6der will mit Henrichs verl\u00e4ngern \u2013 Werner wird in England gelobt", "url": "https://www.mdr.de/sport/fussball_1bl/rb-leipzig-benjamin-henrichs-timo-werner-100.html", "thumbnailUrl": null, "date": "Tue, 02 Apr 2024 13:36:36 +0200", "lat": 51.340632, "lon": 12.363489, "intensity": 0.7, "source": "MDR"}, {"title": "Th\u00fcringer HC: Lott fehlt DHB-Frauen bei EM- und Olympia-Quali", "url": "https://www.mdr.de/sport/handball/thueringer-hc-lott-fehlt-dhb-bei-em-olympia-quali-100.html", "thumbnailUrl": null, "date": "Tue, 02 Apr 2024 14:39:16 +0200", "lat": 50.9726, "lon": 10.9566, "intensity": 0.6, "source": "MDR"}, {"title": "Th\u00fcringer Motorrad-Rennfahrer bei Unfall t\u00f6dlich verungl\u00fcckt", "url": "https://www.mdr.de/nachrichten/thueringen/ost-thueringen/saale-orla/unfall-motorrad-rennfahrer-troy-beinlich-msc-100.html", "thumbnailUrl": null, "date": "Tue, 02 Apr 2024 12:00:00 +0200", "lat": 49.3275, "lon": 8.5657, "intensity": 1, "source": "MDR"}, {"title": "Was macht ein Tatortreiniger | Reportage: Ein Tatortreiniger auf Spurensuche", "url": "https://www.mdr.de/religion/was-macht-ein-tatortreiniger-reportage-tatortreiniger-auf-spurensuche-100.html", "thumbnailUrl": null, "date": "Wed, 03 Apr 2024 05:00:00 +0200", "lat": 53.5511, "lon": 9.9937, "intensity": 0.6, "source": "MDR"}, {"title": "Gurtpflicht bei Busreisen schwer durchsetzbar", "url": "https://www.mdr.de/nachrichten/deutschland/panorama/bus-anschnallpflicht-durchsetzung-100.html", "thumbnailUrl": null, "date": "Tue, 02 Apr 2024 07:04:17 +0200", "lat": 51.5421, "lon": 9.9937, "intensity": 0.6, "source": "MDR"}, {"title": "Eichenprozessionsspinner: Giftige Raupen werden wieder bek\u00e4mpft", "url": "https://www.mdr.de/nachrichten/sachsen-anhalt/dessau/dessau-rosslau/eichenprozessionsspinner-bekaempfen-raupen-100.html", "thumbnailUrl": null, "date": "Tue, 02 Apr 2024 17:11:19 +0200", "lat": 51.8297, "lon": 12.2361, "intensity": 0.6, "source": "MDR"}, {"title": "Stadt Dresden: Anmeldeportal f\u00fcr Elbwiesenreinigung vorzeitig geschlossen", "url": "https://www.mdr.de/nachrichten/sachsen/dresden/dresden-radebeul/elbwiesen-reinigung-ansturm-muell-sammelaktion-100.html", "thumbnailUrl": null, "date": "Tue, 02 Apr 2024 10:46:44 +0200", "lat": 51.050409, "lon": 13.737262, "intensity": 0.8, "source": "MDR"}, {"title": "Auf den Spuren Caspar David Friedrichs in der S\u00e4chsischen Schweiz", "url": "https://www.mdr.de/nachrichten/sachsen/dresden/freital-pirna/caspar-david-friedrich-weg-tourismus-kultur-news-100.html", "thumbnailUrl": null, "date": "Wed, 03 Apr 2024 05:01:00 +0200", "lat": 50.917, "lon": 14.1, "intensity": 0.6, "source": "MDR"}, {"title": "Theater in Dresden und der Lausitz: 9 besondere Theater-Erlebnisse im April 2024", "url": "https://www.mdr.de/kultur/theater/dresden-bautzen-zittau-theater-tipps-april-100.html", "thumbnailUrl": null, "date": "Tue, 02 Apr 2024 15:53:32 +0200", "lat": 51.050409, "lon": 13.737262, "intensity": 0.6, "source": "MDR"}, {"title": "Erfurt und Jena: 5 tolle Konzerte im April 2024", "url": "https://www.mdr.de/kultur/musik/erfurt-jena-weimar-konzerte-highlights-april-100.html", "thumbnailUrl": null, "date": "Sun, 31 Mar 2024 04:00:00 +0200", "lat": 50.9848, "lon": 11.0299, "intensity": 0.3, "source": "MDR"}, {"title": "Theater Erfurt in der Krise: Stadtrat kritisiert Aufarbeitung und fehlende Transparenz", "url": "https://www.mdr.de/nachrichten/thueringen/mitte-thueringen/erfurt/theater-streit-stadtrat-finanzen-gleichstellung-kultur-news-100.html", "thumbnailUrl": null, "date": "Tue, 02 Apr 2024 10:54:57 +0200", "lat": 50.9773, "lon": 11.0286, "intensity": 0.7, "source": "MDR"}, {"title": "Die ersten modernen H\u00fchner stammen aus Zentralasien", "url": "https://www.mdr.de/wissen/geschichte/news-wann-gab-es-die-ersten-modernen-huehner-100.html", "thumbnailUrl": null, "date": "Wed, 03 Apr 2024 07:59:28 +0200", "lat": 47.4808, "lon": 60.1125, "intensity": 0.5, "source": "MDR"}, {"title": "Europ\u00e4ische Fr\u00fchmenschen waren versierte Holzbearbeiter", "url": "https://www.mdr.de/wissen/geschichte/news-niedersaechische-fruehmenschen-waren-versierte-holzbearbeiter-100.html", "thumbnailUrl": null, "date": "Tue, 02 Apr 2024 13:46:38 +0200", "lat": 52.1756, "lon": 10.8564, "intensity": 0.6, "source": "MDR"}, {"title": "Stefan Raab boxt erneut gegen Regina Halmich", "url": "https://www.brisant.de/stars/stefan-raab-comeback-100.html", "thumbnailUrl": null, "date": "Tue, 02 Apr 2024 18:47:43 +0200", "lat": 50.7552, "lon": 7.1357, "intensity": 0.7, "source": "MDR"}, {"title": "Bohlens \"Supertalent\" der ersten Stunde: Der \"singende Pizzab\u00e4cker\" Gino Badagliacca ist tot", "url": "https://www.mdr.de/meine-schlagerwelt/dieter-bohlen-supertalent-singender-pizzabaecker-gino-badagliacca-gestorben-100.html", "thumbnailUrl": null, "date": "Tue, 02 Apr 2024 15:22:51 +0200", "lat": 51.90669, "lon": 8.38548, "intensity": 0.7, "source": "MDR"}, {"title": "Studie: Jugendliche haben keine Lust mehr auf Komasaufen", "url": "https://www.mdr.de/nachrichten/deutschland/gesellschaft/komasaufen-jugendliche-100.html", "thumbnailUrl": null, "date": "Tue, 02 Apr 2024 11:08:22 +0200", "lat": 53.5511, "lon": 9.9937, "intensity": 0.7, "source": "MDR"}, {"title": "Wasserstoff-Kraftwerk Leipzig \u2013 Vorbild f\u00fcr klimaneutrale Energieversorgung in Europa?", "url": "https://www.mdr.de/nachrichten/sachsen/leipzig/wasserstoff-kraftwerk-leipzig-kohleausstieg-100.html", "thumbnailUrl": null, "date": "Tue, 02 Apr 2024 05:00:04 +0200", "lat": 51.3397, "lon": 12.3787, "intensity": 0.8, "source": "MDR"}, {"title": "Ex-Verkehrsminister Scheuer legt Bundestagsmandat nieder", "url": "https://www.mdr.de/nachrichten/deutschland/politik/scheuer-bundestag-mandat-ruecktritt-100.html", "thumbnailUrl": null, "date": "Mon, 01 Apr 2024 19:13:07 +0200", "lat": 52.517, "lon": 13.3326, "intensity": 0.7, "source": "MDR"}, {"title": "MDR TH\u00dcRINGEN: Neue Direktorin tritt Amt im Landesfunkhaus an", "url": "https://www.mdr.de/nachrichten/thueringen/mitte-thueringen/erfurt/direktorin-landesfunkhaus-astrid-plenk-kika-ard-zdf-100.html", "thumbnailUrl": null, "date": "Tue, 02 Apr 2024 15:03:07 +0200", "lat": 50.9848, "lon": 11.0299, "intensity": 0.4, "source": "MDR"}, {"title": "Preview der Dokumentation \"Hirschhausen \u2013 Medizin von morgen\" in Magdeburg", "url": "https://www.mdr.de/nachrichten/mitmachen/medizin-von-morgen-mit-eckart-von-hirschhausen-100.html", "thumbnailUrl": null, "date": "Thu, 28 Mar 2024 12:56:03 +0100", "lat": 52.1205, "lon": 11.6276, "intensity": 0.3, "source": "MDR"}, {"title": "MDR-Fr\u00fchlingserwachen: Alle Termine zu allen Orten", "url": "https://www.mdr.de/nachrichten/mitmachen/fruehlingserwachen/alles-zum-mdr-fruehlingswachen--100.html", "thumbnailUrl": null, "date": "Mon, 25 Mar 2024 15:59:43 +0100", "lat": 50.5821, "lon": 12.6261, "intensity": 0.5, "source": "MDR"}, {"title": "++ Diebe wollen tonnenweise B\u00e4rlauch klauen ++ Feuerwehr rettet Pferd aus Bach ++ Halmich gegen Raab perfekt: \"Es wird knallen\" ++", "url": "https://www.swr.de/swraktuell/baden-wuerttemberg/bw-newsticker-am-morgen-2024-04-03-100.html", "thumbnailUrl": "https://www.swr.de/swraktuell/baden-wuerttemberg/karlsruhe/1711169397383%2Cbaerlauch-sammeln-raum-karlsruhe-rastatt-114~_v-16x9@2dXL_-77ed5d09bafd4e3cf6a5a0264e5e16ea35f14925.jpg", "date": "Wed, 3 Apr 2024 08:23:01 +0200", "lat": 48.7373, "lon": 9.9937, "intensity": 0.3, "source": "SWR"}, {"title": "++ FCK feiert Einzug in DFB-Pokalfinale ++ Vollsperrung am Schiersteiner Kreuz ++ Unfall mit Pferd ++", "url": "https://www.swr.de/swraktuell/rheinland-pfalz/fck-im-dfb-pokalfinale-vollsperrung-schiersteiner-kreuz-unfall-mit-pferd-rlp-newsticker-2024-04-03-100.html", "thumbnailUrl": "https://www.swr.de/swraktuell/rheinland-pfalz/kaiserslautern/1712113399266%2Cfck-einzug-dfb-pokalfinale-100~_v-16x9@2dXL_-77ed5d09bafd4e3cf6a5a0264e5e16ea35f14925.jpg", "date": "Wed, 3 Apr 2024 08:00:38 +0200", "lat": 50.005, "lon": 8.273, "intensity": 0.7, "source": "SWR"}, {"title": "\"Der Fu\u00dfball schreibt die sch\u00f6nsten Geschichten\" - Der FCK steht im DFB-Pokalfinale", "url": "https://www.swr.de/sport/fussball/1-fc-kaiserslautern/1-fc-kaiserslautern-dfb-pokal-finale-1-fc-saarbruecken-halbfinale-reaktionen-funkel-100.html", "thumbnailUrl": "https://www.swr.de/sport/fussball/1-fc-kaiserslautern/1712099173212%2C1-fc-kaiserslautern-1-fc-saarbruecken-104~_v-16x9@2dXL_-77ed5d09bafd4e3cf6a5a0264e5e16ea35f14925.jpg", "date": "Wed, 3 Apr 2024 08:31:24 +0200", "lat": 49.4431, "lon": 7.7555, "intensity": 0.7, "source": "SWR"}, {"title": "Wer wird heute noch Bauer? H\u00f6festerben in Baden-W\u00fcrttemberg", "url": "https://www.swr.de/swraktuell/baden-wuerttemberg/heilbronn/hofsterben-bauernhof-nachfolger-weinsberger-tal-100.html", "thumbnailUrl": "https://www.swr.de/swraktuell/baden-wuerttemberg/heilbronn/1711633169175%2Chofsterben-05-100~_v-16x9@2dXL_-77ed5d09bafd4e3cf6a5a0264e5e16ea35f14925.jpg", "date": "Wed, 3 Apr 2024 05:11:15 +0200", "lat": 48.727, "lon": 9.493, "intensity": 0.8, "source": "SWR"}, {"title": "Freiburger Gemeinde verzichtet auf Kinderbeichte - auch wegen Missbrauchsskandals", "url": "https://www.swr.de/swraktuell/baden-wuerttemberg/suedbaden/umstrittene-kinderbeichte-bei-erstkommunion-nach-missbrauchsskandal-in-katholischer-kirche-100.html", "thumbnailUrl": "https://www.swr.de/swraktuell/baden-wuerttemberg/suedbaden/1712079519674%2Cumstrittene-kinderbeichte-bei-erstkommunion-nach-missbrauchsskandal-in-katholischer-kirche-102~_v-16x9@2dXL_-77ed5d09bafd4e3cf6a5a0264e5e16ea35f14925.jpg", "date": "Wed, 3 Apr 2024 04:23:08 +0200", "lat": 47.997, "lon": 7.849, "intensity": 0.8, "source": "SWR"}, {"title": "Prostitution in Stuttgart: Bordellbetreiber gewinnt im Rechtsstreit gegen Politikerin", "url": "https://www.swr.de/swraktuell/baden-wuerttemberg/stuttgart/prostitution-verkauf-von-sex-bordelle-rechtsstreit-gerichtsurteil-heer-breymaier-100.html", "thumbnailUrl": "https://www.swr.de/swraktuell/baden-wuerttemberg/stuttgart/1683869938447%2Crotlichtviertel-stuttgart-100~_v-16x9@2dXL_-77ed5d09bafd4e3cf6a5a0264e5e16ea35f14925.jpg", "date": "Wed, 3 Apr 2024 04:23:50 +0200", "lat": 48.7758, "lon": 9.1829, "intensity": 0.7, "source": "SWR"}, {"title": "Mehr Rente f\u00fcr Frauen - so geht es!", "url": "https://www.swrfernsehen.de/kaffee-oder-tee/ratgeber/mehr-rente-fuer-frauen-102.html", "thumbnailUrl": "https://www.swrfernsehen.de/kaffee-oder-tee/ratgeber/1711355098007%2Cmehr-rente-fuer-frauen-spardose-100~_v-16x9@2dXL_-77ed5d09bafd4e3cf6a5a0264e5e16ea35f14925.jpg", "date": "Wed, 27 Mar 2024 08:13:54 +0100", "lat": 52.3759, "lon": 9.732, "intensity": 0.7, "source": "SWR"}, {"title": "Biotop bei Hermeskeil zerst\u00f6rt: Das sagen die Verantwortlichen", "url": "https://www.swr.de/swraktuell/rheinland-pfalz/trier/biotop-und-bibersee-in-hermeskeil-zerstoert-100.html", "thumbnailUrl": "https://www.swr.de/swraktuell/rheinland-pfalz/trier/1712076945127%2Cbiotop-bibersee-bei-hermeskeil-zerstoert-100~_v-16x9@2dXL_-77ed5d09bafd4e3cf6a5a0264e5e16ea35f14925.jpg", "date": "Wed, 3 Apr 2024 07:04:27 +0200", "lat": 49.7081, "lon": 6.8772, "intensity": 0.8, "source": "SWR"}, {"title": "Lars \u00fcberlebt knapp: \u201eIch habe sofort gesp\u00fcrt, dass Jenny tot ist\u201c", "url": "https://www.ardmediathek.de/video/nachtcafe/lars-waetzmann-verliert-seine-frau-bei-terroranschlag-in-bruessel/swr/Y3JpZDovL3N3ci5kZS9hZXgvbzIwMjY5MTk", "thumbnailUrl": "https://www.swr.de/home/1712062114034%2Clars-waetzmann-nachtcafe-100~_v-16x9@2dXL_-77ed5d09bafd4e3cf6a5a0264e5e16ea35f14925.jpg", "date": "Tue, 2 Apr 2024 15:53:35 +0200", "lat": 50.9014, "lon": 4.4848, "intensity": 0.8, "source": "SWR"}, {"title": "Weltkriegsbombe in Wiesbaden-Biebrich - Schiersteiner Kreuz wird gesperrt", "url": "https://www.swr.de/swraktuell/rheinland-pfalz/mainz/wiesbaden-bombe-gefunden-100.html", "thumbnailUrl": "https://www.swr.de/swraktuell/rheinland-pfalz/mainz/1712088455487%2Ckampfmittelraeumdienst-hessen-weltkriegsbombe-wiesbaden-biebrich-100~_v-16x9@2dXL_-77ed5d09bafd4e3cf6a5a0264e5e16ea35f14925.jpg", "date": "Wed, 3 Apr 2024 07:57:26 +0200", "lat": 50.0528, "lon": 8.1844, "intensity": 0.8, "source": "SWR"}, {"title": "Landkreis Karlsruhe: Feuerwehr rettet Pferd in Weingarten aus Bach", "url": "https://www.swr.de/swraktuell/baden-wuerttemberg/karlsruhe/weingarten-karlsruhe-pferd-gerettet-104.html", "thumbnailUrl": "https://www.swr.de/swraktuell/baden-wuerttemberg/karlsruhe/1712120683681%2Cweingarten-karlsruhe-pferd-gerettet-106~_v-16x9@2dL_-6c42aff4e68b43c7868c3240d3ebfa29867457da.jpg", "date": "Wed, 3 Apr 2024 07:55:28 +0200", "lat": 49.0084, "lon": 8.3998, "intensity": 0.7, "source": "SWR"}, {"title": "Wildschweine verw\u00fcsten etwa 100 Gr\u00e4ber in Budenheim", "url": "https://www.swr.de/swraktuell/rheinland-pfalz/mainz/wildschweine-verwuesten-graeber-auf-dem-friedhof-in-budenheim-in-rheinhessen-100.html", "thumbnailUrl": "https://www.swr.de/swraktuell/rheinland-pfalz/mainz/1712065843936%2Cwildschweine-verwuesten-friedhof-in-budenheim-100~_v-16x9@2dXL_-77ed5d09bafd4e3cf6a5a0264e5e16ea35f14925.jpg", "date": "Tue, 2 Apr 2024 19:01:03 +0200", "lat": 49.9842, "lon": 8.2796, "intensity": 0.8, "source": "SWR"}, {"title": "Femizid? Get\u00f6tete Frau lag monatelang in Stuttgarter Wohnung", "url": "https://www.swr.de/swraktuell/baden-wuerttemberg/stuttgart/mann-soll-frau-getoetet-haben-100.html", "thumbnailUrl": "https://www.swr.de/swraktuell/baden-wuerttemberg/stuttgart/1712070387302%2Cleiche-lag-monatelang-in-wohnung-100~_v-16x9@2dXL_-77ed5d09bafd4e3cf6a5a0264e5e16ea35f14925.jpg", "date": "Wed, 3 Apr 2024 04:24:57 +0200", "lat": 48.7758, "lon": 9.177, "intensity": 0.9, "source": "SWR"}, {"title": "Diebe pfl\u00fccken bei Kupferzell rund 2,5 Tonnen B\u00e4rlauch", "url": "https://www.swr.de/swraktuell/baden-wuerttemberg/heilbronn/baerlauch-pfluecker-unterwegs-100.html", "thumbnailUrl": "https://www.swr.de/swraktuell/baden-wuerttemberg/heilbronn/1712070636849%2Cbaerlauch-symbolbild-100~_v-16x9@2dXL_-77ed5d09bafd4e3cf6a5a0264e5e16ea35f14925.jpg", "date": "Wed, 3 Apr 2024 07:33:05 +0200", "lat": 49.2208, "lon": 9.6394, "intensity": 0.7, "source": "SWR"}, {"title": "Rekordsumme: Zoll Stuttgart findet rund 2,5 Kilo geschmuggeltes Gold", "url": "https://www.swr.de/swraktuell/baden-wuerttemberg/stuttgart/flughafen-zoll-goldschmuck-in-stuttgart-geschmuggelt-100.html", "thumbnailUrl": "https://www.swr.de/swraktuell/baden-wuerttemberg/stuttgart/1712069654462%2Cgoldschmuck-im-wert-von-fast-200000-euro-in-stuttagrt-geschmuggelt-100~_v-16x9@2dXL_-77ed5d09bafd4e3cf6a5a0264e5e16ea35f14925.jpg", "date": "Tue, 2 Apr 2024 17:02:52 +0200", "lat": 48.7758, "lon": 9.1934, "intensity": 0.8, "source": "SWR"}, {"title": "Warum sieht man in Frankreich viel mehr Wassert\u00fcrme als bei uns?", "url": "https://www.swr.de/wissen/1000-antworten/warum-sieht-man-in-frankreich-viel-mehr-wassertuerme-als-bei-uns-104.html", "thumbnailUrl": "https://www.swr.de/wissen/1000-antworten/1653985520251%2Cwasserturm-frankreich-bretagne-100~_v-16x9@2dXL_-77ed5d09bafd4e3cf6a5a0264e5e16ea35f14925.jpg", "date": "Thu, 28 Mar 2024 10:00:04 +0100", "lat": 48.8566, "lon": 2.3522, "intensity": 0.3, "source": "SWR"}, {"title": "Verbot von Aromastoffen in E-Zigaretten gefordert", "url": "https://www.swr.de/wissen/forderung-nach-verbot-von-aromastoffen-in-e-zigaretten-100.html", "thumbnailUrl": "https://www.swr.de/wissen/1712062622328%2Cforderung-nach-verbot-von-aromastoffen-in-e-zigaretten-automat-100~_v-16x9@2dXL_-77ed5d09bafd4e3cf6a5a0264e5e16ea35f14925.jpg", "date": "Tue, 2 Apr 2024 15:10:57 +0200", "lat": 53.5511, "lon": 9.9937, "intensity": 0.8, "source": "SWR"}, {"title": "Junges Paar verl\u00e4sst Portugal, um in der Pfalz eine Ausbildung zu machen", "url": "https://www.swr.de/heimat/pfalz/bildergalerie-6272.html", "thumbnailUrl": "https://www.swr.de/heimat/pfalz/1711785603453%2Cfoto01-100~_v-16x9@2dXL_-77ed5d09bafd4e3cf6a5a0264e5e16ea35f14925.jpg", "date": "Tue, 2 Apr 2024 11:58:02 +0200", "lat": 49.305736, "lon": 8.247252, "intensity": 0.7, "source": "SWR"}, {"title": "Diebe pfl\u00fccken bei Kupferzell rund 2,5 Tonnen B\u00e4rlauch", "url": "https://www.swr.de/swraktuell/baden-wuerttemberg/heilbronn/baerlauch-pfluecker-unterwegs-100.html", "thumbnailUrl": "https://www.swr.de/swraktuell/baden-wuerttemberg/heilbronn/1712070636849%2Cbaerlauch-symbolbild-100~_v-16x9@2dXL_-77ed5d09bafd4e3cf6a5a0264e5e16ea35f14925.jpg", "date": "Wed, 3 Apr 2024 07:33:05 +0200", "lat": 49.2208, "lon": 9.6394, "intensity": 0.7, "source": "SWR"}, {"title": "Geocaching-Beh\u00e4lter legt Skigebiet im Kleinwalsertal stundenlang lahm", "url": "https://www.swr.de/swraktuell/baden-wuerttemberg/friedrichshafen/moderne-schnitzeljagd-legt-skigebiet-in-vorarlberg-lahm-100.html", "thumbnailUrl": "https://www.swr.de/swraktuell/baden-wuerttemberg/friedrichshafen/1711979924935%2Cskigebiet-kanzelwand-100~_v-16x9@2dXL_-77ed5d09bafd4e3cf6a5a0264e5e16ea35f14925.jpg", "date": "Tue, 2 Apr 2024 09:46:29 +0200", "lat": 47.3342, "lon": 10.1649, "intensity": 0.3, "source": "SWR"}, {"title": "Femizid? Get\u00f6tete Frau lag monatelang in Stuttgarter Wohnung", "url": "https://www.swr.de/swraktuell/baden-wuerttemberg/stuttgart/mann-soll-frau-getoetet-haben-100.html", "thumbnailUrl": "https://www.swr.de/swraktuell/baden-wuerttemberg/stuttgart/1712070387302%2Cleiche-lag-monatelang-in-wohnung-100~_v-16x9@2dXL_-77ed5d09bafd4e3cf6a5a0264e5e16ea35f14925.jpg", "date": "Wed, 3 Apr 2024 04:24:57 +0200", "lat": 48.7758, "lon": 9.177, "intensity": 0.9, "source": "SWR"}, {"title": "Cannabis-Legalisierung: Run auf Freiburger Hanf-Shop", "url": "https://www.swr.de/swraktuell/baden-wuerttemberg/suedbaden/cannabis-legalisierung-grosse-nachfrage-hanfshops-100.html", "thumbnailUrl": "https://www.swr.de/swraktuell/baden-wuerttemberg/suedbaden/1712052568973%2Chanfshop-freiburg-100~_v-16x9@2dXL_-77ed5d09bafd4e3cf6a5a0264e5e16ea35f14925.jpg", "date": "Wed, 3 Apr 2024 04:26:02 +0200", "lat": 47.99901, "lon": 7.85374, "intensity": 0.8, "source": "SWR"}, {"title": "Wer wird heute noch Bauer? H\u00f6festerben in Baden-W\u00fcrttemberg", "url": "https://www.swr.de/swraktuell/baden-wuerttemberg/heilbronn/hofsterben-bauernhof-nachfolger-weinsberger-tal-100.html", "thumbnailUrl": "https://www.swr.de/swraktuell/baden-wuerttemberg/heilbronn/1711633169175%2Chofsterben-05-100~_v-16x9@2dXL_-77ed5d09bafd4e3cf6a5a0264e5e16ea35f14925.jpg", "date": "Wed, 3 Apr 2024 05:11:15 +0200", "lat": 48.6966, "lon": 9.4935, "intensity": 0.8, "source": "SWR"}, {"title": "Jugendlicher in Trier will Falschgeld in echtes Geld umtauschen", "url": "https://www.swr.de/swraktuell/rheinland-pfalz/trier/jugendlicher-in-trier-will-falschgeld-in-gaststaette-wechseln-100.html", "thumbnailUrl": "https://www.swr.de/swraktuell/rheinland-pfalz/trier/1712057379295%2Cjugendlicher-will-laut-bundespolizei-in-trier-mit-falschgeld-bezahlen-100~_v-16x9@2dXL_-77ed5d09bafd4e3cf6a5a0264e5e16ea35f14925.jpg", "date": "Tue, 2 Apr 2024 13:29:39 +0200", "lat": 49.7493, "lon": 6.6417, "intensity": 0.6, "source": "SWR"}, {"title": "Foto des Tages", "url": "https://www.swr.de/swr1/rp/bildergalerie-foto-des-tages-100.html", "thumbnailUrl": "https://www.swr.de/swr1/rp/programm/1712041113267%2Cbildergalerie-foto-des-tages-2428~_v-16x9@2dXL_-77ed5d09bafd4e3cf6a5a0264e5e16ea35f14925.jpg", "date": "Tue, 2 Apr 2024 08:58:35 +0200", "lat": 41.9028, "lon": 12.4534, "intensity": 0.8, "source": "SWR"}, {"title": "Konzert mit Fran\u00e7ois-Xavier Roth, Isabelle Faust & Jean-Fr\u00e9d\u00e9ric Neuburger in Schwetzingen", "url": "https://www.swr.de/swr2/veranstaltungen/va-schwetzinger-festspiele-2024-verlosung-100.html", "thumbnailUrl": "https://www.swr.de/swr2/musik-klassik/schwetzinger-festspiele/1707390478554%2Cbild-ssf-2024-isabelle-faust-100~_v-16x9@2dXL_-77ed5d09bafd4e3cf6a5a0264e5e16ea35f14925.jpg", "date": "Thu, 21 Mar 2024 15:46:53 +0100", "lat": 49.3909, "lon": 8.5659, "intensity": 0.7, "source": "SWR"}, {"title": "Wir kommen zu euch!", "url": "https://www.swr.de/swr1/bw/programm/wir-kommen-zu-euch-fuer-uns-in-bw-tour-2024-100.html", "thumbnailUrl": "https://www.swr.de/swr1/bw/programm/1710944092379%2Cfuer-uns-in-baden-wuerttemberg-tour-allgemein-100~_v-16x9@2dXL_-77ed5d09bafd4e3cf6a5a0264e5e16ea35f14925.jpg", "date": "Tue, 2 Apr 2024 10:14:45 +0200", "lat": 49.0872, "lon": 9.1167, "intensity": 0.3, "source": "SWR"}, {"title": "Schwetzinger SWR Festspiele", "url": "https://www.swr.de/swr2/musik-klassik/schwetzinger-festspiele/artikel-programm-ssf-2024-100.html", "thumbnailUrl": null, "date": "Wed, 24 Jan 2024 12:47:20 +0100", "lat": 49.3822, "lon": 8.5635, "intensity": 0.4, "source": "SWR"}, {"title": "F\u00fcr nur 7 Euro seht ihr diese K\u00fcnstler beim SWR3 Rheinland-Pfalz Open Air Mainz!", "url": "https://www.swr3.de/events/rheinland-pfalz-open-air-mainz-100.html", "thumbnailUrl": "https://www.swr3.de/events/1708067629255%2Crheinland-pfalz-open-air-mainz-2024-lineup-100~_v-16x9@2dXL_-77ed5d09bafd4e3cf6a5a0264e5e16ea35f14925.jpg", "date": "Thu, 28 Mar 2024 09:26:14 +0100", "lat": 50.00113, "lon": 8.24725, "intensity": 0.6, "source": "SWR"}, {"title": "SWR2 Vor Ort: live dabei sein beim lesenswert Quartett mit Denis Scheck", "url": "https://www.swr.de/swr2/veranstaltungen/va-lesenswert-quartett-104.html", "thumbnailUrl": "https://www.swrfernsehen.de/lesenswert/1655834746554%2Cdenis-scheck-im-lesenswert-quartett-juni-2022-102~_v-16x9@2dXL_-77ed5d09bafd4e3cf6a5a0264e5e16ea35f14925.jpg", "date": "Mon, 4 Mar 2024 11:59:11 +0100", "lat": 50.00068, "lon": 8.26992, "intensity": 0.7, "source": "SWR"}, {"title": "\"Darauf freue ich mich\"", "url": "https://www.swrfernsehen.de/landesschau-rp/specials/formular-worauf-freuen-sie-sich-100.html", "thumbnailUrl": "https://www.swrfernsehen.de/landesschau-rp/specials/1653530478121%2Cdarauf-freue-ich-mich-102~_v-16x9@2dXL_-77ed5d09bafd4e3cf6a5a0264e5e16ea35f14925.jpg", "date": "Thu, 1 Feb 2024 12:50:28 +0100", "lat": 50.3974, "lon": 7.2661, "intensity": 0.3, "source": "SWR"}, {"title": "Das gro\u00dfe Bl\u00fchen", "url": "https://www.swr.de/wissen/apfelbluete/index.html", "thumbnailUrl": null, "date": "Wed, 27 Mar 2024 14:25:16 +0100", "lat": 51.5143, "lon": 9.9534, "intensity": 0.3, "source": "SWR"}, {"title": "3. April: +++ Apfelbl\u00fcte breitet sich nach Osten und Norden aus! +++", "url": "https://www.swr.de/wissen/apfelbluete/apfelbluete-liveticker-2024-100.html", "thumbnailUrl": "https://www.swr.de/wissen/apfelbluete/1711284440198%2Capfelbluete-moers-240323-102~_v-16x9@2dXL_-77ed5d09bafd4e3cf6a5a0264e5e16ea35f14925.jpg", "date": "Wed, 3 Apr 2024 00:42:52 +0200", "lat": 49.992861, "lon": 8.239895, "intensity": 0.4, "source": "SWR"}, {"title": "Dossier: Wie wohnt Rheinland-Pfalz?", "url": "https://www.swr.de/swraktuell/rheinland-pfalz/dossier-wohnen-in-rheinland-pfalz-102.html", "thumbnailUrl": "https://www.swr.de/swraktuell/rheinland-pfalz/1710928774431%2Cwohnen-symbolbild-100~_v-16x9@2dXL_-77ed5d09bafd4e3cf6a5a0264e5e16ea35f14925.jpg", "date": "Thu, 21 Mar 2024 07:36:09 +0100", "lat": 49.7604, "lon": 7.4157, "intensity": 0.5, "source": "SWR"}, {"title": "Vielfalt macht uns stark!", "url": "https://www.swr.de/home/diversitaetstag-100.html", "thumbnailUrl": "https://www.swr.de/home/1684163752619%2Cdiversity-day-2023-vielfalt-inklusion-logo-100~_v-16x9@2dXL_-77ed5d09bafd4e3cf6a5a0264e5e16ea35f14925.jpg", "date": "Wed, 27 Mar 2024 14:55:13 +0100", "lat": 48.791491, "lon": 9.993682, "intensity": 0.3, "source": "SWR"}, {"title": "So tanken Sie heute g\u00fcnstig", "url": "https://www.swr.de/swraktuell/diesel-und-benzinpreise-aktuell-so-tanken-sie-heute-clever-100.html", "thumbnailUrl": "https://www.swr.de/swraktuell/1667503969159%2Cdiesel-und-benzinpreise-so-teuer-ist-tanken-102~_v-16x9@2dXL_-77ed5d09bafd4e3cf6a5a0264e5e16ea35f14925.jpg", "date": "Wed, 3 Apr 2024 08:30:05 +0200", "lat": 51.1657, "lon": 10.4515, "intensity": 0.2, "source": "SWR"}, {"title": "Dossier: Wie der Klimawandel das Leben in Rheinland-Pfalz beeinflusst", "url": "https://www.swr.de/swraktuell/rheinland-pfalz/dossier-klimawandel-rheinland-pfalz-102.html", "thumbnailUrl": "https://www.swr.de/swraktuell/baden-wuerttemberg/ulm/1704477674263%2Causwirkungen-klimawandel-auf-wald-und-baeume-104~_v-16x9@2dXL_-77ed5d09bafd4e3cf6a5a0264e5e16ea35f14925.jpg", "date": "Thu, 21 Mar 2024 07:52:17 +0100", "lat": 49.7931, "lon": 7.2662, "intensity": 0.8, "source": "SWR"}, {"title": "Coronavirus: Alles Wichtige f\u00fcr Rheinland-Pfalz und Baden-W\u00fcrttemberg", "url": "https://www.swr.de/swraktuell/coronavirus-alles-wichtige-fuer-baden-wuerttemberg-und-rheinland-pfalz-100.html", "thumbnailUrl": "https://www.swr.de/home/1653540557339%2Ccoronabuendel-teaser-mud-abgestimmt-teaserbild-100~_v-16x9@2dXL_-77ed5d09bafd4e3cf6a5a0264e5e16ea35f14925.jpg", "date": "Thu, 21 Mar 2024 14:36:16 +0100", "lat": 49.992862, "lon": 8.239761, "intensity": 0.7, "source": "SWR"}, {"title": "Alles auf E \u00b7 Friedefeld", "url": "https://www.ardmediathek.de/video/friedefeld/alles-auf-e-friedefeld-oder-animated-sitcom/br-fernsehen/Y3JpZDovL2JyLmRlL2Jyb2FkY2FzdFNjaGVkdWxlU2xvdC80MTI2MzQ4NzM4MTNfRjIwMjRXTzAwMDcyM0Ew", "thumbnailUrl": "https://www.swrfernsehen.de/1711544631323%2Cfriedfeld-104~_v-16x9@2dXL_-77ed5d09bafd4e3cf6a5a0264e5e16ea35f14925.jpg", "date": "Wed, 27 Mar 2024 14:03:51 +0100", "lat": 50.35311, "lon": 7.58763, "intensity": 0.7, "source": "SWR"}, {"title": "Der SWR in der ARD Mediathek", "url": "https://www.ardmediathek.de/swr", "thumbnailUrl": "https://www.swrfernsehen.de/1653655919246%2Card-mediathek-168~_v-16x9@2dXL_-77ed5d09bafd4e3cf6a5a0264e5e16ea35f14925.jpg", "date": "Fri, 27 May 2022 14:51:59 +0200", "lat": 48.790447, "lon": 9.993682, "intensity": 0.1, "source": "SWR"}, {"title": "Wir kommen zu euch!", "url": "https://www.swr.de/swr1/bw/programm/wir-kommen-zu-euch-fuer-uns-in-bw-tour-2024-100.html", "thumbnailUrl": "https://www.swr.de/swr1/bw/programm/1710944092379%2Cfuer-uns-in-baden-wuerttemberg-tour-allgemein-100~_v-16x9@2dXL_-77ed5d09bafd4e3cf6a5a0264e5e16ea35f14925.jpg", "date": "Tue, 2 Apr 2024 10:14:45 +0200", "lat": 49.0872, "lon": 9.1167, "intensity": 0.3, "source": "SWR"}, {"title": "Pablo Heras-Casado dirigiert Faur\u00e9, Ravel und Schumann", "url": "https://www.swr.de/swr2/musik-klassik/symphonieorchester/pablo-heras-casado-dirigiert-das-swr-symphonieorchester-100.html", "thumbnailUrl": "https://www.swr.de/swr2/musik-klassik/klangvielfalt/1687340540732%2Cstill-pablo-heras-casado-102~_v-16x9@2dL_-6c42aff4e68b43c7868c3240d3ebfa29867457da.jpg", "date": "Fri, 16 Feb 2024 13:30:38 +0100", "lat": 47.9972, "lon": 7.8492, "intensity": 0.3, "source": "SWR"}, {"title": "Unpopul\u00e4re Meinungen: 7 \u00fcberraschende Dinge, die nicht jeder mag!", "url": "https://www.swr3.de/aktuell/service/unpopulaere-meinung-100.html", "thumbnailUrl": "https://www.swr3.de/aktuell/service/1712113207524%2Cunpopulaere-meinungen-swr3-100~_v-16x9@2dXL_-77ed5d09bafd4e3cf6a5a0264e5e16ea35f14925.jpg", "date": "Wed, 3 Apr 2024 05:00:04 +0200", "lat": 48.7758, "lon": 9.9833, "intensity": 0.2, "source": "SWR"}, {"title": "105 - Drei Jahre nach dem Messerangriff", "url": "https://www.dasding.de/podcasts/105-drei-jahre-nach-dem-messerangriff-100.html", "thumbnailUrl": "https://www.dasding.de/podcasts/1707915766377%2C5-minuten-vor-dem-tod-cover-dasding-logo-100~_logo-dasding@2dlogo@2d100_v-16x9@2dXL_-6f98d90187a4197edb920af2094c86e92abec1fc.png", "date": "Wed, 27 Mar 2024 03:00:01 +0100", "lat": 48.7758, "lon": 9.1829, "intensity": 0.7, "source": "SWR"}, {"title": "Starkes Erdbeben ersch\u00fcttert Taiwan", "url": "https://www.spiegel.de/panorama/starkes-erdbeben-erschuettert-taiwan-tsunami-warnung-in-japan-und-den-philippinen-a-2ab8545f-e657-435a-b7f9-833683e144f2#ref=rss", "thumbnailUrl": "https://cdn.prod.www.spiegel.de/images/0ed06c01-5157-494d-b156-ac8c990c64e2_w520_r2.08_fpx37.38_fpy50.jpg", "date": "Wed, 3 Apr 2024 03:50:00 +0200", "lat": 23.9731, "lon": 121.6114, "intensity": 1, "source": "SPIEGEL"}, {"title": "Israel-Gaza-Krieg: Biden verlangt von Israel Kl\u00e4rung des Angriffs auf Hilfskonvoi", "url": "https://www.spiegel.de/ausland/israel-gaza-krieg-biden-verlangt-von-israel-klaerung-des-angriffs-auf-hilfskonvoi-a-c950d3ae-5626-44d0-8ff3-53de546f70b2#ref=rss", "thumbnailUrl": "https://cdn.prod.www.spiegel.de/images/460b4410-1ff3-407c-8441-70b157394daf_w520_r2.08_fpx33.33_fpy50.jpg", "date": "Wed, 3 Apr 2024 05:07:00 +0200", "lat": 31.5103, "lon": 34.4353, "intensity": 0.8, "source": "SPIEGEL"}, {"title": "Gerhard Schr\u00f6der: NDR-Film zeigt die Welt des umstrittenen Altkanzler", "url": "https://www.spiegel.de/politik/deutschland/gerhard-schroeder-ndr-film-zeigt-die-welt-des-umstrittenen-altkanzler-a-b5a47715-a77e-4656-a507-707e346dce98#ref=rss", "thumbnailUrl": "https://cdn.prod.www.spiegel.de/images/1a798c05-801a-4c42-be88-e5cd40254e46_w520_r2.08_fpx54.86_fpy50.jpg", "date": "Tue, 2 Apr 2024 20:53:00 +0200", "lat": 52.3759, "lon": 9.7332, "intensity": 0.6, "source": "SPIEGEL"},