[{"title": "++ Selenskyj klagt \u00fcber fehlende Ausr\u00fcstung ++", "url": "https://www.tagesschau.de/newsticker/liveblog-ukraine-samstag-388.html", "thumbnailUrl": "https://images.tagesschau.de/image/d4990ab0-e9cb-4259-80dd-87e89458170b/AAABj2KDJao/AAABjwnlKNc/16x9-512.jpg", "date": "2024-05-18T03:22:38.948+02:00", "lat": 50.4501, "lon": 30.5234, "intensity": 0.7, "source": "Tagesschau"}, {"title": "++ Seniorenheim Saarburg evakuiert ++ Fu\u00dfg\u00e4ngerzone Zweibr\u00fccken \u00fcberflutet ++ Lage in S\u00fcdwestpfalz entspannt sich", "url": "https://www.tagesschau.de/inland/regional/rheinlandpfalz/swr-rlp-unwetter-ticker-experten-warnen-vor-ueberflutungen-100.html", "thumbnailUrl": "https://images.tagesschau.de/image/296a8139-5c95-4d7a-a36c-eecd4c0040f1/AAABj4lKw4w/AAABjwnlKNc/16x9-512.jpg", "date": "2024-05-18T03:03:00.000+02:00", "lat": 49.6023, "lon": 7.4077, "intensity": 0.8, "source": "Tagesschau"}, {"title": "Extreme Gefahr durch Hochwasser im Saarland", "url": "https://www.tagesschau.de/inland/unwetter-deutschland-160.html", "thumbnailUrl": "https://images.tagesschau.de/image/7f8e5191-5678-4d29-824e-be79dbac680a/AAABj4ePJoI/AAABjwnlKNc/16x9-512.jpg", "date": "2024-05-18T02:38:38.776+02:00", "lat": 49.3964, "lon": 6.9533, "intensity": 0.8, "source": "Tagesschau"}, {"title": "Kroatiens Parlament billigt neues Kabinett", "url": "https://www.tagesschau.de/ausland/europa/kroatien-parlament-vertrauen-koalition-100.html", "thumbnailUrl": "https://images.tagesschau.de/image/5fb6f6d4-2611-4bf7-be12-6bf747d89354/AAABj4iOzQ4/AAABjwnlKNc/16x9-512.jpg", "date": "2024-05-18T00:12:30.460+02:00", "lat": 45.815, "lon": 15.9789, "intensity": 0.8, "source": "Tagesschau"}, {"title": "Dauerregen in Rheinland-Pfalz: Keller und Stra\u00dfen \u00fcberflutet", "url": "https://www.tagesschau.de/inland/regional/rheinlandpfalz/swr-gefahr-von-unwettern-mit-starkregen-in-rheinland-pfalz-100.html", "thumbnailUrl": "https://images.tagesschau.de/image/8067ab72-b767-4fb6-8c0b-2b805b7b920e/AAABj4lKyLE/AAABjwnlKNc/16x9-512.jpg", "date": "2024-05-17T23:46:00.000+02:00", "lat": 49.7933, "lon": 7.4474, "intensity": 0.8, "source": "Tagesschau"}, {"title": "Verpatzter Start, starkes Finish: Zverev im Finale von Rom", "url": "https://www.tagesschau.de/inland/regional/hamburg/ndr-verpatzter-start-starkes-finish-zverev-im-finale-von-rom-102.html", "thumbnailUrl": "https://images.tagesschau.de/image/831a8cca-1f47-4c40-a5e7-254eb04c954f/AAABj4iE9zI/AAABjwnlKNc/16x9-512.jpg", "date": "2024-05-17T23:45:00.000+02:00", "lat": 53.5511, "lon": 9.9937, "intensity": 0.7, "source": "Tagesschau"}, {"title": "Hochwasser-Lage in Teilen der S\u00fcdwestpfalz \"kritisch\"", "url": "https://www.tagesschau.de/inland/regional/rheinlandpfalz/swr-wetter-im-westen-der-pfalz-hier-gibt-es-hochwasser-und-ueberschwemmungen-102.html", "thumbnailUrl": "https://images.tagesschau.de/image/c194e428-52db-4a8c-aeb6-6f2b23588830/AAABj4lKvlo/AAABjwnlKNc/16x9-512.jpg", "date": "2024-05-17T23:22:00.000+02:00", "lat": 49.375404, "lon": 7.594535, "intensity": 0.8, "source": "Tagesschau"}, {"title": "Pfingsten und Schulferien: Viel los auf den Autobahnen im Norden", "url": "https://www.tagesschau.de/inland/regional/niedersachsen/ndr-pfingsten-und-schulferien-viel-staus-im-norden-erwartet-100.html", "thumbnailUrl": "https://images.tagesschau.de/image/c4e72ab4-94bd-4a1e-a180-316149b71519/AAABj4hpdYI/AAABjwnlKNc/16x9-512.jpg", "date": "2024-05-17T23:11:00.000+02:00", "lat": 52.3759, "lon": 9.732, "intensity": 0.8, "source": "Tagesschau"}, {"title": "Ergiebiger Regen: Unwetterwarnung gilt noch f\u00fcr Nordh\u00e4lfte von BW", "url": "https://www.tagesschau.de/inland/regional/badenwuerttemberg/swr-neue-unwetter-am-mittwoch-drohen-wieder-ueberschwemmungen-in-bw-100.html", "thumbnailUrl": "https://images.tagesschau.de/image/e4e2749a-300a-4a5d-b2e3-41d5f4af0fae/AAABj4iIsKU/AAABjwnlKNc/16x9-512.jpg", "date": "2024-05-17T23:07:00.000+02:00", "lat": 48.8566, "lon": 9.0146, "intensity": 0.8, "source": "Tagesschau"}, {"title": "Evakuierungen im Kreis Trier-Saarburg", "url": "https://www.tagesschau.de/inland/regional/rheinlandpfalz/swr-hochwasser-mosel-koennte-am-pegel-trier-die-acht-meter-erreichen-100.html", "thumbnailUrl": "https://images.tagesschau.de/image/c312ebcb-072c-4c52-9808-2e880fdfe519/AAABj4lKy1c/AAABjwnlKNc/16x9-512.jpg", "date": "2024-05-17T22:47:00.000+02:00", "lat": 49.8127, "lon": 6.7548, "intensity": 0.8, "source": "Tagesschau"}, {"title": "Wall Street im Standby-Modus", "url": "https://www.tagesschau.de/wirtschaft/finanzen/marktberichte/marktbericht-dax-dow-fed-ezb-geldanlage-zinsen-100.html", "thumbnailUrl": "https://images.tagesschau.de/image/6577b963-069c-4b97-9293-d72661d6bf90/AAABibTCjbw/AAABjwnlKNc/16x9-512.jpg", "date": "2024-05-17T22:42:10.831+02:00", "lat": 40.707907, "lon": -74.011847, "intensity": 0.5, "source": "Tagesschau"}, {"title": "Horst Hrubesch - Ungeheuer erfolgreich", "url": "https://www.tagesschau.de/inland/regional/hamburg/ndr-horst-hrubesch-ungeheuer-erfolgreich-102.html", "thumbnailUrl": "https://images.tagesschau.de/image/a657b050-94f0-47f6-8ae2-047db620d8ad/AAABj4hKYwA/AAABjwnlKNc/16x9-512.jpg", "date": "2024-05-17T22:40:00.000+02:00", "lat": 53.5511, "lon": 9.9937, "intensity": 0.7, "source": "Tagesschau"}, {"title": "Erneut giftige Goldalgen in der Oder entdeckt", "url": "https://www.tagesschau.de/inland/regional/brandenburg/rbb-erneut-giftige-goldalgen-in-der-oder-entdeckt-100.html", "thumbnailUrl": "https://images.tagesschau.de/image/0f3090fa-bb6c-4fbb-8b23-75fcdac53537/AAABj4hIhIk/AAABjwnlKNc/16x9-512.jpg", "date": "2024-05-17T22:34:28.000+02:00", "lat": 52.4226, "lon": 14.4067, "intensity": 0.8, "source": "Tagesschau"}, {"title": "++ Mehrere Tote bei russischen Angriffen ++", "url": "https://www.tagesschau.de/newsticker/liveblog-ukraine-freitag-386.html", "thumbnailUrl": "https://images.tagesschau.de/image/012549ff-2c0d-411a-b6df-62bcff9ea39a/AAABj4eA6Ko/AAABjwnlKNc/16x9-512.jpg", "date": "2024-05-17T22:25:22.627+02:00", "lat": 50.4501, "lon": 30.5234, "intensity": 0.9, "source": "Tagesschau"}, {"title": "Frau in Offenbach get\u00f6tet - Lebensgef\u00e4hrte in U-Haft", "url": "https://www.tagesschau.de/inland/regional/hessen/hr-frau-in-offenbach-getoetet-ehemann-in-u-haft-100.html", "thumbnailUrl": "https://images.tagesschau.de/image/7cfb1175-55fd-402b-9ca7-bbaaceafc3b8/AAABj4gwri8/AAABjwnlKNc/16x9-512.jpg", "date": "2024-05-17T22:13:23.642+02:00", "lat": 50.1005, "lon": 8.7705, "intensity": 0.8, "source": "Tagesschau"}, {"title": "ICE-Strecke zwischen G\u00f6ttingen und Kassel Ende Mai wieder frei", "url": "https://www.tagesschau.de/inland/regional/niedersachsen/ndr-ice-stecke-zwischen-goettingen-und-kassel-ende-mai-wieder-frei-100.html", "thumbnailUrl": "https://images.tagesschau.de/image/16e01620-0dac-4fcc-89fb-2b9e47be424b/AAABj4a7Stk/AAABjwnlKNc/16x9-512.jpg", "date": "2024-05-17T22:09:00.000+02:00", "lat": 51.541, "lon": 9.935, "intensity": 0.7, "source": "Tagesschau"}, {"title": "Pfingstwochenende: Das Wetter im Norden zeigt sich wechselhaft", "url": "https://www.tagesschau.de/inland/regional/niedersachsen/ndr-wetter-am-pfingstwochenende-im-norden-wird-es-wechselhaft-100.html", "thumbnailUrl": "https://images.tagesschau.de/image/54060ae3-2294-49fe-8b3e-2fc5afb5b879/AAABj4giL8A/AAABjwnlKNc/16x9-512.jpg", "date": "2024-05-17T21:56:00.000+02:00", "lat": 52.3759, "lon": 9.8608, "intensity": 0.6, "source": "Tagesschau"}, {"title": "Waldbrandgefahr: In f\u00fcnf Regionen gilt h\u00f6chste Warnstufe", "url": "https://www.tagesschau.de/inland/regional/niedersachsen/ndr-waldbrandgefahr-steigt-hoechste-warnstufe-in-fuenf-regionen-100.html", "thumbnailUrl": "https://images.tagesschau.de/image/a9c58537-ee20-4c13-baa0-b4ad5cafb427/AAABj4giNtw/AAABjwnlKNc/16x9-512.jpg", "date": "2024-05-17T21:54:00.000+02:00", "lat": 52.8932, "lon": 10.3127, "intensity": 0.8, "source": "Tagesschau"}, {"title": "Psychiatrie f\u00fcr Straft\u00e4ter: Todesfall in Berliner Ma\u00dfregelvollzug - Hintergr\u00fcnde unklar", "url": "https://www.tagesschau.de/inland/regional/berlin/rbb-psychiatrie-fuer-straftaeter-todesfall-in-berliner-massregelvollzug-hintergruende-unklar-100.html", "thumbnailUrl": "https://images.tagesschau.de/image/7d8a5343-ad91-4fb4-ba94-1645246fc262/AAABj4gckKY/AAABjwnlKNc/16x9-512.jpg", "date": "2024-05-17T21:46:53.000+02:00", "lat": 52.52, "lon": 13.405, "intensity": 0.8, "source": "Tagesschau"}, {"title": "30 Jahre Haft f\u00fcr Angriff auf Ehemann von Pelosi", "url": "https://www.tagesschau.de/ausland/amerika/haftstrafe-taeter-pelosi-100.html", "thumbnailUrl": "https://images.tagesschau.de/image/964fa23f-96f2-45b2-9f73-e184474fef16/AAABj4gWE0A/AAABjwnlKNc/16x9-512.jpg", "date": "2024-05-17T21:44:59.531+02:00", "lat": 38.9072, "lon": -77.0369, "intensity": 0.8, "source": "Tagesschau"}, {"title": "Unwetter in Hessen: Noch keine Entwarnung vor Starkregen in S\u00fcdhessen und Rhein-Main", "url": "https://www.tagesschau.de/inland/regional/hessen/hr-unwetterwarnung-vor-hagel-und-starkregen-in-suedhessen-droht-land-unter-100.html", "thumbnailUrl": "https://images.tagesschau.de/image/74a585ba-bc18-4dc3-9f4d-39c2f8034202/AAABj4gVSgg/AAABjwnlKNc/16x9-512.jpg", "date": "2024-05-17T21:42:33.273+02:00", "lat": 50.1216, "lon": 8.6753, "intensity": 0.8, "source": "Tagesschau"}, {"title": "++ Schweden reagiert auf Sch\u00fcsse bei Botschaft Israels ++", "url": "https://www.tagesschau.de/newsticker/liveblog-nahost-freitag-136.html", "thumbnailUrl": "https://images.tagesschau.de/image/23d09cd9-73b0-4624-a51c-d59807258f45/AAABj4d1XLQ/AAABjwnlKNc/16x9-512.jpg", "date": "2024-05-17T21:38:47.794+02:00", "lat": 59.3293, "lon": 18.0719, "intensity": 0.7, "source": "Tagesschau"}, {"title": "Basketball: Frankfurt Skyliners gewinnen Auftakt des Playoff-Halbfinals in Trier", "url": "https://www.tagesschau.de/inland/regional/hessen/hr-basketball-frankfurt-skyliners-gewinnen-auftakt-des-playoff-halbfinals-in-trier-102.html", "thumbnailUrl": "https://images.tagesschau.de/image/5d873c37-564d-4059-b54a-f79904a5378c/AAABj4hwx1g/AAABjwnlKNc/16x9-512.jpg", "date": "2024-05-17T21:29:41.211+02:00", "lat": 49.7556, "lon": 6.6431, "intensity": 0.7, "source": "Tagesschau"}, {"title": "Nahost-Konflikt: Pro-Pal\u00e4stina-Camp an Frankfurter Uni geplant", "url": "https://www.tagesschau.de/inland/regional/hessen/hr-nahost-konflikt-pro-palaestina-camp-an-frankfurter-uni-geplant-100.html", "thumbnailUrl": "https://images.tagesschau.de/image/7b28cda7-bdef-4f14-b158-f8cd8d4eecdf/AAABj4gIZ1Y/AAABjwnlKNc/16x9-512.jpg", "date": "2024-05-17T21:28:46.696+02:00", "lat": 50.110922, "lon": 8.682127, "intensity": 0.8, "source": "Tagesschau"}, {"title": "\u00d6PNV in Hessen: Hohe Beteiligung an Busfahrerstreik - nach Pfingsten geht's weiter", "url": "https://www.tagesschau.de/inland/regional/hessen/hr-hessen-neue-streiks-bei-privaten-bus-unternehmen-ab-freitag-100.html", "thumbnailUrl": "https://images.tagesschau.de/image/715f9c51-5a41-424b-b948-5c4caf1ad7b2/AAABj4gE1Fc/AAABjwnlKNc/16x9-512.jpg", "date": "2024-05-17T21:25:20.875+02:00", "lat": 50.586, "lon": 9.4306, "intensity": 0.7, "source": "Tagesschau"}, {"title": "Rechte Koalition in den Niederlanden: Was kommt da auf uns zu?", "url": "https://www.tagesschau.de/inland/regional/nordrheinwestfalen/wdr-rechte-koalition-in-den-niederlanden-was-kommt-da-auf-uns-zu-100.html", "thumbnailUrl": "https://images.tagesschau.de/image/d6c0969a-52e0-4a3f-b2df-09f625e4abb8/AAABj4gBC4E/AAABjwnlKNc/16x9-512.jpg", "date": "2024-05-17T21:19:00.000+02:00", "lat": 51.468, "lon": 6.083, "intensity": 0.7, "source": "Tagesschau"}, {"title": "Neue Steuersch\u00e4tzung f\u00fcr Berlin: 174 Millionen Euro weniger als erwartet", "url": "https://www.tagesschau.de/inland/regional/berlin/rbb-neue-steuerschaetzung-berlin-rechnet-mit-ausfaellen-von-174-millionen-euro-100.html", "thumbnailUrl": "https://images.tagesschau.de/image/6b986f61-46f4-4886-91a3-2cfedab6a202/AAABj4f9yZg/AAABjwnlKNc/16x9-512.jpg", "date": "2024-05-17T21:16:51.000+02:00", "lat": 52.520008, "lon": 13.404954, "intensity": 0.7, "source": "Tagesschau"}, {"title": "Immer mehr Frauen arbeiten auf deutschen Schiffen", "url": "https://www.tagesschau.de/inland/regional/hamburg/ndr-anzahl-an-frauen-in-der-schiffahrt-nimmt-zu-100.html", "thumbnailUrl": "https://images.tagesschau.de/image/36afa92b-8957-4ffc-b021-ca9107917459/AAABj4cYiTI/AAABjwnlKNc/16x9-512.jpg", "date": "2024-05-17T21:08:00.000+02:00", "lat": 53.5511, "lon": 9.9937, "intensity": 0.8, "source": "Tagesschau"}, {"title": "Sexueller Kindesmissbrauch in Lohne? Verd\u00e4chtiger festgenommen", "url": "https://www.tagesschau.de/inland/regional/niedersachsen/ndr-sexueller-missbrauch-an-zwei-jungen-in-lohne-100.html", "thumbnailUrl": "https://images.tagesschau.de/image/727dcba6-ac88-4df8-82af-54be1d2418f9/AAABj4f0SSQ/AAABjwnlKNc/16x9-512.jpg", "date": "2024-05-17T21:05:00.000+02:00", "lat": 52.6551, "lon": 8.2901, "intensity": 0.8, "source": "Tagesschau"}, {"title": "Hanseatisches Oberlandesgericht: Prozess um Folter in Syrien startet", "url": "https://www.tagesschau.de/inland/regional/hamburg/ndr-hanseatisches-oberlandesgericht-prozess-um-folter-in-syrien-startet-100.html", "thumbnailUrl": "https://images.tagesschau.de/image/32a2e2f8-b2ba-42be-a0c2-03f81c9ce02b/AAABj4chyrQ/AAABjwnlKNc/16x9-512.jpg", "date": "2024-05-17T21:01:00.000+02:00", "lat": 53.5511, "lon": 9.9937, "intensity": 0.8, "source": "Tagesschau"}, {"title": "Bericht: HSV-Aufsichtsrat h\u00e4lt an Sportvorstand Boldt fest ", "url": "https://www.tagesschau.de/inland/regional/hamburg/ndr-bericht-hsv-aufsichtsrat-haelt-an-sportvorstand-boldt-fest-102.html", "thumbnailUrl": "https://images.tagesschau.de/image/c73e95a3-a91b-469b-9c64-6089f43bf5f8/AAABj4bAtAA/AAABjwnlKNc/16x9-512.jpg", "date": "2024-05-17T21:01:00.000+02:00", "lat": 53.55, "lon": 10.0, "intensity": 0.8, "source": "Tagesschau"}, {"title": "Unwetterwarnung f\u00fcr NRW aufgehoben - Saarland unter Wasser", "url": "https://www.tagesschau.de/inland/regional/nordrheinwestfalen/wdr-wetterumschwung-in-sicht-wieder-starkregen-und-gewitter-moeglich-100.html", "thumbnailUrl": "https://images.tagesschau.de/image/9ae50078-b4ee-4125-8aee-be574e987af8/AAABj4fuyV4/AAABjwnlKNc/16x9-512.jpg", "date": "2024-05-17T20:59:00.000+02:00", "lat": 51.4332, "lon": 7.6261, "intensity": 0.7, "source": "Tagesschau"}, {"title": "Nieders\u00e4chsischer Landtag feiert 75 Jahre Grundgesetz", "url": "https://www.tagesschau.de/inland/regional/niedersachsen/ndr-niedersaechsischer-landtag-feiert-75-jahre-grundgesetz-100.html", "thumbnailUrl": "https://images.tagesschau.de/image/a0c1839e-c8d0-4d75-8416-9c2768b00271/AAABj4fwr0k/AAABjwnlKNc/16x9-512.jpg", "date": "2024-05-17T20:56:00.000+02:00", "lat": 52.3759, "lon": 9.7461, "intensity": 0.8, "source": "Tagesschau"}, {"title": "A7 nach Unfall mit Schwerlasttransporter wieder freigegeben", "url": "https://www.tagesschau.de/inland/regional/hamburg/ndr-sperrung-der-a7-nach-unfall-mit-schwerlasttransporter-100.html", "thumbnailUrl": "https://images.tagesschau.de/image/cb29ef75-c95a-4506-ba4f-a3824a4cfadd/AAABj4fj3XY/AAABjwnlKNc/16x9-512.jpg", "date": "2024-05-17T20:46:00.000+02:00", "lat": 53.5185, "lon": 9.8862, "intensity": 0.8, "source": "Tagesschau"}, {"title": "Hamburg ist in die Freibad-Saison gestartet", "url": "https://www.tagesschau.de/inland/regional/hamburg/ndr-freibad-saison-startet-in-hamburg-am-freitag-100.html", "thumbnailUrl": "https://images.tagesschau.de/image/2bf9b771-2d77-4860-a73f-32dc97e74673/AAABj4V1XFU/AAABjwnlKNc/16x9-512.jpg", "date": "2024-05-17T20:39:00.000+02:00", "lat": 53.5511, "lon": 9.9833, "intensity": 0.4, "source": "Tagesschau"}, {"title": "Handball-Derby: HSG Wetzlar f\u00fcgt MT Melsungen erste Heimpleite zu", "url": "https://www.tagesschau.de/inland/regional/hessen/hr-handball-derby-hsg-wetzlar-fuegt-mt-melsungen-erste-heimpleite-zu-102.html", "thumbnailUrl": "https://images.tagesschau.de/image/90aa1647-124a-4543-b337-5a2cf3bda8c8/AAABj4fpXLk/AAABjwnlKNc/16x9-512.jpg", "date": "2024-05-17T20:35:44.187+02:00", "lat": 51.2502, "lon": 9.4061, "intensity": 0.7, "source": "Tagesschau"}, {"title": "Architekturkritiker zum Wiederaufbau historischer Geb\u00e4ude: \"Sch\u00f6ne moderne Architektur gibt es, aber viel zu wenig\"", "url": "https://www.tagesschau.de/inland/regional/brandenburg/rbb-architekturkritiker-zum-wiederaufbau-historischer-gebaeude-schoene-moderne-architektur-gibt-es-aber-viel-zu-wenig-100.html", "thumbnailUrl": "https://images.tagesschau.de/image/5f74e765-6797-4741-9779-6013ed36fb9c/AAABj4fOKlE/AAABjwnlKNc/16x9-512.jpg", "date": "2024-05-17T20:34:14.000+02:00", "lat": 52.52, "lon": 13.405, "intensity": 0.6, "source": "Tagesschau"}, {"title": "Hamburger Rathausmarkt: Rainbowflash gegen Homophobie", "url": "https://www.tagesschau.de/inland/regional/hamburg/ndr-hamburger-rathausmarkt-rainbowflash-gegen-homophobie-100.html", "thumbnailUrl": "https://images.tagesschau.de/image/66b4313f-f976-44b5-a3cf-a78669095dbd/AAABj4eRcQI/AAABjwnlKNc/16x9-512.jpg", "date": "2024-05-17T20:32:00.000+02:00", "lat": 53.5503, "lon": 9.9937, "intensity": 0.7, "source": "Tagesschau"}, {"title": "Alba Berlin startet mit dominantem Heimsieg gegen Bonn in die Playoffs", "url": "https://www.tagesschau.de/inland/regional/berlin/rbb-alba-berlin-startet-mit-dominantem-heimsieg-gegen-bonn-in-die-playoffs-102.html", "thumbnailUrl": "https://images.tagesschau.de/image/235bd5e2-d535-47f8-99d1-a7581c140f49/AAABj4fOW-E/AAABjwnlKNc/16x9-512.jpg", "date": "2024-05-17T20:23:40.000+02:00", "lat": 52.52, "lon": 13.405, "intensity": 0.8, "source": "Tagesschau"}, {"title": "Leichen von drei Geiseln gefunden - darunter Shani Louk", "url": "https://www.tagesschau.de/ausland/asien/israel-gaza-geiseln-104.html", "thumbnailUrl": "https://images.tagesschau.de/image/cef0c6e4-c867-4d53-8033-3b7c1a49d463/AAABj4dCrUM/AAABjwnlKNc/16x9-512.jpg", "date": "2024-05-17T20:06:50.545+02:00", "lat": 31.501, "lon": 34.3956, "intensity": 0.8, "source": "Tagesschau"}, {"title": "Stoff aus Pfefferspray f\u00fcr Gro\u00dfeinsatz in Singen verantwortlich - Polizei ermittelt", "url": "https://www.tagesschau.de/inland/regional/badenwuerttemberg/swr-polizei-ermittelt-nach-grosseinsatz-in-singen-100.html", "thumbnailUrl": "https://images.tagesschau.de/image/06a4a448-5a35-488f-be04-295a9a059278/AAABj4e500o/AAABjwnlKNc/16x9-512.jpg", "date": "2024-05-17T20:02:00.000+02:00", "lat": 47.7597, "lon": 8.861, "intensity": 0.8, "source": "Tagesschau"}, {"title": "Fl\u00fcchtling f\u00fchrt Firma: Vom Analphabeten aus Afghanistan zum Solar-Unternehmer in Marburg", "url": "https://www.tagesschau.de/inland/regional/hessen/hr-fluechtling-fuehrt-firma-vom-analphabeten-aus-afghanistan-zum-solar-unternehmer-in-marburg-100.html", "thumbnailUrl": "https://images.tagesschau.de/image/81cf40a9-819e-4f27-a569-aa5c6753b4ac/AAABj4euu3o/AAABjwnlKNc/16x9-512.jpg", "date": "2024-05-17T19:48:21.005+02:00", "lat": 50.809015, "lon": 8.769984, "intensity": 0.8, "source": "Tagesschau"}, {"title": "Deepfakes: Hamburgs Justizsenatorin Gallina will sch\u00e4rfere Regeln", "url": "https://www.tagesschau.de/inland/regional/hamburg/ndr-deepfakes-hamburgs-justizsenatorin-gallina-will-schaerfere-regeln-100.html", "thumbnailUrl": "https://images.tagesschau.de/image/df868770-c1e2-4e76-99a9-7d30758b94e5/AAABj4UjA-Y/AAABjwnlKNc/16x9-512.jpg", "date": "2024-05-17T19:47:00.000+02:00", "lat": 53.5511, "lon": 9.9937, "intensity": 0.8, "source": "Tagesschau"}, {"title": "\"Lauterbach'scher Popanz\": BW-Gesundheitsminister kritisiert neuen Klinik-Atlas", "url": "https://www.tagesschau.de/inland/regional/badenwuerttemberg/swr-lauterbachscher-popanz-bw-gesundheitsminister-kritisiert-neuen-klinik-atlas-100.html", "thumbnailUrl": "https://images.tagesschau.de/image/81453a90-89ad-495c-8ffd-e025e2f57d45/AAABj4eyhoA/AAABjwnlKNc/16x9-512.jpg", "date": "2024-05-17T19:43:55.000+02:00", "lat": 48.6616, "lon": 9.4934, "intensity": 0.8, "source": "Tagesschau"}, {"title": "Feuerwehr bringt Brand in Reifenlager in Frankfurt (Oder) unter Kontrolle", "url": "https://www.tagesschau.de/inland/regional/brandenburg/rbb-frankfurt-oder-reifenlager-steht-in-flammen-loeschwasserversorgung-schwierig-100.html", "thumbnailUrl": "https://images.tagesschau.de/image/71444a03-7b87-48e4-b0ff-ce5ad1bab831/AAABj4eljbQ/AAABjwnlKNc/16x9-512.jpg", "date": "2024-05-17T19:38:13.000+02:00", "lat": 52.3419, "lon": 14.5471, "intensity": 0.8, "source": "Tagesschau"}, {"title": "Ein Land in der Hand von NGOs?", "url": "https://www.tagesschau.de/faktenfinder/georgien-einflussnahme-ausland-ngos-maidan-100.html", "thumbnailUrl": "https://images.tagesschau.de/image/c5fb9207-6041-49aa-b772-691de5f5d20e/AAABjz3drHk/AAABjwnlKNc/16x9-512.jpg", "date": "2024-05-17T19:28:11.183+02:00", "lat": 41.7151, "lon": 44.793, "intensity": 0.6, "source": "Tagesschau"}, {"title": "Duisburg verteilt Freibier zur Europawahl - und kaum einer geht hin", "url": "https://www.tagesschau.de/inland/regional/nordrheinwestfalen/wdr-duisburg-verteilt-freibier-zur-europawahl-und-kaum-einer-geht-hin-100.html", "thumbnailUrl": "https://images.tagesschau.de/image/13d5fcda-a242-494a-bb2c-08d2c0db4d74/AAABj4f9Z0M/AAABjwnlKNc/16x9-512.jpg", "date": "2024-05-17T19:28:00.000+02:00", "lat": 51.4344, "lon": 6.7744, "intensity": 0.3, "source": "Tagesschau"}, {"title": "CDU versch\u00e4rft Kritik an Bezahlung von Stephan Weils B\u00fcroleiterin", "url": "https://www.tagesschau.de/inland/regional/niedersachsen/ndr-hoehere-bezahlung-von-weil-mitarbeiterin-ist-kein-einzelfall-100.html", "thumbnailUrl": "https://images.tagesschau.de/image/fc97649a-1c30-41ae-ade0-39dd7845bd0c/AAABj4eYxqo/AAABjwnlKNc/16x9-512.jpg", "date": "2024-05-17T19:25:00.000+02:00", "lat": 52.3735, "lon": 9.7356, "intensity": 0.8, "source": "Tagesschau"}, {"title": "Energieminister der L\u00e4nder fordern mehr Hilfe bei W\u00e4rmewende", "url": "https://www.tagesschau.de/inland/regional/schleswigholstein/ndr-energieminister-der-laender-fordern-mehr-hilfe-bei-waermewende-100.html", "thumbnailUrl": "https://images.tagesschau.de/image/8e1fb7fe-a739-413c-909c-c688700adef0/AAABj4eC3BE/AAABjwnlKNc/16x9-512.jpg", "date": "2024-05-17T19:00:00.000+02:00", "lat": 54.4688, "lon": 9.6963, "intensity": 0.7, "source": "Tagesschau"}, {"title": "Bund streicht F\u00f6rderung f\u00fcr Kitas: Niedersachsen will das verhindern", "url": "https://www.tagesschau.de/inland/regional/niedersachsen/ndr-bund-streicht-foerderung-fuer-kitas-niedersachsen-will-das-verhindern-100.html", "thumbnailUrl": "https://images.tagesschau.de/image/9edc3495-b944-4001-a9d9-e172319279d3/AAABj4TvnKY/AAABjwnlKNc/16x9-512.jpg", "date": "2024-05-17T18:55:00.000+02:00", "lat": 52.3759, "lon": 9.9533, "intensity": 0.7, "source": "Tagesschau"}, {"title": "\"Lift Off\" am TXL: Konzerte und DJs am fr\u00fcheren Flughafen Tegel", "url": "https://www.tagesschau.de/inland/regional/berlin/rbb-lift-off-am-txl-konzerte-und-djs-am-frueheren-flughafen-tegel-100.html", "thumbnailUrl": "https://images.tagesschau.de/image/fa094f0c-ba8f-4984-b80e-321c27bf5310/AAABj4d32Sc/AAABjwnlKNc/16x9-512.jpg", "date": "2024-05-17T18:49:50.000+02:00", "lat": 52.5549, "lon": 13.2877, "intensity": 0.6, "source": "Tagesschau"}, {"title": "EU-Kommissar Breton in Schwarze Pumpe: Wird die Lausitz das erste \"Net Zero Valley\" Europas?", "url": "https://www.tagesschau.de/inland/regional/brandenburg/rbb-eu-kommissar-breton-in-schwarze-pumpe-wird-die-lausitz-das-erste-net-zero-valley-europas-100.html", "thumbnailUrl": "https://images.tagesschau.de/image/2cacf4de-dd87-49bb-9240-888ca6008ec8/AAABj4d0J1M/AAABjwnlKNc/16x9-512.jpg", "date": "2024-05-17T18:45:58.000+02:00", "lat": 51.5624, "lon": 13.9386, "intensity": 0.8, "source": "Tagesschau"}, {"title": "Entflohener Sexualstraft\u00e4ter in den Niederlanden festgenommen", "url": "https://www.tagesschau.de/inland/regional/niedersachsen/ndr-sexualstraftaeter-aus-sicherungsverwahrung-geflohen-polizei-warnt-100.html", "thumbnailUrl": "https://images.tagesschau.de/image/b9433ac4-90ea-4fa7-aaa9-af6c9f4ac8d0/AAABj4dyZBk/AAABjwnlKNc/16x9-512.jpg", "date": "2024-05-17T18:44:00.000+02:00", "lat": 53.2326, "lon": 7.4593, "intensity": 0.8, "source": "Tagesschau"}, {"title": "Stahnsdorf: Gereinigtes Abwasser als Energiequelle", "url": "https://www.tagesschau.de/inland/regional/brandenburg/rbb-stahnsdorf-gereinigtes-abwasser-als-energiequelle-100.html", "thumbnailUrl": "https://images.tagesschau.de/image/1113b56f-6178-45ba-8517-a80e26e8ad75/AAABj4dyTMA/AAABjwnlKNc/16x9-512.jpg", "date": "2024-05-17T18:42:33.000+02:00", "lat": 52.3667, "lon": 13.2067, "intensity": 0.6, "source": "Tagesschau"}, {"title": "Fliegerbombe in Hamburg-Steinwerder entsch\u00e4rft", "url": "https://www.tagesschau.de/inland/regional/hamburg/ndr-fliegerbombe-in-hamburg-steinwerder-gefunden-100.html", "thumbnailUrl": "https://images.tagesschau.de/image/c2b45828-964e-4b24-bd1e-d73aa16d167c/AAABj4ZPKA4/AAABjwnlKNc/16x9-512.jpg", "date": "2024-05-17T18:05:00.000+02:00", "lat": 53.532647, "lon": 9.982286, "intensity": 0.8, "source": "Tagesschau"}, {"title": "Potsdamer PIK-Forscher Rockstr\u00f6m mit hochdotiertem Umweltpreis geehrt", "url": "https://www.tagesschau.de/inland/regional/brandenburg/rbb-potsdam-institut-fuer-klimafolgenforschung-johan-rockstroem-bekommt-bedeutenden-umwelt-preis-100.html", "thumbnailUrl": "https://images.tagesschau.de/image/f679afe1-0ddf-4d4a-bfc7-26b957798542/AAABj4dL1pk/AAABjwnlKNc/16x9-512.jpg", "date": "2024-05-17T17:59:18.000+02:00", "lat": 52.3906, "lon": 13.0645, "intensity": 0.8, "source": "Tagesschau"}, {"title": "Sportbecken im Berliner Sommerbad Neuk\u00f6lln weiterhin nicht nutzbar", "url": "https://www.tagesschau.de/inland/regional/berlin/rbb-sportbecken-im-berliner-sommerbad-neukoelln-weiterhin-nicht-nutzbar-100.html", "thumbnailUrl": "https://images.tagesschau.de/image/2f976dd6-098a-4d7a-acdc-7c237b4fb1cd/AAABj4dL6W8/AAABjwnlKNc/16x9-512.jpg", "date": "2024-05-17T17:56:32.000+02:00", "lat": 52.4818, "lon": 13.4286, "intensity": 0.5, "source": "Tagesschau"}, {"title": "Hohe Ausf\u00e4lle bei Obsternte in Brandenburg nach Frostn\u00e4chten im April", "url": "https://www.tagesschau.de/inland/regional/brandenburg/rbb-hohe-ausfaelle-bei-obsternte-in-brandenburg-102.html", "thumbnailUrl": "https://images.tagesschau.de/image/ee96931a-a478-4677-8892-d028d9ff3f29/AAABj4aUvQw/AAABjwnlKNc/16x9-512.jpg", "date": "2024-05-17T17:53:59.000+02:00", "lat": 52.4226, "lon": 13.3986, "intensity": 0.8, "source": "Tagesschau"}, {"title": "\"Hamas-Tunnel\" am Bebelplatz: \"Wir versuchen ein Gef\u00fchl zu erzeugen, die Situation ans Licht zu bringen.\"", "url": "https://www.tagesschau.de/inland/regional/berlin/rbb-hamas-tunnel-am-bebelplatz-wir-versuchen-ein-gefuehl-zu-erzeugen-die-situation-ans-licht-zu-bringen-100.html", "thumbnailUrl": "https://images.tagesschau.de/image/33707572-9a12-4de3-87fc-1a2c954a293b/AAABj4dCqxQ/AAABjwnlKNc/16x9-512.jpg", "date": "2024-05-17T17:49:55.000+02:00", "lat": 52.516273, "lon": 13.396961, "intensity": 0.6, "source": "Tagesschau"}, {"title": "Keinen Plan f\u00fcr die Zeit nach dem Krieg", "url": "https://www.tagesschau.de/kommentar/israel-plan-krieg-100.html", "thumbnailUrl": "https://images.tagesschau.de/image/2c13bfbd-e780-4f74-8c27-2dc8d0932beb/AAABjtq0wyg/AAABjwnlKNc/16x9-512.jpg", "date": "2024-05-17T17:49:40.562+02:00", "lat": 32.109333, "lon": 34.851612, "intensity": 0.7, "source": "Tagesschau"}, {"title": "CDU fordert im Landtag mehr NDR Inhalte aus Niedersachsen", "url": "https://www.tagesschau.de/inland/regional/niedersachsen/ndr-cdu-fordert-im-landtag-mehr-ndr-inhalte-aus-niedersachsen-100.html", "thumbnailUrl": "https://images.tagesschau.de/image/abc18522-dad8-4858-b0e0-e6f6dcdb367c/AAABj4dC3j8/AAABjwnlKNc/16x9-512.jpg", "date": "2024-05-17T17:49:00.000+02:00", "lat": 52.3738, "lon": 9.7356, "intensity": 0.6, "source": "Tagesschau"}, {"title": "Vorerst nur f\u00fcr Verein: Gro\u00dfr\u00e4schener See vorzeitig f\u00fcr Boote freigegeben", "url": "https://www.tagesschau.de/inland/regional/brandenburg/rbb-vorerst-nur-fuer-ilsesportverein-grossraeschener-see-vorzeitig-fuer-boote-freigegeben-100.html", "thumbnailUrl": "https://images.tagesschau.de/image/3f69f3de-3b1c-44aa-8d00-5df394217b98/AAABj4c3tS8/AAABjwnlKNc/16x9-512.jpg", "date": "2024-05-17T17:40:02.000+02:00", "lat": 51.01, "lon": 13.9017, "intensity": 0.6, "source": "Tagesschau"}, {"title": "Mehr Pollen: Deshalb leiden Allergiker zur Zeit besonders", "url": "https://www.tagesschau.de/inland/regional/schleswigholstein/ndr-mehr-pollen-deshalb-leiden-allergiker-zur-zeit-besonders-100.html", "thumbnailUrl": "https://images.tagesschau.de/image/301cb265-a406-4d9e-83b9-25ebbfa2b1e8/AAABj4clf1I/AAABjwnlKNc/16x9-512.jpg", "date": "2024-05-17T17:39:00.000+02:00", "lat": 54.3227, "lon": 9.9888, "intensity": 0.7, "source": "Tagesschau"}, {"title": "Bundesweiter Klinik-Atlas: Mehr Transparenz f\u00fcr Patienten", "url": "https://www.tagesschau.de/inland/regional/schleswigholstein/ndr-bundesweiter-klinik-atlas-mehr-transparenz-fuer-patienten-100.html", "thumbnailUrl": "https://images.tagesschau.de/image/3d55b263-c751-4f77-9053-f7afa35cea54/AAABj4f9tvs/AAABjwnlKNc/16x9-512.jpg", "date": "2024-05-17T17:39:00.000+02:00", "lat": 53.5653, "lon": 10.4515, "intensity": 0.8, "source": "Tagesschau"}, {"title": "Spuren von Brandbeschleuniger entdeckt", "url": "https://www.tagesschau.de/inland/explosion-kiosk-duesseldorf-brandbeschleuniger-100.html", "thumbnailUrl": "https://images.tagesschau.de/image/ee8929a3-f098-427a-b5ea-460c51e6b293/AAABj4fOH2g/AAABjwnlKNc/16x9-512.jpg", "date": "2024-05-17T17:38:52.763+02:00", "lat": 51.2277, "lon": 6.7735, "intensity": 0.8, "source": "Tagesschau"}, {"title": "Telekom-Tarifverhandlungen: Einigung in der vierten Verhandlungsrunde", "url": "https://www.tagesschau.de/inland/regional/nordrheinwestfalen/wdr-telekom-tarifverhandlungen-einigung-in-der-vierten-verhandlungsrunde-100.html", "thumbnailUrl": "https://images.tagesschau.de/image/92bd3331-9c38-448f-8024-51388b56ba99/AAABj4djk9I/AAABjwnlKNc/16x9-512.jpg", "date": "2024-05-17T17:34:00.000+02:00", "lat": 51.9607, "lon": 7.6261, "intensity": 0.6, "source": "Tagesschau"}, {"title": "Holstein Kiel: So l\u00e4uft die Bundesliga-Aufstiegsparty der \"St\u00f6rche\"", "url": "https://www.tagesschau.de/inland/regional/schleswigholstein/ndr-holstein-kiel-so-laeuft-die-bundesliga-aufstiegsparty-der-stoerche-104.html", "thumbnailUrl": "https://images.tagesschau.de/image/46883024-4a69-4b90-be2b-2c83fd200731/AAABj4H3sx0/AAABjwnlKNc/16x9-512.jpg", "date": "2024-05-17T17:33:00.000+02:00", "lat": 54.3233, "lon": 10.1228, "intensity": 0.7, "source": "Tagesschau"}, {"title": "\"Hochattraktiv\": Schachstar Carlsen spielt f\u00fcr \"coolen\" FC St. Pauli", "url": "https://www.tagesschau.de/inland/regional/hamburg/ndr-star-zugang-fuer-st-paulis-schach-team-ex-weltmeister-carlsen-kommt-100.html", "thumbnailUrl": "https://images.tagesschau.de/image/773ccec2-2b20-46f6-acc6-49e18178c6d9/AAABj4ZqnsU/AAABjwnlKNc/16x9-512.jpg", "date": "2024-05-17T17:33:00.000+02:00", "lat": 53.558, "lon": 9.984, "intensity": 0.8, "source": "Tagesschau"}, {"title": "Dachstuhl in der Torstra\u00dfe brennt - Rauchs\u00e4ule \u00fcber Berlin zu sehen", "url": "https://www.tagesschau.de/inland/regional/berlin/rbb-dachstuhl-in-der-torstrasse-brennt-rauchsaeule-ueber-berlin-zu-sehen-100.html", "thumbnailUrl": "https://images.tagesschau.de/image/ff443354-9cae-4a81-8205-aa9ce207d563/AAABj4cwaL0/AAABjwnlKNc/16x9-512.jpg", "date": "2024-05-17T17:30:27.000+02:00", "lat": 52.520008, "lon": 13.402776, "intensity": 0.8, "source": "Tagesschau"}, {"title": "Einigung im Tarifstreit des Einzelhandels in RLP", "url": "https://www.tagesschau.de/inland/regional/rheinlandpfalz/swr-einigung-im-tarifstreit-des-einzelhandels-in-rlp-102.html", "thumbnailUrl": "https://images.tagesschau.de/image/616d040b-1396-4fde-9e62-5f4428a49902/AAABj4csxZk/AAABjwnlKNc/16x9-512.jpg", "date": "2024-05-17T17:26:43.000+02:00", "lat": 50.2034, "lon": 7.2666, "intensity": 0.8, "source": "Tagesschau"}, {"title": "Trotz Legalisierung: Bu\u00dfgelder f\u00fcr unerlaubtes Kiffen festgelegt", "url": "https://www.tagesschau.de/inland/regional/nordrheinwestfalen/wdr-trotz-legalisierung-bussgelder-fuer-unerlaubtes-kiffen-festgelegt-100.html", "thumbnailUrl": "https://images.tagesschau.de/image/fac36892-ea83-4608-a886-c0d98b82d8a7/AAABj4cjunY/AAABjwnlKNc/16x9-512.jpg", "date": "2024-05-17T17:19:00.000+02:00", "lat": 51.9607, "lon": 7.6261, "intensity": 0.3, "source": "Tagesschau"}, {"title": "Demonstranten bedrohen Mitarbeitende in G\u00f6ttinger Rathaus", "url": "https://www.tagesschau.de/inland/regional/niedersachsen/ndr-demonstranten-bedrohen-mitarbeitende-in-goettinger-rathaus-100.html", "thumbnailUrl": "https://images.tagesschau.de/image/eec919e9-beb4-4160-9a5a-2ad959e5563e/AAABj4c_DYQ/AAABjwnlKNc/16x9-512.jpg", "date": "2024-05-17T17:13:00.000+02:00", "lat": 51.54, "lon": 9.932, "intensity": 0.8, "source": "Tagesschau"}, {"title": "Ehepaar feiert den 80. Hochzeitstag - in Deutschland am l\u00e4ngsten verheiratet", "url": "https://www.tagesschau.de/inland/regional/berlin/rbb-ehepaar-feiert-den-80-hochzeitstag-in-deutschland-am-laengsten-verheiratet-100.html", "thumbnailUrl": "https://images.tagesschau.de/image/d9be653f-b0df-48fb-a573-1344e344301e/AAABj4cP4B0/AAABjwnlKNc/16x9-512.jpg", "date": "2024-05-17T16:56:54.000+02:00", "lat": 52.520008, "lon": 13.404954, "intensity": 0.8, "source": "Tagesschau"}, {"title": "Hunderte hessische B\u00fcrgermeister auf mutma\u00dflicher Reichsb\u00fcrger-Liste", "url": "https://www.tagesschau.de/inland/regional/hessen/hr-hunderte-hessische-buergermeister-auf-mutmasslicher-reichsbuerger-liste-100.html", "thumbnailUrl": "https://images.tagesschau.de/image/19c45659-4f99-4a9b-bd0c-ceca95d61956/AAABj4cNqiM/AAABjwnlKNc/16x9-512.jpg", "date": "2024-05-17T16:55:25.817+02:00", "lat": 50.652, "lon": 9.569, "intensity": 0.8, "source": "Tagesschau"}, {"title": "Suchaktion eingestellt - mehrere Menschen bleiben vermisst", "url": "https://www.tagesschau.de/ausland/afrika/hauseinsturz-suedafrika-100.html", "thumbnailUrl": "https://images.tagesschau.de/image/bb1fe802-95f5-46ff-9da0-ede658c4d390/AAABj4bUSZI/AAABjwnlKNc/16x9-512.jpg", "date": "2024-05-17T16:52:34.396+02:00", "lat": -26.204103, "lon": 28.047305, "intensity": 0.8, "source": "Tagesschau"}, {"title": "Nach Ja zu Tesla-Erweiterung: Gegner k\u00fcndigen weiteren Protest an", "url": "https://www.tagesschau.de/inland/regional/brandenburg/rbb-autofabrik-in-gruenheide-streit-um-tesla-erweiterung-geht-nach-votum-fuer-bebauungsplan-weiter-100.html", "thumbnailUrl": "https://images.tagesschau.de/image/b8ea8fed-74c5-4bf4-99ef-96c91320313c/AAABj4cEaDk/AAABjwnlKNc/16x9-512.jpg", "date": "2024-05-17T16:51:21.000+02:00", "lat": 52.3789, "lon": 13.6336, "intensity": 0.7, "source": "Tagesschau"}, {"title": "Slowakischer Regierungschef Fico erneut operiert", "url": "https://www.tagesschau.de/ausland/fico-attentat-operiert-slowakei-100.html", "thumbnailUrl": "https://images.tagesschau.de/image/24974072-496b-4c0e-bb4f-edbaf5364363/AAABj4b1AbA/AAABjwnlKNc/16x9-512.jpg", "date": "2024-05-17T16:48:39.278+02:00", "lat": 48.1486, "lon": 17.1077, "intensity": 0.7, "source": "Tagesschau"}, {"title": "Wagenknecht auf Wahlkampftour: Am Ende fehlt Zeit f\u00fcr ein Selfie", "url": "https://www.tagesschau.de/inland/regional/mecklenburgvorpommern/ndr-wagenknecht-auf-wahlkampftour-am-ende-fehlt-zeit-fuer-ein-selfie-100.html", "thumbnailUrl": "https://images.tagesschau.de/image/7666b313-5baf-4903-89ca-04f5445b3ec1/AAABj4fu5As/AAABjwnlKNc/16x9-512.jpg", "date": "2024-05-17T16:38:00.000+02:00", "lat": 53.63541, "lon": 11.40408, "intensity": 0.7, "source": "Tagesschau"}, {"title": "Hohe Staugefahr zum Start der Pfingstferien in BW", "url": "https://www.tagesschau.de/inland/regional/badenwuerttemberg/swr-hohe-staugefahr-zum-start-der-pfingstferien-in-bw-102.html", "thumbnailUrl": "https://images.tagesschau.de/image/71864ab2-6407-458d-86c3-1736be18e1c6/AAABj4ZLh-M/AAABjwnlKNc/16x9-512.jpg", "date": "2024-05-17T16:24:00.000+02:00", "lat": 48.6616, "lon": 9.6756, "intensity": 0.8, "source": "Tagesschau"}, {"title": "Sexueller Missbrauch in Vaihingen-Kleinglattbach: Tatverd\u00e4chtiger festgenommen", "url": "https://www.tagesschau.de/inland/regional/badenwuerttemberg/swr-mann-soll-maedchen-auf-schulgelaende-missbraucht-haben-polizei-sucht-zeugen-100.html", "thumbnailUrl": "https://images.tagesschau.de/image/e41882c9-5527-4f69-ac8f-acb159892b58/AAABj3xPXMo/AAABjwnlKNc/16x9-512.jpg", "date": "2024-05-17T16:20:00.000+02:00", "lat": 48.935774, "lon": 8.947287, "intensity": 0.8, "source": "Tagesschau"}, {"title": "White Sands Festival Norderney erwartet Tausende Besucher", "url": "https://www.tagesschau.de/inland/regional/niedersachsen/ndr-white-sands-festival-norderney-erwartet-tausende-besucher-100.html", "thumbnailUrl": "https://images.tagesschau.de/image/d936c7e9-bad9-456d-8c80-f9f5470cb630/AAABj4b176M/AAABjwnlKNc/16x9-512.jpg", "date": "2024-05-17T16:06:00.000+02:00", "lat": 53.6942, "lon": 7.1416, "intensity": 0.8, "source": "Tagesschau"}, {"title": "Frau in Magdeburg angeschossen: T\u00e4ter weiterhin auf der Flucht", "url": "https://www.tagesschau.de/inland/regional/sachsenanhalt/mdr-frau-in-magdeburg-angeschossen-polizei-gibt-details-zu-tatverdaechtigem-bekannt-100.html", "thumbnailUrl": "https://images.tagesschau.de/image/99285d6d-0c3f-4036-be9e-66129ac17ebf/AAABj4YNYyA/AAABjwnlKNc/16x9-512.jpg", "date": "2024-05-17T16:02:48.000+02:00", "lat": 52.1205, "lon": 11.6295, "intensity": 0.7, "source": "Tagesschau"}, {"title": "Bahn im April wieder unp\u00fcnktlicher", "url": "https://www.tagesschau.de/wirtschaft/unternehmen/bahn-unpuenktlich-april-100.html", "thumbnailUrl": "https://images.tagesschau.de/image/2a5b85d8-d956-467e-a639-bdd33f025e4f/AAABj4aqC6I/AAABjwnlKNc/16x9-512.jpg", "date": "2024-05-17T16:00:39.282+02:00", "lat": 51.1657, "lon": 10.4515, "intensity": 0.8, "source": "Tagesschau"}, {"title": "Strandh\u00f6ft in der Hamburger Hafencity ge\u00f6ffnet", "url": "https://www.tagesschau.de/inland/regional/hamburg/ndr-strandkai-in-der-hamburger-hafencity-ab-freitag-zugaenglich-100.html", "thumbnailUrl": "https://images.tagesschau.de/image/da8d6725-f83e-4a13-a6e9-e0458bd5fddb/AAABj4bWoXg/AAABjwnlKNc/16x9-512.jpg", "date": "2024-05-17T15:57:00.000+02:00", "lat": 53.5411, "lon": 9.9937, "intensity": 0.6, "source": "Tagesschau"}, {"title": "Steuereinnahmen bleiben in MV hinter Erwartungen zur\u00fcck", "url": "https://www.tagesschau.de/inland/regional/mecklenburgvorpommern/ndr-steuereinnahmen-bleiben-in-mv-hinter-erwartungen-zurueck-100.html", "thumbnailUrl": "https://images.tagesschau.de/image/9f8c9e39-8596-4337-bb23-0fcd83f18e33/AAABj4eKMO0/AAABjwnlKNc/16x9-512.jpg", "date": "2024-05-17T15:54:00.000+02:00", "lat": 53.6127, "lon": 13.2181, "intensity": 0.7, "source": "Tagesschau"}, {"title": "Kultur: +++ Gartenfest Eichenzell startet +++ Sieben Meter hohe Skulptur im Museum Reinhard Ernst aufgebaut +++ FDP fordert Verhaltenskodex auch f\u00fcr documenta-Kuratoren +++", "url": "https://www.tagesschau.de/inland/regional/hessen/hr--schauspiel-frankfurt-bringt-putin-und-macbeth-zusammen--die-filmfestival-saison-2023-startet--lichter-filmfest-zum-thema-liebe-startet-am-dienstag-100.html", "thumbnailUrl": "https://images.tagesschau.de/image/21a06fb9-d62b-42e6-a119-9d9cd55d9d1a/AAABj4bRNk4/AAABjwnlKNc/16x9-512.jpg", "date": "2024-05-17T15:49:32.957+02:00", "lat": 50.1109, "lon": 8.5683, "intensity": 0.4, "source": "Tagesschau"}, {"title": "Forschende aus Wilhelmshaven gr\u00fcnden Start-up f\u00fcr Korallen", "url": "https://www.tagesschau.de/inland/regional/niedersachsen/ndr-forschende-aus-wilhelmshaven-gruenden-start-up-fuer-korallen-100.html", "thumbnailUrl": "https://images.tagesschau.de/image/2053ab60-5b41-42ae-95f9-673e72c3946a/AAABj4dXA20/AAABjwnlKNc/16x9-512.jpg", "date": "2024-05-17T15:49:00.000+02:00", "lat": 53.5326, "lon": 8.1391, "intensity": 0.6, "source": "Tagesschau"}, {"title": "4.700 Kinder ohne Arzt: Einzige Kinderarztpraxis in Neckarsulm macht zu", "url": "https://www.tagesschau.de/inland/regional/badenwuerttemberg/swr-4-700-kinder-ohne-arzt-einzige-kinderarztpraxis-in-neckarsulm-macht-zu-100.html", "thumbnailUrl": "https://images.tagesschau.de/image/b82efd67-c9e8-4ef5-9045-e467de107624/AAABj4cyKR4/AAABjwnlKNc/16x9-512.jpg", "date": "2024-05-17T15:44:56.000+02:00", "lat": 49.1951, "lon": 9.231, "intensity": 0.8, "source": "Tagesschau"}, {"title": "Viele Nierenkranke in MV: Spitzenforscher tauschen sich aus", "url": "https://www.tagesschau.de/inland/regional/mecklenburgvorpommern/ndr-viele-nierenkranke-in-mv-spitzenforscher-tauschen-sich-aus-100.html", "thumbnailUrl": "https://images.tagesschau.de/image/c7b57088-198e-4228-80d2-48679f916633/AAABj4bPVoE/AAABjwnlKNc/16x9-512.jpg", "date": "2024-05-17T15:42:00.000+02:00", "lat": 54.0914, "lon": 13.3833, "intensity": 0.6, "source": "Tagesschau"}, {"title": "Baum in Oberleitung: Sperrung zwischen Neum\u00fcnster und Hamburg aufgehoben", "url": "https://www.tagesschau.de/inland/regional/schleswigholstein/ndr-kein-bahnverkehr-zwischen-kiel-und-hamburg-100.html", "thumbnailUrl": "https://images.tagesschau.de/image/6aa3b3f7-86f9-48e2-828d-6e6355accc8d/AAABj4bjpoU/AAABjwnlKNc/16x9-512.jpg", "date": "2024-05-17T15:41:00.000+02:00", "lat": 53.5511, "lon": 9.9856, "intensity": 0.7, "source": "Tagesschau"}, {"title": "Potsdam: Radfahrer stirbt eine Woche nach Unfall mit Lkw im Krankenhaus", "url": "https://www.tagesschau.de/inland/regional/brandenburg/rbb-potsdam-radfahrer-stirbt-eine-woche-nach-unfall-mit-lkw-im-krankenhaus-100.html", "thumbnailUrl": "https://images.tagesschau.de/image/fab6edf6-8147-4dcb-8286-febe9ff6b774/AAABj4bJ1qQ/AAABjwnlKNc/16x9-512.jpg", "date": "2024-05-17T15:39:10.000+02:00", "lat": 52.3906, "lon": 13.0644, "intensity": 0.8, "source": "Tagesschau"}, {"title": "Pfingsten in MV: M\u00fchlen, Kunst und Urlauberandrang", "url": "https://www.tagesschau.de/inland/regional/mecklenburgvorpommern/ndr-pfingsten-in-mv-muehlen-kunst-und-urlauberandrang-100.html", "thumbnailUrl": "https://images.tagesschau.de/image/b5191b85-49e9-479a-a8eb-934befb88104/AAABj4dPg4c/AAABjwnlKNc/16x9-512.jpg", "date": "2024-05-17T15:38:00.000+02:00", "lat": 53.6127, "lon": 13.3777, "intensity": 0.5, "source": "Tagesschau"}, {"title": "70 Kilo Streusalz auf frischem Beton - fatale Folgen f\u00fcr Kita-Neubau", "url": "https://www.tagesschau.de/inland/regional/niedersachsen/ndr-70-kilo-streusalz-auf-frischem-beton-fatale-folgen-fuer-kita-neubau-100.html", "thumbnailUrl": "https://images.tagesschau.de/image/676f0708-f837-4d1d-9729-e3a84b7b7931/AAABj4b1yCI/AAABjwnlKNc/16x9-512.jpg", "date": "2024-05-17T15:30:00.000+02:00", "lat": 52.8659, "lon": 9.5919, "intensity": 0.8, "source": "Tagesschau"}, {"title": "Beh\u00f6rdenpanne stoppt Baustart von Oberbillwerder", "url": "https://www.tagesschau.de/inland/regional/hamburg/ndr-behoerdenpanne-stoppt-baustart-von-oberbillwerder-100.html", "thumbnailUrl": "https://images.tagesschau.de/image/4ac1e8e3-f9da-4994-b8c1-60a06e948e64/AAABj4a1saE/AAABjwnlKNc/16x9-512.jpg", "date": "2024-05-17T15:29:00.000+02:00", "lat": 53.55, "lon": 10.0, "intensity": 0.8, "source": "Tagesschau"}, {"title": "Hamburger Polizei-Angestellte sollen Falschparker betrogen haben", "url": "https://www.tagesschau.de/inland/regional/hamburg/ndr-hamburger-polizisten-sollen-falschparker-betrogen-haben-100.html", "thumbnailUrl": "https://images.tagesschau.de/image/b29e4bea-c196-485d-8d4e-8b161ded8dd5/AAABj4az6MM/AAABjwnlKNc/16x9-512.jpg", "date": "2024-05-17T15:15:00.000+02:00", "lat": 53.5438, "lon": 10.001, "intensity": 0.7, "source": "Tagesschau"}, {"title": "Pfadfinder treffen sich zum Landespfingstlager in Wolfsburg", "url": "https://www.tagesschau.de/inland/regional/niedersachsen/ndr-pfadfinder-treffen-sich-zum-landespfingstlager-in-wolfsburg-100.html", "thumbnailUrl": "https://images.tagesschau.de/image/624993b6-6de5-481d-bb51-f4023307d289/AAABj4g0YU4/AAABjwnlKNc/16x9-512.jpg", "date": "2024-05-17T15:01:00.000+02:00", "lat": 52.4226, "lon": 10.7862, "intensity": 0.6, "source": "Tagesschau"}, {"title": "Saisonabschluss in der 2. Liga: Hertha spielt beim Rekordabsteiger Osnabr\u00fcck um die Torj\u00e4gerkanone", "url": "https://www.tagesschau.de/inland/regional/berlin/rbb-saisonabschluss-in-der-2-liga-hertha-spielt-beim-rekordabsteiger-osnabrueck-um-die-torjaegerkanone-102.html", "thumbnailUrl": "https://images.tagesschau.de/image/7fa010c9-2b98-4cc6-b5f2-4f364354607c/AAABj4alVZI/AAABjwnlKNc/16x9-512.jpg", "date": "2024-05-17T14:59:04.000+02:00", "lat": 52.276006, "lon": 8.049278, "intensity": 0.6, "source": "Tagesschau"}, {"title": "Polizei verhindert Anschlag auf Synagoge", "url": "https://www.tagesschau.de/ausland/europa/frankreich-anschlag-synagoge-100.html", "thumbnailUrl": "https://images.tagesschau.de/image/d5604722-61ac-40ee-a538-77dd9ce1a1eb/AAABj4W5HsE/AAABjwnlKNc/16x9-512.jpg", "date": "2024-05-17T14:50:48.037+02:00", "lat": 48.8566, "lon": 2.3522, "intensity": 0.9, "source": "Tagesschau"}, {"title": "Kieler Forscher sammeln Daten zur Eisschmelze in der Antarktis", "url": "https://www.tagesschau.de/inland/regional/schleswigholstein/ndr-kieler-forscher-sammeln-daten-zur-eisschmelze-in-der-antarktis-102.html", "thumbnailUrl": "https://images.tagesschau.de/image/e171fab6-82d0-4376-8988-ea96e1eeaada/AAABj4acPQ0/AAABjwnlKNc/16x9-512.jpg", "date": "2024-05-17T14:49:00.000+02:00", "lat": -63.265, "lon": -64.888, "intensity": 0.8, "source": "Tagesschau"}, {"title": "Eintracht Frankfurt k\u00e4mpft gegen die Kopfschmerz-Saison", "url": "https://www.tagesschau.de/inland/regional/hessen/hr-eintracht-frankfurt-kaempft-gegen-die-kopfschmerz-saison-102.html", "thumbnailUrl": "https://images.tagesschau.de/image/3d25163f-c796-4836-aa4e-658ddfbce5c4/AAABj4afsjo/AAABjwnlKNc/16x9-512.jpg", "date": "2024-05-17T14:47:42.492+02:00", "lat": 50.1109, "lon": 8.6815, "intensity": 0.7, "source": "Tagesschau"}, {"title": "AfD-Politiker in Schweriner Kneipe angegriffen", "url": "https://www.tagesschau.de/inland/regional/mecklenburgvorpommern/afd-politiker-angriff-schwerin-100.html", "thumbnailUrl": "https://images.tagesschau.de/image/5ab8c9a2-57e9-49d8-8923-7474df93f161/AAABj4V0v3w/AAABjwnlKNc/16x9-512.jpg", "date": "2024-05-17T14:47:00.000+02:00", "lat": 53.63, "lon": 11.412, "intensity": 0.7, "source": "Tagesschau"}, {"title": "Vom Mangel an Kita-Pl\u00e4tzen und wie das Problem gel\u00f6st werden kann", "url": "https://www.tagesschau.de/inland/regional/rheinlandpfalz/swr-vom-mangel-an-kita-plaetzen-und-wie-das-problem-geloest-werden-kann-102.html", "thumbnailUrl": "https://images.tagesschau.de/image/ed1fc29e-8d8a-4882-8c06-e025cbd41113/AAABj4ad6NA/AAABjwnlKNc/16x9-512.jpg", "date": "2024-05-17T14:46:08.000+02:00", "lat": 50.3569, "lon": 7.6302, "intensity": 0.7, "source": "Tagesschau"}, {"title": "Toter Polizist und SEK-Einsatz bei Schwerin besch\u00e4ftigen Landtag", "url": "https://www.tagesschau.de/inland/regional/mecklenburgvorpommern/ndr-toter-polizist-und-sek-einsatz-bei-schwerin-beschaeftigen-landtag-100.html", "thumbnailUrl": "https://images.tagesschau.de/image/66b23db2-4231-4d19-b2e9-2900fa06340f/AAABj4acDdo/AAABjwnlKNc/16x9-512.jpg", "date": "2024-05-17T14:46:00.000+02:00", "lat": 53.63, "lon": 11.41, "intensity": 0.8, "source": "Tagesschau"}, {"title": "Debatte \u00fcber politische Gr\u00e4ben und Sicherheitsl\u00fccken", "url": "https://www.tagesschau.de/ausland/europa/attenta-fico-sicherheit-100.html", "thumbnailUrl": "https://images.tagesschau.de/image/d022e7b4-8bdd-4703-803e-8c3bef418afd/AAABj4aOUxg/AAABjwnlKNc/16x9-512.jpg", "date": "2024-05-17T14:37:05.757+02:00", "lat": 48.669026, "lon": 19.699024, "intensity": 0.7, "source": "Tagesschau"}, {"title": "Schulen auf Zypern wegen Bombendrohung evakuiert", "url": "https://www.tagesschau.de/ausland/europa/zypern-schulen-evakuiert-bombendrohung-100.html", "thumbnailUrl": "https://images.tagesschau.de/image/73fdf936-745a-4c3b-a964-9835f1f47790/AAABjpkVPm4/AAABjwnlKNc/16x9-512.jpg", "date": "2024-05-17T14:36:35.594+02:00", "lat": 35.1264, "lon": 33.4299, "intensity": 0.7, "source": "Tagesschau"}, {"title": "Pegel: Aufenthaltsrecht ukrainischer M\u00e4nner gilt unver\u00e4ndert", "url": "https://www.tagesschau.de/inland/regional/mecklenburgvorpommern/ndr-pegel-aufenthaltsrecht-ukrainischer-maenner-gilt-unveraendert-100.html", "thumbnailUrl": "https://images.tagesschau.de/image/dd895608-f96e-47e6-a04f-ddfead8465be/AAABj4Xdktg/AAABjwnlKNc/16x9-512.jpg", "date": "2024-05-17T14:34:00.000+02:00", "lat": 53.612, "lon": 11.464, "intensity": 0.6, "source": "Tagesschau"}, {"title": "Wetterlage und Temperaturen", "url": "https://www.tagesschau.de/wetter/europa-welt", "thumbnailUrl": "https://images.tagesschau.de/image/6e7d3b16-79c8-4308-822b-20c3035236b5/AAABj4et6cY/AAABjwnlKNc/16x9-512.jpg", "date": "2024-05-17T14:31:59.819+02:00", "lat": 51.1657, "lon": 10.4515, "intensity": 0.3, "source": "Tagesschau"}, {"title": "Staatsanwaltschaften SH: 24.000 Verfahren mehr als im Vorjahr", "url": "https://www.tagesschau.de/inland/regional/schleswigholstein/ndr-staatsanwaltschaften-sh-24-000-verfahren-mehr-als-im-vorjahr-100.html", "thumbnailUrl": "https://images.tagesschau.de/image/653f004b-9624-4044-b44d-bef816c49437/AAABj4aJzfU/AAABjwnlKNc/16x9-512.jpg", "date": "2024-05-17T14:31:00.000+02:00", "lat": 54.2194, "lon": 10.4515, "intensity": 0.8, "source": "Tagesschau"}, {"title": "Ein Handschlag auf engere Zusammenarbeit", "url": "https://www.tagesschau.de/ausland/asien/china-russland-wirtschaftsbeziehungen-100.html", "thumbnailUrl": "https://images.tagesschau.de/image/c79adcae-d514-43d0-8711-8d66d962ad92/AAABj4cWOgA/AAABjwnlKNc/16x9-512.jpg", "date": "2024-05-17T14:26:30.423+02:00", "lat": 61.524, "lon": 105.3188, "intensity": 0.7, "source": "Tagesschau"}, {"title": "Ausstellung von Reisep\u00e4ssen verz\u00f6gert sich", "url": "https://www.tagesschau.de/inland/reisepaesse-bundesdruckerei-verzoegerungen-100.html", "thumbnailUrl": "https://images.tagesschau.de/image/5b0f56cc-d34d-433b-b156-2c0742bd031c/AAABj4Zvyck/AAABjwnlKNc/16x9-512.jpg", "date": "2024-05-17T14:23:00.158+02:00", "lat": 52.5186, "lon": 13.3444, "intensity": 0.7, "source": "Tagesschau"}, {"title": "Rendsburg: Geparktes Auto l\u00f6ste Feuer an Zugbr\u00fccke aus ", "url": "https://www.tagesschau.de/inland/regional/schleswigholstein/ndr-rendsburg-feuer-in-lagerhalle-sorgt-fuer-zugausfaelle-100.html", "thumbnailUrl": "https://images.tagesschau.de/image/d4a99fdf-d7d7-4841-827f-9dffdbf8c825/AAABj4aIOHM/AAABjwnlKNc/16x9-512.jpg", "date": "2024-05-17T14:23:00.000+02:00", "lat": 54.3026, "lon": 9.6626, "intensity": 0.8, "source": "Tagesschau"}, {"title": "Gesetzentwurf im Abgeordnetenhaus: Schwarz-rote Koalition in Berlin will die F\u00f6rderung politischer Stiftungen regeln", "url": "https://www.tagesschau.de/inland/regional/berlin/rbb-gesetzentwurf-im-abgeordnetenhaus-schwarz-rote-koalition-in-berlin-will-die-foerderung-politischer-stiftungen-regeln-100.html", "thumbnailUrl": "https://images.tagesschau.de/image/b207f8a0-610f-4f18-9762-a2b3382ac0ba/AAABj4aAp4Y/AAABjwnlKNc/16x9-512.jpg", "date": "2024-05-17T14:20:36.000+02:00", "lat": 52.520008, "lon": 13.404954, "intensity": 0.8, "source": "Tagesschau"}, {"title": "Guben (Spree-Nei\u00dfe): Rock Tech erh\u00e4lt finale Baugenehmigung f\u00fcr Lithium-Konverter", "url": "https://www.tagesschau.de/inland/regional/brandenburg/rbb-guben-spree-neisse-rock-tech-erhaelt-finale-baugenehmigung-fuer-lithium-konverter-100.html", "thumbnailUrl": "https://images.tagesschau.de/image/cc4d38b8-4ef3-4687-ae6b-61d9fee05bb7/AAABj4Zx9yA/AAABjwnlKNc/16x9-512.jpg", "date": "2024-05-17T14:02:55.000+02:00", "lat": 51.94871, "lon": 14.69414, "intensity": 0.7, "source": "Tagesschau"}, {"title": "Hansa Rostock: Paderborn besiegen und auf St. Paulis Sch\u00fctzenhilfe hoffen", "url": "https://www.tagesschau.de/inland/regional/mecklenburgvorpommern/ndr-hansa-rostock-paderborn-besiegen-und-auf-st-paulis-schuetzenhilfe-hoffen-104.html", "thumbnailUrl": "https://images.tagesschau.de/image/02160e44-06e2-4caf-9046-d15314651662/AAABj4bo5-A/AAABjwnlKNc/16x9-512.jpg", "date": "2024-05-17T13:58:00.000+02:00", "lat": 54.1142, "lon": 12.1147, "intensity": 0.7, "source": "Tagesschau"}, {"title": "Israel weist V\u00f6lkermord-Vorwurf erneut zur\u00fcck", "url": "https://www.tagesschau.de/ausland/israel-klage-igh-100.html", "thumbnailUrl": "https://images.tagesschau.de/image/2e098bd1-140f-4d8f-8164-d26210c951c0/AAABj4a8DZU/AAABjwnlKNc/16x9-512.jpg", "date": "2024-05-17T13:51:40.547+02:00", "lat": 31.7683, "lon": 35.2137, "intensity": 0.8, "source": "Tagesschau"}, {"title": "T\u00f6dliche Pr\u00fcgelattacke in Magdeburg: Opfer wollte offenbar Freund sch\u00fctzen", "url": "https://www.tagesschau.de/inland/regional/sachsenanhalt/mdr-polizei-bittet-um-hilfe-mann-muss-nach-angriff-in-magdeburg-notoperiert-werden-100.html", "thumbnailUrl": "https://images.tagesschau.de/image/4e1da23d-8d89-476d-a59a-89f335e2177a/AAABj4X3SXE/AAABjwnlKNc/16x9-512.jpg", "date": "2024-05-17T13:49:44.000+02:00", "lat": 52.1205, "lon": 11.6276, "intensity": 1, "source": "Tagesschau"}, {"title": "Kretschmann-Koalition muss nach Steuersch\u00e4tzung gro\u00dfe Finanzl\u00fccke stopfen", "url": "https://www.tagesschau.de/inland/regional/badenwuerttemberg/swr-kretschmann-koalition-muss-nach-steuerschaetzung-grosse-finanzluecke-stopfen-100.html", "thumbnailUrl": "https://images.tagesschau.de/image/b32af5f5-5fe6-471f-96b3-1ec0cc3bf213/AAABj4dwZqc/AAABjwnlKNc/16x9-512.jpg", "date": "2024-05-17T13:49:32.000+02:00", "lat": 48.7758, "lon": 9.1443, "intensity": 0.8, "source": "Tagesschau"}, {"title": "Baugenehmigungen brechen massiv ein", "url": "https://www.tagesschau.de/wirtschaft/konjunktur/wohnungen-baugenehmigungen-einbruch-100.html", "thumbnailUrl": "https://images.tagesschau.de/image/1fca793c-271a-40dc-9ae3-3510f08649e3/AAABj4WV4YA/AAABjwnlKNc/16x9-512.jpg", "date": "2024-05-17T13:44:45.186+02:00", "lat": 51.1657, "lon": 10.4515, "intensity": 0.8, "source": "Tagesschau"}, {"title": "Angus-Steaks aus MV: Landwirte z\u00fcchten regionale Konkurrenz", "url": "https://www.tagesschau.de/inland/regional/mecklenburgvorpommern/ndr-angus-steaks-aus-mv-landwirte-zuechten-regionale-konkurrenz-100.html", "thumbnailUrl": "https://images.tagesschau.de/image/c43aed11-a321-4567-92b0-05e1d275ecfa/AAABj4ZQ-cM/AAABjwnlKNc/16x9-512.jpg", "date": "2024-05-17T13:26:00.000+02:00", "lat": 52.52, "lon": 13.3701, "intensity": 0.5, "source": "Tagesschau"}, {"title": "Nach Waffenfund: Mitarbeiter von Kampfmittelr\u00e4umdienst angeklagt ", "url": "https://www.tagesschau.de/inland/regional/brandenburg/rbb-nach-waffenfund-mitarbeiter-von-kampfmittelraeumdienst-angeklagt-100.html", "thumbnailUrl": "https://images.tagesschau.de/image/109d6cce-3974-451d-93ed-ac6e378d4566/AAABj4Y-2tY/AAABjwnlKNc/16x9-512.jpg", "date": "2024-05-17T13:07:45.000+02:00", "lat": 52.412, "lon": 13.171, "intensity": 0.6, "source": "Tagesschau"}, {"title": "\"Du wei\u00dft nicht, ob du nach Hause kommst\"", "url": "https://www.tagesschau.de/ausland/europa/ukraine-krieg-zerstoerung-infrastruktur-russland-100.html", "thumbnailUrl": "https://images.tagesschau.de/image/02da2c93-2beb-45f0-afa3-121b1b81c281/AAABj4Zm8cg/AAABjwnlKNc/16x9-512.jpg", "date": "2024-05-17T12:54:07.565+02:00", "lat": 55.7558, "lon": 37.6176, "intensity": 0.8, "source": "Tagesschau"}, {"title": "Fahrkarten per Videocall: Pro Bahn warnt vor Schalterschlie\u00dfungen", "url": "https://www.tagesschau.de/inland/regional/niedersachsen/ndr-fahrkarten-per-videocall-pro-bahn-warnt-vor-schalterschliessungen-100.html", "thumbnailUrl": "https://images.tagesschau.de/image/9f77177d-360e-4d02-b468-3d9c8c904a39/AAABj4Zo75g/AAABjwnlKNc/16x9-512.jpg", "date": "2024-05-17T12:54:00.000+02:00", "lat": 53.6994, "lon": 7.211, "intensity": 0.6, "source": "Tagesschau"}, {"title": "Ostprignitz-Ruppin: 22-J\u00e4hrige stirbt im Krankenhaus nach Baumsturz auf Kleinbus", "url": "https://www.tagesschau.de/inland/regional/brandenburg/rbb-ostprignitz-ruppin-22-jaehrige-stirbt-im-krankenhaus-nach-baumsturz-auf-kleinbus-100.html", "thumbnailUrl": "https://images.tagesschau.de/image/c46b8801-77b7-42e3-9bc1-7632c1bf7c41/AAABj4YwO9c/AAABjwnlKNc/16x9-512.jpg", "date": "2024-05-17T12:53:30.000+02:00", "lat": 52.9134, "lon": 12.4604, "intensity": 0.7, "source": "Tagesschau"}, {"title": "Beschluss der Stadtverordnetenversammlung: Bibliotheken in Potsdam sind f\u00fcr Minderj\u00e4hrige k\u00fcnftig kostenlos nutzbar", "url": "https://www.tagesschau.de/inland/regional/brandenburg/rbb-beschluss-der-stadtverordnetenversammlung-bibliotheken-in-potsdam-sind-fuer-minderjaehrige-kuenftig-kostenlos-nutzbar-100.html", "thumbnailUrl": "https://images.tagesschau.de/image/2f94c6a2-0295-48ff-a736-1de77830b971/AAABj4YuMDs/AAABjwnlKNc/16x9-512.jpg", "date": "2024-05-17T12:48:31.000+02:00", "lat": 52.3906, "lon": 13.0657, "intensity": 0.4, "source": "Tagesschau"}, {"title": "Autobauer und Zulieferer in BW entwickeln gemeinsam Fahrzeug-Software", "url": "https://www.tagesschau.de/inland/regional/badenwuerttemberg/swr-autobauer-und-zulieferer-in-bw-entwickeln-gemeinsam-fahrzeug-software-100.html", "thumbnailUrl": "https://images.tagesschau.de/image/96887ca2-ac03-4a33-baf4-c67194229ba3/AAABj4dW0eM/AAABjwnlKNc/16x9-512.jpg", "date": "2024-05-17T12:46:33.000+02:00", "lat": 48.7758, "lon": 9.1652, "intensity": 0.7, "source": "Tagesschau"}, {"title": "R\u00fcckkehr zur Natur: Wo SH ein Vorbild f\u00fcr die EU sein kann", "url": "https://www.tagesschau.de/inland/regional/schleswigholstein/ndr-rueckkehr-zur-natur-wo-sh-ein-vorbild-fuer-die-eu-sein-kann-100.html", "thumbnailUrl": "https://images.tagesschau.de/image/9333fc39-34d5-46f4-bd47-21d2c27cc94a/AAABj4Ym8q0/AAABjwnlKNc/16x9-512.jpg", "date": "2024-05-17T12:42:00.000+02:00", "lat": 54.2194, "lon": 9.6961, "intensity": 0.7, "source": "Tagesschau"}, {"title": "Prozess um t\u00f6dlichen Messerstich in Kiel: Anklage verlesen", "url": "https://www.tagesschau.de/inland/regional/schleswigholstein/ndr-im-auto-auf-ex-freundin-eingestochen-prozessbeginn-in-kiel-100.html", "thumbnailUrl": "https://images.tagesschau.de/image/5b3d4bb3-140c-46b4-bea2-307570154b3a/AAABj4R__hQ/AAABjwnlKNc/16x9-512.jpg", "date": "2024-05-17T12:36:00.000+02:00", "lat": 54.3233, "lon": 10.1302, "intensity": 0.8, "source": "Tagesschau"}, {"title": "Berlin-Mitte: M\u00e4nner pr\u00fcgeln am Alexanderplatz mit Holzlatten aufeinander ein", "url": "https://www.tagesschau.de/inland/regional/berlin/rbb-berlin-mitte-maenner-pruegeln-am-alexanderplatz-mit-holzlatten-aufeinander-ein-100.html", "thumbnailUrl": "https://images.tagesschau.de/image/ef33d77b-f090-4ee1-9833-a7a08f2e3dfd/AAABj4YQ-H0/AAABjwnlKNc/16x9-512.jpg", "date": "2024-05-17T12:31:01.000+02:00", "lat": 52.5219, "lon": 13.4132, "intensity": 0.8, "source": "Tagesschau"}, {"title": "Gruppen-Coming-out im Profifu\u00dfball - Das Versteckspiel soll ein Ende finden", "url": "https://www.tagesschau.de/inland/regional/badenwuerttemberg/swr-gruppen-coming-out-im-profifussball-das-versteckspiel-soll-ein-ende-finden-104.html", "thumbnailUrl": "https://images.tagesschau.de/image/493d83b7-2fad-4eb1-b1f1-a066cf0667f2/AAABj4XzkA8/AAABjwnlKNc/16x9-512.jpg", "date": "2024-05-17T12:31:00.000+02:00", "lat": 48.52164, "lon": 9.00596, "intensity": 0.8, "source": "Tagesschau"}, {"title": "Bad Gandersheim fragt sich: Wo sind unsere schwarzen Schw\u00e4ne?", "url": "https://www.tagesschau.de/inland/regional/niedersachsen/ndr-bad-gandersheim-fragt-sich-wo-sind-unsere-schwarzen-schwaene-100.html", "thumbnailUrl": "https://images.tagesschau.de/image/b16608cc-2bcc-4b00-af9e-19b2839e5823/AAABj4Y5MrY/AAABjwnlKNc/16x9-512.jpg", "date": "2024-05-17T12:30:00.000+02:00", "lat": 51.8703, "lon": 10.0306, "intensity": 0.6, "source": "Tagesschau"}, {"title": "Verst\u00f6rende Videos: FDP-Politiker aus Aalen erstattet Anzeige", "url": "https://www.tagesschau.de/inland/regional/badenwuerttemberg/swr-verstoerende-videos-fdp-politiker-aus-aalen-erstattet-anzeige-100.html", "thumbnailUrl": "https://images.tagesschau.de/image/db76ca4a-114d-47b3-89a2-efa534fb3e99/AAABj4YqgGo/AAABjwnlKNc/16x9-512.jpg", "date": "2024-05-17T12:19:23.000+02:00", "lat": 48.8376, "lon": 10.0982, "intensity": 0.8, "source": "Tagesschau"}, {"title": "Drei Beispiele, wie EU-Politik das Leben in Hessen beeinflusst", "url": "https://www.tagesschau.de/inland/regional/hessen/hr-drei-beispiele-wie-eu-politik-das-leben-in-hessen-beeinflusst-100.html", "thumbnailUrl": "https://images.tagesschau.de/image/cb56d1a9-1534-4d37-9634-8fa6ea1eaa42/AAABj4YwH7I/AAABjwnlKNc/16x9-512.jpg", "date": "2024-05-17T12:19:19.198+02:00", "lat": 50.6411, "lon": 9.6756, "intensity": 0.4, "source": "Tagesschau"}, {"title": "Ausstellung \"Wer hat Macht?\" im Frankfurter Kunstverein: Sonja Yakovleva polarisiert mit Scherenschnitten", "url": "https://www.tagesschau.de/inland/regional/hessen/hr-ausstellung-wer-hat-macht-im-frankfurter-kunstverein-sonja-yakovleva-polarisiert-mit-scherenschnitten-100.html", "thumbnailUrl": "https://images.tagesschau.de/image/1f788745-75ad-4336-ab03-158bfb2efe08/AAABj4YS35M/AAABjwnlKNc/16x9-512.jpg", "date": "2024-05-17T12:18:56.434+02:00", "lat": 50.11552, "lon": 8.682127, "intensity": 0.3, "source": "Tagesschau"}, {"title": "Briefw\u00e4hler im Kreis Mainz-Bingen m\u00fcssen neu w\u00e4hlen", "url": "https://www.tagesschau.de/inland/regional/rheinlandpfalz/swr-briefwaehler-im-kreis-mainz-bingen-muessen-neu-waehlen-100.html", "thumbnailUrl": "https://images.tagesschau.de/image/1cfec4fa-9bca-4179-868f-c3db4ebb0f93/AAABj4Xxukk/AAABjwnlKNc/16x9-512.jpg", "date": "2024-05-17T12:11:00.000+02:00", "lat": 49.9778, "lon": 8.1407, "intensity": 0.7, "source": "Tagesschau"}, {"title": "Palast der Republik: L\u00e4ngst abgerissen - aber gestritten wird bis heute", "url": "https://www.tagesschau.de/inland/regional/brandenburg/rbb-laengst-abgerissen-aber-gestritten-wird-bis-heute-102.html", "thumbnailUrl": "https://images.tagesschau.de/image/eeaeca73-1073-4f60-9fd2-3b1e8bff3370/AAABj4fOSCk/AAABjwnlKNc/16x9-512.jpg", "date": "2024-05-17T12:09:30.000+02:00", "lat": 52.521, "lon": 13.403, "intensity": 0.7, "source": "Tagesschau"}, {"title": "Erfolglose Suche nach Arian: \"Der Fall l\u00e4sst einen nicht kalt\"", "url": "https://www.tagesschau.de/inland/regional/niedersachsen/ndr-erfolglose-suche-nach-arian-der-fall-laesst-einen-nicht-kalt-100.html", "thumbnailUrl": "https://images.tagesschau.de/image/c957de3e-f941-4da2-8518-dbbeb38a9a5e/AAABj4X-olU/AAABjwnlKNc/16x9-512.jpg", "date": "2024-05-17T11:59:00.000+02:00", "lat": 52.374, "lon": 9.985, "intensity": 0.7, "source": "Tagesschau"}, {"title": "Bundestag macht Strafversch\u00e4rfung teils r\u00fcckg\u00e4ngig", "url": "https://www.tagesschau.de/inland/bundestag-gewalt-kinder-mindeststrafe-100.html", "thumbnailUrl": "https://images.tagesschau.de/image/61404611-f462-4fc2-8c6b-504049bf8cba/AAABj4V1Dv0/AAABjwnlKNc/16x9-512.jpg", "date": "2024-05-17T11:48:38.988+02:00", "lat": 52.5166, "lon": 13.3762, "intensity": 0.7, "source": "Tagesschau"}, {"title": "Hamburger Linke fordert Taskforce nach Baustellen-Unfall", "url": "https://www.tagesschau.de/inland/regional/hamburg/ndr-hamburger-linke-fordert-taskforce-nach-baustellen-unfall-100.html", "thumbnailUrl": "https://images.tagesschau.de/image/f560580e-c7f3-44a6-b49f-cd887a465c24/AAABj4UbiBQ/AAABjwnlKNc/16x9-512.jpg", "date": "2024-05-17T11:46:00.000+02:00", "lat": 53.541, "lon": 9.991, "intensity": 0.8, "source": "Tagesschau"}, {"title": "Mark Forster stellt ARD-Song zur EM bei 1LIVE vor", "url": "https://www.tagesschau.de/inland/regional/nordrheinwestfalen/wdr-mark-forster-stellt-ard-song-zur-em-bei-1live-vor-100.html", "thumbnailUrl": "https://images.tagesschau.de/image/7a678a39-8f1f-4d81-a4f8-29d38b2a8f4e/AAABj4Z1iaE/AAABjwnlKNc/16x9-512.jpg", "date": "2024-05-17T11:44:00.000+02:00", "lat": 51.9607, "lon": 7.6261, "intensity": 0.4, "source": "Tagesschau"}, {"title": "Vettel gedenkt Senna: \"Ayrton steht f\u00fcr so viel mehr\"", "url": "https://www.tagesschau.de/inland/regional/hessen/hr-vettel-gedenkt-senna-ayrton-steht-fuer-so-viel-mehr-102.html", "thumbnailUrl": "https://images.tagesschau.de/image/02e07d48-cc65-4212-9692-cd69087c4306/AAABj4ZH1n8/AAABjwnlKNc/16x9-512.jpg", "date": "2024-05-17T11:31:06.792+02:00", "lat": 50.823, "lon": 11.717, "intensity": 0.6, "source": "Tagesschau"}, {"title": "\"Fahren Sie wie eine Frau\"", "url": "https://www.tagesschau.de/ausland/europa/frankreich-verkehr-kampagne-100.html", "thumbnailUrl": "https://images.tagesschau.de/image/1cca91a4-15fb-4645-a8ad-46361d63fce9/AAABj4XqthE/AAABjwnlKNc/16x9-512.jpg", "date": "2024-05-17T11:20:33.043+02:00", "lat": 48.8566, "lon": 2.3522, "intensity": 0.7, "source": "Tagesschau"}, {"title": "Erste Hilfsg\u00fcter erreichen Gaza \u00fcber neuen Pier", "url": "https://www.tagesschau.de/ausland/asien/gazastreifen-israel-usa-pier-100.html", "thumbnailUrl": "https://images.tagesschau.de/image/7c26a6fc-d6ab-499f-b7e2-39335f68738c/AAABj4W91BU/AAABjwnlKNc/16x9-512.jpg", "date": "2024-05-17T11:18:10.901+02:00", "lat": 31.5107, "lon": 34.3444, "intensity": 0.8, "source": "Tagesschau"}, {"title": "Weil er queer ist: Morddrohungen gegen Politiker Lamprecht", "url": "https://www.tagesschau.de/inland/regional/schleswigholstein/ndr-weil-er-queer-ist-morddrohungen-gegen-politiker-lamprecht-100.html", "thumbnailUrl": "https://images.tagesschau.de/image/1994f90f-fd2c-4d76-82b2-099a7252a846/AAABj4R_4WE/AAABjwnlKNc/16x9-512.jpg", "date": "2024-05-17T11:17:00.000+02:00", "lat": 53.6746, "lon": 10.2274, "intensity": 0.8, "source": "Tagesschau"}, {"title": "Barmstedt: Weltkriegsbombe ist entsch\u00e4rft", "url": "https://www.tagesschau.de/inland/regional/schleswigholstein/ndr-bombe-in-barmstedt-entdeckt-entschaerfung-am-freitag-geplant-100.html", "thumbnailUrl": "https://images.tagesschau.de/image/812ecd9f-5391-4145-981c-98243846c476/AAABj4bjjaI/AAABjwnlKNc/16x9-512.jpg", "date": "2024-05-17T11:15:00.000+02:00", "lat": 53.7928, "lon": 9.8886, "intensity": 0.8, "source": "Tagesschau"}, {"title": "NRW hat wieder einen Digitalbeauftragten", "url": "https://www.tagesschau.de/inland/regional/nordrheinwestfalen/wdr-nrw-hat-wieder-einen-digitalbeauftragten-100.html", "thumbnailUrl": "https://images.tagesschau.de/image/c31f29d4-e969-4117-9934-3401437a064e/AAABj4XqYIk/AAABjwnlKNc/16x9-512.jpg", "date": "2024-05-17T11:03:00.000+02:00", "lat": 51.4332, "lon": 7.6261, "intensity": 0.6, "source": "Tagesschau"}, {"title": "\"Wir lassen mal richtig die Sau raus\": Reiner Calmund moderierte WDR 2 Morgenmagazin", "url": "https://www.tagesschau.de/inland/regional/nordrheinwestfalen/wdr-wir-lassen-mal-richtig-die-sau-raus-reiner-calmund-moderiert-wdr-2-morgenmagazin-100.html", "thumbnailUrl": "https://images.tagesschau.de/image/ac0adeb9-4291-4036-a740-2912e2ffcdd8/AAABj4XfZPI/AAABjwnlKNc/16x9-512.jpg", "date": "2024-05-17T11:03:00.000+02:00", "lat": 51.4316, "lon": 7.589, "intensity": 0.4, "source": "Tagesschau"}, {"title": "Polizist soll Lebensgef\u00e4hrtin in Weilrod mit Dienstwaffe erschossen haben", "url": "https://www.tagesschau.de/inland/regional/hessen/hr-mutmasslicher-femizid-polizist-soll-lebensgefaehrtin-mit-dienstwaffe-erschossen-haben-100.html", "thumbnailUrl": "https://images.tagesschau.de/image/6f44cf7a-4b90-4e2b-ba73-de343d9514f6/AAABj4XD9o8/AAABjwnlKNc/16x9-512.jpg", "date": "2024-05-17T10:54:09.587+02:00", "lat": 50.3095, "lon": 8.4042, "intensity": 0.8, "source": "Tagesschau"}, {"title": "Zeitarbeit: Welche Folgen hat das Verbot f\u00fcr die Fleischindustrie im Saarland?", "url": "https://www.tagesschau.de/inland/regional/saarland/sr-zeitarbeit-welche-folgen-hat-das-verbot-fuer-die-fleischindustrie-im-saarland-100.html", "thumbnailUrl": "https://images.tagesschau.de/image/9405c06f-2696-40b7-b958-6623bb300fdb/AAABj4XWPGU/AAABjwnlKNc/16x9-512.jpg", "date": "2024-05-17T10:37:00.000+02:00", "lat": 49.3964, "lon": 7.0, "intensity": 0.8, "source": "Tagesschau"}, {"title": "Hochwasser: Das war der Freitag im Saarland", "url": "https://www.tagesschau.de/inland/regional/saarland/sr-hochwasser-das-war-der-freitag-im-saarland-100.html", "thumbnailUrl": "https://images.tagesschau.de/image/64d10099-2a66-4c11-a5bb-e495f54e3b58/AAABj4iTiOU/AAABjwnlKNc/16x9-512.jpg", "date": "2024-05-17T10:20:00.000+02:00", "lat": 49.3964, "lon": 6.9754, "intensity": 0.8, "source": "Tagesschau"}, {"title": "Hochwasser: Unwetterwarnungen aufgehoben, Lage angespannt", "url": "https://www.tagesschau.de/inland/regional/saarland/sr-strassen-in-kleinblittersdorf-ueberflutet-102.html", "thumbnailUrl": "https://images.tagesschau.de/image/a33b60de-555b-4735-8c3e-752736b30bf7/AAABj4iyp5w/AAABjwnlKNc/16x9-512.jpg", "date": "2024-05-17T10:20:00.000+02:00", "lat": 49.3964, "lon": 7.0, "intensity": 0.6, "source": "Tagesschau"}, {"title": "Th\u00fcringer AfD-Politiker fordern H\u00f6ckes R\u00fccktritt", "url": "https://www.tagesschau.de/inland/afd-thueringen-hoecke-ausschluss-100.html", "thumbnailUrl": "https://images.tagesschau.de/image/40c2078f-4d10-44c6-b40c-89c0fe24658e/AAABj4VoSrM/AAABjwnlKNc/16x9-512.jpg", "date": "2024-05-17T10:14:31.087+02:00", "lat": 51.0146, "lon": 10.8453, "intensity": 0.8, "source": "Tagesschau"}, {"title": "EM-Fahrer aus der Region: R\u00fcdiger, Mittelst\u00e4dt, Beier und Andrich f\u00fcr DFB-Team nominiert", "url": "https://www.tagesschau.de/inland/regional/berlin/rbb-em-fahrer-aus-der-region-ruediger-mittelstaedt-beier-und-andrich-fuer-dfb-team-nominiert-gosens-nicht-dabei-102.html", "thumbnailUrl": "https://images.tagesschau.de/image/ffab548c-4c2b-41b6-8f38-f7f9083207d4/AAABj4WdjF8/AAABjwnlKNc/16x9-512.jpg", "date": "2024-05-17T10:13:13.000+02:00", "lat": 52.520008, "lon": 13.404954, "intensity": 0.5, "source": "Tagesschau"}, {"title": "Kampf gegen giftiges Jakobskreuzkraut: Landwirte fordern mehr Unterst\u00fctzung", "url": "https://www.tagesschau.de/inland/regional/sachsenanhalt/mdr-kampf-gegen-jakobskreuzkraut-landwirte-fordern-mehr-unterstuetzung-100.html", "thumbnailUrl": "https://images.tagesschau.de/image/59ea3e42-5c76-49af-903f-018060c8a237/AAABj4WbySI/AAABjwnlKNc/16x9-512.jpg", "date": "2024-05-17T10:11:11.000+02:00", "lat": 52.1335, "lon": 11.582, "intensity": 0.8, "source": "Tagesschau"}, {"title": "81-J\u00e4hriger stirbt bei Frontalzusammensto\u00df auf der B188", "url": "https://www.tagesschau.de/inland/regional/niedersachsen/ndr-81-jaehriger-stirbt-bei-frontalzusammenstoss-auf-der-b188-100.html", "thumbnailUrl": "https://images.tagesschau.de/image/8cd67a82-cf4b-4ba3-beae-70f5fb670b3c/AAABj4Wm3D8/AAABjwnlKNc/16x9-512.jpg", "date": "2024-05-17T10:06:00.000+02:00", "lat": 52.475, "lon": 10.55, "intensity": 0.8, "source": "Tagesschau"}, {"title": "Hessen am Morgen: +++ K\u00e4lbchen mit f\u00fcnf Beinen in Osthessen +++ Busse stehen still +++ Schnecken-WM in Frankfurt +++", "url": "https://www.tagesschau.de/inland/regional/hessen/hr-hessen-am-morgen--kaelbchen-mit-fuenf-beinen-in-osthessen-100.html", "thumbnailUrl": "https://images.tagesschau.de/image/0f992393-dc4e-4c2a-88f3-107ec1494d92/AAABj4S2zSQ/AAABjwnlKNc/16x9-512.jpg", "date": "2024-05-17T10:00:08.187+02:00", "lat": 50.6521, "lon": 9.6752, "intensity": 0.7, "source": "Tagesschau"}, {"title": "Unwetterwarnung in RLP, Panne bei Briefwahlunterlagen, T\u00f6dlicher Unfall im Donnersbergkreis", "url": "https://www.tagesschau.de/inland/regional/rheinlandpfalz/swr-toedlicher-unfall-im-donnersbergkreis-unwetterwarnung-in-rlp-pfingstwochenende-100.html", "thumbnailUrl": "https://images.tagesschau.de/image/4a1f57f5-10cf-43b3-ba38-a42a11b3fb4b/AAABj4VURC8/AAABjwnlKNc/16x9-512.jpg", "date": "2024-05-17T10:00:00.000+02:00", "lat": 49.5608, "lon": 8.0226, "intensity": 0.8, "source": "Tagesschau"}, {"title": "BW-Newsticker am Morgen: Hagel und Regen in BW, Ermittlungen nach Gas-Alarm in Singen, Pfingstferien beginnen", "url": "https://www.tagesschau.de/inland/regional/badenwuerttemberg/swr-bw-newsticker-am-morgen-hagel-und-regen-in-bw-ermittlungen-nach-gas-alarm-in-singen-pfingstferien-beginnen-100.html", "thumbnailUrl": "https://images.tagesschau.de/image/317d7d48-d2cc-4ae3-826e-f99333b17371/AAABj4S0_W8/AAABjwnlKNc/16x9-512.jpg", "date": "2024-05-17T10:00:00.000+02:00", "lat": 48.3705, "lon": 9.1717, "intensity": 0.7, "source": "Tagesschau"}, {"title": "\"Lootboxen\": Strengere Regeln f\u00fcr Videospiele gefordert", "url": "https://www.tagesschau.de/inland/regional/niedersachsen/ndr-lootboxen-strengere-regeln-fuer-videospiele-gefordert-100.html", "thumbnailUrl": "https://images.tagesschau.de/image/d96abafa-64c3-48bb-aa7c-8d503d2114db/AAABj4ZcPhg/AAABjwnlKNc/16x9-512.jpg", "date": "2024-05-17T09:55:00.000+02:00", "lat": 52.3759, "lon": 9.732, "intensity": 0.8, "source": "Tagesschau"}, {"title": "Fast im Elb-Schlick ertrunken: Feuerwehr rettet f\u00fcnf Schafe", "url": "https://www.tagesschau.de/inland/regional/niedersachsen/ndr-fast-im-elb-schlick-ertrunken-feuerwehr-rettet-fuenf-schafe-100.html", "thumbnailUrl": "https://images.tagesschau.de/image/90f5f7da-c2ea-4fa2-9406-8f6d07122794/AAABj4WO6CM/AAABjwnlKNc/16x9-512.jpg", "date": "2024-05-17T09:35:00.000+02:00", "lat": 53.3, "lon": 9.95, "intensity": 0.5, "source": "Tagesschau"}, {"title": "Entwicklungspartnerschaft geplant: Mitsubishi Electric steigt ins Stadtentwicklungsprojekt in Tegel ein", "url": "https://www.tagesschau.de/inland/regional/berlin/rbb-entwicklungspartnerschaft-geplant-mitsubishi-electric-steigt-ins-stadtentwicklungsprojekt-in-tegel-ein-100.html", "thumbnailUrl": "https://images.tagesschau.de/image/5c8bcf56-03ff-43a4-a3d2-1d22fe6cdd9a/AAABj4d33n8/AAABjwnlKNc/16x9-512.jpg", "date": "2024-05-17T09:30:00.000+02:00", "lat": 52.588, "lon": 13.289, "intensity": 0.7, "source": "Tagesschau"}, {"title": "Attentat auf Fico - Kritik am Sicherheitskonzept", "url": "https://www.tagesschau.de/ausland/europa/fico-attentat-sicherheit-100.html", "thumbnailUrl": "https://images.tagesschau.de/image/fa7af1b2-258a-4840-88f3-1a7aec7a1d7e/AAABj3x9ao0/AAABjwnlKNc/16x9-512.jpg", "date": "2024-05-17T09:24:06.282+02:00", "lat": 48.669026, "lon": 19.699022, "intensity": 0.8, "source": "Tagesschau"}, {"title": "Orangensaft wird immer teurer", "url": "https://www.tagesschau.de/wirtschaft/verbraucher/orangensaft-preis-anstieg-100.html", "thumbnailUrl": "https://images.tagesschau.de/image/9c51b777-8fc5-45c4-b44e-588429ee921f/AAABj4VN3d8/AAABjwnlKNc/16x9-512.jpg", "date": "2024-05-17T09:10:37.557+02:00", "lat": 51.1677, "lon": 9.991, "intensity": 0.4, "source": "Tagesschau"}, {"title": "Ros\u00e9 l\u00e4uft Rotwein fast den Rang ab", "url": "https://www.tagesschau.de/wirtschaft/verbraucher/wein-produktion-deutschland-rose-rot-weiss-100.html", "thumbnailUrl": "https://images.tagesschau.de/image/8e421823-9054-4c53-bf06-178c5c21c526/AAABj4UHdKA/AAABjwnlKNc/16x9-512.jpg", "date": "2024-05-17T09:10:15.690+02:00", "lat": 51.1657, "lon": 10.4515, "intensity": 0.6, "source": "Tagesschau"}, {"title": "Aalener Politiker erregt weltweit Aufsehen ", "url": "https://www.tagesschau.de/inland/regional/badenwuerttemberg/swr-aalener-politiker-erregt-weltweit-aufsehen-100.html", "thumbnailUrl": "https://images.tagesschau.de/image/ef4b380f-6846-449c-86e8-c143247a536e/AAABj4Y1diE/AAABjwnlKNc/16x9-512.jpg", "date": "2024-05-17T08:59:00.000+02:00", "lat": 48.8358, "lon": 10.0945, "intensity": 0.8, "source": "Tagesschau"}, {"title": "Pfingstturnier lockt auch im Olympia-Jahr Reit-Elite nach Wiesbaden", "url": "https://www.tagesschau.de/inland/regional/hessen/hr-pfingstturnier-lockt-auch-im-olympia-jahr-reit-elite-nach-wiesbaden-102.html", "thumbnailUrl": "https://images.tagesschau.de/image/c6d732e8-f2d5-4ef6-a9d5-d7978c6b987e/AAABj4VQ5Bs/AAABjwnlKNc/16x9-512.jpg", "date": "2024-05-17T08:48:11.884+02:00", "lat": 50.0822, "lon": 8.2391, "intensity": 0.7, "source": "Tagesschau"}, {"title": "Ermittlungen gegen Saarbr\u00fccker Kunsthochschule dauern an ", "url": "https://www.tagesschau.de/inland/regional/saarland/sr-ermittlungen-gegen-saarbruecker-kunsthochschule-dauern-an-100.html", "thumbnailUrl": "https://images.tagesschau.de/image/95ef68c1-f8d9-4cd6-94e0-93fc78671d2c/AAABj4VZuno/AAABjwnlKNc/16x9-512.jpg", "date": "2024-05-17T08:46:00.000+02:00", "lat": 49.2402, "lon": 6.9815, "intensity": 0.7, "source": "Tagesschau"}, {"title": "HBL: THW Kiel verliert gegen die Rhein-Neckar L\u00f6wen", "url": "https://www.tagesschau.de/inland/regional/schleswigholstein/ndr-thw-kiel-verliert-zu-hause-gegen-die-rhein-neckar-loewen-102.html", "thumbnailUrl": "https://images.tagesschau.de/image/97ff24c1-1896-48d1-b09f-4ddb17394eaf/AAABj4YEzrw/AAABjwnlKNc/16x9-512.jpg", "date": "2024-05-17T08:45:00.000+02:00", "lat": 54.3233, "lon": 10.1228, "intensity": 0.6, "source": "Tagesschau"}, {"title": "Ermittlungen erm\u00f6glicht: Bundestag hebt Immunit\u00e4t des AfD-Abgeordneten Gnauck auf", "url": "https://www.tagesschau.de/inland/regional/brandenburg/rbb-ermittlungen-ermoeglicht-bundestag-hebt-immunitaet-des-afd-abgeordneten-gnauck-auf-100.html", "thumbnailUrl": "https://images.tagesschau.de/image/d344f87c-2fbc-4a32-a958-0ceec9051b84/AAABj4VJXOQ/AAABjwnlKNc/16x9-512.jpg", "date": "2024-05-17T08:37:19.000+02:00", "lat": 52.2694, "lon": 13.0568, "intensity": 0.7, "source": "Tagesschau"}, {"title": "EU-Verteidigung: Neuburger Soldaten sch\u00fctzen Partnerl\u00e4nder", "url": "https://www.tagesschau.de/inland/regional/bayern/br-eu-verteidigung-neuburger-soldaten-schuetzen-partnerlaender-106.html", "thumbnailUrl": "https://images.tagesschau.de/image/0b50cf09-aafc-444c-930e-1e3090ca3994/AAABj4VFpGQ/AAABjwnlKNc/16x9-512.jpg", "date": "2024-05-17T08:36:58.053+02:00", "lat": 48.7252, "lon": 11.1821, "intensity": 0.7, "source": "Tagesschau"}, {"title": "Endlich raus aus der Krise? Siemens Energy stellt sich neu auf", "url": "https://www.tagesschau.de/inland/regional/bayern/br-endlich-raus-aus-der-krise-siemens-energy-stellt-sich-neu-auf-102.html", "thumbnailUrl": "https://images.tagesschau.de/image/8d959102-bde9-48de-bee4-1ad55100a13c/AAABj4VD96E/AAABjwnlKNc/16x9-512.jpg", "date": "2024-05-17T08:35:52.604+02:00", "lat": 48.1351, "lon": 11.582, "intensity": 0.8, "source": "Tagesschau"}, {"title": "Mehr Abschiebungen durch Bremer Spezialeinheit \u2014 Gr\u00fcne sind skeptisch", "url": "https://www.tagesschau.de/inland/regional/bremen/rb-bremens-innensenator-will-abschieberegeln-vereinfachen-100.html", "thumbnailUrl": "https://images.tagesschau.de/image/6b6bea8d-df1b-4023-8af5-0173c00222e7/AAABj4Tmbt4/AAABjwnlKNc/16x9-512.jpg", "date": "2024-05-17T08:35:00.000+02:00", "lat": 53.0793, "lon": 8.8017, "intensity": 0.7, "source": "Tagesschau"}, {"title": "Feuer-Alarm bei Firma f\u00fcr Strahlentechnik", "url": "https://www.tagesschau.de/inland/regional/niedersachsen/ndr-feuer-alarm-bei-firma-fuer-strahlentechnik-100.html", "thumbnailUrl": "https://images.tagesschau.de/image/f92cc00d-1acc-4beb-92d1-5bfcbf08aecb/AAABj4XYI3c/AAABjwnlKNc/16x9-512.jpg", "date": "2024-05-17T08:20:00.000+02:00", "lat": 52.268874, "lon": 10.52677, "intensity": 0.6, "source": "Tagesschau"}, {"title": "Kunstfestspiele: Erdkugel will zur Er\u00f6ffnung nicht leuchten", "url": "https://www.tagesschau.de/inland/regional/niedersachsen/ndr-kunstfestspiele-erdkugel-will-zur-eroeffnung-nicht-leuchten-100.html", "thumbnailUrl": "https://images.tagesschau.de/image/d259be48-135d-4b89-b5b2-00debf8ee92c/AAABj4XYMZU/AAABjwnlKNc/16x9-512.jpg", "date": "2024-05-17T08:20:00.000+02:00", "lat": 52.3759, "lon": 9.7332, "intensity": 0.6, "source": "Tagesschau"}, {"title": "Guten Morgen, NRW!", "url": "https://www.tagesschau.de/inland/regional/nordrheinwestfalen/wdr-guten-morgen-nrw-484.html", "thumbnailUrl": "https://images.tagesschau.de/image/919e4b6b-68a4-4684-b6e5-4704c3281504/AAABj4VbmNY/AAABjwnlKNc/16x9-512.jpg", "date": "2024-05-17T08:12:00.000+02:00", "lat": 51.9607, "lon": 7.6261, "intensity": 0.4, "source": "Tagesschau"}, {"title": "Michael Allendorf: \"Wenn ich meinen Job mache, zahlt die MT weniger\"", "url": "https://www.tagesschau.de/inland/regional/hessen/hr-michael-allendorf-wenn-ich-meinen-job-mache-zahlt-die-mt-weniger-102.html", "thumbnailUrl": "https://images.tagesschau.de/image/dc18075d-534a-4d46-8380-a0d38c5d09b6/AAABj4Uxg8E/AAABjwnlKNc/16x9-512.jpg", "date": "2024-05-17T08:10:19.797+02:00", "lat": 51.3124, "lon": 9.6753, "intensity": 0.7, "source": "Tagesschau"}, {"title": "Berliner Kiezkneipe muss schlie\u00dfen: Letzte Runde in der \"Stadtklause\"", "url": "https://www.tagesschau.de/inland/regional/berlin/rbb-berliner-kiezkneipe-muss-schliessen-letzte-runde-in-der-stadtklause-100.html", "thumbnailUrl": "https://images.tagesschau.de/image/a07b3d3e-ce1d-4159-a20a-4a45af7881a6/AAABj4UsDAU/AAABjwnlKNc/16x9-512.jpg", "date": "2024-05-17T08:08:23.000+02:00", "lat": 52.5079, "lon": 13.3846, "intensity": 0.7, "source": "Tagesschau"}, {"title": "Eintracht: +++ Trapp nicht im EM-Kader +++ Migr\u00e4ne! Pressekonferenz abgesagt +++ Younes winkt Vertrag auf Schalke +++", "url": "https://www.tagesschau.de/inland/regional/hessen/hr--eintracht-wohl-mit-chaibi-einig--glasner-fast-nur-kolo-muani-der-tore-erzielt--bericht-eintracht-sagt-aouar-ab-100.html", "thumbnailUrl": "https://images.tagesschau.de/image/7fa53562-6ede-466b-af58-bd76544d20a8/AAABj4UQsZo/AAABjwnlKNc/16x9-512.jpg", "date": "2024-05-17T07:39:33.165+02:00", "lat": 50.110922, "lon": 8.682127, "intensity": 0.6, "source": "Tagesschau"}, {"title": "Unwetter sorgen f\u00fcr \u00dcberflutungen", "url": "https://www.tagesschau.de/inland/unwetter-deutschland-158.html", "thumbnailUrl": "https://images.tagesschau.de/image/46f367f6-5ff9-4b06-943f-78681745c8e3/AAABj4UzKdk/AAABjwnlKNc/16x9-512.jpg", "date": "2024-05-17T07:37:41.369+02:00", "lat": 51.1657, "lon": 10.4515, "intensity": 0.7, "source": "Tagesschau"}, {"title": "Karneval der Kulturen 2024: An Pfingsten steigt das Stra\u00dfenfest in Kreuzberg", "url": "https://www.tagesschau.de/inland/regional/berlin/rbb-karneval-der-kulturen-2024-an-pfingsten-steigt-das-strassenfest-in-kreuzberg-100.html", "thumbnailUrl": "https://images.tagesschau.de/image/dbf415ee-0922-47e1-9a3f-c0e87970137b/AAABj4UHz9E/AAABjwnlKNc/16x9-512.jpg", "date": "2024-05-17T07:26:56.000+02:00", "lat": 52.4966, "lon": 13.3903, "intensity": 0.8, "source": "Tagesschau"}, {"title": "Waldbrand auf Truppen\u00fcbungsplatz bei L\u00fcbtheen ist gel\u00f6scht", "url": "https://www.tagesschau.de/inland/regional/mecklenburgvorpommern/ndr-luebtheen-brand-auf-ehemaligem-truppenuebungsplatz-100.html", "thumbnailUrl": "https://images.tagesschau.de/image/a6a8992f-8506-416c-8e9e-55a12118ed73/AAABj4UHbS0/AAABjwnlKNc/16x9-512.jpg", "date": "2024-05-17T07:26:00.000+02:00", "lat": 53.3395, "lon": 11.3403, "intensity": 0.8, "source": "Tagesschau"}, {"title": "Nina Chuba in Hamburg: Fetter Sound und eine EM-Nominierung", "url": "https://www.tagesschau.de/inland/regional/hamburg/ndr-nina-chuba-in-hamburg-fetter-sound-und-eine-em-nominierung-100.html", "thumbnailUrl": "https://images.tagesschau.de/image/1b72af24-774f-4abe-9fc9-8e21ef1f7606/AAABj4K_RQQ/AAABjwnlKNc/16x9-512.jpg", "date": "2024-05-17T07:18:00.000+02:00", "lat": 53.551086, "lon": 9.993682, "intensity": 0.8, "source": "Tagesschau"}, {"title": "Gr\u00fcnheide stimmt f\u00fcr Erweiterung des Tesla-Gel\u00e4ndes", "url": "https://www.tagesschau.de/inland/regional/brandenburg/rbb-tesla-gelaendeerweiterung-gemeindevertreter-in-gruenheide-entscheiden-heute-ueber-b-plan-100.html", "thumbnailUrl": "https://images.tagesschau.de/image/b89d7446-d7f9-4165-906f-0594ea66af71/AAABj4Y-wqs/AAABjwnlKNc/16x9-512.jpg", "date": "2024-05-17T07:12:21.000+02:00", "lat": 52.4143, "lon": 13.8281, "intensity": 0.8, "source": "Tagesschau"}, {"title": "B\u00fcrgermeisterkandidaten in Schiffweiler stellten sich B\u00fcrgerfragen", "url": "https://www.tagesschau.de/inland/regional/saarland/sr-buergermeisterkandidaten-in-schiffweiler-stellten-sich-buergerfragen-100.html", "thumbnailUrl": "https://images.tagesschau.de/image/1e63af25-5f6e-49ea-9faa-e66408b71f0d/AAABj4XbubM/AAABjwnlKNc/16x9-512.jpg", "date": "2024-05-17T07:07:00.000+02:00", "lat": 49.3878, "lon": 7.1197, "intensity": 0.6, "source": "Tagesschau"}, {"title": "T\u00f6dlicher Motorradunfall: 76-J\u00e4hriger schleudert in Wasserlauf", "url": "https://www.tagesschau.de/inland/regional/niedersachsen/ndr-toedlicher-motorradunfall-76-jaehriger-schleudert-in-wasserlauf-100.html", "thumbnailUrl": "https://images.tagesschau.de/image/22d00e2d-a5bc-496a-a8ca-59185248c115/AAABj4afzLA/AAABjwnlKNc/16x9-512.jpg", "date": "2024-05-17T07:07:00.000+02:00", "lat": 53.4214, "lon": 8.3902, "intensity": 0.8, "source": "Tagesschau"}, {"title": "Motorradfahrer stirbt bei Unfall im Landkreis Wesermarsch", "url": "https://www.tagesschau.de/inland/regional/bremen/rb-motorradfahrer-stirbt-bei-unfall-im-landkreis-wesermarsch-102.html", "thumbnailUrl": "https://images.tagesschau.de/image/7db1d5c0-2d20-47a0-b680-57e0e8e93e19/AAABj4Txh40/AAABjwnlKNc/16x9-512.jpg", "date": "2024-05-17T07:04:00.000+02:00", "lat": 53.4094, "lon": 8.4011, "intensity": 0.8, "source": "Tagesschau"}, {"title": "\"Bl\u00f6des Missgeschick\": Handtasche f\u00e4hrt in fremdem Auto davon", "url": "https://www.tagesschau.de/inland/regional/niedersachsen/ndr-bloedes-missgeschick-handtasche-faehrt-in-fremdem-auto-davon-100.html", "thumbnailUrl": "https://images.tagesschau.de/image/6d5f7b1f-2738-4bb8-8d04-f674f40add99/AAABj4UzX2I/AAABjwnlKNc/16x9-512.jpg", "date": "2024-05-17T06:59:00.000+02:00", "lat": 52.3181, "lon": 9.2077, "intensity": 0.3, "source": "Tagesschau"}, {"title": "Hameln: S-Bahn st\u00f6\u00dft beinahe mit G\u00fcterzug zusammen", "url": "https://www.tagesschau.de/inland/regional/niedersachsen/ndr-hameln-s-bahn-stoesst-beinahe-mit-gueterzug-zusammen-100.html", "thumbnailUrl": "https://images.tagesschau.de/image/f44e90b2-eb98-4353-9022-ae81edf8ca59/AAABj4K39Jo/AAABjwnlKNc/16x9-512.jpg", "date": "2024-05-17T06:46:00.000+02:00", "lat": 52.103402, "lon": 9.382016, "intensity": 0.8, "source": "Tagesschau"}, {"title": "Kommunalwahlen 2024: Oberhavel - ein Landkreis mit Wachstumsschmerzen", "url": "https://www.tagesschau.de/inland/regional/brandenburg/rbb-kommunalwahlen-2024-oberhavel-ein-landkreis-mit-wachstumsschmerzen-100.html", "thumbnailUrl": "https://images.tagesschau.de/image/c799d247-ad27-436a-9d98-63f862223b36/AAABj4TfX18/AAABjwnlKNc/16x9-512.jpg", "date": "2024-05-17T06:38:48.000+02:00", "lat": 52.6709, "lon": 13.1841, "intensity": 0.7, "source": "Tagesschau"}, {"title": "Wahl zum SPD-Fraktionsvorsitz: Debatte um Doppelspitze nimmt Fahrt auf", "url": "https://www.tagesschau.de/inland/regional/berlin/rbb-wahl-zum-spd-fraktionsvorsitz-debatte-um-doppelspitze-nimmt-fahrt-auf-100.html", "thumbnailUrl": "https://images.tagesschau.de/image/1871a1f4-ccab-449a-a011-cdbb74d94989/AAABj4TbnN8/AAABjwnlKNc/16x9-512.jpg", "date": "2024-05-17T06:37:54.000+02:00", "lat": 52.520008, "lon": 13.404954, "intensity": 0.6, "source": "Tagesschau"}, {"title": "Stopp f\u00fcr Brandenburg-Paket m\u00f6glich: AfD-Klage am Verfassungericht", "url": "https://www.tagesschau.de/inland/regional/brandenburg/rbb-stopp-fuer-brandenburg-paket-moeglich-afd-klage-am-verfassungericht-100.html", "thumbnailUrl": "https://images.tagesschau.de/image/9cb48157-330f-4969-864d-9e31d84cfb40/AAABj4TbeAE/AAABjwnlKNc/16x9-512.jpg", "date": "2024-05-17T06:30:21.000+02:00", "lat": 52.5013, "lon": 13.1773, "intensity": 0.7, "source": "Tagesschau"}, {"title": "Wenn der Nachbar Feuer spuckt", "url": "https://www.tagesschau.de/multimedia/podcast/11km/11km-feed-100.html", "thumbnailUrl": "https://images.tagesschau.de/image/941bd247-6d94-4151-b507-bc2c15b4bf1a/AAABj4TEIuo/AAABjwnlKNc/16x9-512.jpg", "date": "2024-05-17T06:21:54.410+02:00", "lat": 63.8427, "lon": -22.4397, "intensity": 0.8, "source": "Tagesschau"}, {"title": "Keine Bahn zwischen Karlsruhe und Pforzheim: Das ist der Ersatzplan", "url": "https://www.tagesschau.de/inland/regional/badenwuerttemberg/swr-keine-bahn-zwischen-karlsruhe-und-pforzheim-das-ist-der-ersatzplan-100.html", "thumbnailUrl": "https://images.tagesschau.de/image/e5c3308f-dedc-4f2c-9930-7fee319cca79/AAABj4Yb6nk/AAABjwnlKNc/16x9-512.jpg", "date": "2024-05-17T06:04:45.000+02:00", "lat": 48.9934, "lon": 8.4044, "intensity": 0.6, "source": "Tagesschau"}, {"title": "Festivals an Pfingsten - Eine Auswahl aus NRW", "url": "https://www.tagesschau.de/inland/regional/nordrheinwestfalen/wdr-festivals-an-pfingsten-eine-auswahl-aus-nrw-100.html", "thumbnailUrl": "https://images.tagesschau.de/image/715a5151-bf3c-4e2e-a0a2-26d398ed93a5/AAABj4YJgp4/AAABjwnlKNc/16x9-512.jpg", "date": "2024-05-17T06:00:00.000+02:00", "lat": 51.9607, "lon": 7.6253, "intensity": 0.5, "source": "Tagesschau"}, {"title": "F\u00fcr mehr Toleranz: Internationaler Tag gegen Homophobie", "url": "https://www.tagesschau.de/inland/regional/nordrheinwestfalen/wdr-fuer-mehr-toleranz-internationaler-tag-gegen-homophobie-100.html", "thumbnailUrl": "https://images.tagesschau.de/image/3291b4fb-4ca2-45cd-a26e-8db1ce9f2705/AAABj4TQaHg/AAABjwnlKNc/16x9-512.jpg", "date": "2024-05-17T06:00:00.000+02:00", "lat": 51.4556, "lon": 7.0116, "intensity": 0.8, "source": "Tagesschau"}, {"title": "Per K\u00f6lner App zum Lkw-Parkplatz\u00a0 - Hoffnung f\u00fcr Trucker und Kommunen", "url": "https://www.tagesschau.de/inland/regional/nordrheinwestfalen/wdr-per-koelner-app-zum-lkw-parkplatz-hoffnung-fuer-trucker-und-kommunen-100.html", "thumbnailUrl": "https://images.tagesschau.de/image/66dad0c3-123f-4c2d-8215-8ece1be90381/AAABj4WWKRQ/AAABjwnlKNc/16x9-512.jpg", "date": "2024-05-17T06:00:00.000+02:00", "lat": 51.4556, "lon": 7.0116, "intensity": 0.8, "source": "Tagesschau"}, {"title": "Was man gegen Bluthochdruck tun kann", "url": "https://www.tagesschau.de/inland/regional/saarland/sr-was-man-gegen-bluthochdruck-tun-kann-100.html", "thumbnailUrl": "https://images.tagesschau.de/image/2e621b09-47c1-45d3-b742-9363fa68b225/AAABj4Sinu0/AAABjwnlKNc/16x9-512.jpg", "date": "2024-05-17T05:34:00.000+02:00", "lat": 49.3044, "lon": 10.4515, "intensity": 0.8, "source": "Tagesschau"}, {"title": "19-J\u00e4hriger verursacht t\u00f6dlichen Verkehrsunfall bei Rockenhausen", "url": "https://www.tagesschau.de/inland/regional/rheinlandpfalz/swr-19-jaehriger-verursacht-toedlichen-verkehrsunfall-bei-rockenhausen-100.html", "thumbnailUrl": "https://images.tagesschau.de/image/42e0e029-71dc-4e53-8c75-e8e0f4bbcfdc/AAABj4UABwM/AAABjwnlKNc/16x9-512.jpg", "date": "2024-05-17T04:11:41.000+02:00", "lat": 49.6, "lon": 8.05, "intensity": 0.7, "source": "Tagesschau"}, {"title": "Volksz\u00e4hlung 1939 im Nazi-Regime: Statistik unterm Hakenkreuz", "url": "https://www.tagesschau.de/inland/regional/niedersachsen/ndr-volkszaehlung-1939-im-nazi-regime-statistik-unterm-hakenkreuz-100.html", "thumbnailUrl": "https://images.tagesschau.de/image/92a07a2e-fefd-453a-b912-1c596a0d39bc/AAABj4iSKOY/AAABjwnlKNc/16x9-512.jpg", "date": "2024-05-17T00:00:00.000+02:00", "lat": 51.1657, "lon": 10.4515, "intensity": 0.8, "source": "Tagesschau"}, {"title": "Scholz will sich Bild von der Lage im Hochwassergebiet machen", "url": "https://www.br.de/nachrichten/meldungen/index.html#n1", "thumbnailUrl": null, "date": "2024-05-18T02:35:47+02:00", "lat": 30.0444, "lon": 31.2357, "intensity": 0.8, "source": "Bayrischer Rundfunk"}, {"title": "AfD-Chefs fordern von Bystron Auftrittsverzicht im Wahlkampf", "url": "https://www.br.de/nachrichten/meldungen/index.html#n2", "thumbnailUrl": null, "date": "2024-05-18T02:35:47+02:00", "lat": 33.5138, "lon": 36.2021, "intensity": 0.8, "source": "Bayrischer Rundfunk"}, {"title": "Leichen von Shani Louk und anderen Vermissten gefunden", "url": "https://www.br.de/nachrichten/meldungen/index.html#n3", "thumbnailUrl": null, "date": "2024-05-18T02:35:47+02:00", "lat": 39.9334, "lon": 32.8597, "intensity": 0.8, "source": "Bayrischer Rundfunk"}, {"title": "Online-Portal zu Krankenh\u00e4usern geht an den Start", "url": "https://www.br.de/nachrichten/meldungen/index.html#n4", "thumbnailUrl": null, "date": "2024-05-18T02:35:47+02:00", "lat": 52.520008, "lon": 13.404954, "intensity": 0.7, "source": "Bayrischer Rundfunk"}, {"title": "Bundesrat billigt neues Namensrecht und Selbstbestimmungsgesetz", "url": "https://www.br.de/nachrichten/meldungen/index.html#n5", "thumbnailUrl": null, "date": "2024-05-18T02:35:47+02:00", "lat": 52.520008, "lon": 13.404954, "intensity": 0.6, "source": "Bayrischer Rundfunk"}, {"title": "EU sperrt pro-russische Medien", "url": "https://www.br.de/nachrichten/meldungen/index.html#n6", "thumbnailUrl": null, "date": "2024-05-18T02:35:47+02:00", "lat": 48.135125, "lon": 11.581981, "intensity": 0.6, "source": "Bayrischer Rundfunk"}, {"title": "Russland will ukrainische Stadt Charkiw angeblich nicht einnehmen", "url": "https://www.br.de/nachrichten/meldungen/index.html#n7", "thumbnailUrl": null, "date": "2024-05-18T02:35:47+02:00", "lat": 50.110922, "lon": 8.682127, "intensity": 0.8, "source": "Bayrischer Rundfunk"}, {"title": "Nach Explosion in D\u00fcsseldorf vermuten Ermittler Brandstiftung", "url": "https://www.br.de/nachrichten/meldungen/index.html#n8", "thumbnailUrl": null, "date": "2024-05-18T02:35:47+02:00", "lat": 47.8684, "lon": 12.6394, "intensity": 0.8, "source": "Bayrischer Rundfunk"}, {"title": "B\u00fcrgerbegehren der \"Initiative Klinik Retten\" wird als unzul\u00e4ssig abgelehnt", "url": "https://www.br.de/nachrichten/meldungen/index.html#n9", "thumbnailUrl": null, "date": "2024-05-18T02:35:47+02:00", "lat": 48.5844, "lon": 13.6722, "intensity": 0.8, "source": "Bayrischer Rundfunk"}, {"title": "Deutschland gewinnt auch gegen Kasachstan deutlich", "url": "https://www.br.de/nachrichten/meldungen/index.html#n10", "thumbnailUrl": null, "date": "2024-05-18T02:35:47+02:00", "lat": 53.5396, "lon": 8.5761, "intensity": 0.4, "source": "Bayrischer Rundfunk"}, {"title": "Das Wetter in Bayern: Nachts im S\u00fcden aufklarend, Tiefstwerte 12 bis 4 Grad", "url": "https://www.br.de/nachrichten/meldungen/index.html#n11", "thumbnailUrl": null, "date": "2024-05-18T02:35:47+02:00", "lat": 48.1351, "lon": 11.582, "intensity": 0.3, "source": "Bayrischer Rundfunk"}, {"title": "Erneut giftige Goldalgen in der Oder entdeckt", "url": "https://www.rbb24.de/panorama/beitrag/2024/05/goldalgen-in-oder-polnische-behoerden-gleiwitzer-kanal.html", "thumbnailUrl": null, "date": "Fri, 17 May 2024 22:34:28 +0200", "lat": 52.675, "lon": 14.495, "intensity": 0.7, "source": "RBB"}, {"title": "Kai Wegner in Tokio: Big in Japan?", "url": "https://www.rbb24.de/politik/beitrag/2024/05/kai-wegner-in-tokio-japan-auslandsbesuch.html", "thumbnailUrl": null, "date": "Fri, 17 May 2024 22:00:04 +0200", "lat": 35.6895, "lon": 139.6917, "intensity": 0.6, "source": "RBB"}, {"title": "Psychiatrie f\u00fcr Straft\u00e4ter: Todesfall in Berliner Ma\u00dfregelvollzug - Hintergr\u00fcnde unklar", "url": "https://www.rbb24.de/panorama/beitrag/2024/05/toter-berliner-massregelvollzug-hintergrund-unklar.html", "thumbnailUrl": null, "date": "Fri, 17 May 2024 21:46:00 +0200", "lat": 52.52001, "lon": 13.38886, "intensity": 0.7, "source": "RBB"}, {"title": "Neue Steuersch\u00e4tzung f\u00fcr Berlin: 174 Millionen Euro weniger als erwartet", "url": "https://www.rbb24.de/politik/beitrag/2024/05/berlin-steuerschaetzung-174-millionen-euro-weniger-einnahmen.html", "thumbnailUrl": null, "date": "Fri, 17 May 2024 21:16:51 +0200", "lat": 52.520008, "lon": 13.404954, "intensity": 0.5, "source": "RBB"}, {"title": "Bundes-Klinik-Atlas: Patienten erhalten Unterst\u00fctzung bei der Krankenhaus-Suche", "url": "https://www.rbb24.de/panorama/beitrag/av7/video-berlin-brandenburg-klinik-atlas-behandlung-unterstuetzung-suche.html", "thumbnailUrl": null, "date": "Fri, 17 May 2024 21:06:17 +0200", "lat": 53.550344, "lon": 9.986287, "intensity": 0.6, "source": "RBB"}, {"title": "\"Das Stadtschloss empfinden die Menschen aus Ost-Berlin nicht als ihre Architektur\"", "url": "https://www.rbb24.de/kultur/beitrag/2024/05/berlin-potsdam-humboldtforum-berliner-schloss-palast-der-republik-abriss-neubau-restauration-rekonstruktion.html", "thumbnailUrl": null, "date": "Fri, 17 May 2024 20:34:00 +0200", "lat": 52.51704, "lon": 13.39377, "intensity": 0.6, "source": "RBB"}, {"title": "Alba Berlin startet mit dominantem Heimsieg gegen Bonn in die Playoffs", "url": "https://www.rbb24.de/sport/beitrag/2024/05/basketball-bundesliga-playoffs-alba-berlin-baskets-bonn-viertelfinale-spiel-eins-spielbericht.html", "thumbnailUrl": null, "date": "Fri, 17 May 2024 20:23:00 +0200", "lat": 52.52, "lon": 13.4023, "intensity": 0.8, "source": "RBB"}, {"title": "Feuerwehr bringt Brand in Reifenlager in Frankfurt (Oder) unter Kontrolle", "url": "https://www.rbb24.de/panorama/beitrag/2024/05/reifen-brennen-frankfurt-oder.html", "thumbnailUrl": null, "date": "Fri, 17 May 2024 19:38:13 +0200", "lat": 52.3476, "lon": 14.5511, "intensity": 0.7, "source": "RBB"}, {"title": "\"Lift Off\" am TXL: Konzerte und DJs am fr\u00fcheren Flughafen Tegel", "url": "https://www.rbb24.de/kultur/beitrag/2024/05/berlin-ex-flughafen-tegel-turbulence-kollektiv-lift-off-konzerte.html", "thumbnailUrl": null, "date": "Fri, 17 May 2024 18:52:10 +0200", "lat": 52.5548, "lon": 13.2877, "intensity": 0.7, "source": "RBB"}, {"title": "Tarifverhandlungen: Telekom-Besch\u00e4ftigte sollen bis zu 13,6 Prozentmehr Gehalt bekommen", "url": "https://www.rbb24.de/wirtschaft/beitrag/2024/05/tarifverhandlungen-telekom-lohnerhoehung-verdi.html", "thumbnailUrl": null, "date": "Fri, 17 May 2024 18:23:00 +0200", "lat": 48.7736, "lon": 9.1734, "intensity": 0.8, "source": "RBB"}, {"title": "Potsdamer PIK-Forscher Rockstr\u00f6m mit hochdotiertem Umweltpreis geehrt", "url": "https://www.rbb24.de/panorama/beitrag/2024/05/brandenburg-potsdam-institut-klimafolgenforschung-tyler-preis.html", "thumbnailUrl": null, "date": "Fri, 17 May 2024 17:59:18 +0200", "lat": 52.3906, "lon": 13.0657, "intensity": 0.7, "source": "RBB"}, {"title": "Sportbecken im Berliner Sommerbad Neuk\u00f6lln weiterhin nicht nutzbar", "url": "https://www.rbb24.de/panorama/beitrag/2024/05/sommerbad-neukoelln-sportbecken-gesperrt-reparatur.html", "thumbnailUrl": null, "date": "Fri, 17 May 2024 17:56:32 +0200", "lat": 52.4812, "lon": 13.4296, "intensity": 0.7, "source": "RBB"}, {"title": "Hohe Ausf\u00e4lle bei Obsternte in Brandenburg nach Frostn\u00e4chten im April", "url": "https://www.rbb24.de/wirtschaft/beitrag/2024/05/obst-ernte-brandenburg-ausfall-frost.html", "thumbnailUrl": null, "date": "Fri, 17 May 2024 17:53:59 +0200", "lat": 52.5445, "lon": 13.7357, "intensity": 0.8, "source": "RBB"}, {"title": "\"Hamas-Tunnel\" am Bebelplatz: \"Wir versuchen ein Gef\u00fchl zu erzeugen, die Situation ans Licht zu bringen.\"", "url": "https://www.rbb24.de/politik/beitrag/2024/05/hamas-tunnel-bebelplatz-hostage-square-berlin-gaza-israel.html", "thumbnailUrl": null, "date": "Fri, 17 May 2024 17:49:55 +0200", "lat": 52.5171, "lon": 13.3943, "intensity": 0.7, "source": "RBB"}, {"title": "Vorerst nur f\u00fcr Verein: Gro\u00dfr\u00e4schener See vorzeitig f\u00fcr Boote freigegeben", "url": "https://www.rbb24.de/panorama/beitrag/2024/05/freigabe-see-grossraeschen-boote-sportverein.html", "thumbnailUrl": null, "date": "Fri, 17 May 2024 17:40:00 +0200", "lat": 51.4436, "lon": 13.8747, "intensity": 0.5, "source": "RBB"}, {"title": "Dachstuhl in der Torstra\u00dfe brennt - Rauchs\u00e4ule \u00fcber Berlin zu sehen", "url": "https://www.rbb24.de/panorama/beitrag/2024/05/berlin-feuerwehr-dachstuhlbrand-rauchsaeule-torstrasse.html", "thumbnailUrl": null, "date": "Fri, 17 May 2024 17:30:27 +0200", "lat": 52.530443, "lon": 13.387992, "intensity": 0.8, "source": "RBB"}, {"title": "Ehepaar feiert den 80. Hochzeitstag - in Deutschland am l\u00e4ngsten verheiratet", "url": "https://www.rbb24.de/panorama/beitrag/2024/05/ehepaar-80-hochzeitstag-heirat-in-berlin.html", "thumbnailUrl": null, "date": "Fri, 17 May 2024 16:56:54 +0200", "lat": 51.1657, "lon": 10.4515, "intensity": 0.4, "source": "RBB"},