[{"title": "SEK \u00fcberw\u00e4ltigt M\u00e4nner in Paderborn", "url": "https://www.tagesschau.de/inland/regional/nordrheinwestfalen/wdr-sek-ueberwaeltigt-maenner-in-paderborn-100.html", "thumbnailUrl": "https://images.tagesschau.de/image/d234e265-127c-4630-8cb6-21cc6ee02499/AAABjs9jsXE/AAABjcWesUg/16x9-512.jpg", "date": "2024-04-12T00:33:00.000+02:00", "lat": 51.7309, "lon": 8.7344, "intensity": 0.7, "source": "Tagesschau"}, {"title": "A7 bei Rendsburg an diesem Wochenende zeitweise voll gesperrt", "url": "https://www.tagesschau.de/inland/regional/schleswigholstein/ndr-a7-im-april-an-zwei-wochenenden-teilweise-voll-gesperrt-100.html", "thumbnailUrl": "https://images.tagesschau.de/image/c94e1b76-ddf3-408c-b9fd-92bae2df40ee/AAABjse8-14/AAABjcWesUg/16x9-512.jpg", "date": "2024-04-12T00:01:00.000+02:00", "lat": 54.2994, "lon": 9.6477, "intensity": 0.7, "source": "Tagesschau"}, {"title": "FDP in BW kann sich R\u00fcckkehr zur Kernkraft vorstellen ", "url": "https://www.tagesschau.de/inland/regional/badenwuerttemberg/swr-fdp-bw-kann-sich-rueckkehr-zur-kernkraft-vorstellen-100.html", "thumbnailUrl": "https://images.tagesschau.de/image/d43d5b34-a883-432a-9c6d-424b29191a45/AAABjs7q3mM/AAABjcWesUg/16x9-512.jpg", "date": "2024-04-11T22:34:49.000+02:00", "lat": 49.2755, "lon": 9.1237, "intensity": 0.7, "source": "Tagesschau"}, {"title": "Basketball: Alba Berlin verliert zum Abschluss der Euroleague", "url": "https://www.tagesschau.de/inland/regional/berlin/rbb-basketball-alba-berlin-verliert-zum-abschluss-der-euroleague-102.html", "thumbnailUrl": "https://images.tagesschau.de/image/bedf741b-88ec-44ec-a2c1-0bcd2f537345/AAABjs7gMtk/AAABjcWesUg/16x9-512.jpg", "date": "2024-04-11T22:34:07.000+02:00", "lat": 52.52, "lon": 13.405, "intensity": 0.6, "source": "Tagesschau"}, {"title": "++ 25 Millionen Euro f\u00fcr Holocaust-\u00dcberlebende ++", "url": "https://www.tagesschau.de/newsticker/liveblog-nahost-donnerstag-124.html", "thumbnailUrl": "https://images.tagesschau.de/image/e365725b-db56-4c07-9bf6-67c7b59cc4a7/AAABhnRDex8/AAABjcWesUg/16x9-512.jpg", "date": "2024-04-11T22:29:57.212+02:00", "lat": 31.7683, "lon": 35.2137, "intensity": 0.8, "source": "Tagesschau"}, {"title": "US-Anleger fassen wieder Mut", "url": "https://www.tagesschau.de/wirtschaft/finanzen/marktberichte/marktbericht-dax-kurse-dow-ezb-zinsen-inflation-geldanlage-gold-oel-boerse-aktien-100.html", "thumbnailUrl": "https://images.tagesschau.de/image/ccabc83b-4213-44fc-be06-eef171113678/AAABjZ0_390/AAABjcWesUg/16x9-512.jpg", "date": "2024-04-11T22:18:28.521+02:00", "lat": 40.7128, "lon": -74.006, "intensity": 0.5, "source": "Tagesschau"}, {"title": "Arch\u00e4ologen legen pr\u00e4chtigen Bankettsaal frei", "url": "https://www.tagesschau.de/ausland/europa/pompeji-fresken-schwarz-bankettsaal-100.html", "thumbnailUrl": "https://images.tagesschau.de/image/82b0f618-c6f6-482f-b93c-b658e7a9cea4/AAABjs6ZwOc/AAABjcWesUg/16x9-512.jpg", "date": "2024-04-11T22:10:27.815+02:00", "lat": 40.7508, "lon": 14.4836, "intensity": 0.8, "source": "Tagesschau"}, {"title": "++ Kinder in der Region Charkiw werden evakuiert ++", "url": "https://www.tagesschau.de/newsticker/liveblog-ukraine-donnerstag-330.html", "thumbnailUrl": "https://images.tagesschau.de/image/5b073b67-29bf-4703-b6b1-71469e4c25bb/AAABizMn-kk/AAABjcWesUg/16x9-512.jpg", "date": "2024-04-11T22:05:07.301+02:00", "lat": 49.9935, "lon": 36.230383, "intensity": 0.8, "source": "Tagesschau"}, {"title": "40 Schusswaffen aus G\u00fcterzug gestohlen - zwei Festnahmen", "url": "https://www.tagesschau.de/inland/regional/niedersachsen/ndr-40-schusswaffen-aus-gueterzug-gestohlen-zwei-festnahmen-100.html", "thumbnailUrl": "https://images.tagesschau.de/image/7ce6380f-420d-48fb-a8bb-be74327b7e05/AAABjs4LxmE/AAABjcWesUg/16x9-512.jpg", "date": "2024-04-11T21:51:00.000+02:00", "lat": 52.3759, "lon": 9.7412, "intensity": 0.8, "source": "Tagesschau"}, {"title": "Spargelsaison in Niedersachsen offiziell er\u00f6ffnet", "url": "https://www.tagesschau.de/inland/regional/niedersachsen/ndr-spargelsaison-in-niedersachsen-wird-heute-offiziell-eroeffnet-100.html", "thumbnailUrl": "https://images.tagesschau.de/image/7c7917fd-8959-4a0b-b3e7-c7046bcc1cbd/AAABjs6rTHs/AAABjcWesUg/16x9-512.jpg", "date": "2024-04-11T21:46:00.000+02:00", "lat": 52.5, "lon": 10.0625, "intensity": 0.4, "source": "Tagesschau"}, {"title": "Schiffbr\u00fcchige auf winziger Pazifik-Insel entdeckt", "url": "https://www.tagesschau.de/ausland/amerika/schiffbruechige-pazifik-100.html", "thumbnailUrl": "https://images.tagesschau.de/image/d5b6db28-0d4a-46db-a9ed-c8470cf5ddcc/AAABjs6nbtY/AAABjcWesUg/16x9-512.jpg", "date": "2024-04-11T21:35:10.079+02:00", "lat": -46.4028, "lon": -5.8138, "intensity": 0.8, "source": "Tagesschau"}, {"title": "Umzug der Staatsanwaltschaft: Senatorin weist Vorw\u00fcrfe zur\u00fcck", "url": "https://www.tagesschau.de/inland/regional/hamburg/ndr-umzug-der-staatsanwaltschaft-senatorin-weist-vorwuerfe-zurueck-100.html", "thumbnailUrl": "https://images.tagesschau.de/image/22f01bbd-51bf-4365-b4bc-04269e8698bf/AAABjs1sevU/AAABjcWesUg/16x9-512.jpg", "date": "2024-04-11T21:35:00.000+02:00", "lat": 53.55, "lon": 10.0, "intensity": 0.5, "source": "Tagesschau"}, {"title": "Deutsche Badminton-Herren im EM-Achtelfinale ausgeschieden", "url": "https://www.tagesschau.de/inland/regional/saarland/sr-deutsche-badminton-herren-im-em-achtelfinale-ausgeschieden-102.html", "thumbnailUrl": "https://images.tagesschau.de/image/78677f09-efad-4470-b96e-8341685de4af/AAABjs6smeI/AAABjcWesUg/16x9-512.jpg", "date": "2024-04-11T21:26:00.000+02:00", "lat": 49.2308, "lon": 6.9954, "intensity": 0.3, "source": "Tagesschau"}, {"title": "Gegen Protest der Bauern: Verkaufsstopp f\u00fcr staatliche Agrarfl\u00e4chen in Ostdeutschland ist beschlossen", "url": "https://www.tagesschau.de/inland/regional/berlin/rbb-gegen-protest-der-bauern-verkaufsstopp-fuer-staatliche-agrarflaechen-in-ostdeutschland-ist-beschlossen-100.html", "thumbnailUrl": "https://images.tagesschau.de/image/d6e5cf3a-223e-4b15-9ed0-5b70c7709152/AAABjs6Yrys/AAABjcWesUg/16x9-512.jpg", "date": "2024-04-11T21:14:05.000+02:00", "lat": 52.520008, "lon": 13.404954, "intensity": 0.7, "source": "Tagesschau"}, {"title": "Einkaufszentrum in der Hamburger Hafencity: Er\u00f6ffnung verschoben", "url": "https://www.tagesschau.de/inland/regional/hamburg/ndr-westfield-hamburg-ueberseequartier-eroeffnung-verschoben-100.html", "thumbnailUrl": "https://images.tagesschau.de/image/d8c598d7-9666-4adb-8ca6-b96c161caefb/AAABjsxfWaI/AAABjcWesUg/16x9-512.jpg", "date": "2024-04-11T21:12:00.000+02:00", "lat": 53.5438, "lon": 9.9966, "intensity": 0.5, "source": "Tagesschau"}, {"title": "Mit 3,7 Promille gefahren: Betrunkene Ehefrau holt Autofahrer von der Polizeiwache ab", "url": "https://www.tagesschau.de/inland/regional/hessen/hr-betrunkene-frau-holt-ehemann-von-der-polizeiwache-ab-100.html", "thumbnailUrl": "https://images.tagesschau.de/image/65d8bca7-7d56-4a8d-ab8f-17690bcf47a2/AAABjs6Pgqs/AAABjcWesUg/16x9-512.jpg", "date": "2024-04-11T21:06:46.916+02:00", "lat": 49.982, "lon": 7.876, "intensity": 0.8, "source": "Tagesschau"}, {"title": "In eigener Sache: Katrin G\u00fcnther wird neue rbb-Programmdirektorin", "url": "https://www.tagesschau.de/inland/regional/brandenburg/rbb-in-eigener-sache-katrin-guenther-wird-neue-rbb-programmdirektorin-100.html", "thumbnailUrl": "https://images.tagesschau.de/image/48786cac-a493-4ff8-b17b-3aeea4136f85/AAABjs3lsGU/AAABjcWesUg/16x9-512.jpg", "date": "2024-04-11T21:05:18.000+02:00", "lat": 52.52, "lon": 13.405, "intensity": 0.3, "source": "Tagesschau"}, {"title": "Stimmung bei Unternehmen in Niedersachsen durchwachsen", "url": "https://www.tagesschau.de/inland/regional/niedersachsen/ndr-stimmung-bei-unternehmen-in-niedersachsen-durchwachsen-100.html", "thumbnailUrl": "https://images.tagesschau.de/image/7422b2ba-23d4-4717-8dd4-b9a4d702d1f4/AAABjs6Tguc/AAABjcWesUg/16x9-512.jpg", "date": "2024-04-11T21:04:00.000+02:00", "lat": 52.6367, "lon": 9.8537, "intensity": 0.5, "source": "Tagesschau"}, {"title": "50 Jahre Uni Osnabr\u00fcck: So wird das Jubil\u00e4um gefeiert", "url": "https://www.tagesschau.de/inland/regional/niedersachsen/ndr-50-jahre-uni-osnabrueck-so-wird-das-jubilaeum-gefeiert-100.html", "thumbnailUrl": "https://images.tagesschau.de/image/dd3814cf-d226-49bd-9bb9-5be8a20602d0/AAABjstknlI/AAABjcWesUg/16x9-512.jpg", "date": "2024-04-11T20:58:00.000+02:00", "lat": 52.279, "lon": 8.448, "intensity": 0.3, "source": "Tagesschau"}, {"title": "Viel Leerstand: Wie Senioren den Wohnraummangel lindern k\u00f6nnen", "url": "https://www.tagesschau.de/inland/regional/niedersachsen/ndr-viel-leerstand-wie-senioren-den-wohnraummangel-lindern-koennen-100.html", "thumbnailUrl": "https://images.tagesschau.de/image/7bbee4e1-0b6c-4ce9-82a2-fe1ba5266e28/AAABjs6Inf0/AAABjcWesUg/16x9-512.jpg", "date": "2024-04-11T20:58:00.000+02:00", "lat": 52.3759, "lon": 9.741, "intensity": 0.6, "source": "Tagesschau"}, {"title": "Kiel: Blindg\u00e4nger in Schwentine gefunden - Entsch\u00e4rfung am Sonntag", "url": "https://www.tagesschau.de/inland/regional/schleswigholstein/ndr-kiel-blindgaenger-in-schwentine-gefunden-entschaerfung-am-sonntag-100.html", "thumbnailUrl": "https://images.tagesschau.de/image/f7e55eff-56f0-43de-9397-c6c4d76f6e25/AAABjs6C8RM/AAABjcWesUg/16x9-512.jpg", "date": "2024-04-11T20:51:00.000+02:00", "lat": 54.3233, "lon": 10.1228, "intensity": 0.7, "source": "Tagesschau"}, {"title": "Drehenthalerhof kommt nicht zur Ruhe", "url": "https://www.tagesschau.de/inland/regional/rheinlandpfalz/swr-drehenthalerhof-kommt-nicht-zur-ruhe-102.html", "thumbnailUrl": "https://images.tagesschau.de/image/35e1388d-094a-44e1-99b1-38db960b4723/AAABjs6d-SI/AAABjcWesUg/16x9-512.jpg", "date": "2024-04-11T20:46:09.000+02:00", "lat": 49.7808, "lon": 7.3645, "intensity": 0.8, "source": "Tagesschau"}, {"title": "\"Deutlich \u00fcberzogen\": Kritik an Bayerns Cannabis-Bu\u00dfgeldern", "url": "https://www.tagesschau.de/inland/regional/bayern/br-deutlich-ueberzogen-kritik-an-bayerns-cannabis-bussgeldern-102.html", "thumbnailUrl": "https://images.tagesschau.de/image/5f12e05a-e748-4c02-9548-3ad95ed141e3/AAABjs5KBqs/AAABjcWesUg/16x9-512.jpg", "date": "2024-04-11T20:31:37.207+02:00", "lat": 48.1351, "lon": 11.582, "intensity": 0.7, "source": "Tagesschau"}, {"title": "Medienbericht: Insolvente Signa verkauft KaDeWe an thail\u00e4ndischen Handelskonzern", "url": "https://www.tagesschau.de/inland/regional/berlin/rbb-laut-medienbericht-signa-verkauft-kadewe-an-thailaendischen-handelskonzern-100.html", "thumbnailUrl": "https://images.tagesschau.de/image/cba96b71-d72e-40b1-97e4-84d074be07e6/AAABjs5rC_E/AAABjcWesUg/16x9-512.jpg", "date": "2024-04-11T20:31:13.000+02:00", "lat": 52.5174, "lon": 13.3417, "intensity": 0.8, "source": "Tagesschau"}, {"title": "Hurricanes verlassen Ludwigspark", "url": "https://www.tagesschau.de/inland/regional/saarland/sr-hurricanes-verlassen-ludwigspark-100.html", "thumbnailUrl": "https://images.tagesschau.de/image/c352d88e-af5c-4b94-b8e8-528aa4830633/AAABjs5yAwQ/AAABjcWesUg/16x9-512.jpg", "date": "2024-04-11T20:22:00.000+02:00", "lat": 49.2402, "lon": 6.9944, "intensity": 0.7, "source": "Tagesschau"}, {"title": "Ein neuer Anleger f\u00fcr das LNG-Terminal in Brunsb\u00fcttel", "url": "https://www.tagesschau.de/inland/regional/schleswigholstein/ndr-ein-neuer-anleger-fuer-das-lng-terminal-in-brunsbuettel-100.html", "thumbnailUrl": "https://images.tagesschau.de/image/ef6df018-2a23-4d57-a953-bf565d17907b/AAABjs5juWA/AAABjcWesUg/16x9-512.jpg", "date": "2024-04-11T20:15:00.000+02:00", "lat": 53.8793, "lon": 9.1486, "intensity": 0.7, "source": "Tagesschau"}, {"title": "Fu\u00dfball-Bundesliga: Angeschlagene Unioner reisen als Au\u00dfenseiter nach Augsburg", "url": "https://www.tagesschau.de/inland/regional/berlin/rbb-fussball-bundesliga-angeschlagene-unioner-reisen-als-aussenseiter-nach-augsburg-102.html", "thumbnailUrl": "https://images.tagesschau.de/image/36dbe6ec-0077-48b5-a5a6-2e561ca78d74/AAABjs5lnjo/AAABjcWesUg/16x9-512.jpg", "date": "2024-04-11T20:14:18.000+02:00", "lat": 48.3717, "lon": 10.8978, "intensity": 0.4, "source": "Tagesschau"}, {"title": "Seniorin tot in Wohnung gefunden: M\u00f6gliche Vernachl\u00e4ssigung?", "url": "https://www.tagesschau.de/inland/regional/niedersachsen/ndr-seniorin-tot-in-wohnung-gefunden-moegliche-vernachlaessigung-100.html", "thumbnailUrl": "https://images.tagesschau.de/image/6755f25a-b2b9-4bd0-9f9f-3f2cb789adb7/AAABjs5ef00/AAABjcWesUg/16x9-512.jpg", "date": "2024-04-11T20:11:00.000+02:00", "lat": 53.871116, "lon": 8.69195, "intensity": 0.7, "source": "Tagesschau"}, {"title": "Wetterlage und Temperaturen", "url": "https://www.tagesschau.de/wetter/europa-welt", "thumbnailUrl": "https://images.tagesschau.de/image/6e7d3b16-79c8-4308-822b-20c3035236b5/AAABjsxkJ4Y/AAABjcWesUg/16x9-512.jpg", "date": "2024-04-11T20:00:22.588+02:00", "lat": 51.1657, "lon": 10.4515, "intensity": 0.3, "source": "Tagesschau"}, {"title": "Verfolgungsjagd auf A7: Unfall mit d\u00e4nischem Polizeiwagen", "url": "https://www.tagesschau.de/inland/regional/schleswigholstein/ndr-verfolgungsjagd-auf-a7-unfall-mit-daenischem-polizeiwagen-100.html", "thumbnailUrl": "https://images.tagesschau.de/image/2f3cae22-519b-4075-b593-26d422fcb236/AAABjs5wiLg/AAABjcWesUg/16x9-512.jpg", "date": "2024-04-11T19:49:00.000+02:00", "lat": 54.7937, "lon": 9.4339, "intensity": 0.7, "source": "Tagesschau"}, {"title": "Sperrung auf A8 bei Pforzheim bis in die Nacht und kilometerlanger Stau ", "url": "https://www.tagesschau.de/inland/regional/badenwuerttemberg/swr-sperrung-auf-a8-bei-pforzheim-bis-in-die-nacht-und-kilometerlanger-stau-100.html", "thumbnailUrl": "https://images.tagesschau.de/image/3b75b9ae-8bd1-4e84-8f02-8432cc29eec1/AAABjs43dcU/AAABjcWesUg/16x9-512.jpg", "date": "2024-04-11T19:43:00.000+02:00", "lat": 48.8922, "lon": 8.6944, "intensity": 0.7, "source": "Tagesschau"}, {"title": "Gr\u00fcne sehen Genderverbot vor Abi-Pr\u00fcfung \"rechtlich auf wackligen Beinen\"", "url": "https://www.tagesschau.de/inland/regional/hessen/hr-gruene-sehen-genderverbot-vor-abi-pruefung-rechtlich-auf-wackligen-beinen-100.html", "thumbnailUrl": "https://images.tagesschau.de/image/d3c55648-57b7-458d-942d-fca9ab61a0c2/AAABjs415ng/AAABjcWesUg/16x9-512.jpg", "date": "2024-04-11T19:29:22.443+02:00", "lat": 51.1657, "lon": 9.5018, "intensity": 0.6, "source": "Tagesschau"}, {"title": "Gedruckte \"Hamburger Morgenpost\" nur noch einmal pro Woche  ", "url": "https://www.tagesschau.de/inland/regional/hamburg/ndr-gedruckte-hamburger-morgenpost-nur-noch-einmal-pro-woche-100.html", "thumbnailUrl": "https://images.tagesschau.de/image/3ec5a610-68dd-4f53-a7d4-7f3c03766a44/AAABjsxnByM/AAABjcWesUg/16x9-512.jpg", "date": "2024-04-11T19:24:00.000+02:00", "lat": 53.5511, "lon": 9.9937, "intensity": 0.8, "source": "Tagesschau"}, {"title": "Scharfe Kritik an AfD-Position zum Kreml", "url": "https://www.tagesschau.de/inland/innenpolitik/afd-russland-aktuelle-stunde-bundestag-100.html", "thumbnailUrl": "https://images.tagesschau.de/image/2a86b4f2-4c06-4402-a023-41ca75e2e080/AAABjs4pt18/AAABjcWesUg/16x9-512.jpg", "date": "2024-04-11T19:19:52.389+02:00", "lat": 52.51627, "lon": 13.37699, "intensity": 0.7, "source": "Tagesschau"}, {"title": "T\u00f6dliche Sch\u00fcsse in Nienburg: Bodycam-Aufnahmen ausgewertet", "url": "https://www.tagesschau.de/inland/regional/niedersachsen/ndr-toedliche-schuesse-in-nienburg-bodycam-aufnahmen-ausgewertet-100.html", "thumbnailUrl": "https://images.tagesschau.de/image/9a8b6535-80fa-4651-8285-c5124743b7f2/AAABjsi1-S0/AAABjcWesUg/16x9-512.jpg", "date": "2024-04-11T19:08:00.000+02:00", "lat": 52.6383, "lon": 9.1929, "intensity": 0.8, "source": "Tagesschau"}, {"title": "\"B\u00f6rdespeck\" verschwindet aus dem Supermarkt", "url": "https://www.tagesschau.de/inland/regional/sachsenanhalt/mdr-boerdespeck-verschwindet-aus-dem-supermarkt-100.html", "thumbnailUrl": "https://images.tagesschau.de/image/5aa2244d-0ed2-4e08-bca0-57a44099aba5/AAABjs8pp-k/AAABjcWesUg/16x9-512.jpg", "date": "2024-04-11T19:06:52.000+02:00", "lat": 52.1205, "lon": 11.5195, "intensity": 0.6, "source": "Tagesschau"}, {"title": "H\u00f6here Mehrwertsteuer auf Fleisch? Landwirte lehnen das ab", "url": "https://www.tagesschau.de/inland/regional/niedersachsen/ndr-hoehere-mehrwertsteuer-auf-fleisch-landwirte-lehnen-das-ab-100.html", "thumbnailUrl": "https://images.tagesschau.de/image/d9847596-1561-418f-9a2f-44a4c93649e6/AAABjs6ZAkE/AAABjcWesUg/16x9-512.jpg", "date": "2024-04-11T18:51:00.000+02:00", "lat": 52.3738, "lon": 9.9937, "intensity": 0.5, "source": "Tagesschau"}, {"title": "Sorgen um den Kuckuck - NABU ruft zum Beobachten auf", "url": "https://www.tagesschau.de/inland/regional/niedersachsen/ndr-sorgen-um-den-kuckuck-nabu-ruft-zum-beobachten-auf-100.html", "thumbnailUrl": "https://images.tagesschau.de/image/fd4bd686-9b06-445c-aa57-680bb450c73c/AAABjs45tBY/AAABjcWesUg/16x9-512.jpg", "date": "2024-04-11T18:50:00.000+02:00", "lat": 52.3732, "lon": 9.9937, "intensity": 0.5, "source": "Tagesschau"}, {"title": "Frau in falschem Grab auf dem Friedhof Nagold beerdigt", "url": "https://www.tagesschau.de/inland/regional/badenwuerttemberg/swr-falsche-frau-in-doppelgrab-in-nagold-beerdigt-100.html", "thumbnailUrl": "https://images.tagesschau.de/image/cfe3454b-cfa5-4686-a38b-71a5fcfc9c31/AAABjs4sjnc/AAABjcWesUg/16x9-512.jpg", "date": "2024-04-11T18:43:37.000+02:00", "lat": 48.5708, "lon": 8.7167, "intensity": 0.7, "source": "Tagesschau"}, {"title": "Aurich: Polizei fahndet nach mutma\u00dflichen Schmuckdieben", "url": "https://www.tagesschau.de/inland/regional/niedersachsen/ndr-aurich-polizei-fahndet-nach-mutmasslichen-schmuckdieben-100.html", "thumbnailUrl": "https://images.tagesschau.de/image/b647e15e-cb66-477e-90e1-a2cb3c68ad75/AAABjs4KGJ0/AAABjcWesUg/16x9-512.jpg", "date": "2024-04-11T18:39:00.000+02:00", "lat": 53.4761, "lon": 7.4879, "intensity": 0.8, "source": "Tagesschau"}, {"title": "Salzwedel: Wobau gibt Pl\u00e4ne f\u00fcr Abriss der alten Hopfendarre auf", "url": "https://www.tagesschau.de/inland/regional/sachsenanhalt/mdr-salzwedel-wobau-gibt-plaene-fuer-abriss-der-alten-hopfendarre-auf-100.html", "thumbnailUrl": "https://images.tagesschau.de/image/14a063e0-e39a-4916-83b6-eb91b4402127/AAABjs8pjvE/AAABjcWesUg/16x9-512.jpg", "date": "2024-04-11T18:37:55.000+02:00", "lat": 52.8513, "lon": 11.1475, "intensity": 0.4, "source": "Tagesschau"}, {"title": "Darmstadt 98: +++ Bericht: Honsak in Kiel ein Thema +++ Kauczinski: Zeitpunkt von Fernie-Abgang \"nicht sch\u00f6n\" +++ Polizei: Randale von Lilien-Fans +++", "url": "https://www.tagesschau.de/inland/regional/hessen/hr--tietz-vermisst-fehlende-gier--lilien-fans-liefern-sich-raststaetten-pruegelei--die-niederlage-der-lilien-in-der-video-zusammenfassung-102.html", "thumbnailUrl": "https://images.tagesschau.de/image/3ed63cf6-3391-4ede-b53e-e6e0e7eab2ab/AAABjs4EUsg/AAABjcWesUg/16x9-512.jpg", "date": "2024-04-11T18:34:57.936+02:00", "lat": 49.878, "lon": 8.6536, "intensity": 0.6, "source": "Tagesschau"}, {"title": "Mutma\u00dfliche IS-Mitglieder: Syrer in Essen und Dortmund festgenommen", "url": "https://www.tagesschau.de/inland/regional/nordrheinwestfalen/wdr-mutmassliche-is-mitglieder-syrer-in-essen-und-dortmund-festgenommen-100.html", "thumbnailUrl": "https://images.tagesschau.de/image/a193c458-0bad-472d-a95d-9df1f46faecb/AAABjs4CTIo/AAABjcWesUg/16x9-512.jpg", "date": "2024-04-11T18:31:00.000+02:00", "lat": 51.4556, "lon": 7.0131, "intensity": 0.8, "source": "Tagesschau"}, {"title": "M\u00fcssen Hausbesitzer im Saarland um Gasversorgung bangen?", "url": "https://www.tagesschau.de/inland/regional/saarland/sr-muessen-hausbesitzer-im-saarland-um-gasversorgung-bangen-100.html", "thumbnailUrl": "https://images.tagesschau.de/image/391f2bc0-c9c4-4244-a28a-92fb71346240/AAABjs4CV_s/AAABjcWesUg/16x9-512.jpg", "date": "2024-04-11T18:30:00.000+02:00", "lat": 49.2195, "lon": 10.4515, "intensity": 0.7, "source": "Tagesschau"}, {"title": "Clan-Chef Remmo will in Grabowh\u00f6fe Lebensabend verbringen", "url": "https://www.tagesschau.de/inland/regional/mecklenburgvorpommern/ndr-issa-remmo-meldet-sich-in-interview-zu-wort-100.html", "thumbnailUrl": "https://images.tagesschau.de/image/305ac12f-9550-4577-ab89-c3d5b795dd91/AAABjs0SeAU/AAABjcWesUg/16x9-512.jpg", "date": "2024-04-11T18:27:00.000+02:00", "lat": 53.61, "lon": 13.57, "intensity": 0.3, "source": "Tagesschau"}, {"title": "Welt-Parkinson-Tag: Videospiele auf Rezept", "url": "https://www.tagesschau.de/inland/regional/schleswigholstein/ndr-welt-parkinson-tag-videospiele-auf-rezept-100.html", "thumbnailUrl": "https://images.tagesschau.de/image/334f71e7-c4dd-4cae-ab6e-7fe1bc929b44/AAABjs30GsY/AAABjcWesUg/16x9-512.jpg", "date": "2024-04-11T18:13:00.000+02:00", "lat": 54.5259, "lon": 9.6869, "intensity": 0.6, "source": "Tagesschau"}, {"title": "Wagenknecht-Partei BSW gr\u00fcndet Ende Mai Brandenburger Landesverband", "url": "https://www.tagesschau.de/inland/regional/brandenburg/rbb-wagenknecht-partei-bsw-gruendet-ende-mai-brandenburger-landesverband-100.html", "thumbnailUrl": "https://images.tagesschau.de/image/6b8e8107-adc3-4667-b5fe-008e2a7254e2/AAABjs3uYAo/AAABjcWesUg/16x9-512.jpg", "date": "2024-04-11T18:10:17.000+02:00", "lat": 52.4125, "lon": 13.1704, "intensity": 0.5, "source": "Tagesschau"}, {"title": "\"Schule trifft K\u00fcnstler\": Kulturelle Bildung f\u00fcr die Kleinsten in Chemnitz", "url": "https://www.tagesschau.de/inland/regional/sachsen/mdr-schule-trifft-kuenstler-kulturelle-bildung-fuer-die-kleinsten-in-chemnitz-100.html", "thumbnailUrl": "https://images.tagesschau.de/image/1e2d968f-640a-45e7-ae8f-d1c463c2964c/AAABjs8no3I/AAABjcWesUg/16x9-512.jpg", "date": "2024-04-11T18:04:31.000+02:00", "lat": 50.8278, "lon": 12.9276, "intensity": 0.6, "source": "Tagesschau"}, {"title": "Nach Tat vor einem Jahr: Sch\u00fcsse auf FDP-Politiker Georg Gallus weiterhin ungekl\u00e4rt", "url": "https://www.tagesschau.de/inland/regional/badenwuerttemberg/swr-nach-tat-vor-einem-jahr-schuesse-auf-fdp-politiker-georg-gallus-weiterhin-ungeklaert-100.html", "thumbnailUrl": "https://images.tagesschau.de/image/af7dd6a9-2ac3-4bf9-b51d-298e4776db0c/AAABjs3qj50/AAABjcWesUg/16x9-512.jpg", "date": "2024-04-11T18:04:00.000+02:00", "lat": 48.790447, "lon": 9.127964, "intensity": 0.7, "source": "Tagesschau"}, {"title": "Santiano sagt Tourauftakt in Schwerin kurzfristig ab", "url": "https://www.tagesschau.de/inland/regional/mecklenburgvorpommern/ndr-santiano-sagt-tourauftakt-in-schwerin-kurzfristig-ab-100.html", "thumbnailUrl": "https://images.tagesschau.de/image/ed121802-a1d3-44c6-bf8a-d1a19ee5e44e/AAABjs33W_s/AAABjcWesUg/16x9-512.jpg", "date": "2024-04-11T18:01:00.000+02:00", "lat": 53.6355, "lon": 11.4134, "intensity": 0.7, "source": "Tagesschau"}, {"title": "Grippewelle im Saarland offiziell beendet", "url": "https://www.tagesschau.de/inland/regional/saarland/sr-grippewelle-im-saarland-offiziell-beendet-100.html", "thumbnailUrl": "https://images.tagesschau.de/image/8d3716fc-a8bf-43a4-b2bd-2aa3cf05ebc9/AAABjs3m4_4/AAABjcWesUg/16x9-512.jpg", "date": "2024-04-11T18:00:00.000+02:00", "lat": 49.3964, "lon": 6.9912, "intensity": 0.4, "source": "Tagesschau"}, {"title": "Abipr\u00fcfungen in Niedersachsen unterbrochen", "url": "https://www.tagesschau.de/inland/regional/niedersachsen/abitur-niedersachsen-100.html", "thumbnailUrl": "https://images.tagesschau.de/image/249d6343-9f51-4558-8589-468188bb503f/AAABjs2ao3o/AAABjcWesUg/16x9-512.jpg", "date": "2024-04-11T17:59:00.000+02:00", "lat": 51.8503, "lon": 10.6109, "intensity": 0.8, "source": "Tagesschau"}, {"title": "Eintracht Frankfurt: Toppm\u00f6llers simple Tor-Rechnung vor dem VfB-Hit", "url": "https://www.tagesschau.de/inland/regional/hessen/hr-eintracht-frankfurt-toppmoellers-simple-tor-rechnung-vor-dem-vfb-hit-102.html", "thumbnailUrl": "https://images.tagesschau.de/image/75fc8bc4-4c74-4494-9914-74bc41095397/AAABjs3cJm0/AAABjcWesUg/16x9-512.jpg", "date": "2024-04-11T17:45:56.744+02:00", "lat": 48.777, "lon": 9.177, "intensity": 0.7, "source": "Tagesschau"}, {"title": "Entsch\u00e4digungsforderung: Cottbuser Gericht weist Klage wegen mutma\u00dflicher Corona-Impfsch\u00e4den ab", "url": "https://www.tagesschau.de/inland/regional/brandenburg/rbb-entschaedigungsforderung-cottbuser-gericht-weist-klage-wegen-mutmasslicher-corona-impfschaeden-ab-100.html", "thumbnailUrl": "https://images.tagesschau.de/image/3893deb0-5978-4f39-b1cd-d9bf86a556b5/AAABjs3YX2Y/AAABjcWesUg/16x9-512.jpg", "date": "2024-04-11T17:45:00.000+02:00", "lat": 51.7562, "lon": 14.3356, "intensity": 0.5, "source": "Tagesschau"}, {"title": "Streit um Hauptstadtzulage: Viele Berliner Kitas blieben am Donnerstag geschlossen - Freie Tr\u00e4ger demonstrieren", "url": "https://www.tagesschau.de/inland/regional/berlin/rbb-streit-um-hauptstadtzulage-viele-kitas-am-donnerstag-zu-freie-traeger-demonstrieren-100.html", "thumbnailUrl": "https://images.tagesschau.de/image/9d4b4b6c-9576-4fd6-95ea-0c16b1446b79/AAABjs3Pdqw/AAABjcWesUg/16x9-512.jpg", "date": "2024-04-11T17:37:05.000+02:00", "lat": 52.520008, "lon": 13.404954, "intensity": 0.8, "source": "Tagesschau"}, {"title": "TSMC-Ansiedlung in Dresden: Gro\u00dfe Herausforderungen f\u00fcr die Region", "url": "https://www.tagesschau.de/inland/regional/sachsen/mdr-tsmc-ansiedlung-in-dresden-grosse-herausforderungen-fuer-die-region-100.html", "thumbnailUrl": "https://images.tagesschau.de/image/b1f5e542-a86f-4a43-9afa-04493680254b/AAABjs8nhe8/AAABjcWesUg/16x9-512.jpg", "date": "2024-04-11T17:33:48.000+02:00", "lat": 51.050409, "lon": 13.737262, "intensity": 0.8, "source": "Tagesschau"}, {"title": "Swatting und Mobbing: Wie Internet-Trolle \u00fcber Jahre ihre Opfer qu\u00e4len", "url": "https://www.tagesschau.de/inland/regional/brandenburg/rbb-swatting-und-mobbing-wie-internet-trolle-ueber-jahre-ihre-opfer-quaelen-100.html", "thumbnailUrl": "https://images.tagesschau.de/image/cb17ef56-47a8-4485-8302-25e475b1881a/AAABjs3NoIM/AAABjcWesUg/16x9-512.jpg", "date": "2024-04-11T17:32:23.000+02:00", "lat": 52.520008, "lon": 13.404954, "intensity": 0.8, "source": "Tagesschau"}, {"title": "Enkel von Helmut Kohl kandidiert f\u00fcr CDU-Bundesvorstand", "url": "https://www.tagesschau.de/inland/regional/hessen/hr-enkel-von-helmut-kohl-kandidiert-fuer-cdu-bundesvorstand-100.html", "thumbnailUrl": "https://images.tagesschau.de/image/886e230a-3dcf-49f9-b754-38d79f67b65f/AAABjs3GHGI/AAABjcWesUg/16x9-512.jpg", "date": "2024-04-11T17:26:55.865+02:00", "lat": 50.5524, "lon": 8.5023, "intensity": 0.6, "source": "Tagesschau"}, {"title": "So bereitet die Stadt Leverkusen sich auf m\u00f6glichen Meistertitel vor", "url": "https://www.tagesschau.de/inland/regional/nordrheinwestfalen/wdr-so-bereitet-die-stadt-leverkusen-sich-auf-moeglichen-meistertitel-vor-100.html", "thumbnailUrl": "https://images.tagesschau.de/image/f5c7be57-7851-4418-a80a-396eb648f895/AAABjs41oTc/AAABjcWesUg/16x9-512.jpg", "date": "2024-04-11T17:22:00.000+02:00", "lat": 51.0303, "lon": 6.9888, "intensity": 0.8, "source": "Tagesschau"}, {"title": "\u00d6zdemir wirbt f\u00fcr ges\u00fcnderes Essen", "url": "https://www.tagesschau.de/inland/innenpolitik/ernaehrung-bundestag-100.html", "thumbnailUrl": "https://images.tagesschau.de/image/99deea83-89a9-4254-9097-1fd49227f4cd/AAABjs2_3KE/AAABjcWesUg/16x9-512.jpg", "date": "2024-04-11T17:21:27.240+02:00", "lat": 52.51627, "lon": 13.37599, "intensity": 0.6, "source": "Tagesschau"}, {"title": "Steinmeier mahnt Schutz f\u00fcr Kommunalpolitiker an", "url": "https://www.tagesschau.de/inland/innenpolitik/steinmeier-appell-kommunal-politik-100.html", "thumbnailUrl": "https://images.tagesschau.de/image/c41e5905-c5f4-4050-a950-0b52ccb4376b/AAABjs2-jRI/AAABjcWesUg/16x9-512.jpg", "date": "2024-04-11T17:20:01.675+02:00", "lat": 51.5448, "lon": 9.9937, "intensity": 0.8, "source": "Tagesschau"}, {"title": "Mehrwertsteuer-Erh\u00f6hung auf Fleisch: Pro & Kontra aus SH", "url": "https://www.tagesschau.de/inland/regional/schleswigholstein/ndr-mehrwertsteuer-erhoehung-auf-fleisch-pro--kontra-aus-sh-100.html", "thumbnailUrl": "https://images.tagesschau.de/image/068d9cf7-e5d9-433e-9e06-a8230e108094/AAABjs6ZCfU/AAABjcWesUg/16x9-512.jpg", "date": "2024-04-11T17:20:00.000+02:00", "lat": 54.3326, "lon": 9.6961, "intensity": 0.6, "source": "Tagesschau"}, {"title": "Missbrauchsfall Edenkoben: Experte fordert Sicherungsverwahrung f\u00fcr Angeklagten", "url": "https://www.tagesschau.de/inland/regional/rheinlandpfalz/swr-prozess-um-missbrauch-von-edenkoben-urteil-wohl-diese-woche-100.html", "thumbnailUrl": "https://images.tagesschau.de/image/cd53457f-97fd-4771-9faa-9ff003886d8f/AAABjr0hGk4/AAABjcWesUg/16x9-512.jpg", "date": "2024-04-11T17:15:00.000+02:00", "lat": 49.2925, "lon": 8.1192, "intensity": 0.5, "source": "Tagesschau"}, {"title": "Gef\u00e4ngnis in Braunschweig schlie\u00dft - 44 H\u00e4ftlinge m\u00fcssen umziehen", "url": "https://www.tagesschau.de/inland/regional/niedersachsen/ndr-gefaengnis-in-braunschweig-schliesst-44-haeftlinge-muessen-umziehen-100.html", "thumbnailUrl": "https://images.tagesschau.de/image/5eaa79f3-c2dd-4213-b9e4-7cb1972ff9d9/AAABjs29OQ4/AAABjcWesUg/16x9-512.jpg", "date": "2024-04-11T17:14:00.000+02:00", "lat": 52.268874, "lon": 10.52677, "intensity": 0.6, "source": "Tagesschau"}, {"title": "Beschluss des Stadtparlaments: Stra\u00dfe \"Zu den drei Mohren\" in Potsdam wird umbenannt", "url": "https://www.tagesschau.de/inland/regional/brandenburg/rbb-beschluss-des-stadtparlaments-strasse-zu-den-drei-mohren-in-potsdam-wird-umbenannt-100.html", "thumbnailUrl": "https://images.tagesschau.de/image/ec59a523-ac7b-45de-a03b-03cb85167d18/AAABjs25PN4/AAABjcWesUg/16x9-512.jpg", "date": "2024-04-11T17:13:03.000+02:00", "lat": 52.3906, "lon": 13.0645, "intensity": 0.7, "source": "Tagesschau"}, {"title": "Wechsel zu Grundschulen: Musikschulen laufen die Lehrer weg", "url": "https://www.tagesschau.de/inland/regional/brandenburg/rbb-wechsel-zu-grundschulen-musikschulen-laufen-die-lehrer-weg-100.html", "thumbnailUrl": "https://images.tagesschau.de/image/96f7fb6f-9446-46f1-87b9-c6e962d879b8/AAABjs21uww/AAABjcWesUg/16x9-512.jpg", "date": "2024-04-11T17:08:02.000+02:00", "lat": 52.4125, "lon": 13.2931, "intensity": 0.8, "source": "Tagesschau"}, {"title": "Gymnasium im Westerwald plant ges\u00fcndere Ern\u00e4hrung f\u00fcr Sch\u00fcler", "url": "https://www.tagesschau.de/inland/regional/rheinlandpfalz/swr-gymnasium-im-westerwald-plant-gesuendere-ernaehrung-fuer-schueler-102.html", "thumbnailUrl": "https://images.tagesschau.de/image/2b72f500-f748-4b34-b3af-763780c656a3/AAABjs3Js3U/AAABjcWesUg/16x9-512.jpg", "date": "2024-04-11T17:05:23.000+02:00", "lat": 50.606, "lon": 7.782, "intensity": 0.3, "source": "Tagesschau"}, {"title": "Prozess um Neonazi-Verlag \"Der Schelm\": Bundesanwaltschaft fordert Haft- und Bew\u00e4hrungsstrafen", "url": "https://www.tagesschau.de/inland/regional/sachsen/mdr-prozess-um-neonazi-verlag-der-schelm-bundesanwaltschaft-fordert-haft-und-bewaehrungsstrafen-100.html", "thumbnailUrl": "https://images.tagesschau.de/image/a811c574-944d-4fa5-b364-91c7f2ad88be/AAABjs8nuws/AAABjcWesUg/16x9-512.jpg", "date": "2024-04-11T17:01:05.000+02:00", "lat": 51.050409, "lon": 13.737262, "intensity": 0.8, "source": "Tagesschau"}, {"title": "Nach Kritik: Pfalzwerke bauen im Kreis Kusel Plattform f\u00fcr Storchennest", "url": "https://www.tagesschau.de/inland/regional/rheinlandpfalz/swr-pfalzwerke-kusel-entfernen-storchennester-anwohner-besorgt-100.html", "thumbnailUrl": "https://images.tagesschau.de/image/c43e1c85-fa20-4ae4-ab2f-6f0494dcccdf/AAABjsykt2c/AAABjcWesUg/16x9-512.jpg", "date": "2024-04-11T17:01:00.000+02:00", "lat": 49.5231, "lon": 7.3817, "intensity": 0.7, "source": "Tagesschau"}, {"title": "Umbenennung in Audre-Lorde-Stra\u00dfe: Berliner Manteuffelstra\u00dfe soll im Mai neuen Namen tragen", "url": "https://www.tagesschau.de/inland/regional/berlin/rbb-umbenennung-in-audre-lorde-strasse-berliner-manteuffelstrasse-soll-im-mai-neuen-namen-tragen-100.html", "thumbnailUrl": "https://images.tagesschau.de/image/1353efef-38d0-4223-9756-b5c1138212ff/AAABjs218oM/AAABjcWesUg/16x9-512.jpg", "date": "2024-04-11T16:59:09.000+02:00", "lat": 52.52, "lon": 13.3962, "intensity": 0.7, "source": "Tagesschau"}, {"title": "Opposition macht in Schwesigs Osterhasen-Aff\u00e4re Druck", "url": "https://www.tagesschau.de/inland/regional/mecklenburgvorpommern/ndr-opposition-macht-in-schwesigs-osterhasen-affaere-druck-100.html", "thumbnailUrl": "https://images.tagesschau.de/image/ccb31d2d-8404-4e91-a40d-e8ca3339e8af/AAABjs57Mng/AAABjcWesUg/16x9-512.jpg", "date": "2024-04-11T16:59:00.000+02:00", "lat": 53.6127, "lon": 13.1846, "intensity": 0.7, "source": "Tagesschau"}, {"title": "Kultur: +++ ARD-Serie \u00fcber Frankfurter Familie gewinnt in Cannes +++ Petition zur Kunstfreiheit der documenta +++ ", "url": "https://www.tagesschau.de/inland/regional/hessen/hr--schauspiel-frankfurt-bringt-putin-und-macbeth-zusammen--die-filmfestival-saison-2023-startet--lichter-filmfest-zum-thema-liebe-startet-am-dienstag-100.html", "thumbnailUrl": "https://images.tagesschau.de/image/49cae81b-13fc-491d-90ad-35dfe410a3ef/AAABjs2sgjA/AAABjcWesUg/16x9-512.jpg", "date": "2024-04-11T16:58:34.869+02:00", "lat": 51.31, "lon": 9.692, "intensity": 0.2, "source": "Tagesschau"}, {"title": "Fr\u00fche Rapsbl\u00fcte: Sch\u00f6n f\u00fcrs Auge, riskant f\u00fcr den Ertrag", "url": "https://www.tagesschau.de/inland/regional/schleswigholstein/ndr-fruehe-rapsbluete-schoen-fuers-auge-riskant-fuer-den-ertrag-100.html", "thumbnailUrl": "https://images.tagesschau.de/image/6c8f694a-c2f2-4021-b39f-bdf8b7e99c83/AAABjs2s670/AAABjcWesUg/16x9-512.jpg", "date": "2024-04-11T16:56:00.000+02:00", "lat": 54.2194, "lon": 9.6976, "intensity": 0.6, "source": "Tagesschau"}, {"title": "Einrichtung f\u00fcr kranke Obdachlose in Niendorf stellt sich vor", "url": "https://www.tagesschau.de/inland/regional/hamburg/ndr-einrichtung-fuer-kranke-obdachlose-in-niendorf-stellt-sich-vor-100.html", "thumbnailUrl": "https://images.tagesschau.de/image/bbb3e4fa-d056-4c3f-9f38-9023438ad0b7/AAABjs2qypg/AAABjcWesUg/16x9-512.jpg", "date": "2024-04-11T16:55:00.000+02:00", "lat": 53.6211, "lon": 9.9469, "intensity": 0.8, "source": "Tagesschau"}, {"title": "Suche nach Leiche eines Rentners im Wald bei Werle vorerst beendet", "url": "https://www.tagesschau.de/inland/regional/mecklenburgvorpommern/ndr-suche-nach-leiche-eines-rentners-im-wald-bei-werle-vorerst-beendet-100.html", "thumbnailUrl": "https://images.tagesschau.de/image/ea0f7d1c-be4b-498a-bd5a-d1fcba12417f/AAABjs2opew/AAABjcWesUg/16x9-512.jpg", "date": "2024-04-11T16:54:00.000+02:00", "lat": 53.886944, "lon": 11.114167, "intensity": 0.9, "source": "Tagesschau"}, {"title": "Betrug mit Zeitungsannonce - Polizei schnappt mutma\u00dfliche Bande", "url": "https://www.tagesschau.de/inland/regional/niedersachsen/ndr-betrug-mit-zeitungsannonce-polizei-schnappt-mutmassliche-bande-100.html", "thumbnailUrl": "https://images.tagesschau.de/image/a07ce556-439e-44b5-a2c9-263b4dc3a38b/AAABjs5j4hc/AAABjcWesUg/16x9-512.jpg", "date": "2024-04-11T16:52:00.000+02:00", "lat": 52.2, "lon": 8.3433, "intensity": 0.7, "source": "Tagesschau"}, {"title": "In vier von zehn Haushalten in Hessen lebt nur eine Person", "url": "https://www.tagesschau.de/inland/regional/hessen/hr-vier-von-zehn-hessen-leben-in-single-haushalten-100.html", "thumbnailUrl": "https://images.tagesschau.de/image/4766d6e5-2c0b-497e-9751-7c5ed98c0a0a/AAABjs2lMKw/AAABjcWesUg/16x9-512.jpg", "date": "2024-04-11T16:51:02.043+02:00", "lat": 50.6521, "lon": 9.6752, "intensity": 0.6, "source": "Tagesschau"}, {"title": "Busunfall: Junge Reiterin schwer verletzt, Pferd stirbt", "url": "https://www.tagesschau.de/inland/regional/niedersachsen/ndr-busunfall-junge-reiterin-schwer-verletzt-pferd-stirbt-100.html", "thumbnailUrl": "https://images.tagesschau.de/image/05719d6e-7849-4e53-8af1-ef477700c82a/AAABjs2q--Y/AAABjcWesUg/16x9-512.jpg", "date": "2024-04-11T16:50:00.000+02:00", "lat": 52.9321, "lon": 10.5603, "intensity": 0.8, "source": "Tagesschau"}, {"title": "BSR reinigt k\u00fcnftig weitere 135 Spielpl\u00e4tze in ganz Berlin", "url": "https://www.tagesschau.de/inland/regional/berlin/rbb-bsr-reinigt-kuenftig-weitere-135-spielplaetze-in-ganz-berlin-100.html", "thumbnailUrl": "https://images.tagesschau.de/image/201ab51a-343e-49b5-9377-b564e2238d08/AAABjs2htQk/AAABjcWesUg/16x9-512.jpg", "date": "2024-04-11T16:46:28.000+02:00", "lat": 52.520008, "lon": 13.404954, "intensity": 0.6, "source": "Tagesschau"}, {"title": "Wohnungsbau: Wie B\u00fcrokratie Genossenschaften ausbremst", "url": "https://www.tagesschau.de/inland/regional/hamburg/ndr-wohnungsbau-wie-buerokratie-genossenschaften-ausbremst-100.html", "thumbnailUrl": "https://images.tagesschau.de/image/21f02b72-3b9a-4bb5-9687-4e12f14f0e2b/AAABjs4CrAk/AAABjcWesUg/16x9-512.jpg", "date": "2024-04-11T16:45:00.000+02:00", "lat": 53.5511, "lon": 9.9937, "intensity": 0.8, "source": "Tagesschau"}, {"title": "Busfahrer verzweifelt gesucht - Testfahrten in M\u00fcnster", "url": "https://www.tagesschau.de/inland/regional/nordrheinwestfalen/wdr-busfahrer-verzweifelt-gesucht-testfahrten-in-muenster-102.html", "thumbnailUrl": "https://images.tagesschau.de/image/1525c533-5d84-4e4e-b968-016677aa65e3/AAABjs6GKIQ/AAABjcWesUg/16x9-512.jpg", "date": "2024-04-11T16:43:00.000+02:00", "lat": 51.9607, "lon": 7.6261, "intensity": 0.8, "source": "Tagesschau"}, {"title": "Vorfall in F\u00fcrstenwalde: Prozess gegen mutma\u00dflichen Messer-Angreifer begonnen", "url": "https://www.tagesschau.de/inland/regional/brandenburg/rbb-vorfall-in-fuerstenwalde-prozess-gegen-mutmasslichen-messer-angreifer-begonnen-100.html", "thumbnailUrl": "https://images.tagesschau.de/image/2fbf393b-e676-4ee8-9063-02d64fe8368e/AAABjs2d6hQ/AAABjcWesUg/16x9-512.jpg", "date": "2024-04-11T16:42:17.000+02:00", "lat": 52.3667, "lon": 13.7994, "intensity": 0.7, "source": "Tagesschau"}, {"title": "Elf Verletzte bei Pfefferspray-Attacke in Mainzer Bus  ", "url": "https://www.tagesschau.de/inland/regional/rheinlandpfalz/swr-elf-verletzte-bei-pfefferspray-attacke-in-mainzer-bus-100.html", "thumbnailUrl": "https://images.tagesschau.de/image/2794f41e-c20f-435d-8045-7aefce82f834/AAABjs2hTEE/AAABjcWesUg/16x9-512.jpg", "date": "2024-04-11T16:41:43.000+02:00", "lat": 49.9929, "lon": 8.2391, "intensity": 0.6, "source": "Tagesschau"}, {"title": "Strecken-Sperrungen: Diese Bahnstrecken werden 2024 in MV modernisiert", "url": "https://www.tagesschau.de/inland/regional/mecklenburgvorpommern/ndr-bahn-modernisierung-fuehrt-zu-zahlreichen-strecken-sperrungen-in-mv-100.html", "thumbnailUrl": "https://images.tagesschau.de/image/4f2657ab-6222-4389-a0d1-cdb3e62d39e5/AAABjs3PFT0/AAABjcWesUg/16x9-512.jpg", "date": "2024-04-11T16:40:00.000+02:00", "lat": 53.61265, "lon": 12.526055, "intensity": 0.8, "source": "Tagesschau"}, {"title": "Lagerhallenbrand in Bernburg gel\u00f6scht", "url": "https://www.tagesschau.de/inland/regional/sachsenanhalt/mdr-lagerhallenbrand-in-bernburg-geloescht-100.html", "thumbnailUrl": "https://images.tagesschau.de/image/6e5cec46-2047-4967-b90b-5349e9a02ba8/AAABjs8pdWc/AAABjcWesUg/16x9-512.jpg", "date": "2024-04-11T16:33:12.000+02:00", "lat": 51.7974, "lon": 11.7322, "intensity": 0.8, "source": "Tagesschau"}, {"title": "Nach Razzia in Erfurt: Polizei stellt Sprengstoff, Waffen und Drogen sicher", "url": "https://www.tagesschau.de/inland/regional/thueringen/mdr-nach-razzia-in-erfurt-polizei-stellt-sprengstoff-waffen-und-drogen-sicher-100.html", "thumbnailUrl": "https://images.tagesschau.de/image/eb211d58-84ba-4915-abb8-c0270e0ae370/AAABjs8tOes/AAABjcWesUg/16x9-512.jpg", "date": "2024-04-11T16:30:13.000+02:00", "lat": 50.9848, "lon": 11.0328, "intensity": 0.8, "source": "Tagesschau"}, {"title": "Greifswalder FC vor Reifepr\u00fcfung: Gegen Cottbus und 18.000 Fans ", "url": "https://www.tagesschau.de/inland/regional/mecklenburgvorpommern/ndr-greifswalder-fc-vor-reifepruefung-gegen-cottbus-und-18-000-fans-102.html", "thumbnailUrl": "https://images.tagesschau.de/image/c47ccc19-ba05-4b47-8d19-2386a9f17a77/AAABjs0ogBs/AAABjcWesUg/16x9-512.jpg", "date": "2024-04-11T16:18:00.000+02:00", "lat": 54.08898, "lon": 13.38223, "intensity": 0.8, "source": "Tagesschau"}, {"title": "Wei\u00dfenthurm: Mann soll versucht haben, seine Frau zu t\u00f6ten", "url": "https://www.tagesschau.de/inland/regional/rheinlandpfalz/swr-mann-soll-frau-in-weissenthurm-schwer-verletzt-haben-100.html", "thumbnailUrl": "https://images.tagesschau.de/image/edfad1cb-50a5-4924-b757-7001d8999a27/AAABjseQtX8/AAABjcWesUg/16x9-512.jpg", "date": "2024-04-11T16:16:00.000+02:00", "lat": 50.4179, "lon": 7.5086, "intensity": 0.8, "source": "Tagesschau"}, {"title": "Ein Jahr Fl\u00fcchtlingsunterkunft in Demen: Gemischte Bilanz", "url": "https://www.tagesschau.de/inland/regional/mecklenburgvorpommern/ndr-ein-jahr-fluechtlingsunterkunft-in-demen-gemischte-bilanz-100.html", "thumbnailUrl": "https://images.tagesschau.de/image/6ecdff86-7f41-4e57-8cae-05b76687863a/AAABjs2aBGA/AAABjcWesUg/16x9-512.jpg", "date": "2024-04-11T16:14:00.000+02:00", "lat": 53.4365, "lon": 11.3992, "intensity": 0.5, "source": "Tagesschau"}, {"title": "A7 zwischen Seevetal-Ramelsloh und Horster Dreieck gesperrt", "url": "https://www.tagesschau.de/inland/regional/niedersachsen/ndr-a7-zwischen-seevetal-ramelsloh-und-horster-dreieck-gesperrt-100.html", "thumbnailUrl": "https://images.tagesschau.de/image/e15fb7f1-6066-473a-abe9-9e798160a629/AAABjs2J9LU/AAABjcWesUg/16x9-512.jpg", "date": "2024-04-11T16:11:00.000+02:00", "lat": 53.4029, "lon": 10.0002, "intensity": 0.6, "source": "Tagesschau"}, {"title": "Stechm\u00fcckensaison startet fr\u00fcher", "url": "https://www.tagesschau.de/wissen/stechmuecke-104.html", "thumbnailUrl": "https://images.tagesschau.de/image/4de42336-456f-4a5a-9732-2223d819bb20/AAABjs1m6Q8/AAABjcWesUg/16x9-512.jpg", "date": "2024-04-11T16:10:27.026+02:00", "lat": 52.3792, "lon": 9.5018, "intensity": 0.3, "source": "Tagesschau"}, {"title": "EZB tastet Leitzinsen weiterhin nicht an", "url": "https://www.tagesschau.de/wirtschaft/finanzen/ezb-leitzinsen-geldpolitik-102.html", "thumbnailUrl": "https://images.tagesschau.de/image/fb78030c-21e6-4ed8-9b5b-57977c5a6253/AAABjsuiAG4/AAABjcWesUg/16x9-512.jpg", "date": "2024-04-11T16:01:05.708+02:00", "lat": 50.1109, "lon": 8.6821, "intensity": 0.1, "source": "Tagesschau"}, {"title": "Beratungsstelle verzeichnet H\u00f6chststand an rechten Vorf\u00e4llen in M\u00e4rkisch-Oderland", "url": "https://www.tagesschau.de/inland/regional/brandenburg/rbb-beratungsstelle-verzeichnet-hoechststand-an-rechten-vorfaellen-in-maerkisch-oderland-102.html", "thumbnailUrl": "https://images.tagesschau.de/image/a3bf8ec7-1899-46f5-b243-a893685be388/AAABjs13jN8/AAABjcWesUg/16x9-512.jpg", "date": "2024-04-11T15:59:03.000+02:00", "lat": 14.064984, "lon": 52.584445, "intensity": 0.8, "source": "Tagesschau"}, {"title": "Mist und G\u00fclle auf Fahrbahnen: Mehrere Ermittlungsverfahren wegen Unf\u00e4llen bei Bauernprotesten", "url": "https://www.tagesschau.de/inland/regional/brandenburg/rbb-mist-und-guelle-auf-fahrbahnen-mehrere-ermittlungsverfahren-wegen-unfaellen-bei-bauernprotesten-100.html", "thumbnailUrl": "https://images.tagesschau.de/image/ccaa02b5-4495-4f35-b4e6-3208cbd5e00e/AAABjs13olY/AAABjcWesUg/16x9-512.jpg", "date": "2024-04-11T15:56:45.000+02:00", "lat": 52.4125, "lon": 13.8765, "intensity": 0.7, "source": "Tagesschau"}, {"title": "Steuererh\u00f6hung auf Fleisch: Was das kostet und wem es n\u00fctzt", "url": "https://www.tagesschau.de/inland/regional/nordrheinwestfalen/wdr-steuererhoehung-auf-fleisch-hilft-das-den-tieren-100.html", "thumbnailUrl": "https://images.tagesschau.de/image/59a9b454-bf51-4540-98f7-77be704f9fa9/AAABjs5CZc4/AAABjcWesUg/16x9-512.jpg", "date": "2024-04-11T15:50:00.000+02:00", "lat": 51.9607, "lon": 7.6261, "intensity": 0.5, "source": "Tagesschau"}, {"title": "Betrugsprozess - BvB-Profi verklagt Mann aus Bad Oeynhausen", "url": "https://www.tagesschau.de/inland/regional/nordrheinwestfalen/wdr-betrugsprozess-bvb-profi-verklagt-mann-aus-bad-oeynhausen-100.html", "thumbnailUrl": "https://images.tagesschau.de/image/f94817a7-d9e0-46d4-a149-a121909ebc4e/AAABjs2Sojc/AAABjcWesUg/16x9-512.jpg", "date": "2024-04-11T15:45:00.000+02:00", "lat": 52.030228, "lon": 8.541694, "intensity": 0.6, "source": "Tagesschau"}, {"title": "Frankfurt: Der \"Lange Franz\" bekommt seine Turmspitze zur\u00fcck", "url": "https://www.tagesschau.de/inland/regional/hessen/hr-frankfurt-der-lange-franz-bekommt-seine-turmspitze-zurueck-100.html", "thumbnailUrl": "https://images.tagesschau.de/image/75f534d1-acb0-4d4d-8eb3-a3841deda603/AAABjs5-8J8/AAABjcWesUg/16x9-512.jpg", "date": "2024-04-11T15:44:26.122+02:00", "lat": 50.1109, "lon": 8.6821, "intensity": 0.8, "source": "Tagesschau"}, {"title": "Braunschweiger Gr\u00fcne werfen Robert Glogowski aus der Fraktion", "url": "https://www.tagesschau.de/inland/regional/niedersachsen/ndr-braunschweiger-gruene-werfen-robert-glogowski-aus-der-fraktion-100.html", "thumbnailUrl": "https://images.tagesschau.de/image/bbfbcf8a-1fc2-42cc-85f2-a138c44591d0/AAABjs1pJhM/AAABjcWesUg/16x9-512.jpg", "date": "2024-04-11T15:44:00.000+02:00", "lat": 52.265957, "lon": 10.52677, "intensity": 0.7, "source": "Tagesschau"}, {"title": "Tarifeinigung bei Homburger Karlsberg-Brauerei", "url": "https://www.tagesschau.de/inland/regional/saarland/sr-tarifeinigung-bei-homburger-karlsberg-brauerei-100.html", "thumbnailUrl": "https://images.tagesschau.de/image/b3eedcc3-fd49-4a36-ade0-32e6ee8d0d16/AAABjs1ognU/AAABjcWesUg/16x9-512.jpg", "date": "2024-04-11T15:43:00.000+02:00", "lat": 49.3034, "lon": 7.1746, "intensity": 0.6, "source": "Tagesschau"}, {"title": "Tarifergebnis im \u00d6PNV: Mehr Freizeit f\u00fcr Bus- und Stadtbahnfahrer", "url": "https://www.tagesschau.de/inland/regional/niedersachsen/ndr-tarifergebnis-im-oepnv-busfahrer-bekommen-mehr-geld-100.html", "thumbnailUrl": "https://images.tagesschau.de/image/a1cc1a54-69c7-4871-8f47-7282014d77ab/AAABjs1lRvA/AAABjcWesUg/16x9-512.jpg", "date": "2024-04-11T15:40:00.000+02:00", "lat": 52.37392, "lon": 9.767868, "intensity": 0.5, "source": "Tagesschau"}, {"title": "Amtsgericht Idar-Oberstein: Zwei Jahre Bew\u00e4hrungsstrafe f\u00fcr Paketzusteller", "url": "https://www.tagesschau.de/inland/regional/rheinlandpfalz/swr-postbote-soll-schmuck-und-edelsteine-aus-briefen-geklaut-haben-100.html", "thumbnailUrl": "https://images.tagesschau.de/image/25fbafae-8550-4cee-be7d-dba0c7027a47/AAABjs1YEMI/AAABjcWesUg/16x9-512.jpg", "date": "2024-04-11T15:25:00.000+02:00", "lat": 49.7176, "lon": 7.3167, "intensity": 0.7, "source": "Tagesschau"}, {"title": "Nach Gasleck: Hadamarer Firma darf wieder mit Gasflaschen handeln", "url": "https://www.tagesschau.de/inland/regional/hessen/hr-nach-gasleck-hadamarer-firma-darf-wieder-mit-gasflaschen-handeln-100.html", "thumbnailUrl": "https://images.tagesschau.de/image/3bcf5238-417d-4d6c-ad5f-699c2791f118/AAABjs1WcME/AAABjcWesUg/16x9-512.jpg", "date": "2024-04-11T15:24:08.341+02:00", "lat": 50.4028, "lon": 8.0544, "intensity": 0.7, "source": "Tagesschau"}, {"title": "Motorradunfall in Speyer: Laternenpfahl kostete 16-J\u00e4hriger das Leben", "url": "https://www.tagesschau.de/inland/regional/rheinlandpfalz/swr-motorradunfall-in-speyer-16-jaehrige-soll-obduziert-werden-100.html", "thumbnailUrl": "https://images.tagesschau.de/image/6c6076a3-e289-4c1a-9ea8-f4f373a54529/AAABjs15AD8/AAABjcWesUg/16x9-512.jpg", "date": "2024-04-11T15:21:00.000+02:00", "lat": 49.3167, "lon": 8.4273, "intensity": 0.9, "source": "Tagesschau"}, {"title": "CDU stellt Erweiterung des Nationalparks Schwarzwald infrage", "url": "https://www.tagesschau.de/inland/regional/badenwuerttemberg/swr-cdu-stellt-erweiterung-des-nationalparks-schwarzwald-infrage-100.html", "thumbnailUrl": "https://images.tagesschau.de/image/5c253daf-db5c-4086-9674-415bca2defd0/AAABjs1QuAs/AAABjcWesUg/16x9-512.jpg", "date": "2024-04-11T15:09:52.000+02:00", "lat": 48.7152, "lon": 8.2028, "intensity": 0.7, "source": "Tagesschau"}, {"title": "SC Magdeburg: Titelkonkurrent der F\u00fcchse Berlin von m\u00f6glichem Dopingvergehen betroffen", "url": "https://www.tagesschau.de/inland/regional/berlin/rbb-sc-magdeburg-titelkonkurrent-der-fuechse-berlin-von-moeglichem-dopingvergehen-betroffen-102.html", "thumbnailUrl": "https://images.tagesschau.de/image/db8c8a00-e720-4806-95c0-1598d7688d58/AAABjsxdw6c/AAABjcWesUg/16x9-512.jpg", "date": "2024-04-11T15:08:57.000+02:00", "lat": 52.1205, "lon": 11.6276, "intensity": 0.7, "source": "Tagesschau"}, {"title": "Ein Verletzter nach Brand auf Fregatte \"Bayern\" in Bremerhaven", "url": "https://www.tagesschau.de/inland/regional/bremen/rb-feuer-auf-fregatte-bayern-in-bremerhaven-ausgebrochen-100.html", "thumbnailUrl": "https://images.tagesschau.de/image/401f9887-efa0-4f17-be97-2c599cd1843d/AAABjszUVEw/AAABjcWesUg/16x9-512.jpg", "date": "2024-04-11T15:07:00.000+02:00", "lat": 53.5396, "lon": 8.5851, "intensity": 0.7, "source": "Tagesschau"}, {"title": "BVG und Gewerkschaft Verdi einigen sich im Tarifstreit", "url": "https://www.tagesschau.de/inland/regional/berlin/rbb-bvg-und-gewerkschaft-verdi-einigen-sich-im-tarifstreit-100.html", "thumbnailUrl": "https://images.tagesschau.de/image/85e01eb2-c68c-4feb-a2cf-de9adf62b064/AAABjs1Cktg/AAABjcWesUg/16x9-512.jpg", "date": "2024-04-11T15:01:23.000+02:00", "lat": 52.520008, "lon": 13.404954, "intensity": 0.8, "source": "Tagesschau"}, {"title": "B 268 in Riegelsberg wird im Sommer voll gesperrt", "url": "https://www.tagesschau.de/inland/regional/saarland/sr-b-268-in-riegelsberg-wird-im-sommer-voll-gesperrt-100.html", "thumbnailUrl": "https://images.tagesschau.de/image/835184a8-4d77-4cb2-9ef7-5c433fd306a1/AAABjs1AYEQ/AAABjcWesUg/16x9-512.jpg", "date": "2024-04-11T15:00:00.000+02:00", "lat": 49.2968, "lon": 7.1259, "intensity": 0.4, "source": "Tagesschau"}, {"title": "Hochgiftiges Quecksilber in Rostocker Wohnhaus gefunden", "url": "https://www.tagesschau.de/inland/regional/mecklenburgvorpommern/ndr-groessere-menge-quecksilber-in-rostock-gefunden-100.html", "thumbnailUrl": "https://images.tagesschau.de/image/a81d36fd-c1a1-4abc-a4fe-748ddc74fc2b/AAABjsw2v9w/AAABjcWesUg/16x9-512.jpg", "date": "2024-04-11T14:59:00.000+02:00", "lat": 54.0924, "lon": 12.0991, "intensity": 0.7, "source": "Tagesschau"}, {"title": "Wohnungsbau in NRW: So dramatisch ist die Lage", "url": "https://www.tagesschau.de/inland/regional/nordrheinwestfalen/wdr-wohnungsbau-in-nrw-so-dramatisch-ist-die-lage-100.html", "thumbnailUrl": "https://images.tagesschau.de/image/64ac96e5-3763-4f42-a65b-b505fa8c7ee1/AAABjs5CgOY/AAABjcWesUg/16x9-512.jpg", "date": "2024-04-11T14:58:00.000+02:00", "lat": 51.455643, "lon": 7.588576, "intensity": 0.8, "source": "Tagesschau"}, {"title": "SPD in SH fordert im Landtag Recht auf Nachhilfe", "url": "https://www.tagesschau.de/inland/regional/schleswigholstein/ndr-spd-in-sh-fordert-im-landtag-recht-auf-nachhilfe-100.html", "thumbnailUrl": "https://images.tagesschau.de/image/25970957-a94f-4ce3-a8b7-edbc8b169d7a/AAABjs1CxOM/AAABjcWesUg/16x9-512.jpg", "date": "2024-04-11T14:56:00.000+02:00", "lat": 54.3183, "lon": 9.9976, "intensity": 0.8, "source": "Tagesschau"}, {"title": "Bezahlen per Ring - Freiburger Bank testet neues System", "url": "https://www.tagesschau.de/inland/regional/badenwuerttemberg/swr-bezahlen-per-ring-freiburger-bank-testet-neues-system-100.html", "thumbnailUrl": "https://images.tagesschau.de/image/f45f5a82-129d-4206-bb04-e539308f35d1/AAABjs4PLMY/AAABjcWesUg/16x9-512.jpg", "date": "2024-04-11T14:54:53.000+02:00", "lat": 47.996, "lon": 7.849, "intensity": 0.6, "source": "Tagesschau"}, {"title": "Bremen ist bei Bearbeitung von Steuerbescheiden schneller geworden", "url": "https://www.tagesschau.de/inland/regional/bremen/rb-bremen-ist-bei-bearbeitung-von-steuerbescheiden-schneller-geworden-102.html", "thumbnailUrl": "https://images.tagesschau.de/image/2f1e7c2d-f756-455b-b7ba-858a3a66ef49/AAABjs08mUo/AAABjcWesUg/16x9-512.jpg", "date": "2024-04-11T14:54:00.000+02:00", "lat": 53.0793, "lon": 8.8017, "intensity": 0.6, "source": "Tagesschau"}, {"title": "Nach Brandanschlag auf Synagoge: Polizei setzt Belohnung aus", "url": "https://www.tagesschau.de/inland/regional/niedersachsen/ndr-nach-brandanschlag-auf-synagoge-polizei-setzt-belohnung-aus-100.html", "thumbnailUrl": "https://images.tagesschau.de/image/efbeb146-8882-42d1-9344-07a9f47d5ae2/AAABjsyWpWc/AAABjcWesUg/16x9-512.jpg", "date": "2024-04-11T14:54:00.000+02:00", "lat": 53.1434, "lon": 8.2275, "intensity": 0.8, "source": "Tagesschau"}, {"title": "Reicht das f\u00fcr eine \"Bildungswende\"?", "url": "https://www.tagesschau.de/inland/innenpolitik/startchancen-programm-bundestag-100.html", "thumbnailUrl": "https://images.tagesschau.de/image/aac3f64e-ad51-4dc2-afd0-77aa85c87e78/AAABjgkVS14/AAABjcWesUg/16x9-512.jpg", "date": "2024-04-11T14:53:14.275+02:00", "lat": 52.51628, "lon": 13.37699, "intensity": 0.5, "source": "Tagesschau"}, {"title": "700 neue Kita-Stellen geplant: Geteilte Reaktionen ", "url": "https://www.tagesschau.de/inland/regional/mecklenburgvorpommern/ndr-700-neue-stellen-fuer-die-kitas-in-mecklenburg-vorpommern-100.html", "thumbnailUrl": "https://images.tagesschau.de/image/e293aba2-b69e-4a8e-8c75-e6adb176552c/AAABjsjz5HE/AAABjcWesUg/16x9-512.jpg", "date": "2024-04-11T14:52:00.000+02:00", "lat": 53.6127, "lon": 13.3701, "intensity": 0.6, "source": "Tagesschau"}, {"title": "Kampf gegen Elektroschrott: Berlin soll ab Sommer \"Reparaturbonus\" bekommen", "url": "https://www.tagesschau.de/inland/regional/berlin/rbb-kampf-gegen-elektroschrott-berlin-soll-ab-sommer-reparaturbonus-bekommen-100.html", "thumbnailUrl": "https://images.tagesschau.de/image/b2a5445e-e2bc-4b1a-8e28-3e408e20cfd3/AAABjs6jx6s/AAABjcWesUg/16x9-512.jpg", "date": "2024-04-11T14:46:00.000+02:00", "lat": 52.520008, "lon": 13.404954, "intensity": 0.7, "source": "Tagesschau"}, {"title": "Kira Kirsch leitet k\u00fcnftig das Festival Perspectives", "url": "https://www.tagesschau.de/inland/regional/saarland/sr-kira-kirsch-leitet-kuenftig-das-festival-perspectives-100.html", "thumbnailUrl": "https://images.tagesschau.de/image/fceb2e57-1d7f-49cd-8e3e-f9e5065991fc/AAABjs0oaoU/AAABjcWesUg/16x9-512.jpg", "date": "2024-04-11T14:28:00.000+02:00", "lat": 49.2386, "lon": 6.9843, "intensity": 0.5, "source": "Tagesschau"}, {"title": "St. Peter-Ording: Frau ger\u00e4t in Treibsand, Strandbereich gesperrt", "url": "https://www.tagesschau.de/inland/regional/schleswigholstein/ndr-st-peter-ording-tourismuszentrale-warnt-vor-treibsand-am-strand-100.html", "thumbnailUrl": "https://images.tagesschau.de/image/8a4f6a06-49ec-441c-9cb9-091af09b819b/AAABjsym5To/AAABjcWesUg/16x9-512.jpg", "date": "2024-04-11T14:18:00.000+02:00", "lat": 54.3136, "lon": 8.6238, "intensity": 0.7, "source": "Tagesschau"}, {"title": "Eintracht: +++ Toppm\u00f6ller neidisch auf VfB-Sturm +++ Eintracht will VfB stressen +++ Skhiri f\u00e4llt aus, Ekitik\u00e9 dabei +++  ", "url": "https://www.tagesschau.de/inland/regional/hessen/hr--eintracht-wohl-mit-chaibi-einig--glasner-fast-nur-kolo-muani-der-tore-erzielt--bericht-eintracht-sagt-aouar-ab-100.html", "thumbnailUrl": "https://images.tagesschau.de/image/606af8d3-a945-4c0e-b4db-9efba93f7bc9/AAABjs0YvmQ/AAABjcWesUg/16x9-512.jpg", "date": "2024-04-11T14:17:46.823+02:00", "lat": 50.110922, "lon": 8.682127, "intensity": 0.6, "source": "Tagesschau"}, {"title": "Bremens Bausenatorin \u00dcnsal begr\u00fc\u00dft Verl\u00e4ngerung der Mietpreisbremse", "url": "https://www.tagesschau.de/inland/regional/bremen/rb-bremens-bausenatorin-uensal-begruesst-verlaengerung-der-mietpreisbremse-102.html", "thumbnailUrl": "https://images.tagesschau.de/image/e30220e2-ca41-497f-9f80-5957d26df35b/AAABjs1Z5FM/AAABjcWesUg/16x9-512.jpg", "date": "2024-04-11T14:17:00.000+02:00", "lat": 53.0793, "lon": 8.8017, "intensity": 0.7, "source": "Tagesschau"}, {"title": "Grippe- und RSV-Wellen sind vorbei", "url": "https://www.tagesschau.de/wissen/gesundheit/grippe-rsv-welle-100.html", "thumbnailUrl": "https://images.tagesschau.de/image/d7ae79c4-1c6e-43d5-b25f-7126af7416a9/AAABjs0UmlI/AAABjcWesUg/16x9-512.jpg", "date": "2024-04-11T14:14:23.645+02:00", "lat": 52.517036, "lon": 13.38886, "intensity": 0.2, "source": "Tagesschau"}, {"title": "Alte Schleif\u00e4hre \"Missunde II\" f\u00e4hrt ab heute wieder", "url": "https://www.tagesschau.de/inland/regional/schleswigholstein/ndr-alte-schleifaehre-missunde-ii-faehrt-ab-heute-wieder-100.html", "thumbnailUrl": "https://images.tagesschau.de/image/3858b3bd-bf8f-4ef5-b6ed-03ac9871e273/AAABjswASeo/AAABjcWesUg/16x9-512.jpg", "date": "2024-04-11T14:14:00.000+02:00", "lat": 54.4704, "lon": 9.7863, "intensity": 0.2, "source": "Tagesschau"}, {"title": "Junger Mann in Rinteln durch Sch\u00fcsse lebensgef\u00e4hrlich verletzt", "url": "https://www.tagesschau.de/inland/regional/niedersachsen/ndr-schuesse-in-rinteln-junger-mann-lebensgefaehrlich-verletzt-100.html", "thumbnailUrl": "https://images.tagesschau.de/image/a3af0deb-0515-4592-855f-30017f7af17f/AAABjs0U5ug/AAABjcWesUg/16x9-512.jpg", "date": "2024-04-11T14:13:00.000+02:00", "lat": 52.1871, "lon": 9.082, "intensity": 1, "source": "Tagesschau"}, {"title": "Neues Umspannwerk f\u00fcr Offshore-Strom-Energieknoten bei Br\u00fcnzow", "url": "https://www.tagesschau.de/inland/regional/mecklenburgvorpommern/ndr-neues-umspannwerk-fuer-offshore-strom-energieknoten-bei-bruenzow-100.html", "thumbnailUrl": "https://images.tagesschau.de/image/4965424b-2838-4a2d-bf22-cf78a19cba11/AAABjs01P4M/AAABjcWesUg/16x9-512.jpg", "date": "2024-04-11T14:11:00.000+02:00", "lat": 53.997, "lon": 13.487, "intensity": 0.7, "source": "Tagesschau"}, {"title": "Neue Bilder ver\u00f6ffentlicht: Wird Ladung von \"MSC Zoe\" geborgen?", "url": "https://www.tagesschau.de/inland/regional/niedersachsen/ndr-neue-bilder-veroeffentlicht-wird-ladung-von-msc-zoe-geborgen-100.html", "thumbnailUrl": "https://images.tagesschau.de/image/3e49ef79-53c3-43ff-bfb6-70bd264a7563/AAABjs1LomM/AAABjcWesUg/16x9-512.jpg", "date": "2024-04-11T14:07:00.000+02:00", "lat": 52.3738, "lon": 8.4699, "intensity": 0.7, "source": "Tagesschau"}, {"title": "Festgenommener IS-Mann den Beh\u00f6rden seit Langem bekannt", "url": "https://www.tagesschau.de/inland/regional/bayern/br-festgenommener-is-mann-den-behoerden-seit-langem-bekannt-102.html", "thumbnailUrl": "https://images.tagesschau.de/image/f83ca07c-61f7-453f-815a-245f396cc92e/AAABjs0YzbQ/AAABjcWesUg/16x9-512.jpg", "date": "2024-04-11T14:00:43.112+02:00", "lat": 48.13513, "lon": 11.58198, "intensity": 0.8, "source": "Tagesschau"}, {"title": "Festnahme nach Kita-Brand in Bad Salzuflen", "url": "https://www.tagesschau.de/inland/regional/nordrheinwestfalen/wdr-staatsschutz-ermittelt-nach-brandanschlag-auf-kita-in-bad-salzuflen-100.html", "thumbnailUrl": "https://images.tagesschau.de/image/f79ba879-c593-4da5-8340-36e4a6f11a84/AAABjs2do80/AAABjcWesUg/16x9-512.jpg", "date": "2024-04-11T14:00:00.000+02:00", "lat": 52.0833, "lon": 8.7469, "intensity": 0.7, "source": "Tagesschau"}, {"title": "FCK vor kniffliger Aufgabe in F\u00fcrth", "url": "https://www.tagesschau.de/inland/regional/rheinlandpfalz/swr-fck-vor-kniffliger-aufgabe-in-fuerth-102.html", "thumbnailUrl": "https://images.tagesschau.de/image/89dc229e-8f39-41d3-bc8e-fb1497a01c88/AAABjs0Zyng/AAABjcWesUg/16x9-512.jpg", "date": "2024-04-11T13:58:35.000+02:00", "lat": 49.49244, "lon": 10.98624, "intensity": 0.8, "source": "Tagesschau"}, {"title": "Streit um arrangierte Ehe f\u00fchrt zu Polizeieinsatz in Dortmund", "url": "https://www.tagesschau.de/inland/regional/nordrheinwestfalen/wdr-streit-um-arrangierte-ehe-fuehrt-zu-polizeieinsatz-in-dortmund-102.html", "thumbnailUrl": "https://images.tagesschau.de/image/bfbbcd08-2cbd-4f3a-9bb9-1239de0c70c1/AAABjs05Iu0/AAABjcWesUg/16x9-512.jpg", "date": "2024-04-11T13:58:00.000+02:00", "lat": 51.513587, "lon": 7.468553, "intensity": 0.8, "source": "Tagesschau"}, {"title": "Nach Wasserschaden: Berliner Ensemble ver\u00f6ffentlicht Notfall-Spielplan", "url": "https://www.tagesschau.de/inland/regional/berlin/rbb-nach-wasserschaden-berliner-ensemble-veroeffentlicht-notfall-spielplan-100.html", "thumbnailUrl": "https://images.tagesschau.de/image/20e8ea94-dad6-42d4-877f-f56e9e4194df/AAABjs0F9uo/AAABjcWesUg/16x9-512.jpg", "date": "2024-04-11T13:56:12.000+02:00", "lat": 52.520008, "lon": 13.38886, "intensity": 0.7, "source": "Tagesschau"}, {"title": "Verletzte St\u00fcrmerin: Eintracht-Frauen starten ohne Freigang in den Endspurt ", "url": "https://www.tagesschau.de/inland/regional/hessen/hr-verletzte-stuermerin-eintracht-frauen-starten-ohne-freigang-in-den-endspurt-102.html", "thumbnailUrl": "https://images.tagesschau.de/image/ed46d8f6-d510-46d4-9eca-cb9832e9ea54/AAABjs0O-C0/AAABjcWesUg/16x9-512.jpg", "date": "2024-04-11T13:53:11.141+02:00", "lat": 50.1109, "lon": 8.6821, "intensity": 0.7, "source": "Tagesschau"}, {"title": "Kommunalwahl in Lalendorf: Ein B\u00fcrgermeister f\u00fcr 26 D\u00f6rfer", "url": "https://www.tagesschau.de/inland/regional/mecklenburgvorpommern/ndr-kommunalwahl-in-lalendorf-ein-buergermeister-fuer-26-doerfer-102.html", "thumbnailUrl": "https://images.tagesschau.de/image/a5dc74a0-63fb-4de8-9a65-3136f74a9f28/AAABjs0CBhk/AAABjcWesUg/16x9-512.jpg", "date": "2024-04-11T13:51:00.000+02:00", "lat": 53.836, "lon": 12.2143, "intensity": 0.6, "source": "Tagesschau"}, {"title": "Angeh\u00f6rige von Hamas-F\u00fchrer bei Angriff get\u00f6tet", "url": "https://www.tagesschau.de/ausland/asien/hamas-hanija-familie-100.html", "thumbnailUrl": "https://images.tagesschau.de/image/bbfc2ace-d4a8-4224-af56-3df43754951e/AAABjsoys_0/AAABjcWesUg/16x9-512.jpg", "date": "2024-04-11T13:50:24.601+02:00", "lat": 31.5236, "lon": 34.4506, "intensity": 0.8, "source": "Tagesschau"}, {"title": "Polizei registriert deutlich mehr Straftaten in BW - Strobl: \"Ein sehr sicheres Land\"", "url": "https://www.tagesschau.de/inland/regional/badenwuerttemberg/swr-mehr-koerperverletzungen-mehr-raub-mehr-sexualstraftaten-in-bw-100.html", "thumbnailUrl": "https://images.tagesschau.de/image/9a39aa0e-53c1-4695-bdf8-513091615db7/AAABjszt2XQ/AAABjcWesUg/16x9-512.jpg", "date": "2024-04-11T13:48:00.000+02:00", "lat": 48.661, "lon": 9.991, "intensity": 0.8, "source": "Tagesschau"}, {"title": "Landesj\u00e4gerschaft will auff\u00e4llige Wolfsrudel komplett erlegen", "url": "https://www.tagesschau.de/inland/regional/niedersachsen/ndr-wolf-und-weidetiere-umweltminister-meyer-diskutiert-in-der-wingst-100.html", "thumbnailUrl": "https://images.tagesschau.de/image/4c687e49-fb2a-4a7f-bfc7-808cf9e53b34/AAABjs7P0fE/AAABjcWesUg/16x9-512.jpg", "date": "2024-04-11T13:43:00.000+02:00", "lat": 53.6776, "lon": 9.068, "intensity": 0.5, "source": "Tagesschau"}, {"title": "Mobilmachungsreform soll Armee st\u00e4rken", "url": "https://www.tagesschau.de/ausland/europa/ukraine-reform-mobilmachung-100.html", "thumbnailUrl": "https://images.tagesschau.de/image/fda1bb96-f8be-41e3-96fc-43940742040e/AAABjszyPQA/AAABjcWesUg/16x9-512.jpg", "date": "2024-04-11T13:36:51.453+02:00", "lat": 50.4501, "lon": 30.5238, "intensity": 0.8, "source": "Tagesschau"}, {"title": "Immobilienmagnatin zum Tode verurteilt", "url": "https://www.tagesschau.de/wirtschaft/vietnam-unternehmerin-todesstrafe-finanzbetrug-100.html", "thumbnailUrl": "https://images.tagesschau.de/image/eb33cd49-2309-48d5-85f7-67a6418d0161/AAABjsyNLrE/AAABjcWesUg/16x9-512.jpg", "date": "2024-04-11T13:34:37.004+02:00", "lat": 10.8231, "lon": 106.6297, "intensity": 0.8, "source": "Tagesschau"}, {"title": "Stimme von Gandalf und Norman Bates: Synchron-Star Eckart Dux ist tot", "url": "https://www.tagesschau.de/inland/regional/niedersachsen/ndr-stimme-von-gandalf-und-norman-bates-synchron-star-eckart-dux-ist-tot-100.html", "thumbnailUrl": "https://images.tagesschau.de/image/3f9335ec-6f4f-47b6-8b17-6f6fab6df60e/AAABjs17R4c/AAABjcWesUg/16x9-512.jpg", "date": "2024-04-11T13:24:00.000+02:00", "lat": 52.482728, "lon": 10.553632, "intensity": 0.8, "source": "Tagesschau"}, {"title": "Cyberkriminalit\u00e4t: F\u00e4lle in BW auf Zehnjahreshoch", "url": "https://www.tagesschau.de/inland/regional/badenwuerttemberg/swr-cyberkriminalitaet-faelle-in-bw-auf-zehnjahreshoch-100.html", "thumbnailUrl": "https://images.tagesschau.de/image/e1160c15-3907-4834-af8b-1c06c8a770ef/AAABjszt3RA/AAABjcWesUg/16x9-512.jpg", "date": "2024-04-11T13:21:00.000+02:00", "lat": 48.7928, "lon": 9.6185, "intensity": 0.8, "source": "Tagesschau"}, {"title": "Mainzer Fastnacht: MCV sucht neues Fastnachtsmotto", "url": "https://www.tagesschau.de/inland/regional/rheinlandpfalz/swr-mainzer-fastnacht-mcv-sucht-neues-fastnachtsmotto-100.html", "thumbnailUrl": "https://images.tagesschau.de/image/3db0b37f-ac4c-41fa-a33d-324fe737fd98/AAABjszm3ZE/AAABjcWesUg/16x9-512.jpg", "date": "2024-04-11T13:14:53.000+02:00", "lat": 50.0028, "lon": 8.27111, "intensity": 0.3, "source": "Tagesschau"}, {"title": "Saarlouis Royals verpflichten Matiss Rozlapa als neuen Cheftrainer ", "url": "https://www.tagesschau.de/inland/regional/saarland/sr-saarlouis-royals-verpflichten-matiss-rozlapa-als-neuen-cheftrainer-100.html", "thumbnailUrl": "https://images.tagesschau.de/image/835353e1-56a0-4bda-a46e-f14337c484e9/AAABjszZvOg/AAABjcWesUg/16x9-512.jpg", "date": "2024-04-11T13:00:00.000+02:00", "lat": 49.317, "lon": 6.751, "intensity": 0.6, "source": "Tagesschau"}, {"title": "Eltern beklagen Kita-Situation in V\u00f6lklingen", "url": "https://www.tagesschau.de/inland/regional/saarland/sr-eltern-beklagen-kita-situation-in-voelklingen-100.html", "thumbnailUrl": "https://images.tagesschau.de/image/fdf9f034-3b30-4c0d-acd0-f72da7bd63cb/AAABjszkunU/AAABjcWesUg/16x9-512.jpg", "date": "2024-04-11T13:00:00.000+02:00", "lat": 49.2509, "lon": 6.8448, "intensity": 0.7, "source": "Tagesschau"}, {"title": "Hansa Rostock vor Hertha: \"Berlin, Berlin - wir fahren nach Berlin!\"", "url": "https://www.tagesschau.de/inland/regional/mecklenburgvorpommern/ndr-hansa-rostock-vor-hertha-berlin-berlin-wir-fahren-nach-berlin-102.html", "thumbnailUrl": "https://images.tagesschau.de/image/5e6bfb82-9f8c-4099-95e7-5b7f1f4d60a6/AAABjswBqtM/AAABjcWesUg/16x9-512.jpg", "date": "2024-04-11T12:54:00.000+02:00", "lat": 54.0854, "lon": 13.1149, "intensity": 0.8, "source": "Tagesschau"}, {"title": "L\u00f6rrach: Ex-Banker wegen Millionenbetrugs zu Bew\u00e4hrungsstrafe veurteilt", "url": "https://www.tagesschau.de/inland/regional/badenwuerttemberg/swr-loerrach-ex-banker-wegen-millionenbetrugs-zu-bewaehrungsstrafe-veurteilt-100.html", "thumbnailUrl": "https://images.tagesschau.de/image/c009f493-d091-4633-9a81-91b7c46d9356/AAABjs1bs0c/AAABjcWesUg/16x9-512.jpg", "date": "2024-04-11T12:50:25.000+02:00", "lat": 47.6149, "lon": 7.6575, "intensity": 0.8, "source": "Tagesschau"}, {"title": "F\u00fcnf weitere Schulen im Saarland f\u00fcr Nachhaltigkeit ausgezeichnet ", "url": "https://www.tagesschau.de/inland/regional/saarland/sr-fuenf-weitere-schulen-im-saarland-fuer-nachhaltigkeit-ausgezeichnet-100.html", "thumbnailUrl": "https://images.tagesschau.de/image/ccb84b29-cff2-489e-969d-98375c182986/AAABjszFpFk/AAABjcWesUg/16x9-512.jpg", "date": "2024-04-11T12:46:00.000+02:00", "lat": 49.3964, "lon": 6.9538, "intensity": 0.5, "source": "Tagesschau"}, {"title": "Wilhelmshaven: Wieder Feuer an Oberschule - Unterricht f\u00e4llt aus", "url": "https://www.tagesschau.de/inland/regional/niedersachsen/ndr-wilhelmshaven-wieder-feuer-an-oberschule-unterricht-faellt-aus-100.html", "thumbnailUrl": "https://images.tagesschau.de/image/b3256ef1-46be-4997-85e3-ba89be6d0381/AAABjsvzdbw/AAABjcWesUg/16x9-512.jpg", "date": "2024-04-11T12:32:00.000+02:00", "lat": 53.5333, "lon": 8.1486, "intensity": 0.7, "source": "Tagesschau"}, {"title": "Wetter in Hessen: Samstag bis 26 Grad \u2013 n\u00e4chster Sommertag in Sichtweite", "url": "https://www.tagesschau.de/inland/regional/hessen/hr-samstag-bis-26-grad-naechster-sommertag-schon-in-sichtweite-100.html", "thumbnailUrl": "https://images.tagesschau.de/image/08a000fa-5caa-4256-9810-cd7f7b9c7bd2/AAABjsy3DmU/AAABjcWesUg/16x9-512.jpg", "date": "2024-04-11T12:31:07.460+02:00", "lat": 50.5374, "lon": 9.6926, "intensity": 0.8, "source": "Tagesschau"}, {"title": "Nach Flensburg nun Kiel: Buckelwal in F\u00f6rde gesichtet", "url": "https://www.tagesschau.de/inland/regional/schleswigholstein/ndr-flensburger-foerde-buckelwal-heute-erneut-gesichtet-100.html", "thumbnailUrl": "https://images.tagesschau.de/image/e63cffe6-cce3-4f97-bf20-1ee308c6d33e/AAABjsysQFM/AAABjcWesUg/16x9-512.jpg", "date": "2024-04-11T12:25:00.000+02:00", "lat": 54.4056, "lon": 10.1167, "intensity": 0.8, "source": "Tagesschau"}, {"title": "Mit verg\u00fcnstigten Karten in die Oper: Geldstrafe f\u00fcr 61-J\u00e4hrige", "url": "https://www.tagesschau.de/inland/regional/hamburg/ndr-mit-verguenstigten-karten-in-die-oper-geldstrafe-fuer-61-jaehrige-100.html", "thumbnailUrl": "https://images.tagesschau.de/image/393da287-2791-41d6-89b1-b22c9ca2c734/AAABjszhULE/AAABjcWesUg/16x9-512.jpg", "date": "2024-04-11T12:23:00.000+02:00", "lat": 53.5511, "lon": 9.9937, "intensity": 0.7, "source": "Tagesschau"}, {"title": "Neuer Nahverkehrsplan: M\u00e4rkisch-Oderland bekommt neue Buslinien und vier Rufbusse", "url": "https://www.tagesschau.de/inland/regional/brandenburg/rbb-neuer-nahverkehrsplan-maerkisch-oderland-bekommt-neue-buslinien-und-vier-rufbusse-100.html", "thumbnailUrl": "https://images.tagesschau.de/image/10e14705-879a-4e13-b895-4f9ac73d4cd4/AAABjsyv0dg/AAABjcWesUg/16x9-512.jpg", "date": "2024-04-11T12:19:18.000+02:00", "lat": 52.5134, "lon": 13.8886, "intensity": 0.6, "source": "Tagesschau"}, {"title": "Mutiger Rentner als Lockvogel: Polizei nimmt f\u00fcnf Betr\u00fcger fest", "url": "https://www.tagesschau.de/inland/regional/niedersachsen/ndr-mutiger-rentner-als-lockvogel-polizei-nimmt-fuenf-betrueger-fest-100.html", "thumbnailUrl": "https://images.tagesschau.de/image/d1c6d972-c9ee-4144-9a6c-5ea613d92de5/AAABjszGFlw/AAABjcWesUg/16x9-512.jpg", "date": "2024-04-11T12:18:00.000+02:00", "lat": 52.4148, "lon": 9.8511, "intensity": 0.7, "source": "Tagesschau"}, {"title": "Wichtige Br\u00fccke in Hagen f\u00fcr Lkw dicht", "url": "https://www.tagesschau.de/inland/regional/nordrheinwestfalen/wdr-wichtige-bruecke-in-hagen-fuer-lkw-dicht-100.html", "thumbnailUrl": "https://images.tagesschau.de/image/839dc622-0ab2-46c0-9558-af362bfd958b/AAABjszvqOs/AAABjcWesUg/16x9-512.jpg", "date": "2024-04-11T12:11:00.000+02:00", "lat": 51.3674, "lon": 7.4723, "intensity": 0.6, "source": "Tagesschau"}, {"title": "Mehr als 500.000 Euro Schaden: Funkmast brennt aus", "url": "https://www.tagesschau.de/inland/regional/thueringen/mdr-mehr-als-500-000-euro-schaden-funkmast-brennt-aus-100.html", "thumbnailUrl": "https://images.tagesschau.de/image/27307127-443f-4a68-b887-74c7e2cd227d/AAABjs8tIhs/AAABjcWesUg/16x9-512.jpg", "date": "2024-04-11T12:11:00.000+02:00", "lat": 50.7064, "lon": 11.5909, "intensity": 0.7, "source": "Tagesschau"}, {"title": "Im Casino Baden-Baden zocken Croupiers um die Deutsche Meisterschaft", "url": "https://www.tagesschau.de/inland/regional/badenwuerttemberg/swr-im-casino-baden-baden-zocken-croupiers-um-die-deutsche-meisterschaft-100.html", "thumbnailUrl": "https://images.tagesschau.de/image/9089a91e-ab20-450d-b13c-0b367114f477/AAABjs1mwIY/AAABjcWesUg/16x9-512.jpg", "date": "2024-04-11T12:09:56.000+02:00", "lat": 48.7618, "lon": 8.2439, "intensity": 0.8, "source": "Tagesschau"}, {"title": "Entgleiste Lok in Birkenwerder: Zugverkehr bis Montagmorgen unterbrochen", "url": "https://www.tagesschau.de/inland/regional/brandenburg/rbb-strecke-berlin-rostock-lok-in-birkenwerder-entgleist-100.html", "thumbnailUrl": "https://images.tagesschau.de/image/410d725a-abec-4efc-9a3a-9b12ee1818f7/AAABjsyfPMM/AAABjcWesUg/16x9-512.jpg", "date": "2024-04-11T12:09:00.000+02:00", "lat": 52.6931, "lon": 13.2772, "intensity": 0.8, "source": "Tagesschau"}, {"title": "Sahara-Staub ade: Jetzt lohnen sich Autow\u00e4sche und Fensterputzen", "url": "https://www.tagesschau.de/inland/regional/bremen/rb-sahara-staub-ade-jetzt-lohnen-sich-autowaesche-und-fensterputzen-100.html", "thumbnailUrl": "https://images.tagesschau.de/image/88279078-2bd4-4b8d-a08e-3c77edd287a7/AAABjsyg-Uc/AAABjcWesUg/16x9-512.jpg", "date": "2024-04-11T12:05:00.000+02:00", "lat": 53.0793, "lon": 8.8017, "intensity": 0.5, "source": "Tagesschau"}, {"title": "Wuppertal f\u00fcr Hauptbahnhof-Umgestaltung ausgezeichnet", "url": "https://www.tagesschau.de/inland/regional/nordrheinwestfalen/wdr-wuppertal-fuer-hauptbahnhof-umgestaltung-ausgezeichnet-104.html", "thumbnailUrl": "https://images.tagesschau.de/image/a9288d80-4ecf-4636-b342-8f9c12657eee/AAABjszX1Xw/AAABjcWesUg/16x9-512.jpg", "date": "2024-04-11T12:05:00.000+02:00", "lat": 51.2647, "lon": 7.1557, "intensity": 0.8, "source": "Tagesschau"}, {"title": "Betreiber von Corona-Teststellen beklagen ausstehende Zahlungen in Millionenh\u00f6he", "url": "https://www.tagesschau.de/inland/regional/berlin/rbb-drohende-privatinsolvenzen-betreiber-von-corona-teststellen-beklagen-ausstehende-zahlungen-in-millionenhoehe-100.html", "thumbnailUrl": "https://images.tagesschau.de/image/51b7af85-2b65-4266-9de6-8a9507d426b1/AAABjsybyNE/AAABjcWesUg/16x9-512.jpg", "date": "2024-04-11T12:00:29.000+02:00", "lat": 52.520008, "lon": 13.404954, "intensity": 0.8, "source": "Tagesschau"}, {"title": "Polizei und Beh\u00f6rden: Cannabis kann aktuell nicht aus legalen Quellen stammen - das kann Folgen haben", "url": "https://www.tagesschau.de/inland/regional/badenwuerttemberg/swr-polizei-und-behoerden-cannabis-kann-aktuell-nicht-aus-legalen-quellen-stammen-das-hat-folgen-100.html", "thumbnailUrl": "https://images.tagesschau.de/image/03a77218-fe06-475b-aec4-341d23c85c9c/AAABjsyZy0U/AAABjcWesUg/16x9-512.jpg", "date": "2024-04-11T11:58:00.000+02:00", "lat": 48.6616, "lon": 9.9937, "intensity": 0.6, "source": "Tagesschau"}, {"title": "Konferenz in Cottbus: Mediziner suchen nach L\u00f6sungen, um Notaufnahmen zu entlasten", "url": "https://www.tagesschau.de/inland/regional/brandenburg/rbb-konferenz-in-cottbus-mediziner-suchen-nach-loesungen-um-notaufnahmen-zu-entlasten-100.html", "thumbnailUrl": "https://images.tagesschau.de/image/921d462b-b86b-4bab-9a1a-65025ad972d7/AAABjsyWj1o/AAABjcWesUg/16x9-512.jpg", "date": "2024-04-11T11:55:19.000+02:00", "lat": 51.757, "lon": 14.335, "intensity": 0.7, "source": "Tagesschau"}, {"title": "Totalsanierung: Bahn sperrt ab 2026 Hauptstrecken in Bayern", "url": "https://www.tagesschau.de/inland/regional/bayern/br-totalsanierung-bahn-sperrt-ab-2026-hauptstrecken-in-bayern-102.html", "thumbnailUrl": "https://images.tagesschau.de/image/7599a94e-7662-427c-904c-127f7abc588f/AAABjsyUbwo/AAABjcWesUg/16x9-512.jpg", "date": "2024-04-11T11:53:50.777+02:00", "lat": 48.1351, "lon": 11.582, "intensity": 0.8, "source": "Tagesschau"}, {"title": "Ende des Ramadan: Die Freude ist leiser als sonst", "url": "https://www.tagesschau.de/inland/regional/hamburg/ndr-ende-des-ramadan-die-freude-ist-leiser-als-sonst-100.html", "thumbnailUrl": "https://images.tagesschau.de/image/c9f665c6-180f-44c3-ab9a-f3f79063dc3e/AAABjsyfaO8/AAABjcWesUg/16x9-512.jpg", "date": "2024-04-11T11:53:00.000+02:00", "lat": 53.5503, "lon": 10.0006, "intensity": 0.5, "source": "Tagesschau"}, {"title": "Twist: Spezialkr\u00e4fte der Polizei finden Munition in Wohnhaus", "url": "https://www.tagesschau.de/inland/regional/niedersachsen/ndr-twist-spezialkraefte-der-polizei-finden-munition-in-wohnhaus-100.html", "thumbnailUrl": "https://images.tagesschau.de/image/0ce4cd26-f5a2-4002-9b10-9f370159a259/AAABjsvzkxg/AAABjcWesUg/16x9-512.jpg", "date": "2024-04-11T11:48:00.000+02:00", "lat": 52.3759, "lon": 9.7107, "intensity": 0.6, "source": "Tagesschau"}, {"title": "Abiturpr\u00fcfungen im Saarland starten", "url": "https://www.tagesschau.de/inland/regional/saarland/sr-abiturpruefungen-im-saarland-starten-100.html", "thumbnailUrl": "https://images.tagesschau.de/image/c997df55-a7f5-4b20-a5b2-47a1015e65d6/AAABjsyOnKM/AAABjcWesUg/16x9-512.jpg", "date": "2024-04-11T11:45:00.000+02:00", "lat": 49.3964, "lon": 6.9969, "intensity": 0.7, "source": "Tagesschau"}, {"title": "Fahrradgate-Prozess in Leipzig: Angeklagte findet neuen Anwalt", "url": "https://www.tagesschau.de/inland/regional/sachsen/mdr-fahrradgate-prozess-in-leipzig-verteidiger-legt-mandat-nieder-100.html", "thumbnailUrl": "https://images.tagesschau.de/image/2a6b2c0d-3dc4-440b-92bf-9cb73905d9d9/AAABjsyHs0c/AAABjcWesUg/16x9-512.jpg", "date": "2024-04-11T11:40:01.000+02:00", "lat": 51.343479, "lon": 12.387242, "intensity": 0.8, "source": "Tagesschau"}, {"title": "Ermittlungen nach Tortenschlacht in Wormser B\u00e4ckerei", "url": "https://www.tagesschau.de/inland/regional/rheinlandpfalz/swr-streit-loest-tortenschlacht-in-wormser-baeckerei-aus-100.html", "thumbnailUrl": "https://images.tagesschau.de/image/4cc5b910-e28c-474f-87e7-b637901e750b/AAABjs2hTwE/AAABjcWesUg/16x9-512.jpg", "date": "2024-04-11T11:38:00.000+02:00", "lat": 49.6319, "lon": 8.3586, "intensity": 0.3, "source": "Tagesschau"}, {"title": "Wurf aus Hochhaus: Beutel mit Steinen verfehlt Kind in Berlin-Friedrichshain", "url": "https://www.tagesschau.de/inland/regional/berlin/rbb-wurf-aus-hochhaus-beutel-mit-steinen-verfehlt-kind-in-berlin-friedrichshain-100.html", "thumbnailUrl": "https://images.tagesschau.de/image/591d3470-d83e-4807-9842-60b5c38da031/AAABjsyQ1P0/AAABjcWesUg/16x9-512.jpg", "date": "2024-04-11T11:36:00.000+02:00", "lat": 52.5166, "lon": 13.4508, "intensity": 0.8, "source": "Tagesschau"}, {"title": "Ausweichverkehr \u00e4rgert Dorfbewohner: L\u00e4rm und Gestank in Rot am See", "url": "https://www.tagesschau.de/inland/regional/badenwuerttemberg/swr-ausweichverkehr-aergert-dorfbewohner-laerm-und-gestank-in-rot-am-see-100.html", "thumbnailUrl": "https://images.tagesschau.de/image/0c153a9e-78df-4fab-a4cc-526f7a084ec4/AAABjsyDzXQ/AAABjcWesUg/16x9-512.jpg", "date": "2024-04-11T11:34:00.000+02:00", "lat": 49.2925, "lon": 9.8877, "intensity": 0.4, "source": "Tagesschau"}, {"title": "Fr\u00fcher Saisonstart: Stechm\u00fccken schl\u00fcpfen schon", "url": "https://www.tagesschau.de/inland/regional/brandenburg/rbb-frueher-saisonstart-stechmuecken-schluepfen-schon-100.html", "thumbnailUrl": "https://images.tagesschau.de/image/b80ce150-e24b-4d0c-8bee-f3f352c24263/AAABjsyF1bw/AAABjcWesUg/16x9-512.jpg", "date": "2024-04-11T11:29:39.000+02:00", "lat": 52.520008, "lon": 13.404954, "intensity": 0.8, "source": "Tagesschau"}, {"title": "Pkw geht auf A2 bei Hannover in Flammen auf", "url": "https://www.tagesschau.de/inland/regional/niedersachsen/ndr-pkw-geht-auf-a2-bei-hannover-in-flammen-auf-100.html", "thumbnailUrl": "https://images.tagesschau.de/image/6cec4840-5fe2-4324-a146-884476872fd9/AAABjsx-v4E/AAABjcWesUg/16x9-512.jpg", "date": "2024-04-11T11:28:00.000+02:00", "lat": 52.3759, "lon": 9.7347, "intensity": 0.7, "source": "Tagesschau"}, {"title": "Gesch\u00e4ftsf\u00fchrer Sch\u00e4fer verl\u00e4sst Wolfsburg - VfL entt\u00e4uscht", "url": "https://www.tagesschau.de/inland/regional/niedersachsen/ndr-geschaeftsfuehrer-marcel-schaefer-verlaesst-den-vfl-wolfsburg-102.html", "thumbnailUrl": "https://images.tagesschau.de/image/2fe5cf78-de1c-42c2-9e15-d5cb71bf9602/AAABjsyzugU/AAABjcWesUg/16x9-512.jpg", "date": "2024-04-11T11:23:00.000+02:00", "lat": 52.4226, "lon": 10.7585, "intensity": 0.7, "source": "Tagesschau"}, {"title": "Nach Verfolgungsfahrt und Unfall: Polizei nimmt Mann fest", "url": "https://www.tagesschau.de/inland/regional/niedersachsen/ndr-nach-verfolgungsfahrt-und-unfall-polizei-nimmt-mann-fest-100.html", "thumbnailUrl": "https://images.tagesschau.de/image/2ce8ad0c-a268-461c-a789-9d6026d70bc5/AAABjsx5-V0/AAABjcWesUg/16x9-512.jpg", "date": "2024-04-11T11:23:00.000+02:00", "lat": 52.3759, "lon": 9.7392, "intensity": 0.8, "source": "Tagesschau"}, {"title": "Gr\u00fcnheide: Waldbesetzer wollen Protestaktion gegen Tesla auf unbestimmte Zeit fortsetzen", "url": "https://www.tagesschau.de/inland/regional/brandenburg/rbb-gruenheide-waldbesetzer-wollen-protestaktion-gegen-tesla-auf-unbestimmte-zeit-fortsetzen-100.html", "thumbnailUrl": "https://images.tagesschau.de/image/59d63118-06e6-4dc4-a295-3c55ae79518d/AAABjs13kcw/AAABjcWesUg/16x9-512.jpg", "date": "2024-04-11T11:21:08.000+02:00", "lat": 52.4274, "lon": 13.8044, "intensity": 0.7, "source": "Tagesschau"}, {"title": "Wiesbadener \"SCHIFF\" abgesagt: Hollywood-Streik lastet auf Open-Air-Kino-Saison ", "url": "https://www.tagesschau.de/inland/regional/hessen/hr-wiesbadener-schiff-abgesagt-hollywood-streik-lastet-auf-open-air-kino-saison-100.html", "thumbnailUrl": "https://images.tagesschau.de/image/4b9eb9c0-cce0-44bf-a4f2-7b209bfacb4b/AAABjs2suAA/AAABjcWesUg/16x9-512.jpg", "date": "2024-04-11T11:20:27.162+02:00", "lat": 50.0782, "lon": 8.2398, "intensity": 0.6, "source": "Tagesschau"}, {"title": "Massive Kritik nach gro\u00dfem Polizeieinsatz in Brennpunkt-Hochhaus", "url": "https://www.tagesschau.de/inland/regional/niedersachsen/ndr-brennpunkt-immobilie-in-goettingen-stadt-begutachtet-verhaeltnisse-100.html", "thumbnailUrl": "https://images.tagesschau.de/image/f40e2f7a-4c41-4c07-b366-ef583ceca315/AAABjsxqnsE/AAABjcWesUg/16x9-512.jpg", "date": "2024-04-11T11:07:00.000+02:00", "lat": 52.374, "lon": 9.7401, "intensity": 0.8, "source": "Tagesschau"}, {"title": "Disziplinarverfahren: AfD-naher Pfarrer weist Vorw\u00fcrfe zur\u00fcck", "url": "https://www.tagesschau.de/inland/regional/sachsenanhalt/mdr-disziplinarverfahren-afd-naher-pfarrer-weist-vorwuerfe-zurueck-100.html", "thumbnailUrl": "https://images.tagesschau.de/image/9dc2dce4-06e3-4e56-a1e4-1e2d35fe3cd4/AAABjsxqd2w/AAABjcWesUg/16x9-512.jpg", "date": "2024-04-11T11:06:35.000+02:00", "lat": 51.7887, "lon": 11.1417, "intensity": 0.8, "source": "Tagesschau"}, {"title": "Tourismus in Deutschland zieht an", "url": "https://www.tagesschau.de/wirtschaft/verbraucher/tourismus-uebernachtungen-deutschland-100.html", "thumbnailUrl": "https://images.tagesschau.de/image/9bfbdccf-5522-44f9-8e0e-9a695ba9afb9/AAABjsxmUUs/AAABjcWesUg/16x9-512.jpg", "date": "2024-04-11T11:02:11.142+02:00", "lat": 51.1657, "lon": 10.4515, "intensity": 0.7, "source": "Tagesschau"}, {"title": "Tarifeinigung: Mehr Geld f\u00fcr Kabinenpersonal der Lufthansa", "url": "https://www.tagesschau.de/inland/regional/brandenburg/rbb-tarifeinigung-mehr-geld-fuer-kabinenpersonal-der-lufthansa-100.html", "thumbnailUrl": "https://images.tagesschau.de/image/d34e093c-3a86-4e42-9c87-66431dfe7368/AAABjsxnGVM/AAABjcWesUg/16x9-512.jpg", "date": "2024-04-11T11:01:12.000+02:00", "lat": 52.520008, "lon": 13.404954, "intensity": 0.7, "source": "Tagesschau"}, {"title": "Freinsheim: Kita-Mitarbeiter m\u00fcssen doch nicht als Wahlhelfer ran", "url": "https://www.tagesschau.de/inland/regional/rheinlandpfalz/swr-freinsheim-kita-mitarbeiter-muessen-doch-nicht-als-wahlhelfer-ran-100.html", "thumbnailUrl": "https://images.tagesschau.de/image/56fdc0f1-0688-4681-b25d-8ca550d2f682/AAABjsySVXc/AAABjcWesUg/16x9-512.jpg", "date": "2024-04-11T11:00:18.000+02:00", "lat": 49.5395, "lon": 8.2113, "intensity": 0.4, "source": "Tagesschau"}, {"title": "Nato-\u00dcbung: Pannen-Panzer der Bundeswehr strandet in Petersberg", "url": "https://www.tagesschau.de/inland/regional/hessen/hr-nato-uebung-pannen-panzer-strandet-im-osthessischen-petersberg-100.html", "thumbnailUrl": "https://images.tagesschau.de/image/011da525-895b-48f3-81cb-1f0550e88754/AAABjs1F2G8/AAABjcWesUg/16x9-512.jpg", "date": "2024-04-11T10:59:05.467+02:00", "lat": 50.8308, "lon": 9.6355, "intensity": 0.7, "source": "Tagesschau"}, {"title": "Me\u00dfkirch: Acht Wohnwagen auf Campingplatz abgebrannt", "url": "https://www.tagesschau.de/inland/regional/badenwuerttemberg/swr-messkirch-acht-wohnwagen-auf-campingplatz-abgebrannt-100.html", "thumbnailUrl": "https://images.tagesschau.de/image/d3650ac0-e430-43a7-a595-e316d412ee6a/AAABjsxqGdM/AAABjcWesUg/16x9-512.jpg", "date": "2024-04-11T10:59:00.000+02:00", "lat": 47.9625, "lon": 9.0006, "intensity": 0.8, "source": "Tagesschau"}, {"title": "Hessen am Morgen: +++ Einigung im Tarifkonflikt um Flugbegleiter +++ Bedrohter Feldhamster bekommt Zuchtstation +++ Reisebus auf B40 bei Kelsterbach ausgebrannt +++", "url": "https://www.tagesschau.de/inland/regional/hessen/hr-hessen-am-morgen--scheune-und-wohnhaus-in-birkenau-brennen-100.html", "thumbnailUrl": "https://images.tagesschau.de/image/e38b5dcc-4052-4491-b67e-23438e3d3d3c/AAABjs1CR94/AAABjcWesUg/16x9-512.jpg", "date": "2024-04-11T10:52:05.783+02:00", "lat": 50.0527, "lon": 8.5707, "intensity": 0.6, "source": "Tagesschau"}, {"title": "Malis Bev\u00f6lkerung \"zwischen Hammer und Amboss\"", "url": "https://www.tagesschau.de/ausland/afrika/mali-nach-abzug-der-bundeswehr-100.html", "thumbnailUrl": "https://images.tagesschau.de/image/60a905e2-6a84-42f8-bbae-1b8c4208a6ce/AAABjsxZTKQ/AAABjcWesUg/16x9-512.jpg", "date": "2024-04-11T10:49:48.823+02:00", "lat": 17.570692, "lon": -3.996166, "intensity": 0.8, "source": "Tagesschau"}, {"title": "Kassel Huskies im DEL2-Playoff-Finale gegen Eisb\u00e4ren Regensburg", "url": "https://www.tagesschau.de/inland/regional/hessen/hr-kassel-huskies-im-del2-playoff-finale-gegen-eisbaeren-regensburg-102.html", "thumbnailUrl": "https://images.tagesschau.de/image/20171995-097d-4589-8284-07ee8f63469c/AAABjsxdUjo/AAABjcWesUg/16x9-512.jpg", "date": "2024-04-11T10:48:40.062+02:00", "lat": 51.315, "lon": 9.491, "intensity": 0.7, "source": "Tagesschau"}, {"title": "Robin Hood als Musical: Psychogramm eines Zweiflers", "url": "https://www.tagesschau.de/inland/regional/berlin/rbb-robin-hood-als-musical-psychogramm-eines-zweiflers-102.html", "thumbnailUrl": "https://images.tagesschau.de/image/5d2033d2-bed5-4fcb-b910-3999af9c4348/AAABjsxdsQY/AAABjcWesUg/16x9-512.jpg", "date": "2024-04-11T10:48:35.000+02:00", "lat": 52.52, "lon": 13.3888, "intensity": 0.8, "source": "Tagesschau"}, {"title": "Holstein Kiel: Angstgegner VfL Osnabr\u00fcck kommt mit R\u00fcckenwind", "url": "https://www.tagesschau.de/inland/regional/schleswigholstein/ndr-holstein-kiel-angstgegner-vfl-osnabrueck-kommt-mit-rueckenwind-102.html", "thumbnailUrl": "https://images.tagesschau.de/image/02674feb-0558-45d7-a8cb-76d7eca9f585/AAABjs5TPB8/AAABjcWesUg/16x9-512.jpg", "date": "2024-04-11T10:47:00.000+02:00", "lat": 54.318209, "lon": 10.203426, "intensity": 0.7, "source": "Tagesschau"}, {"title": "\"Wir verteidigen Charkiw mit Zuversicht\"", "url": "https://www.tagesschau.de/ausland/europa/charkiw-angriffe-100.html", "thumbnailUrl": "https://images.tagesschau.de/image/2cc63361-9c32-44fd-8e12-5698b1d4242d/AAABjsxMxCc/AAABjcWesUg/16x9-512.jpg", "date": "2024-04-11T10:36:07.175+02:00", "lat": 50.004571, "lon": 36.230383, "intensity": 0.8, "source": "Tagesschau"}, {"title": "\"Das ist sozialer Sprengstoff\"", "url": "https://www.tagesschau.de/wirtschaft/verbraucher/wohnungsbau-diw-100.html", "thumbnailUrl": "https://images.tagesschau.de/image/b44f4f89-8ac4-46dd-888f-8ce273142dd4/AAABjsaSwoI/AAABjcWesUg/16x9-512.jpg", "date": "2024-04-11T10:31:52.566+02:00", "lat": 52.520008, "lon": 13.404954, "intensity": 0.8, "source": "Tagesschau"}, {"title": "Br\u00e4nde in Birkenau, Hirschhorn und Frankfurt", "url": "https://www.tagesschau.de/inland/regional/hessen/hr-braende-in-birkenau-und-hirschhorn-scheune-wohnhaus-und-halle-in-flammen-100.html", "thumbnailUrl": "https://images.tagesschau.de/image/4e22120f-380c-4492-886b-13e4b9bd533c/AAABjsxHa9c/AAABjcWesUg/16x9-512.jpg", "date": "2024-04-11T10:28:15.452+02:00", "lat": 49.566, "lon": 8.853, "intensity": 0.7, "source": "Tagesschau"}, {"title": "Superm\u00e4rkte verkauften weniger Alkohol und Fleisch", "url": "https://www.tagesschau.de/wirtschaft/verbraucher/fleischabsatz-fastenzeit-100.html", "thumbnailUrl": "https://images.tagesschau.de/image/a3b78e06-6bab-4581-8e22-22bca7cf4767/AAABjswpISo/AAABjcWesUg/16x9-512.jpg", "date": "2024-04-11T10:23:21.578+02:00", "lat": 51.1657, "lon": 10.4515, "intensity": 0.7, "source": "Tagesschau"}, {"title": "Ramadan-Ende in Stendal: \"Ich l\u00e4chle viel mehr in der Zeit\"", "url": "https://www.tagesschau.de/inland/regional/sachsenanhalt/mdr-ramadan-ende-in-stendal-ich-laechle-viel-mehr-in-der-zeit-100.html", "thumbnailUrl": "https://images.tagesschau.de/image/c20ac678-353b-4553-b5d2-e68e8c1e7a27/AAABjsxCIU4/AAABjcWesUg/16x9-512.jpg", "date": "2024-04-11T10:22:30.000+02:00", "lat": 52.615, "lon": 11.851, "intensity": 0.7, "source": "Tagesschau"}, {"title": "Tierheim Remagen am Limit - die meisten Hunde sind aus dem Ausland", "url": "https://www.tagesschau.de/inland/regional/rheinlandpfalz/swr-tierheim-remagen-am-limit-die-meisten-hunde-sind-aus-dem-ausland-100.html", "thumbnailUrl": "https://images.tagesschau.de/image/e15cd8d0-4f18-4953-a124-c6c4313b4ce2/AAABjsxi0Ms/AAABjcWesUg/16x9-512.jpg", "date": "2024-04-11T10:20:59.000+02:00", "lat": 50.57972, "lon": 7.22827, "intensity": 0.7, "source": "Tagesschau"}, {"title": "Leiche in brennendem Auto in Kaiserslautern entdeckt", "url": "https://www.tagesschau.de/inland/regional/rheinlandpfalz/swr-leiche-in-brennendem-auto-in-kaiserslautern-entdeckt-100.html", "thumbnailUrl": "https://images.tagesschau.de/image/24fa343e-bbf1-43d4-87f5-ca0fb2b78663/AAABjs1JaSE/AAABjcWesUg/16x9-512.jpg", "date": "2024-04-11T10:20:50.000+02:00", "lat": 49.4435, "lon": 7.7663, "intensity": 0.8, "source": "Tagesschau"}, {"title": "Paar angegriffen: \u00dcberfall in Britz - zwei leicht Verletzte", "url": "https://www.tagesschau.de/inland/regional/berlin/rbb-paar-angegriffen-ueberfall-in-britz-zwei-leicht-verletzte-100.html", "thumbnailUrl": "https://images.tagesschau.de/image/644efe38-4b73-4d6f-80b3-fa5a70eaf453/AAABjsw-ZBI/AAABjcWesUg/16x9-512.jpg", "date": "2024-04-11T10:17:50.000+02:00", "lat": 52.4814, "lon": 13.4509, "intensity": 0.7, "source": "Tagesschau"}, {"title": "Bauarbeiten auf A14 bremsen Verkehr zwischen Tangerh\u00fctte und L\u00fcderitz", "url": "https://www.tagesschau.de/inland/regional/sachsenanhalt/mdr-bauarbeiten-an-der-a14-bremsen-verkehr-zwischen-tangerhuette-und-luederitz-100.html", "thumbnailUrl": "https://images.tagesschau.de/image/a250c73b-2ff9-4489-b677-6c51e5f529eb/AAABjsw6y_Y/AAABjcWesUg/16x9-512.jpg", "date": "2024-04-11T10:15:28.000+02:00", "lat": 52.4578, "lon": 11.8271, "intensity": 0.3, "source": "Tagesschau"}, {"title": "Nach t\u00f6dlichen Unf\u00e4llen: KI soll Badeg\u00e4ste in Gummersbach sch\u00fctzen", "url": "https://www.tagesschau.de/inland/regional/nordrheinwestfalen/wdr-nach-toedlichen-unfaellen-ki-soll-badegaeste-in-gummersbach-schuetzen-100.html", "thumbnailUrl": "https://images.tagesschau.de/image/a3196f91-e5bc-472f-870b-e27c68a55eb8/AAABjsxi7TI/AAABjcWesUg/16x9-512.jpg", "date": "2024-04-11T10:08:00.000+02:00", "lat": 51.0289, "lon": 7.5669, "intensity": 0.6, "source": "Tagesschau"}, {"title": "BW-Newsticker am Morgen: Erdbeersaison startet fr\u00fcher, Einigung bei Lufthansa, Feuer auf Campingplatz in Me\u00dfkirch", "url": "https://www.tagesschau.de/inland/regional/badenwuerttemberg/swr-bw-newsticker-am-morgen-feuer-auf-campingplatz-in-messkirch-motorradfahrer-stirbt-in-aalen-100.html", "thumbnailUrl": "https://images.tagesschau.de/image/dc3b3820-7500-4246-aa18-65abcd961681/AAABjsu6QoI/AAABjcWesUg/16x9-512.jpg", "date": "2024-04-11T10:02:00.000+02:00", "lat": 47.9712, "lon": 9.0047, "intensity": 0.6, "source": "Tagesschau"}, {"title": "Autoreifen geplatzt: Zwei M\u00e4nner bei Unfall schwer verletzt", "url": "https://www.tagesschau.de/inland/regional/niedersachsen/ndr-autoreifen-geplatzt-zwei-maenner-bei-unfall-schwer-verletzt-100.html", "thumbnailUrl": "https://images.tagesschau.de/image/7854d572-d70c-4d44-bb81-07d45a24e997/AAABjsxYPIY/AAABjcWesUg/16x9-512.jpg", "date": "2024-04-11T09:53:00.000+02:00", "lat": 53.1225, "lon": 9.1944, "intensity": 0.7, "source": "Tagesschau"}, {"title": "Tarifkonflikt bei Lufthansa beendet: Flugbegleiter erhalten mehr Geld", "url": "https://www.tagesschau.de/inland/regional/hessen/hr-tarifkonflikt-beendet-lufthansa-flugbegleiter-bekommen-mehr-geld-100.html", "thumbnailUrl": "https://images.tagesschau.de/image/8a50133b-bf69-46ca-a9bd-f5b7d6898ec1/AAABjs1D_lc/AAABjcWesUg/16x9-512.jpg", "date": "2024-04-11T09:48:57.201+02:00", "lat": 50.0335, "lon": 8.5586, "intensity": 0.7, "source": "Tagesschau"}, {"title": "Witzenhausen: 35-J\u00e4hrige stirbt bei Unfall auf B80 \u2013 f\u00fcnf Verletzte", "url": "https://www.tagesschau.de/inland/regional/hessen/hr-witzenhausen-35-jaehrige-stirbt-bei-unfall--fuenf-verletzte-100.html", "thumbnailUrl": "https://images.tagesschau.de/image/2a9d19d2-6fe4-410f-9c11-78002dc843f3/AAABjswg5f0/AAABjcWesUg/16x9-512.jpg", "date": "2024-04-11T09:47:27.085+02:00", "lat": 51.3427, "lon": 9.873, "intensity": 0.8, "source": "Tagesschau"}, {"title": "Halle f\u00fcr Cannabis-Anbau vermietet: Haftstrafen f\u00fcr zwei M\u00e4nner", "url": "https://www.tagesschau.de/inland/regional/niedersachsen/ndr-halle-fuer-cannabis-anbau-vermietet-haftstrafen-fuer-zwei-maenner-100.html", "thumbnailUrl": "https://images.tagesschau.de/image/b125ecfc-8928-40cf-a524-d1d679efd9f7/AAABjsyCejo/AAABjcWesUg/16x9-512.jpg", "date": "2024-04-11T09:44:00.000+02:00", "lat": 53.4171, "lon": 7.6895, "intensity": 0.6, "source": "Tagesschau"}, {"title": "Kabinenpersonal der Lufthansa bekommt mehr Geld", "url": "https://www.tagesschau.de/wirtschaft/arbeitsmarkt/flugverkehr-kabinenpersonal-ufo-tarifstreit-einigung-100.html", "thumbnailUrl": "https://images.tagesschau.de/image/b82796b3-40fc-4091-b65c-6e6b318bf1ff/AAABjiSvd0c/AAABjcWesUg/16x9-512.jpg", "date": "2024-04-11T09:39:23.738+02:00", "lat": 53.5511, "lon": 9.9876, "intensity": 0.8, "source": "Tagesschau"}, {"title": "Simple Minds in Hamburg: M\u00fchevoller Auftakt - Jubel zum Finale", "url": "https://www.tagesschau.de/inland/regional/hamburg/ndr-simple-minds-in-hamburg-muehevoller-auftakt-jubel-zum-finale-100.html", "thumbnailUrl": "https://images.tagesschau.de/image/a1bd63f0-356b-4087-8b8f-ddcacbe83f4e/AAABjsxsIiE/AAABjcWesUg/16x9-512.jpg", "date": "2024-04-11T09:20:00.000+02:00", "lat": 53.55, "lon": 10.0, "intensity": 0.6, "source": "Tagesschau"}, {"title": "Aaron Opoku: FCK kann sich im Abstiegskampf \"nur den Arsch aufrei\u00dfen\"", "url": "https://www.tagesschau.de/inland/regional/rheinlandpfalz/swr-aaron-opoku-fck-kann-sich-im-abstiegskampf-nur-den-arsch-aufreissen-102.html", "thumbnailUrl": "https://images.tagesschau.de/image/11d6122b-29de-4c39-88b0-7045d250da38/AAABjswBvs4/AAABjcWesUg/16x9-512.jpg", "date": "2024-04-11T08:52:08.000+02:00", "lat": 49.4431, "lon": 7.6243, "intensity": 0.7, "source": "Tagesschau"}, {"title": "\"K\u00f6nig der L\u00f6wen\": Vier neue Gesichter beim Musical  in Hamburg", "url": "https://www.tagesschau.de/inland/regional/hamburg/ndr-koenig-der-loewen-vier-neue-gesichter-beim-musical-in-hamburg-100.html", "thumbnailUrl": "https://images.tagesschau.de/image/9bfb18e1-8088-4396-9164-6df010de4bc3/AAABjsvt3qA/AAABjcWesUg/16x9-512.jpg", "date": "2024-04-11T08:50:00.000+02:00", "lat": 53.551086, "lon": 9.993682, "intensity": 0.6, "source": "Tagesschau"}, {"title": "Eigent\u00fcmerverband will gegen Mietpreisbremse klagen", "url": "https://www.tagesschau.de/wirtschaft/mietpreisbremse-klage-100.html", "thumbnailUrl": "https://images.tagesschau.de/image/92ebaf4d-d89c-4458-ad56-8a91d2ebdc98/AAABjsrlFJ8/AAABjcWesUg/16x9-512.jpg", "date": "2024-04-11T08:37:59.411+02:00", "lat": 53.550343, "lon": 9.994622, "intensity": 0.7, "source": "Tagesschau"}, {"title": "Halbfinalsieg gegen Straubing Tigers: Ronning schie\u00dft Eisb\u00e4ren Berlin ins DEL-Finale", "url": "https://www.tagesschau.de/inland/regional/berlin/rbb-halbfinalsieg-gegen-straubing-tigers-ronning-schiesst-eisbaeren-berlin-ins-del-finale-102.html", "thumbnailUrl": "https://images.tagesschau.de/image/376a7d4c-c68a-48ea-ad6f-b19fafab0e5d/AAABjsvZsN0/AAABjcWesUg/16x9-512.jpg", "date": "2024-04-11T08:30:38.000+02:00", "lat": 52.52, "lon": 13.405, "intensity": 0.8, "source": "Tagesschau"}, {"title": "Vermisste Person bei Hausbrand in Oberhausen", "url": "https://www.tagesschau.de/inland/regional/nordrheinwestfalen/wdr-vermisste-person-bei-hausbrand-in-oberhausen-100.html", "thumbnailUrl": "https://images.tagesschau.de/image/54eada66-4cd3-45bf-9f89-ee855e3cf025/AAABjsy-My4/AAABjcWesUg/16x9-512.jpg", "date": "2024-04-11T08:30:00.000+02:00", "lat": 51.4955, "lon": 6.8537, "intensity": 0.8, "source": "Tagesschau"}, {"title": "K\u00f6hlbrandbr\u00fccke: Bund beteiligt sich an Kosten f\u00fcr Neubau", "url": "https://www.tagesschau.de/inland/regional/hamburg/ndr-hamburger-koehlbrandbruecke-beschaeftigt-den-bundestag-100.html", "thumbnailUrl": "https://images.tagesschau.de/image/0960b3a2-17c1-4000-a4b4-85cc5e2ab96a/AAABjsfPNOQ/AAABjcWesUg/16x9-512.jpg", "date": "2024-04-11T08:21:00.000+02:00", "lat": 53.5423, "lon": 9.9374, "intensity": 0.8, "source": "Tagesschau"}, {"title": "Das Wahlkampf-Problem der Republikaner", "url": "https://www.tagesschau.de/ausland/amerika/usa-abtreibungen-wahlkampf-100.html", "thumbnailUrl": "https://images.tagesschau.de/image/8b85f5b4-6d4e-40cc-b7d9-fdf7faae5094/AAABjsvNcng/AAABjcWesUg/16x9-512.jpg", "date": "2024-04-11T08:17:03.476+02:00", "lat": 37.0902, "lon": -95.7129, "intensity": 0.8, "source": "Tagesschau"}, {"title": "Berliner Feuerwehr l\u00f6scht Brand auf Havel-Frachtschiff", "url": "https://www.tagesschau.de/inland/regional/berlin/rbb-berliner-feuerwehr-loescht-brand-auf-havel-frachtschiff-100.html", "thumbnailUrl": "https://images.tagesschau.de/image/4a397b61-6c34-432b-88ed-7ae164ae9d2b/AAABjsvOxLc/AAABjcWesUg/16x9-512.jpg", "date": "2024-04-11T08:15:26.000+02:00", "lat": 52.52, "lon": 13.405, "intensity": 0.8, "source": "Tagesschau"}, {"title": "Guatemala ruft Katastrophenfall aus", "url": "https://www.tagesschau.de/ausland/guatemala-waldbraende-100.html", "thumbnailUrl": "https://images.tagesschau.de/image/3ef6a5e9-ccd5-45e9-8b60-11665e941ec0/AAABjsvJ71w/AAABjcWesUg/16x9-512.jpg", "date": "2024-04-11T08:13:12.975+02:00", "lat": 15.7835, "lon": -90.2308, "intensity": 0.8, "source": "Tagesschau"}, {"title": "Geld f\u00fcr Naturschutz: Braunschweig erh\u00e4lt f\u00fcnf Millionen Euro", "url": "https://www.tagesschau.de/inland/regional/niedersachsen/ndr-geld-fuer-naturschutz-braunschweig-erhaelt-fuenf-millionen-euro-100.html", "thumbnailUrl": "https://images.tagesschau.de/image/6507a511-f5e5-4634-a89d-ae259330d422/AAABjsvzgco/AAABjcWesUg/16x9-512.jpg", "date": "2024-04-11T08:07:00.000+02:00", "lat": 52.268911, "lon": 10.52677, "intensity": 0.8, "source": "Tagesschau"}, {"title": "4,8 Millionen Euro f\u00fcr Moore: Emsland erh\u00e4lt Bundesf\u00f6rderung", "url": "https://www.tagesschau.de/inland/regional/niedersachsen/ndr-48-millionen-euro-fuer-moore-emsland-erhaelt-bundesfoerderung-100.html", "thumbnailUrl": "https://images.tagesschau.de/image/7a2b6046-eae5-4750-9305-b3dd7b3cbfe4/AAABjswCTPg/AAABjcWesUg/16x9-512.jpg", "date": "2024-04-11T08:04:00.000+02:00", "lat": 52.7355, "lon": 7.3207, "intensity": 0.8, "source": "Tagesschau"}, {"title": "Was sich in der Parkinson-Forschung tut", "url": "https://www.tagesschau.de/wissen/gesundheit/welt-parkinson-tag-100.html", "thumbnailUrl": "https://images.tagesschau.de/image/c0761502-bb7e-4a8d-b115-0b26e93dc855/AAABjsdEJAw/AAABjcWesUg/16x9-512.jpg", "date": "2024-04-11T08:03:23.126+02:00", "lat": 51.4577, "lon": 9.9876, "intensity": 0.7, "source": "Tagesschau"}, {"title": "90.000 Dateien Kinderpornografie: Mann in Hannover vor Gericht", "url": "https://www.tagesschau.de/inland/regional/niedersachsen/ndr-90-000-dateien-kinderpornografie-mann-in-hannover-vor-gericht-100.html", "thumbnailUrl": "https://images.tagesschau.de/image/0c3a03c5-08dc-4e7f-96b5-6723e67b679b/AAABjsvLM5Q/AAABjcWesUg/16x9-512.jpg", "date": "2024-04-11T07:45:00.000+02:00", "lat": 52.3759, "lon": 9.732, "intensity": 0.8, "source": "Tagesschau"},