[{"title": "++ Tote bei Angriffen auf Rafah ++", "url": "https://www.tagesschau.de/newsticker/liveblog-nahost-dienstag-134.html", "thumbnailUrl": "https://images.tagesschau.de/image/af01d046-dc7b-41aa-9118-a72b2d606be5/AAABj1Bufpw/AAABjwnlKNc/16x9-512.jpg", "date": "2024-05-07T03:14:14.827+02:00", "lat": 31.2682, "lon": 34.2549, "intensity": 0.8, "source": "Tagesschau"}, {"title": "EU warnt vor \"mehr Krieg und Hungersnot\"", "url": "https://www.tagesschau.de/ausland/asien/israel-rafah-evakuierungen-102.html", "thumbnailUrl": "https://images.tagesschau.de/image/3c65bf37-709a-48ea-b848-1dcc7a38f31b/AAABj040yRE/AAABjwnlKNc/16x9-512.jpg", "date": "2024-05-07T02:28:07.529+02:00", "lat": 31.461101, "lon": 34.331205, "intensity": 0.8, "source": "Tagesschau"}, {"title": "Starkregen verursacht \u00dcberflutungen und Unf\u00e4lle", "url": "https://www.tagesschau.de/inland/regional/nordrheinwestfalen/wdr-wetter-in-nrw-starkregen-am-abend--etwas-sonne-am-feiertag-100.html", "thumbnailUrl": "https://images.tagesschau.de/image/b20bc801-ef97-41e9-8474-4169ab0db0cd/AAABj1CfL90/AAABjwnlKNc/16x9-512.jpg", "date": "2024-05-07T02:07:00.000+02:00", "lat": 51.4818, "lon": 7.6261, "intensity": 0.8, "source": "Tagesschau"}, {"title": "Hamas stimmt Vorschlag f\u00fcr Feuerpause zu ", "url": "https://www.tagesschau.de/eilmeldung/hamas-feuerpause-gazakrieg-100.html", "thumbnailUrl": "https://images.tagesschau.de/image/bd1a2bfd-946f-4401-a4da-3e5b2b53c8a1/AAABj07xDls/AAABjwnlKNc/16x9-512.jpg", "date": "2024-05-07T01:38:20.344+02:00", "lat": 31.7683, "lon": 35.2137, "intensity": 0.8, "source": "Tagesschau"}, {"title": "++ Moskau droht mit Angriff auf britische Milit\u00e4rziele ++", "url": "https://www.tagesschau.de/newsticker/liveblog-ukraine-montag-366.html", "thumbnailUrl": "https://images.tagesschau.de/image/c0a2af44-eafd-4544-8c94-c4e54945d807/AAABj05PItQ/AAABjwnlKNc/16x9-512.jpg", "date": "2024-05-07T00:19:41.488+02:00", "lat": 55.7558, "lon": 37.6176, "intensity": 0.8, "source": "Tagesschau"}, {"title": "++ Israel greift Ziele in Rafah an ++", "url": "https://www.tagesschau.de/newsticker/liveblog-nahost-montag-136.html", "thumbnailUrl": "https://images.tagesschau.de/image/5d4d40a9-b495-4d64-a7f8-10607648bf30/AAABj09t9uc/AAABjwnlKNc/16x9-512.jpg", "date": "2024-05-07T00:19:01.850+02:00", "lat": 31.4167, "lon": 34.25, "intensity": 0.8, "source": "Tagesschau"}, {"title": "Lufthansa-Maschine auf dem Weg nach Frankfurt wegen ungew\u00f6hnlichem Geruch in Stuttgart gelandet", "url": "https://www.tagesschau.de/inland/regional/badenwuerttemberg/swr-lufthansa-maschine-auf-dem-weg-nach-frankfurt-wegen-ungewoehnlichem-geruch-in-stuttgart-gelandet-100.html", "thumbnailUrl": "https://images.tagesschau.de/image/368dce1e-2b33-4f8b-8781-ef3daa5b0e31/AAABj0-8JL4/AAABjwnlKNc/16x9-512.jpg", "date": "2024-05-07T00:03:00.000+02:00", "lat": 48.7758, "lon": 9.1829, "intensity": 0.6, "source": "Tagesschau"}, {"title": "Innenminister tagen bei Hafen-Sicherheitskonferenz in Hamburg", "url": "https://www.tagesschau.de/inland/regional/hamburg/ndr-vor-hafen-sicherheitskonferenz-was-kriminalbeamte-fordern-100.html", "thumbnailUrl": "https://images.tagesschau.de/image/0718a3de-57ae-43ae-a643-b8822e49bde7/AAABj09ezAc/AAABjwnlKNc/16x9-512.jpg", "date": "2024-05-07T00:01:00.000+02:00", "lat": 53.5511, "lon": 9.9937, "intensity": 0.8, "source": "Tagesschau"}, {"title": "Kommunale Kraftanstrengung: Krankenhaus in Bingen soll gerettet werden", "url": "https://www.tagesschau.de/inland/regional/rheinlandpfalz/swr-kommunale-kraftanstrengung-krankenhaus-in-bingen-soll-gerettet-werden-100.html", "thumbnailUrl": "https://images.tagesschau.de/image/b396e6f4-ecc3-409e-a001-9a6e1d630cce/AAABj0_K0oo/AAABjwnlKNc/16x9-512.jpg", "date": "2024-05-06T23:20:24.000+02:00", "lat": 49.965, "lon": 7.8749, "intensity": 0.6, "source": "Tagesschau"}, {"title": "Hamburger Segler Boris Herrmann wird Zweiter bei Transat CIC", "url": "https://www.tagesschau.de/inland/regional/hamburg/ndr-hamburger-segler-boris-herrmann-wird-zweiter-bei-transat-cic-100.html", "thumbnailUrl": "https://images.tagesschau.de/image/dd031c01-0b61-4374-9023-1bd52f0d0769/AAABj0-xMQ0/AAABjwnlKNc/16x9-512.jpg", "date": "2024-05-06T22:51:00.000+02:00", "lat": 40.7127837, "lon": -74.0059413, "intensity": 0.8, "source": "Tagesschau"}, {"title": "Blindg\u00e4nger in Osnabr\u00fcck: 2.600 Menschen vor Evakuierung", "url": "https://www.tagesschau.de/inland/regional/niedersachsen/ndr-blindgaenger-in-osnabrueck-2-600-menschen-vor-evakuierung-100.html", "thumbnailUrl": "https://images.tagesschau.de/image/9c2da9c4-8883-47aa-a17e-743f74829ead/AAABj08y8nE/AAABjwnlKNc/16x9-512.jpg", "date": "2024-05-06T22:43:00.000+02:00", "lat": 52.2799, "lon": 8.0476, "intensity": 0.7, "source": "Tagesschau"}, {"title": "Zinshoffnungen halten an", "url": "https://www.tagesschau.de/wirtschaft/finanzen/marktberichte/marktbericht-dax-kurse-18000-punkte-dow-geldanlage-gold-oel-warren-buffett-100.html", "thumbnailUrl": "https://images.tagesschau.de/image/20f19d66-087f-4da8-abad-d0b17e419ccf/AAABjLTitZ0/AAABjwnlKNc/16x9-512.jpg", "date": "2024-05-06T22:23:35.996+02:00", "lat": 53.551086, "lon": 9.993682, "intensity": 0.3, "source": "Tagesschau"}, {"title": "CDU-Bundesparteitag: Breite Zustimmung f\u00fcr Merz - auch aus RLP", "url": "https://www.tagesschau.de/inland/regional/rheinlandpfalz/swr-cdu-bundesparteitag-breite-zustimmung-fuer-merz-auch-aus-rlp-102.html", "thumbnailUrl": "https://images.tagesschau.de/image/a3c1c66d-b0d0-42ec-a1a3-cd85c58514e4/AAABj0-bNAE/AAABjwnlKNc/16x9-512.jpg", "date": "2024-05-06T22:16:48.000+02:00", "lat": 49.748, "lon": 8.273, "intensity": 0.8, "source": "Tagesschau"}, {"title": "Nach Feuer in Rendsburg: Z\u00fcge rollen wieder \u00fcber Hochbr\u00fccke", "url": "https://www.tagesschau.de/inland/regional/schleswigholstein/ndr-rendsburg-feuer-in-lagerhalle-sorgt-fuer-zugausfaelle-100.html", "thumbnailUrl": "https://images.tagesschau.de/image/d4a99fdf-d7d7-4841-827f-9dffdbf8c825/AAABj0-I9YE/AAABjwnlKNc/16x9-512.jpg", "date": "2024-05-06T22:09:00.000+02:00", "lat": 54.2994, "lon": 9.6667, "intensity": 0.6, "source": "Tagesschau"}, {"title": "Politveteran Sanders tritt noch mal f\u00fcr US-Senat an", "url": "https://www.tagesschau.de/ausland/amerika/bernie-sanders-kandidatur-100.html", "thumbnailUrl": "https://images.tagesschau.de/image/e5e96099-012c-4d2f-a5b5-9e956373bd84/AAABj09sPDw/AAABjwnlKNc/16x9-512.jpg", "date": "2024-05-06T21:59:11.058+02:00", "lat": 42.3601, "lon": -73.7772, "intensity": 0.8, "source": "Tagesschau"}, {"title": "Gewalt gegen Politiker: Behrens zeigt sich besorgt", "url": "https://www.tagesschau.de/inland/regional/niedersachsen/ndr-gewalt-gegen-politiker-behrens-zeigt-sich-besorgt-100.html", "thumbnailUrl": "https://images.tagesschau.de/image/512a06ba-bf28-4bd5-8511-1642f9fbd980/AAABj094dAU/AAABjwnlKNc/16x9-512.jpg", "date": "2024-05-06T21:51:00.000+02:00", "lat": 52.3759, "lon": 9.8547, "intensity": 0.7, "source": "Tagesschau"}, {"title": "\"Ich w\u00e4hle euch nicht, aber es ist wichtig, dass ihr hier steht\"", "url": "https://www.tagesschau.de/inland/regional/nordrheinwestfalen/wdr-ich-waehle-euch-nicht-aber-es-ist-wichtig-dass-ihr-hier-steht-100.html", "thumbnailUrl": "https://images.tagesschau.de/image/d59a6097-7b2b-4189-8ef3-ca0de79fea09/AAABj0-I34I/AAABjwnlKNc/16x9-512.jpg", "date": "2024-05-06T21:39:00.000+02:00", "lat": 51.9607, "lon": 7.6261, "intensity": 0.8, "source": "Tagesschau"}, {"title": "Mann in Berlin-Spandau erschossen - T\u00e4ter fl\u00fcchtig", "url": "https://www.tagesschau.de/inland/regional/berlin/rbb-eine-person-auf-offener-strasse-in-berlin-spandau-erschossen-100.html", "thumbnailUrl": "https://images.tagesschau.de/image/354c17c1-7dc8-4075-acc7-a1dee9b74f3f/AAABj09Xd-E/AAABjwnlKNc/16x9-512.jpg", "date": "2024-05-06T21:16:15.000+02:00", "lat": 52.537916, "lon": 13.199518, "intensity": 0.8, "source": "Tagesschau"}, {"title": "Geburtshilfe am Krankenhaus Frankfurt-Sachsenhausen schlie\u00dft nach fast 100 Jahren", "url": "https://www.tagesschau.de/inland/regional/hessen/hr-geburtshilfe-am-krankenhaus-frankfurt-sachsenhausen-schliesst-nach-fast-100-jahren-100.html", "thumbnailUrl": "https://images.tagesschau.de/image/c4a91902-9a08-471a-908b-6ce644541231/AAABj09QIag/AAABjwnlKNc/16x9-512.jpg", "date": "2024-05-06T21:09:24.266+02:00", "lat": 50.0956, "lon": 8.7036, "intensity": 0.8, "source": "Tagesschau"}, {"title": "Pilotprojekt: Hamburg stellt neue Fahrradboxen auf", "url": "https://www.tagesschau.de/inland/regional/hamburg/ndr-pilotprojekt-hamburg-stellt-neue-fahrradboxen-auf-100.html", "thumbnailUrl": "https://images.tagesschau.de/image/81decb83-fa54-403d-b527-f3a41727fe6e/AAABj01nPuY/AAABjwnlKNc/16x9-512.jpg", "date": "2024-05-06T21:02:00.000+02:00", "lat": 53.5511, "lon": 9.9937, "intensity": 0.5, "source": "Tagesschau"}, {"title": "Brutaler Angriff auf SPD-Politiker Ecke: Innenminister Poseck warnt vor Gewaltspirale", "url": "https://www.tagesschau.de/inland/regional/hessen/hr-brutaler-angriff-auf-spd-politiker-ecke-hessischer-innenminister-warnt-vor-gewaltspirale-100.html", "thumbnailUrl": "https://images.tagesschau.de/image/b1c41f5d-7639-41da-a510-3bca0bcf5705/AAABj09DT6k/AAABjwnlKNc/16x9-512.jpg", "date": "2024-05-06T20:54:50.450+02:00", "lat": 50.6403, "lon": 9.6756, "intensity": 0.8, "source": "Tagesschau"}, {"title": "129 Tage als Geisel im Gazastreifen", "url": "https://www.tagesschau.de/ausland/asien/israel-geisel-hamas-100.html", "thumbnailUrl": "https://images.tagesschau.de/image/e9b9f8db-43e2-4e0e-87ac-5db8dc0156e6/AAABj01oSUg/AAABjwnlKNc/16x9-512.jpg", "date": "2024-05-06T20:49:37.973+02:00", "lat": 31.5107, "lon": 34.3953, "intensity": 0.8, "source": "Tagesschau"}, {"title": "Hamburg: Bauarbeiten f\u00fcr Projekt \"Neues Amt Altona\" starten", "url": "https://www.tagesschau.de/inland/regional/hamburg/ndr-hamburg-bauarbeiten-fuer-projekt-neues-amt-altona-starten-100.html", "thumbnailUrl": "https://images.tagesschau.de/image/99656390-0801-40ce-b7cd-89597965aea7/AAABj044B98/AAABjwnlKNc/16x9-512.jpg", "date": "2024-05-06T20:48:00.000+02:00", "lat": 53.5511, "lon": 9.9823, "intensity": 0.6, "source": "Tagesschau"}, {"title": "Himmelfahrt: ADAC rechnet mit vielen Staus am Mittwoch", "url": "https://www.tagesschau.de/inland/regional/niedersachsen/ndr-himmelfahrt-adac-rechnet-mit-vielen-staus-am-mittwoch-100.html", "thumbnailUrl": "https://images.tagesschau.de/image/400203cc-141a-47b4-9175-f7ad8fb15844/AAABj09FKss/AAABjwnlKNc/16x9-512.jpg", "date": "2024-05-06T20:45:00.000+02:00", "lat": 52.6367, "lon": 10.3819, "intensity": 0.8, "source": "Tagesschau"}, {"title": "A1 bei Kamen bis Dienstagmittag gesperrt", "url": "https://www.tagesschau.de/inland/regional/nordrheinwestfalen/wdr-a1-zwischen-kamen-und-unna-nach-lkw-unfall-gesperrt-100.html", "thumbnailUrl": "https://images.tagesschau.de/image/448e4dd7-158f-4d49-b701-5e7a6f4a9e1b/AAABj09Mfxk/AAABjwnlKNc/16x9-512.jpg", "date": "2024-05-06T20:19:00.000+02:00", "lat": 51.5892, "lon": 7.6583, "intensity": 0.8, "source": "Tagesschau"}, {"title": "Pistorius: Angriffe auf Politiker gro\u00dfe Gefahr f\u00fcr Demokratie", "url": "https://www.tagesschau.de/inland/regional/hamburg/ndr-pistorius-angriffe-auf-politiker-grosse-gefahr-fuer-demokratie-100.html", "thumbnailUrl": "https://images.tagesschau.de/image/9e5260ef-2227-4fc8-a0cc-a8ae1d3336d8/AAABj094euA/AAABjwnlKNc/16x9-512.jpg", "date": "2024-05-06T20:17:00.000+02:00", "lat": 53.5511, "lon": 9.9937, "intensity": 0.8, "source": "Tagesschau"}, {"title": "Krankenhausreform: Brandenburg dringt auf mehr Sicherheit f\u00fcr Kliniken", "url": "https://www.tagesschau.de/inland/regional/brandenburg/rbb-krankenhausreform-brandenburg-dringt-auf-mehr-sicherheit-fuer-kliniken-100.html", "thumbnailUrl": "https://images.tagesschau.de/image/b00501f5-94d5-48a7-a969-c553873fc7bb/AAABj08ex5A/AAABjwnlKNc/16x9-512.jpg", "date": "2024-05-06T20:12:27.000+02:00", "lat": 52.3003, "lon": 13.0583, "intensity": 0.8, "source": "Tagesschau"}, {"title": "Es soll um 500 Millionen Euro gehen: Erwin M\u00fcllers Adoptivkinder klagen auf Erbe ", "url": "https://www.tagesschau.de/inland/regional/badenwuerttemberg/swr-erwin-muellers-adoptivkinder-klagen-auf-erbe-100.html", "thumbnailUrl": "https://images.tagesschau.de/image/0240af6d-5b98-4c57-825b-25480cac6b50/AAABj07ga9M/AAABjwnlKNc/16x9-512.jpg", "date": "2024-05-06T20:11:00.000+02:00", "lat": 48.4011, "lon": 10.1228, "intensity": 0.8, "source": "Tagesschau"}, {"title": "Wetterlage und Temperaturen", "url": "https://www.tagesschau.de/wetter/europa-welt", "thumbnailUrl": "https://images.tagesschau.de/image/6e7d3b16-79c8-4308-822b-20c3035236b5/AAABj08Di3E/AAABjwnlKNc/16x9-512.jpg", "date": "2024-05-06T19:51:12.643+02:00", "lat": 51.1657, "lon": 10.4515, "intensity": 0.3, "source": "Tagesschau"}, {"title": "Kommunal- und Europawahlen: Wie w\u00e4hle ich eigentlich per Briefwahl? ", "url": "https://www.tagesschau.de/inland/regional/saarland/sr-kommunal-und-europawahlen-wie-waehle-ich-eigentlich-per-briefwahl-100.html", "thumbnailUrl": "https://images.tagesschau.de/image/8acc276e-bfa3-4c69-8ce5-3c64bdf2520c/AAABj08G3RA/AAABjwnlKNc/16x9-512.jpg", "date": "2024-05-06T19:48:00.000+02:00", "lat": 49.3964, "lon": 6.9919, "intensity": 0.5, "source": "Tagesschau"}, {"title": "Nektar statt Saft - Verbrauchersch\u00fctzer kritisieren Eckes-Granini", "url": "https://www.tagesschau.de/inland/regional/rheinlandpfalz/swr-nektar-statt-saft-verbraucherschuetzer-kritisieren-eckes-granini-100.html", "thumbnailUrl": "https://images.tagesschau.de/image/4850d389-cd79-49b7-b25f-bfb1ad7368e1/AAABj08Bank/AAABjwnlKNc/16x9-512.jpg", "date": "2024-05-06T19:40:50.000+02:00", "lat": 49.96228, "lon": 8.27455, "intensity": 0.6, "source": "Tagesschau"}, {"title": "Viel Merz, viel Zuversicht", "url": "https://www.tagesschau.de/inland/innenpolitik/cdu-parteitag-merz-votum-100.html", "thumbnailUrl": "https://images.tagesschau.de/image/f3257d7e-98a5-4e92-8acb-ad9f3cfe891f/AAABj07WafA/AAABjwnlKNc/16x9-512.jpg", "date": "2024-05-06T19:36:25.781+02:00", "lat": 51.2267, "lon": 9.9937, "intensity": 0.8, "source": "Tagesschau"}, {"title": "M\u00e4rkisch-Oderland: Gr\u00fcne in Neuenhagen erhalten Geldspende f\u00fcr neue Plakate - von der FDP", "url": "https://www.tagesschau.de/inland/regional/brandenburg/rbb-maerkisch-oderland-gruene-in-neuenhagen-erhalten-geldspende-fuer-neue-plakate-von-der-fdp-100.html", "thumbnailUrl": "https://images.tagesschau.de/image/20f7821d-20ee-4037-ad77-33b8ee778179/AAABj072bpg/AAABjwnlKNc/16x9-512.jpg", "date": "2024-05-06T19:27:44.000+02:00", "lat": 52.5389, "lon": 13.6595, "intensity": 0.3, "source": "Tagesschau"}, {"title": "Nach Angriff auf SPD-Politiker: Parteien berichten von hoher Aggressivit\u00e4t gegen\u00fcber Wahlk\u00e4mpfern  ", "url": "https://www.tagesschau.de/inland/regional/brandenburg/rbb-nach-angriff-auf-spd-politiker-parteien-berichten-von-hoher-aggressivitaet-gegenueber-wahlkaempfern-100.html", "thumbnailUrl": "https://images.tagesschau.de/image/5dca226b-95b9-4516-ae5f-6b9a22b820c2/AAABj07y2hU/AAABjwnlKNc/16x9-512.jpg", "date": "2024-05-06T19:23:21.000+02:00", "lat": 52.502148, "lon": 13.737262, "intensity": 0.75, "source": "Tagesschau"}, {"title": "U2 und U4 in Hamburg: Sperrung f\u00fcr Teilst\u00fcck ist aufgehoben", "url": "https://www.tagesschau.de/inland/regional/hamburg/ndr-u2-und-u4-in-hamburg-sperrung-fuer-teilstueck-endet-am-montag-100.html", "thumbnailUrl": "https://images.tagesschau.de/image/cd402a16-bc99-4fc4-b4e2-d37286266a4b/AAABj07l89w/AAABjwnlKNc/16x9-512.jpg", "date": "2024-05-06T19:12:00.000+02:00", "lat": 53.548, "lon": 10.0573, "intensity": 0.8, "source": "Tagesschau"}, {"title": "Regionalliga Nordost: So kann Energie Cottbus den Drittliga-Aufstieg perfekt machen", "url": "https://www.tagesschau.de/inland/regional/brandenburg/rbb-regionalliga-nordost-so-kann-energie-cottbus-den-drittliga-aufstieg-perfekt-machen-102.html", "thumbnailUrl": "https://images.tagesschau.de/image/1ab30347-ca1c-46db-b744-387a6d6d440e/AAABj069plo/AAABjwnlKNc/16x9-512.jpg", "date": "2024-05-06T18:58:47.000+02:00", "lat": 51.769, "lon": 14.335, "intensity": 0.8, "source": "Tagesschau"}, {"title": "Frontalzusammensto\u00df in Geeste: Motorradfahrer in Lebensgefahr", "url": "https://www.tagesschau.de/inland/regional/niedersachsen/ndr-frontalzusammenstoss-in-geeste-motorradfahrer-in-lebensgefahr-100.html", "thumbnailUrl": "https://images.tagesschau.de/image/2e049779-ae1a-4f51-b027-8a30860b03ec/AAABj07a-j8/AAABjwnlKNc/16x9-512.jpg", "date": "2024-05-06T18:55:00.000+02:00", "lat": 52.7575, "lon": 7.3615, "intensity": 0.8, "source": "Tagesschau"}, {"title": "Darmstadt 98 darf mit U23 in der Hessenliga starten", "url": "https://www.tagesschau.de/inland/regional/hessen/hr-darmstadt-98-darf-mit-u23-in-der-hessenliga-starten-102.html", "thumbnailUrl": "https://images.tagesschau.de/image/cb32ba0c-be2a-423a-9597-4730cc8b0234/AAABj07VhHE/AAABjwnlKNc/16x9-512.jpg", "date": "2024-05-06T18:45:51.253+02:00", "lat": 49.8728, "lon": 8.6512, "intensity": 0.5, "source": "Tagesschau"}, {"title": "Merz als CDU-Chef wiedergew\u00e4hlt \u2013 mit rund 90 Prozent", "url": "https://www.tagesschau.de/inland/regional/nordrheinwestfalen/wdr-merz-als-cdu-chef-wiedergewaehlt--mit-rund-90-prozent-100.html", "thumbnailUrl": "https://images.tagesschau.de/image/5d7669bc-7cd6-49f1-a3f7-841c32e8a2d0/AAABj080opk/AAABjwnlKNc/16x9-512.jpg", "date": "2024-05-06T18:43:00.000+02:00", "lat": 52.520008, "lon": 13.404954, "intensity": 0.9, "source": "Tagesschau"}, {"title": "Anh\u00e4nger von \"Muslim Interaktiv\" planen neue Demo am Sonnabend ", "url": "https://www.tagesschau.de/inland/regional/hamburg/ndr-anhaenger-von-muslim-aktiv-planen-neue-demo-am-sonnabend-100.html", "thumbnailUrl": "https://images.tagesschau.de/image/0ab4ae20-9f3a-4a1e-9794-8945496eff65/AAABj05XIpw/AAABjwnlKNc/16x9-512.jpg", "date": "2024-05-06T18:42:00.000+02:00", "lat": 53.5511, "lon": 9.9937, "intensity": 0.8, "source": "Tagesschau"}, {"title": "Autofahrer in Berlin-Charlottenburg ausgeraubt: Zweiter tatverd\u00e4chtiger Polizist festgenommen", "url": "https://www.tagesschau.de/inland/regional/berlin/rbb-autofahrer-in-berlin-charlottenburg-ausgeraubt-zweiter-tatverdaechtiger-polizist-festgenommen-100.html", "thumbnailUrl": "https://images.tagesschau.de/image/260a335f-78b6-4bee-9e5d-2c812a271d40/AAABj07G02c/AAABjwnlKNc/16x9-512.jpg", "date": "2024-05-06T18:36:15.000+02:00", "lat": 52.5166, "lon": 13.3047, "intensity": 0.7, "source": "Tagesschau"}, {"title": "Hochschulen in Hessen: Landesregierung beschr\u00e4nkt Genderverbot an Unis auf Verwaltung", "url": "https://www.tagesschau.de/inland/regional/hessen/hr-hochschulen-in-hessen-landesregierung-beschraenkt-genderverbot-an-unis-auf-verwaltung-100.html", "thumbnailUrl": "https://images.tagesschau.de/image/d98b038d-279c-434e-981b-fae706c94fd4/AAABj08mC68/AAABjwnlKNc/16x9-512.jpg", "date": "2024-05-06T18:36:02.064+02:00", "lat": 50.8083, "lon": 9.1625, "intensity": 0.4, "source": "Tagesschau"}, {"title": "Schl\u00e4ge bei Jugendfu\u00dfball: NFV nennt Eskalation inakzeptabel", "url": "https://www.tagesschau.de/inland/regional/niedersachsen/ndr-eskalation-beim-jugendfussball-vater-schlaegt-nach-foul-zu-100.html", "thumbnailUrl": "https://images.tagesschau.de/image/d523a485-b952-44f0-a177-392a860d2fee/AAABj07Ipms/AAABjwnlKNc/16x9-512.jpg", "date": "2024-05-06T18:36:00.000+02:00", "lat": 52.3095, "lon": 9.4471, "intensity": 0.8, "source": "Tagesschau"}, {"title": "Darmstadt 98: +++ Lilien d\u00fcrfen Hessenliga spielen +++ Leihspieler kehren nicht zur\u00fcck +++ Honsak verl\u00e4sst die Lilien +++", "url": "https://www.tagesschau.de/inland/regional/hessen/hr--tietz-vermisst-fehlende-gier--lilien-fans-liefern-sich-raststaetten-pruegelei--die-niederlage-der-lilien-in-der-video-zusammenfassung-102.html", "thumbnailUrl": "https://images.tagesschau.de/image/f3f618e2-f08f-4c98-bf8b-6368112877c1/AAABj06yx0Q/AAABjwnlKNc/16x9-512.jpg", "date": "2024-05-06T18:17:27.138+02:00", "lat": 49.8717, "lon": 8.6553, "intensity": 0.5, "source": "Tagesschau"}, {"title": "Hobbyfotograf aus Grenztalmoor gerettet", "url": "https://www.tagesschau.de/inland/regional/mecklenburgvorpommern/ndr-hobbyfotograf-aus-grenztalmoor-gerettet-100.html", "thumbnailUrl": "https://images.tagesschau.de/image/f8875de9-2bd1-43ab-a5fa-7d2065d4aee7/AAABj08w-rk/AAABjwnlKNc/16x9-512.jpg", "date": "2024-05-06T18:10:00.000+02:00", "lat": 54.0645, "lon": 12.8678, "intensity": 0.8, "source": "Tagesschau"}, {"title": "Scharfe Kritik von Stiftung Denkmalschutz wegen Saarbr\u00fccker Finanzamt", "url": "https://www.tagesschau.de/inland/regional/saarland/sr-scharfe-kritik-von-stiftung-denkmalschutz-wegen-saarbruecker-finanzamt-100.html", "thumbnailUrl": "https://images.tagesschau.de/image/7526d952-285e-4a05-bcc5-c8bf2466e07d/AAABj06zJD0/AAABjwnlKNc/16x9-512.jpg", "date": "2024-05-06T18:09:00.000+02:00", "lat": 49.2334, "lon": 6.9798, "intensity": 0.8, "source": "Tagesschau"}, {"title": "Mutma\u00dflicher Sexualstraft\u00e4ter von Sinnerthal kommt wohl in Psychiatrie", "url": "https://www.tagesschau.de/inland/regional/saarland/sr-mutmasslicher-sexualstraftaeter-von-sinnerthal-kommt-wohl-in-psychiatrie-102.html", "thumbnailUrl": "https://images.tagesschau.de/image/f9e1b562-b597-4dd2-81ec-7afcb36572df/AAABj06ypEY/AAABjwnlKNc/16x9-512.jpg", "date": "2024-05-06T18:07:00.000+02:00", "lat": 49.4143, "lon": 7.139, "intensity": 0.7, "source": "Tagesschau"}, {"title": "Wagenbauer Tilly pr\u00e4sentiert neue Putin-Protestfigur", "url": "https://www.tagesschau.de/inland/regional/nordrheinwestfalen/wdr-wagenbauer-tilly-praesentiert-neue-putin-protestfigur-100.html", "thumbnailUrl": "https://images.tagesschau.de/image/fc55b021-f440-43c4-910d-7b787d91c70b/AAABj06wzVE/AAABjwnlKNc/16x9-512.jpg", "date": "2024-05-06T18:02:00.000+02:00", "lat": 52.070498, "lon": 4.3007, "intensity": 0.7, "source": "Tagesschau"}, {"title": "Ostseek\u00fcste in SH ist die beliebteste Campingregion in Deutschland", "url": "https://www.tagesschau.de/inland/regional/schleswigholstein/ndr-die-ostsee-ist-die-beliebteste-campingregion-in-deutschland-100.html", "thumbnailUrl": "https://images.tagesschau.de/image/add5e5d8-1aac-4e45-abc0-f7c9020de780/AAABj064MVA/AAABjwnlKNc/16x9-512.jpg", "date": "2024-05-06T18:02:00.000+02:00", "lat": 54.4727, "lon": 10.3833, "intensity": 0.7, "source": "Tagesschau"}, {"title": "Verdi k\u00fcndigt erneute Streiks bei der Telekom an", "url": "https://www.tagesschau.de/inland/regional/saarland/sr-verdi-kuendigt-erneute-streiks-bei-der-telekom-an-100.html", "thumbnailUrl": "https://images.tagesschau.de/image/7cc4ba3a-b1cb-453b-a5ae-b6ce915ca11a/AAABj0wx86c/AAABjwnlKNc/16x9-512.jpg", "date": "2024-05-06T18:01:00.000+02:00", "lat": 49.4, "lon": 7.0, "intensity": 0.8, "source": "Tagesschau"}, {"title": "DRK-Kreisverband Kiel er\u00f6ffnet Second-Hand-Laden f\u00fcr junge Familien", "url": "https://www.tagesschau.de/inland/regional/schleswigholstein/ndr-drk-kreisverband-kiel-eroeffnet-second-hand-laden-fuer-junge-familien-100.html", "thumbnailUrl": "https://images.tagesschau.de/image/a373c53f-c6a3-4377-a756-d873a96ead76/AAABj06n3PI/AAABjwnlKNc/16x9-512.jpg", "date": "2024-05-06T17:58:00.000+02:00", "lat": 54.3233, "lon": 10.1285, "intensity": 0.4, "source": "Tagesschau"}, {"title": "Unbekannte koppeln in Bahnhof 19 Waggons von G\u00fcterzug ab", "url": "https://www.tagesschau.de/inland/regional/niedersachsen/ndr-unbekannte-koppeln-in-bahnhof-19-waggons-von-gueterzug-ab-100.html", "thumbnailUrl": "https://images.tagesschau.de/image/4ab8f9e0-ec50-4f20-9a0b-7c594137d4c1/AAABj06iNs8/AAABjwnlKNc/16x9-512.jpg", "date": "2024-05-06T17:56:00.000+02:00", "lat": 52.3759, "lon": 9.7402, "intensity": 0.8, "source": "Tagesschau"}, {"title": "Gestohlene Alpakas: \"Kaja\", \"Flocke\" und \"Bella\" sind wieder da", "url": "https://www.tagesschau.de/inland/regional/niedersachsen/ndr-ueber-den-zaun-gehoben-diebe-stehlen-alpakas-aus-freizeitpark-100.html", "thumbnailUrl": "https://images.tagesschau.de/image/3fd0d4a3-81c1-44a6-8bca-b4bb32ea592a/AAABj0zU3Qk/AAABjwnlKNc/16x9-512.jpg", "date": "2024-05-06T17:55:00.000+02:00", "lat": 51.8036, "lon": 9.8807, "intensity": 0.7, "source": "Tagesschau"}, {"title": "Prozess um Prinz-Reu\u00df-Gruppe: Angeklagter distanziert sich von \"Reichsb\u00fcrgern\"", "url": "https://www.tagesschau.de/inland/regional/badenwuerttemberg/swr-prozess-um-prinz-reuss-gruppe-angeklagter-distanziert-sich-von-reichsbuergern-100.html", "thumbnailUrl": "https://images.tagesschau.de/image/5054a758-197f-43ce-9474-b3ee6b03a2fd/AAABj06l5UY/AAABjwnlKNc/16x9-512.jpg", "date": "2024-05-06T17:47:38.000+02:00", "lat": 48.9503, "lon": 8.4085, "intensity": 0.5, "source": "Tagesschau"}, {"title": "CDU-Chef Merz mit knapp 90 Prozent wiedergew\u00e4hlt", "url": "https://www.tagesschau.de/eilmeldung/merz-vorsitzender-wahl-100.html", "thumbnailUrl": "https://images.tagesschau.de/image/3be11366-750b-4ae5-a6d5-d6164f412f53/AAABj05cWEc/AAABjwnlKNc/16x9-512.jpg", "date": "2024-05-06T17:46:06.523+02:00", "lat": 51.227741, "lon": 7.588576, "intensity": 0.7, "source": "Tagesschau"}, {"title": "J\u00fcdinnen und Juden erinnern an Holocaust-Opfer", "url": "https://www.tagesschau.de/ausland/europa/polen-gedenktstaette-auschwitz-100.html", "thumbnailUrl": "https://images.tagesschau.de/image/74ce6ab1-70ae-4b91-b4b4-914b07d9e48e/AAABj06VEW8/AAABjwnlKNc/16x9-512.jpg", "date": "2024-05-06T17:45:43.544+02:00", "lat": 50.0345, "lon": 19.2003, "intensity": 0.8, "source": "Tagesschau"}, {"title": "Mit Storchenbaby verwechselt: Sorge um Taubenbaby aus Sulz ", "url": "https://www.tagesschau.de/inland/regional/badenwuerttemberg/swr-mit-storchenbaby-verwechselt-sorge-um-taubenbaby-aus-sulz-100.html", "thumbnailUrl": "https://images.tagesschau.de/image/582b3151-fc6c-44f9-860a-cded5048e0e5/AAABj07KeBA/AAABjwnlKNc/16x9-512.jpg", "date": "2024-05-06T17:45:41.000+02:00", "lat": 48.3668, "lon": 9.0498, "intensity": 0.2, "source": "Tagesschau"}, {"title": "Statt Rheins Hessengeld: Gr\u00fcne wollen verbilligte Kredite f\u00fcr Hausk\u00e4ufer", "url": "https://www.tagesschau.de/inland/regional/hessen/hr-statt-rheins-hessengeld-gruene-wollen-verbilligte-kredite-fuer-hauskaeufer-100.html", "thumbnailUrl": "https://images.tagesschau.de/image/3f41f780-a482-4542-b0d0-7f6a17fe594d/AAABj06ZQJM/AAABjwnlKNc/16x9-512.jpg", "date": "2024-05-06T17:37:48.186+02:00", "lat": 50.9422, "lon": 9.1625, "intensity": 0.8, "source": "Tagesschau"}, {"title": "Zwei Verd\u00e4chtige stellen sich nach t\u00f6dlicher Attacke in Paderborn", "url": "https://www.tagesschau.de/inland/regional/nordrheinwestfalen/wdr-attacke-vor-kiosk-in-paderborn-30-jaehriger-gestorben-100.html", "thumbnailUrl": "https://images.tagesschau.de/image/5c459702-6e98-4d93-b7d2-14a7e1513ae1/AAABj06ZGQI/AAABjwnlKNc/16x9-512.jpg", "date": "2024-05-06T17:28:00.000+02:00", "lat": 51.717, "lon": 8.755, "intensity": 0.8, "source": "Tagesschau"}, {"title": "Deutsche Bahn sperrt ICE-Strecke zwischen Frankfurt und K\u00f6ln einen Monat lang", "url": "https://www.tagesschau.de/inland/regional/hessen/hr-ice-strecke-zwischen-frankfurt-und-koeln-einen-monat-gesperrt-100.html", "thumbnailUrl": "https://images.tagesschau.de/image/29904fb8-b64d-4107-a5a3-b366e9beabb5/AAABj06ZWeU/AAABjwnlKNc/16x9-512.jpg", "date": "2024-05-06T17:22:38.953+02:00", "lat": 50.1109, "lon": 8.6821, "intensity": 0.8, "source": "Tagesschau"}, {"title": "Leere Kassen: Kommunen in BW drohen Land mit Klage ", "url": "https://www.tagesschau.de/inland/regional/badenwuerttemberg/swr-kommunen-in-bw-drohen-land-mit-klage-100.html", "thumbnailUrl": "https://images.tagesschau.de/image/b65b3c65-bf03-4773-a53b-0295ed9914b4/AAABj0554do/AAABjwnlKNc/16x9-512.jpg", "date": "2024-05-06T17:13:00.000+02:00", "lat": 48.742, "lon": 9.498, "intensity": 0.8, "source": "Tagesschau"}, {"title": "Wom\u00f6glich Fall von K.o.-Tropfen bei Heimspiel des FCK", "url": "https://www.tagesschau.de/inland/regional/rheinlandpfalz/swr-womoeglich-fall-von-k-o-tropfen-bei-heimspiel-des-fck-100.html", "thumbnailUrl": "https://images.tagesschau.de/image/4084da16-5565-4289-b9db-a774d1a56462/AAABj056A1A/AAABjwnlKNc/16x9-512.jpg", "date": "2024-05-06T16:57:58.000+02:00", "lat": 49.4431, "lon": 7.755, "intensity": 0.7, "source": "Tagesschau"}, {"title": "Feuerwehr erneut im L\u00f6scheinsatz bei Fabrikhalle in Berlin-Lichterfelde", "url": "https://www.tagesschau.de/inland/regional/berlin/rbb-feuerwehr-erneut-im-loescheinsatz-bei-fabrikhalle-in-berlin-lichterfelde-102.html", "thumbnailUrl": "https://images.tagesschau.de/image/241dc604-f3d8-4297-8743-795124df0502/AAABj005fMo/AAABjwnlKNc/16x9-512.jpg", "date": "2024-05-06T16:53:17.000+02:00", "lat": 52.4456, "lon": 13.3316, "intensity": 0.8, "source": "Tagesschau"}, {"title": "Gep\u00e4ckanlage am Flughafen Hamburg l\u00e4uft wieder ", "url": "https://www.tagesschau.de/inland/regional/hamburg/ndr-gepaeckprobleme-am-hamburger-flughafen-reisende-brauchen-geduld-100.html", "thumbnailUrl": "https://images.tagesschau.de/image/92a13595-0723-42e6-8d97-ed38ee653085/AAABj09FMiY/AAABjwnlKNc/16x9-512.jpg", "date": "2024-05-06T16:49:00.000+02:00", "lat": 53.6309, "lon": 9.98822, "intensity": 0.6, "source": "Tagesschau"}, {"title": "Die Nelkenrevolution \u2013 von den Stra\u00dfen Lissabons bis nach Luxemburg ", "url": "https://www.tagesschau.de/inland/regional/saarland/sr-die-nelkenrevolution--von-den-strassen-lissabons-bis-nach-luxemburg-100.html", "thumbnailUrl": "https://images.tagesschau.de/image/021c4f60-493b-447f-b2fa-41bfcc81e676/AAABj067ySw/AAABjwnlKNc/16x9-512.jpg", "date": "2024-05-06T16:45:00.000+02:00", "lat": 49.4177, "lon": 9.1448, "intensity": 0.8, "source": "Tagesschau"}, {"title": "Bayern gehen die Tram- und Busfahrer aus: Was tun?", "url": "https://www.tagesschau.de/inland/regional/bayern/br-bayern-gehen-die-tram-und-busfahrer-aus-was-tun-102.html", "thumbnailUrl": "https://images.tagesschau.de/image/fe6bc9df-6903-4dae-af55-800a5e385c2e/AAABj05ZHFE/AAABjwnlKNc/16x9-512.jpg", "date": "2024-05-06T16:38:48.353+02:00", "lat": 48.1351, "lon": 11.582, "intensity": 0.8, "source": "Tagesschau"}, {"title": "Nach Sturz von Kindern durch Hallendach: Remshalden verspricht Aufarbeitung", "url": "https://www.tagesschau.de/inland/regional/badenwuerttemberg/swr-kinder-stuerzen-durch-hallendach-in-remshalden-mehrere-verletzte-100.html", "thumbnailUrl": "https://images.tagesschau.de/image/2c8febaa-7c67-450c-9c3b-8f736e2b47b4/AAABj05Y9PE/AAABjwnlKNc/16x9-512.jpg", "date": "2024-05-06T16:37:00.000+02:00", "lat": 48.822, "lon": 9.439, "intensity": 0.8, "source": "Tagesschau"}, {"title": "155 verletzte Polizisten: Innensenatorin verurteilt Vorf\u00e4lle beim Spiel BFC Dynamo gegen Energie Cottbus", "url": "https://www.tagesschau.de/inland/regional/berlin/rbb-155-verletzte-polizisten-innensenatorin-verurteilt-vorfaelle-beim-spiel-bfc-dynamo-gegen-energie-cottbus-102.html", "thumbnailUrl": "https://images.tagesschau.de/image/c6fb03d0-d05d-4755-ba48-578effacd83a/AAABj07y3Ko/AAABjwnlKNc/16x9-512.jpg", "date": "2024-05-06T16:28:53.000+02:00", "lat": 52.5192, "lon": 13.4314, "intensity": 0.8, "source": "Tagesschau"}, {"title": "EU droht China wegen Wettbewerbsverzerrung", "url": "https://www.tagesschau.de/ausland/xi-europa-macron-von-der-leyen-100.html", "thumbnailUrl": "https://images.tagesschau.de/image/7ffa1797-18aa-4356-b57a-fba66712f422/AAABj04tY8c/AAABjwnlKNc/16x9-512.jpg", "date": "2024-05-06T16:28:46.353+02:00", "lat": 39.9042, "lon": 116.4074, "intensity": 0.8, "source": "Tagesschau"}, {"title": "Politiker angegriffen - NRW-Parteien fordern mehr Schutz", "url": "https://www.tagesschau.de/inland/regional/nordrheinwestfalen/wdr-politiker-angegriffen-nrw-parteien-fordern-mehr-schutz-100.html", "thumbnailUrl": "https://images.tagesschau.de/image/d300db3b-b67d-499e-8760-efe76c5774ad/AAABj08Itrk/AAABjwnlKNc/16x9-512.jpg", "date": "2024-05-06T16:24:00.000+02:00", "lat": 51.4332, "lon": 9.6951, "intensity": 0.8, "source": "Tagesschau"}, {"title": "Kultur: +++ +++ Europa-Ausstellung mit guter Halbzeitbilanz +++ Stolperstein-Erfinder erh\u00e4lt Arnold-Bode-Preis +++ Eintritt zur Neuer\u00f6ffnung des Museums Reinhard Ernst frei +++", "url": "https://www.tagesschau.de/inland/regional/hessen/hr--schauspiel-frankfurt-bringt-putin-und-macbeth-zusammen--die-filmfestival-saison-2023-startet--lichter-filmfest-zum-thema-liebe-startet-am-dienstag-100.html", "thumbnailUrl": "https://images.tagesschau.de/image/a8d06555-ec05-4285-9cb3-e4286d609fde/AAABj05yqys/AAABjwnlKNc/16x9-512.jpg", "date": "2024-05-06T16:18:11.623+02:00", "lat": 50.1109, "lon": 8.5683, "intensity": 0.4, "source": "Tagesschau"}, {"title": "Magdeburg: Polizei ermittelt nach H\u00fcpfburg-Ungl\u00fcck gegen Betreiber", "url": "https://www.tagesschau.de/inland/regional/sachsenanhalt/mdr-magdeburg-huepfburg-in-die-elbe-geweht--mehrere-kinder-verletzt-100.html", "thumbnailUrl": "https://images.tagesschau.de/image/c0617929-2402-4d9b-9b34-e2db56958856/AAABj08gkOk/AAABjwnlKNc/16x9-512.jpg", "date": "2024-05-06T16:06:17.000+02:00", "lat": 52.1205, "lon": 11.6276, "intensity": 0.8, "source": "Tagesschau"}, {"title": "VfL Osnabr\u00fcck: Ob voll oder leer - das Millerntor wird zum Schicksal", "url": "https://www.tagesschau.de/inland/regional/hamburg/ndr-vfl-osnabrueck-ob-voll-oder-leer-das-millerntor-wird-zum-schicksal-106.html", "thumbnailUrl": "https://images.tagesschau.de/image/eb8a1447-3d50-4216-8093-082d282f7fe2/AAABj03VJ6M/AAABjwnlKNc/16x9-512.jpg", "date": "2024-05-06T16:05:00.000+02:00", "lat": 53.551, "lon": 9.976, "intensity": 0.8, "source": "Tagesschau"}, {"title": "Wahlplakate in Freiburg: Von aufget\u00fcrmt \u00fcber zerst\u00f6rt bis nicht geliefert", "url": "https://www.tagesschau.de/inland/regional/badenwuerttemberg/swr-wahlplakate-in-freiburg-von-aufgetuermt-ueber-zerstoert-bis-nicht-geliefert-100.html", "thumbnailUrl": "https://images.tagesschau.de/image/e2663aa1-f714-4bb1-a8bf-276122d9bfbb/AAABj04MAwQ/AAABjwnlKNc/16x9-512.jpg", "date": "2024-05-06T16:04:00.000+02:00", "lat": 47.996, "lon": 7.849, "intensity": 0.6, "source": "Tagesschau"}, {"title": "Falsch getrennt: \"Neckars-ulm\" l\u00f6st Diskussion auf Facebook aus", "url": "https://www.tagesschau.de/inland/regional/badenwuerttemberg/swr-falsch-getrennt-verkehrsschild-neckars-ulm-loest-auf-facebook-entruestung-aus-100.html", "thumbnailUrl": "https://images.tagesschau.de/image/b6861953-a70f-4c5e-8fee-31ad40fd397f/AAABj00LvC4/AAABjwnlKNc/16x9-512.jpg", "date": "2024-05-06T15:59:00.000+02:00", "lat": 49.1427, "lon": 9.2217, "intensity": 0.3, "source": "Tagesschau"}, {"title": "Lachgas am Snack-Automaten: Verkaufsort sorgt f\u00fcr \u00c4rger", "url": "https://www.tagesschau.de/inland/regional/niedersachsen/ndr-lachgas-am-snack-automaten-verkaufsort-sorgt-fuer-aerger-100.html", "thumbnailUrl": "https://images.tagesschau.de/image/0c028b13-7816-4063-9662-e6722df1db29/AAABj049imM/AAABjwnlKNc/16x9-512.jpg", "date": "2024-05-06T15:58:00.000+02:00", "lat": 52.4775, "lon": 10.5506, "intensity": 0.7, "source": "Tagesschau"}, {"title": "Rassistische Beleidigung: Linken-Politikerin Senli in Rostock bedroht", "url": "https://www.tagesschau.de/inland/regional/mecklenburgvorpommern/ndr-rassistische-beleidigung-linken-politikerin-senli-in-rostock-bedroht-100.html", "thumbnailUrl": "https://images.tagesschau.de/image/42e69a5f-9d56-4ab3-9116-cc51266c1547/AAABj05j814/AAABjwnlKNc/16x9-512.jpg", "date": "2024-05-06T15:57:00.000+02:00", "lat": 54.083, "lon": 12.099, "intensity": 0.6, "source": "Tagesschau"}, {"title": "Verkehrsbetriebe pr\u00fcfen Verbot von E-Scootern in Bus und Bahn", "url": "https://www.tagesschau.de/inland/regional/niedersachsen/ndr-verkehrsbetriebe-pruefen-verbot-von-e-scootern-in-bus-und-bahn-100.html", "thumbnailUrl": "https://images.tagesschau.de/image/6136c491-10e6-4cb4-95a0-15f159912312/AAABj04ws6s/AAABjwnlKNc/16x9-512.jpg", "date": "2024-05-06T15:54:00.000+02:00", "lat": 52.37589, "lon": 9.73322, "intensity": 0.6, "source": "Tagesschau"}, {"title": "\"Koffer-Skelett\" aus Sinn: Ungekl\u00e4rtes T\u00f6tungsdelikt nach 43 Jahren wieder Thema bei \"Aktenzeichen XY\"", "url": "https://www.tagesschau.de/inland/regional/hessen/hr-koffer-skelett-aus-sinn-ungeklaertes-toetungsdelikt-nach-43-jahren-wieder-thema-bei-aktenzeichen-xy-100.html", "thumbnailUrl": "https://images.tagesschau.de/image/09c339b3-45c9-4779-ad86-3d1c944a631a/AAABj06pjfg/AAABjwnlKNc/16x9-512.jpg", "date": "2024-05-06T15:50:52.750+02:00", "lat": 50.6985, "lon": 8.0139, "intensity": 0.8, "source": "Tagesschau"}, {"title": "Gleich sechs Lotto-Gewinner in Niedersachsen", "url": "https://www.tagesschau.de/inland/regional/niedersachsen/ndr-gleich-sechs-lotto-gewinner-in-niedersachsen-100.html", "thumbnailUrl": "https://images.tagesschau.de/image/d4453ad8-a2f3-4c58-8fe9-912afad2d201/AAABj05P3Lw/AAABjwnlKNc/16x9-512.jpg", "date": "2024-05-06T15:49:00.000+02:00", "lat": 52.6367, "lon": 9.7536, "intensity": 0.8, "source": "Tagesschau"}, {"title": "Lebenslange Haft f\u00fcr Amokfahrer von Trier", "url": "https://www.tagesschau.de/inland/regional/rheinlandpfalz/prozess-amokfahrt-trier-urteil-102.html", "thumbnailUrl": "https://images.tagesschau.de/image/4e65052f-0ded-4105-b4a3-34fb2bb6ebd3/AAABhnjI2qI/AAABjwnlKNc/16x9-512.jpg", "date": "2024-05-06T15:49:00.000+02:00", "lat": 49.7574, "lon": 6.6419, "intensity": 0.8, "source": "Tagesschau"}, {"title": "Mann in Bad Kreuznach lebenslang wegen Mordes verurteilt", "url": "https://www.tagesschau.de/inland/regional/rheinlandpfalz/swr-mann-in-bad-kreuznach-wegen-mordes-verurteilt-100.html", "thumbnailUrl": "https://images.tagesschau.de/image/aca24913-9438-4458-838e-353a337980a4/AAABj04tMbY/AAABjwnlKNc/16x9-512.jpg", "date": "2024-05-06T15:49:00.000+02:00", "lat": 49.8419, "lon": 7.8674, "intensity": 0.8, "source": "Tagesschau"}, {"title": "Union entl\u00e4sst Trainer Bjelica - Marco Grote \u00fcbernimmt erneut als Interimstrainer", "url": "https://www.tagesschau.de/inland/regional/berlin/rbb-union-entlaesst-trainer-bjelica-marco-grote-uebernimmt-als-interimstrainer-100.html", "thumbnailUrl": "https://images.tagesschau.de/image/31c098ee-68c0-4f1f-af7d-2ecf5256948e/AAABj04pXUo/AAABjwnlKNc/16x9-512.jpg", "date": "2024-05-06T15:47:46.000+02:00", "lat": 52.52, "lon": 13.405, "intensity": 0.8, "source": "Tagesschau"}, {"title": "Mehr Onlinetickets, Ampeln zeigen Auslastung an, neue Hilferuf-App", "url": "https://www.tagesschau.de/inland/regional/berlin/rbb-mehr-onlinetickets-ampeln-zeigen-auslastung-an-neue-hilferuf-app-100.html", "thumbnailUrl": "https://images.tagesschau.de/image/425c966c-d6d2-4670-a552-df135837f1a6/AAABj04rNyM/AAABjwnlKNc/16x9-512.jpg", "date": "2024-05-06T15:47:00.000+02:00", "lat": 52.52, "lon": 13.405, "intensity": 0.6, "source": "Tagesschau"}, {"title": "T\u00f6dlicher Messerangriff in Stade: Verd\u00e4chtiger in U-Haft", "url": "https://www.tagesschau.de/inland/regional/niedersachsen/ndr-toedlicher-messerangriff-in-stade-verdaechtiger-in-u-haft-100.html", "thumbnailUrl": "https://images.tagesschau.de/image/47632a2f-afbe-4eff-b958-93445a0063ba/AAABj05DBQo/AAABjwnlKNc/16x9-512.jpg", "date": "2024-05-06T15:40:00.000+02:00", "lat": 53.5984, "lon": 9.4772, "intensity": 0.8, "source": "Tagesschau"}, {"title": "Regisseur David Wnendt lehrt als Gastprofessor an der HBK Saar", "url": "https://www.tagesschau.de/inland/regional/saarland/sr-regisseur-david-wnendt-lehrt-als-gastprofessor-an-der-hbk-saar-100.html", "thumbnailUrl": "https://images.tagesschau.de/image/077cd0a3-0bc4-4a6b-9bf1-e27a4f54e4b9/AAABj04gJ5M/AAABjwnlKNc/16x9-512.jpg", "date": "2024-05-06T15:36:00.000+02:00", "lat": 49.2347, "lon": 6.9814, "intensity": 0.5, "source": "Tagesschau"}, {"title": "Finale verpasst: Eintracht-U17 zieht Kraft aus Elfer-Drama", "url": "https://www.tagesschau.de/inland/regional/hessen/hr-finale-verpasst-eintracht-u17-zieht-kraft-aus-elfer-drama-102.html", "thumbnailUrl": "https://images.tagesschau.de/image/509cb5fe-5eb9-4a2e-8a00-dffa62948037/AAABj04eVkw/AAABjwnlKNc/16x9-512.jpg", "date": "2024-05-06T15:31:08.625+02:00", "lat": 50.1109, "lon": 8.6821, "intensity": 0.7, "source": "Tagesschau"}, {"title": "Trier kann 266 Millionen Euro an Schulden abgeben", "url": "https://www.tagesschau.de/inland/regional/saarland/sr-trier-kann-266-millionen-euro-an-schulden-abgeben-100.html", "thumbnailUrl": "https://images.tagesschau.de/image/cd223bee-adce-4df2-af92-c957342620a4/AAABj04j0Oc/AAABjwnlKNc/16x9-512.jpg", "date": "2024-05-06T15:30:00.000+02:00", "lat": 49.7596, "lon": 6.6417, "intensity": 0.8, "source": "Tagesschau"}, {"title": "Wildpinkler zerst\u00f6ren Aufzug an Ellwanger Parkhaus", "url": "https://www.tagesschau.de/inland/regional/badenwuerttemberg/swr-wildpinkler-zerstoeren-aufzug-an-ellwanger-parkhaus-100.html", "thumbnailUrl": "https://images.tagesschau.de/image/0019d14e-dda7-485a-95f8-ec09c346bbe7/AAABj08FCqA/AAABjwnlKNc/16x9-512.jpg", "date": "2024-05-06T15:26:42.000+02:00", "lat": 48.9624, "lon": 10.1313, "intensity": 0.8, "source": "Tagesschau"}, {"title": "Nach Angriffen: Reul will keinen grunds\u00e4tzlichen Polizeischutz f\u00fcr Politiker", "url": "https://www.tagesschau.de/inland/regional/nordrheinwestfalen/wdr-nach-angriffen-reul-will-keinen-grundsaetzlichen-polizeischutz-fuer-politiker-100.html", "thumbnailUrl": "https://images.tagesschau.de/image/afe41fb7-f5fa-43ad-b6e8-9262f05cd48a/AAABj04Y06w/AAABjwnlKNc/16x9-512.jpg", "date": "2024-05-06T15:25:00.000+02:00", "lat": 51.9607, "lon": 7.6261, "intensity": 0.6, "source": "Tagesschau"}, {"title": "EU-Kommission will Verfahren gegen Polen einstellen", "url": "https://www.tagesschau.de/ausland/europa/polen-eu-rechtsstreit-100.html", "thumbnailUrl": "https://images.tagesschau.de/image/f9e734ec-ec32-4b58-b6df-6c485f4f8b7f/AAABj04G4uY/AAABjwnlKNc/16x9-512.jpg", "date": "2024-05-06T15:24:23.089+02:00", "lat": 50.8503, "lon": 4.3517, "intensity": 0.8, "source": "Tagesschau"}, {"title": "Rauch auf Marktplatz: Grill-Restaurants klagen gegen die Stadt Mannheim", "url": "https://www.tagesschau.de/inland/regional/badenwuerttemberg/swr-rauch-auf-marktplatz-grill-restaurants-klagen-gegen-die-stadt-mannheim-100.html", "thumbnailUrl": "https://images.tagesschau.de/image/62624e8a-27ad-4c86-be59-9d2abf1334e2/AAABj079yck/AAABjwnlKNc/16x9-512.jpg", "date": "2024-05-06T15:22:35.000+02:00", "lat": 49.48746, "lon": 8.45925, "intensity": 0.5, "source": "Tagesschau"}, {"title": "Auf Tuchf\u00fchlung mit dem Europapokal in Leipzig", "url": "https://www.tagesschau.de/inland/regional/sachsen/mdr-auf-tuchfuehlung-mit-dem-europapokal-in-leipzig-102.html", "thumbnailUrl": "https://images.tagesschau.de/image/d63ccf1f-5ff4-498f-80c3-7b434ce3dfb3/AAABj1B28qI/AAABjwnlKNc/16x9-512.jpg", "date": "2024-05-06T15:20:59.000+02:00", "lat": 51.343479, "lon": 12.38886, "intensity": 0.7, "source": "Tagesschau"}, {"title": "16-J\u00e4hrige vermisst: Wer hat Mina S. gesehen?", "url": "https://www.tagesschau.de/inland/regional/niedersachsen/ndr-16-jaehrige-vermisst-wer-hat-mina-s-gesehen-100.html", "thumbnailUrl": "https://images.tagesschau.de/image/69c44977-9000-41f7-8743-4c93003f9a35/AAABj06_gd8/AAABjwnlKNc/16x9-512.jpg", "date": "2024-05-06T15:20:00.000+02:00", "lat": 52.37589, "lon": 9.73322, "intensity": 0.5, "source": "Tagesschau"}, {"title": "Erhalt der Dialekte: Schutz f\u00fcr den Butter und den Lackel", "url": "https://www.tagesschau.de/inland/regional/bayern/br-erhalt-der-dialekte-schutz-fuer-den-butter-und-den-lackel-100.html", "thumbnailUrl": "https://images.tagesschau.de/image/c341e22e-54c6-4b79-a7f4-91ab417a3d44/AAABj04KNmE/AAABjwnlKNc/16x9-512.jpg", "date": "2024-05-06T15:12:44.906+02:00", "lat": 48.208, "lon": 11.373, "intensity": 0.8, "source": "Tagesschau"}, {"title": "Schon ab Mittwoch: Staureiches langes Wochenende steht an", "url": "https://www.tagesschau.de/inland/regional/bayern/br-schon-ab-mittwoch-staureiches-langes-wochenende-steht-an-102.html", "thumbnailUrl": "https://images.tagesschau.de/image/df1a3879-b53e-47c8-addd-748144c610ad/AAABj04GjRs/AAABjwnlKNc/16x9-512.jpg", "date": "2024-05-06T15:09:00.770+02:00", "lat": 48.1351, "lon": 11.582, "intensity": 0.8, "source": "Tagesschau"}, {"title": "Get\u00f6tete Frau in G\u00f6ttingen: Ehemann in Untersuchungshaft", "url": "https://www.tagesschau.de/inland/regional/niedersachsen/ndr-goettingen-grone-34-jaehrige-opfer-eines-verbrechens-100.html", "thumbnailUrl": "https://images.tagesschau.de/image/723afdee-9a1f-4786-a0e9-457db092879c/AAABj02NuTY/AAABjwnlKNc/16x9-512.jpg", "date": "2024-05-06T15:08:00.000+02:00", "lat": 51.5413, "lon": 9.9326, "intensity": 0.8, "source": "Tagesschau"}, {"title": "60-J\u00e4hrige stirbt nach Stichverletzungen in Wertheim", "url": "https://www.tagesschau.de/inland/regional/badenwuerttemberg/swr-60-jaehrige-stirbt-nach-stichverletzungen-in-wertheim-102.html", "thumbnailUrl": "https://images.tagesschau.de/image/6fb81a17-7782-4e0f-83b0-dbb1869ae6ea/AAABj05GpGY/AAABjwnlKNc/16x9-512.jpg", "date": "2024-05-06T15:06:32.000+02:00", "lat": 49.8911, "lon": 9.5203, "intensity": 0.8, "source": "Tagesschau"}, {"title": "Junge Liberale: Vorermittlungen nach rechtsextremen Parolen", "url": "https://www.tagesschau.de/inland/regional/bayern/br-junge-liberale-vorermittlungen-nach-rechtsextremen-parolen-102.html", "thumbnailUrl": "https://images.tagesschau.de/image/752b30f6-49a7-4954-9ba8-d2d94200c94b/AAABj04C-Uo/AAABjwnlKNc/16x9-512.jpg", "date": "2024-05-06T15:05:42.982+02:00", "lat": 49.6751, "lon": 12.1551, "intensity": 0.8, "source": "Tagesschau"}, {"title": "SPD- und CDU-Fraktion im Saarland verurteilen Angriff auf Europa-Abgeordneten Ecke", "url": "https://www.tagesschau.de/inland/regional/saarland/sr-spd-und-cdu-fraktion-im-saarland-verurteilen-angriff-auf-europa-abgeordneten-ecke-100.html", "thumbnailUrl": "https://images.tagesschau.de/image/f1a73942-b513-499c-ad83-0f3b00bd1f74/AAABj04C2vo/AAABjwnlKNc/16x9-512.jpg", "date": "2024-05-06T14:59:00.000+02:00", "lat": 49.25, "lon": 7.0, "intensity": 0.8, "source": "Tagesschau"}, {"title": "Mietschulden: 2.369 Berliner Haushalte wurden 2023 zwangsger\u00e4umt", "url": "https://www.tagesschau.de/inland/regional/berlin/rbb-mietschulden-2-369-berliner-haushalte-wurden-2023-zwangsgeraeumt-100.html", "thumbnailUrl": "https://images.tagesschau.de/image/9fe4ed66-fb15-4219-b16b-09065ea32a75/AAABj03_TSA/AAABjwnlKNc/16x9-512.jpg", "date": "2024-05-06T14:58:19.000+02:00", "lat": 52.520008, "lon": 13.404954, "intensity": 0.8, "source": "Tagesschau"}, {"title": "\"Dilemma-Entscheidung\": Minister Poseck bringt Hilfe f\u00fcr Ukraine bei Rekrutierung ins Spiel", "url": "https://www.tagesschau.de/inland/regional/hessen/hr-innenminister-poseck-will-ukraine-bei-rekrutierung-von-soldaten-unterstuetzen-100.html", "thumbnailUrl": "https://images.tagesschau.de/image/09b3b470-0b74-4528-ac7a-10774ccf3331/AAABj04tWWo/AAABjwnlKNc/16x9-512.jpg", "date": "2024-05-06T14:56:07.498+02:00", "lat": 50.456571, "lon": 8.676988, "intensity": 0.8, "source": "Tagesschau"}, {"title": "Falschparker greift Mitarbeiter vom Ordnungsdienst an", "url": "https://www.tagesschau.de/inland/regional/niedersachsen/ndr-falschparker-greift-mitarbeiter-vom-ordnungsdienst-an-100.html", "thumbnailUrl": "https://images.tagesschau.de/image/d1c6d972-c9ee-4144-9a6c-5ea613d92de5/AAABj0350-U/AAABjwnlKNc/16x9-512.jpg", "date": "2024-05-06T14:49:00.000+02:00", "lat": 52.268874, "lon": 10.52677, "intensity": 0.8, "source": "Tagesschau"}, {"title": "Verfassungsschutz BW: Social Media radikalisieren zunehmend junge Islamisten", "url": "https://www.tagesschau.de/inland/regional/badenwuerttemberg/swr-verfassungsschutz-bw-social-media-radikalisiert-zunehmend-junge-islamisten-100.html", "thumbnailUrl": "https://images.tagesschau.de/image/bba15412-f712-47e3-9a8f-bdf1e4c4b8f2/AAABj032Kd4/AAABjwnlKNc/16x9-512.jpg", "date": "2024-05-06T14:47:20.000+02:00", "lat": 48.6616, "lon": 9.9937, "intensity": 0.8, "source": "Tagesschau"}, {"title": "Eishockey: Tom Rowe ist neuer Trainer der L\u00f6wen Frankfurt ", "url": "https://www.tagesschau.de/inland/regional/hessen/hr-eishockey-tom-rowe-soll-trainer-der-loewen-frankfurt-werden-102.html", "thumbnailUrl": "https://images.tagesschau.de/image/5c1665a4-88c0-4005-a1af-860a2fbcb05f/AAABj03u7pw/AAABjwnlKNc/16x9-512.jpg", "date": "2024-05-06T14:42:59.039+02:00", "lat": 50.1109, "lon": 8.6821, "intensity": 0.4, "source": "Tagesschau"}, {"title": "Gro\u00df Markow: Ist die Kirche das Wohnzimmer des Dorfes?", "url": "https://www.tagesschau.de/inland/regional/mecklenburgvorpommern/ndr-gross-markow-ist-die-kirche-das-wohnzimmer-des-dorfes-100.html", "thumbnailUrl": "https://images.tagesschau.de/image/78833811-fa4d-4ab6-b5e4-25e7f8c4a2ed/AAABj059jqs/AAABjwnlKNc/16x9-512.jpg", "date": "2024-05-06T14:38:00.000+02:00", "lat": 53.829, "lon": 12.899, "intensity": 0.3, "source": "Tagesschau"}, {"title": "Oberursel: Haftbefehl nach t\u00f6dlichen Stichen in Fl\u00fcchtlingsunterkunft", "url": "https://www.tagesschau.de/inland/regional/hessen/hr-oberursel-55-jaehriger-in-fluechtlingsunterkunft-durch-stiche-getoetet-100.html", "thumbnailUrl": "https://images.tagesschau.de/image/b6a67fa7-9ab5-46b4-b41d-4e74b028921b/AAABj03llyE/AAABjwnlKNc/16x9-512.jpg", "date": "2024-05-06T14:33:13.905+02:00", "lat": 50.2185, "lon": 8.5671, "intensity": 0.8, "source": "Tagesschau"}, {"title": "Berliner Grundsch\u00fclerin landet nach Social-Media-Challenge im Krankenhaus", "url": "https://www.tagesschau.de/inland/regional/berlin/rbb-berliner-grundschuelerin-landet-nach-social-media-challenge-im-krankenhaus-100.html", "thumbnailUrl": "https://images.tagesschau.de/image/259d421d-9409-4d13-a288-fa968de0dd2b/AAABj03cez4/AAABjwnlKNc/16x9-512.jpg", "date": "2024-05-06T14:21:15.000+02:00", "lat": 52.520008, "lon": 13.404954, "intensity": 0.7, "source": "Tagesschau"}, {"title": "25 Jahre \"Hamburger Ehe\": Recht auf Partnerschaft f\u00fcr Homosexuelle", "url": "https://www.tagesschau.de/inland/regional/hamburg/ndr-25-jahre-hamburger-ehe-recht-auf-partnerschaft-fuer-homosexuelle-100.html", "thumbnailUrl": "https://images.tagesschau.de/image/10292106-b254-45f5-a78e-a474b9418b6b/AAABj0zhmxU/AAABjwnlKNc/16x9-512.jpg", "date": "2024-05-06T14:20:00.000+02:00", "lat": 53.5511, "lon": 9.9937, "intensity": 0.5, "source": "Tagesschau"}, {"title": "Zahl der Toten steigt auf 78", "url": "https://www.tagesschau.de/ausland/amerika/brasilien-unwetter-102.html", "thumbnailUrl": "https://images.tagesschau.de/image/26e118d2-ec48-43b6-86d1-f9b9d11c5dc5/AAABj02qcT0/AAABjwnlKNc/16x9-512.jpg", "date": "2024-05-06T14:12:08.661+02:00", "lat": -30.0331, "lon": -51.9253, "intensity": 0.9, "source": "Tagesschau"}, {"title": "Corona: Hamburger Arzt wegen falscher Atteste vor Gericht", "url": "https://www.tagesschau.de/inland/regional/hamburg/ndr-corona-krise-hamburger-arzt-wegen-falscher-atteste-vor-gericht-100.html", "thumbnailUrl": "https://images.tagesschau.de/image/4da7eed9-a2bb-40f7-b3d2-b719c2589eb2/AAABj03Rk5o/AAABjwnlKNc/16x9-512.jpg", "date": "2024-05-06T14:12:00.000+02:00", "lat": 53.55, "lon": 10.0, "intensity": 0.8, "source": "Tagesschau"}, {"title": "Lebensl\u00e4nglich f\u00fcr Trierer Amokfahrer best\u00e4tigt", "url": "https://www.tagesschau.de/inland/regional/saarland/sr-lebenslaenglich-fuer-trierer-amokfahrer-bestaetigt-100.html", "thumbnailUrl": "https://images.tagesschau.de/image/d8ab1b81-918c-4390-9a94-f984fa15f0f8/AAABj03eO-I/AAABjwnlKNc/16x9-512.jpg", "date": "2024-05-06T14:10:00.000+02:00", "lat": 49.7493, "lon": 6.6415, "intensity": 1, "source": "Tagesschau"}, {"title": "Briefwahl kann ab jetzt beantragt werden in RLP ", "url": "https://www.tagesschau.de/inland/regional/rheinlandpfalz/swr-briefwahl-kann-ab-jetzt-beantragt-werden-in-rlp-100.html", "thumbnailUrl": "https://images.tagesschau.de/image/4e6c077a-9899-481f-ba07-3a456790ff26/AAABj03Rg8c/AAABjwnlKNc/16x9-512.jpg", "date": "2024-05-06T14:07:00.000+02:00", "lat": 50.4547, "lon": 7.6169, "intensity": 0.4, "source": "Tagesschau"}, {"title": "\"Die CDU ist wieder da\"", "url": "https://www.tagesschau.de/inland/innenpolitik/cdu-parteitag-merz-104.html", "thumbnailUrl": "https://images.tagesschau.de/image/a13c0a24-7730-4901-9b1b-2714cada0a1d/AAABj00n3rc/AAABjwnlKNc/16x9-512.jpg", "date": "2024-05-06T14:04:59.523+02:00", "lat": 52.52, "lon": 13.405, "intensity": 0.7, "source": "Tagesschau"}, {"title": "Live-Blog 2. Liga: Kiel und St. Pauli fast oben, HSV hofft, Hansa zittert", "url": "https://www.tagesschau.de/inland/regional/hamburg/ndr-live-blog-2-liga-hsv-oder-st-pauli-wer-gewinnt-das-stadtderby-102.html", "thumbnailUrl": "https://images.tagesschau.de/image/30c0db36-f627-42fe-b331-d19c35ce8489/AAABj02L6Ls/AAABjwnlKNc/16x9-512.jpg", "date": "2024-05-06T14:04:00.000+02:00", "lat": 52.2799, "lon": 10.8754, "intensity": 0.8, "source": "Tagesschau"}, {"title": "Brandenburger Krankenhauskonferenz: Schrumpfen statt schlie\u00dfen?", "url": "https://www.tagesschau.de/inland/regional/brandenburg/rbb-krankenhauskonferenz-brandenburg-will-kliniken-weiterentwickeln-100.html", "thumbnailUrl": "https://images.tagesschau.de/image/e610c9a9-6e8a-4987-b041-b95bb6eee520/AAABj08eyP0/AAABjwnlKNc/16x9-512.jpg", "date": "2024-05-06T14:02:18.000+02:00", "lat": 52.3564, "lon": 12.7002, "intensity": 0.8, "source": "Tagesschau"}, {"title": "Oder-Spree: Zwei Tramfahrer bei Stra\u00dfenbahnunfall in Sch\u00f6neiche verletzt ", "url": "https://www.tagesschau.de/inland/regional/brandenburg/rbb-oder-spree-zwei-verletzte-bei-strassenbahnunfall-in-schoeneiche-100.html", "thumbnailUrl": "https://images.tagesschau.de/image/fe017c1d-b245-43e5-a1f1-443af4513bad/AAABj03Ephw/AAABjwnlKNc/16x9-512.jpg", "date": "2024-05-06T13:53:34.000+02:00", "lat": 52.4167, "lon": 13.6247, "intensity": 0.4, "source": "Tagesschau"}, {"title": "Falke ist tot - von Feuerwehr Mainz in Gie\u00dfener Tierklinik gebracht", "url": "https://www.tagesschau.de/inland/regional/rheinlandpfalz/swr-feuerwehr-mainz-auf-kleiner-odyssee-mit-verletztem-falken-100.html", "thumbnailUrl": "https://images.tagesschau.de/image/3bcbab3a-37b7-4a32-9b38-c89253f95173/AAABj03Yv_w/AAABjwnlKNc/16x9-512.jpg", "date": "2024-05-06T13:28:00.000+02:00", "lat": 49.992861, "lon": 8.23976, "intensity": 0.3, "source": "Tagesschau"}, {"title": "Streit in Delmenhorst eskaliert - ein Schuss f\u00e4llt", "url": "https://www.tagesschau.de/inland/regional/niedersachsen/ndr-streit-in-delmenhorst-eskaliert-ein-schuss-faellt-100.html", "thumbnailUrl": "https://images.tagesschau.de/image/7d97261d-5dd7-4713-9925-3a89b3bd3547/AAABj03u-tI/AAABjwnlKNc/16x9-512.jpg", "date": "2024-05-06T13:26:00.000+02:00", "lat": 53.0489, "lon": 8.6247, "intensity": 0.7, "source": "Tagesschau"}, {"title": "Hamburger Hafen: Menge an sichergestelltem Kokain verdreifacht", "url": "https://www.tagesschau.de/inland/regional/hamburg/ndr-hamburger-hafen-menge-an-sichergestelltem-kokain-verdreifacht-100.html", "thumbnailUrl": "https://images.tagesschau.de/image/e75c22bf-6d71-43cb-869d-233b26babd4f/AAABj02ahhU/AAABjwnlKNc/16x9-512.jpg", "date": "2024-05-06T13:07:00.000+02:00", "lat": 53.5511, "lon": 9.9937, "intensity": 0.8, "source": "Tagesschau"}, {"title": "Bewaffneter Raub\u00fcberfall auf Tankstelle: Polizei sucht Zeugen", "url": "https://www.tagesschau.de/inland/regional/niedersachsen/ndr-bewaffneter-raubueberfall-auf-tankstelle-polizei-sucht-zeugen-100.html", "thumbnailUrl": "https://images.tagesschau.de/image/25b5a407-7774-4a86-9ab2-50730d1d8138/AAABj03vQK8/AAABjwnlKNc/16x9-512.jpg", "date": "2024-05-06T12:56:00.000+02:00", "lat": 52.4361, "lon": 7.0752, "intensity": 0.8, "source": "Tagesschau"}, {"title": "Fregatte \"Hessen\" zur\u00fcck in Wilhelmshaven", "url": "https://www.tagesschau.de/inland/innenpolitik/fregatte-hessen-122.html", "thumbnailUrl": "https://images.tagesschau.de/image/05d9df1e-31a8-4b9b-aa03-1993502703f3/AAABj0iiD-Y/AAABjwnlKNc/16x9-512.jpg", "date": "2024-05-06T12:52:00.000+02:00", "lat": 53.53241, "lon": 8.13116, "intensity": 0.5, "source": "Tagesschau"}, {"title": "Tarifkonflikt bei Telekom: Erstmals Warnstreik f\u00fcr zwei Tage", "url": "https://www.tagesschau.de/inland/regional/niedersachsen/ndr-tarifkonflikt-bei-telekom-erstmals-warnstreik-fuer-zwei-tage-100.html", "thumbnailUrl": "https://images.tagesschau.de/image/f0382ce5-11b8-4dec-bf78-be42714f27e9/AAABj02IQZ4/AAABjwnlKNc/16x9-512.jpg", "date": "2024-05-06T12:49:00.000+02:00", "lat": 52.6367, "lon": 9.7533, "intensity": 0.8, "source": "Tagesschau"}, {"title": "Transportkooperation will NRW vom LKW-Verkehr befreien", "url": "https://www.tagesschau.de/inland/regional/nordrheinwestfalen/wdr-transportkooperation-will-nrw-vom-lkw-verkehr-befreien-100.html", "thumbnailUrl": "https://images.tagesschau.de/image/74627aa3-aeff-4f8b-8c04-761a09f94c51/AAABj02f-vY/AAABjwnlKNc/16x9-512.jpg", "date": "2024-05-06T12:47:00.000+02:00", "lat": 51.5, "lon": 7.6, "intensity": 0.7, "source": "Tagesschau"}, {"title": "Anschlag auf Synagoge: Polizei sucht mit Foto nach Verd\u00e4chtigem", "url": "https://www.tagesschau.de/inland/regional/niedersachsen/ndr-anschlag-auf-synagoge-polizei-sucht-mit-foto-nach-verdaechtigem-100.html", "thumbnailUrl": "https://images.tagesschau.de/image/f7553ce6-7d6d-4d87-8360-874d3a812b00/AAABj02Etwg/AAABjwnlKNc/16x9-512.jpg", "date": "2024-05-06T12:46:00.000+02:00", "lat": 52.7952, "lon": 8.2154, "intensity": 0.8, "source": "Tagesschau"}, {"title": "Magdeburg: Suche nach Ursache f\u00fcr Brand in Recyclingfirma l\u00e4uft", "url": "https://www.tagesschau.de/inland/regional/sachsenanhalt/mdr-feuer-bei-recyclingfirma-nahe-fam-geloescht-100.html", "thumbnailUrl": "https://images.tagesschau.de/image/b111b02d-5597-4582-bb63-0dc621623d13/AAABj08glb0/AAABjwnlKNc/16x9-512.jpg", "date": "2024-05-06T12:42:24.000+02:00", "lat": 52.1205, "lon": 11.6276, "intensity": 0.5, "source": "Tagesschau"}, {"title": "Recyclingfirma in Espenhain erteilt Hausverbot an Streikende", "url": "https://www.tagesschau.de/inland/regional/sachsen/mdr-recyclingfirma-in-espenhain-erteilt-hausverbot-an-streikende-100.html", "thumbnailUrl": "https://images.tagesschau.de/image/f9688ed6-372a-40c4-955e-1ee72fe96a19/AAABj1B3Dx4/AAABjwnlKNc/16x9-512.jpg", "date": "2024-05-06T12:40:52.000+02:00", "lat": 51.2528, "lon": 12.4175, "intensity": 0.8, "source": "Tagesschau"}, {"title": "Sturm f\u00fchrt zu Stromausfall in Teilen der Pfalz", "url": "https://www.tagesschau.de/inland/regional/rheinlandpfalz/swr-sturm-fuehrt-zu-stromausfall-in-teilen-der-pfalz-100.html", "thumbnailUrl": "https://images.tagesschau.de/image/186e1372-324d-47a1-a231-c173c2c4f90b/AAABj019PgE/AAABjwnlKNc/16x9-512.jpg", "date": "2024-05-06T12:38:00.000+02:00", "lat": 49.2153, "lon": 8.1143, "intensity": 0.7, "source": "Tagesschau"}, {"title": "20-J\u00e4hrige entf\u00fchrt: Verd\u00e4chtige gegen Auflagen auf freiem Fu\u00df", "url": "https://www.tagesschau.de/inland/regional/niedersachsen/ndr-20-jaehrige-entfuehrt-polizei-nimmt-drei-maenner-fest-100.html", "thumbnailUrl": "https://images.tagesschau.de/image/bc7eba0e-02bb-4b8b-87c7-b45bc518dcf3/AAABj014BoM/AAABjwnlKNc/16x9-512.jpg", "date": "2024-05-06T12:37:00.000+02:00", "lat": 52.158, "lon": 9.932, "intensity": 0.8, "source": "Tagesschau"}, {"title": "Wieder mehr \u00dcbernachtungen auf Saar-Campingpl\u00e4tzen", "url": "https://www.tagesschau.de/inland/regional/saarland/sr-wieder-mehr-uebernachtungen-auf-saar-campingplaetzen-100.html", "thumbnailUrl": "https://images.tagesschau.de/image/33ef63b2-8c11-4d7e-8854-3e6fea016d98/AAABj01_BUQ/AAABjwnlKNc/16x9-512.jpg", "date": "2024-05-06T12:37:00.000+02:00", "lat": 49.3964, "lon": 6.9507, "intensity": 0.7, "source": "Tagesschau"}, {"title": "Vorarbeiten f\u00fcr barrierefreie Senioren-Wohnungen in Merchweiler gestartet", "url": "https://www.tagesschau.de/inland/regional/saarland/sr-vorarbeiten-fuer-barrierefreie-senioren-wohnungen-in-merchweiler-gestartet-100.html", "thumbnailUrl": "https://images.tagesschau.de/image/9d315550-0d35-4e16-9efc-c178383d8b78/AAABj02TKzI/AAABjwnlKNc/16x9-512.jpg", "date": "2024-05-06T12:21:00.000+02:00", "lat": 49.3194, "lon": 7.0825, "intensity": 0.6, "source": "Tagesschau"}, {"title": "Fu\u00dfball-Bundesliga: So muss Union im Abstiegskampf rechnen", "url": "https://www.tagesschau.de/inland/regional/berlin/rbb-fussball-bundesliga-so-muss-union-im-abstiegskampf-rechnen-102.html", "thumbnailUrl": "https://images.tagesschau.de/image/e1a6d9fb-624b-451a-ad41-0aa221ace0f1/AAABj04pYLE/AAABjwnlKNc/16x9-512.jpg", "date": "2024-05-06T12:19:27.000+02:00", "lat": 52.52001, "lon": 13.40044, "intensity": 0.7, "source": "Tagesschau"}, {"title": "Nach Sch\u00fctzenfest: Betrunkener Autofahrer f\u00e4hrt Fu\u00dfg\u00e4nger an", "url": "https://www.tagesschau.de/inland/regional/niedersachsen/ndr-nach-schuetzenfest-betrunkener-autofahrer-faehrt-fussgaenger-an-100.html", "thumbnailUrl": "https://images.tagesschau.de/image/f056b060-1864-4694-b917-6ae88cd3e4ca/AAABj01sxZE/AAABjwnlKNc/16x9-512.jpg", "date": "2024-05-06T12:19:00.000+02:00", "lat": 52.505137, "lon": 7.319259, "intensity": 0.7, "source": "Tagesschau"}, {"title": "19-J\u00e4hriger verletzt sich bei Unfall mit Quad schwer", "url": "https://www.tagesschau.de/inland/regional/niedersachsen/ndr-19-jaehriger-verletzt-sich-bei-unfall-mit-quad-schwer-100.html", "thumbnailUrl": "https://images.tagesschau.de/image/eeeb4e03-669b-4ee5-bdd3-9539dba6ddcc/AAABj01q8LE/AAABjwnlKNc/16x9-512.jpg", "date": "2024-05-06T12:17:00.000+02:00", "lat": 53.7159, "lon": 9.1667, "intensity": 0.8, "source": "Tagesschau"}, {"title": "Tagesbesucher lassen Venedigs Einnahmen sprudeln", "url": "https://www.tagesschau.de/ausland/europa/venedig-tagestouristen-einnahmen-100.html", "thumbnailUrl": "https://images.tagesschau.de/image/ab53a621-1844-4781-afaa-a032bf3d6548/AAABjz6xYmI/AAABjwnlKNc/16x9-512.jpg", "date": "2024-05-06T12:09:07.602+02:00", "lat": 45.4408, "lon": 12.3155, "intensity": 0.7, "source": "Tagesschau"}, {"title": "Posaunentag: 15.000 Blechbl\u00e4ser vertreiben zum Abschluss Regenwolken", "url": "https://www.tagesschau.de/inland/regional/hamburg/ndr-posaunentag-goldenes-blech-funkelt-in-hamburgs-abendsonne-100.html", "thumbnailUrl": "https://images.tagesschau.de/image/d7c01038-85df-4121-968a-b1b6b7d066c5/AAABj0iiAGk/AAABjwnlKNc/16x9-512.jpg", "date": "2024-05-06T12:07:00.000+02:00", "lat": 53.551086, "lon": 10.02012, "intensity": 0.7, "source": "Tagesschau"}, {"title": "Saniertes Museumsschiff \"Elbe 3\" kehrt in Hafen zur\u00fcck", "url": "https://www.tagesschau.de/inland/regional/niedersachsen/ndr-saniertes-museumsschiff-elbe-3-soll-heute-in-hafen-zurueckkehren-100.html", "thumbnailUrl": "https://images.tagesschau.de/image/a2298708-cb21-4f87-a77a-051a5b497f06/AAABj07MWqI/AAABjwnlKNc/16x9-512.jpg", "date": "2024-05-06T11:59:00.000+02:00", "lat": 53.5503, "lon": 8.2547, "intensity": 0.6, "source": "Tagesschau"}, {"title": "Konzerte und Festivals: Diese Stars kommen nach BW", "url": "https://www.tagesschau.de/inland/regional/badenwuerttemberg/swr-konzerte-und-festivals-diese-stars-kommen-nach-bw-100.html", "thumbnailUrl": "https://images.tagesschau.de/image/edb866d4-46a7-4b4f-98b3-62c3f899023a/AAABj01TFyg/AAABjwnlKNc/16x9-512.jpg", "date": "2024-05-06T11:47:42.000+02:00", "lat": 48.7904, "lon": 9.0247, "intensity": 0.6, "source": "Tagesschau"}, {"title": "Angriffe auf Politiker: Ebling und Dreyer f\u00fcr entschlossenes Vorgehen", "url": "https://www.tagesschau.de/inland/regional/rheinlandpfalz/swr-dreyer-verurteilt-attacke-auf-politiker-als-abscheulich-100.html", "thumbnailUrl": "https://images.tagesschau.de/image/eb323e99-6884-486c-a7a9-bee3f9ec9dea/AAABj05VTgo/AAABjwnlKNc/16x9-512.jpg", "date": "2024-05-06T11:38:00.000+02:00", "lat": 50.0153, "lon": 7.2662, "intensity": 0.8, "source": "Tagesschau"}, {"title": "Pendelverkehr im Westen: Berliner Ringbahn f\u00e4hrt eine Woche lang eingeschr\u00e4nkt", "url": "https://www.tagesschau.de/inland/regional/berlin/rbb-pendelverkehr-im-westen-berliner-ringbahn-faehrt-eine-woche-lang-eingeschraenkt-100.html", "thumbnailUrl": "https://images.tagesschau.de/image/71297657-df1f-47a1-ba59-ed10cf88b83f/AAABj01GYXI/AAABjwnlKNc/16x9-512.jpg", "date": "2024-05-06T11:34:46.000+02:00", "lat": 52.52, "lon": 13.405, "intensity": 0.7, "source": "Tagesschau"}, {"title": "Eintracht: +++ Toppm\u00f6ller stellt sich hinter Nkounkou +++ Kleinherne zu Gast im heimspiel! +++ Fehler-Serie macht Toppm\u00f6ller \"verr\u00fcckt\" +++ ", "url": "https://www.tagesschau.de/inland/regional/hessen/hr--eintracht-wohl-mit-chaibi-einig--glasner-fast-nur-kolo-muani-der-tore-erzielt--bericht-eintracht-sagt-aouar-ab-100.html", "thumbnailUrl": "https://images.tagesschau.de/image/b6abe95e-1328-476f-a61d-3839b59f840d/AAABj00_AQg/AAABjwnlKNc/16x9-512.jpg", "date": "2024-05-06T11:31:39.795+02:00", "lat": 50.110922, "lon": 8.682127, "intensity": 0.6, "source": "Tagesschau"}, {"title": "R\u00fcgen: Millionenschaden nach Brand durch Blitzeinschlag", "url": "https://www.tagesschau.de/inland/regional/mecklenburgvorpommern/ndr-ruegen-millionenschaden-nach-brand-durch-blitzeinschlag-100.html", "thumbnailUrl": "https://images.tagesschau.de/image/adb6de8b-6718-4977-b748-e2afa9dcafa6/AAABj0hCs8M/AAABjwnlKNc/16x9-512.jpg", "date": "2024-05-06T11:29:00.000+02:00", "lat": 54.3781, "lon": 13.6961, "intensity": 0.7, "source": "Tagesschau"}, {"title": "Rheinhessische Weink\u00f6nigin: Sind Krone und Titel noch zeitgem\u00e4\u00df?", "url": "https://www.tagesschau.de/inland/regional/rheinlandpfalz/swr-rheinhessische-weinkoenigin-sind-krone-und-titel-noch-zeitgemaess-100.html", "thumbnailUrl": "https://images.tagesschau.de/image/f2ca26d7-534e-4515-b632-4277b324b520/AAABj027fjk/AAABjwnlKNc/16x9-512.jpg", "date": "2024-05-06T11:18:01.000+02:00", "lat": 49.9913603, "lon": 8.2397607, "intensity": 0.5, "source": "Tagesschau"}, {"title": "F\u00fcr den SV Wehen Wiesbaden wird es richtig eng im Abstiegskampf", "url": "https://www.tagesschau.de/inland/regional/hessen/hr-fuer-den-sv-wehen-wiesbaden-wird-es-richtig-eng-im-abstiegskampf-102.html", "thumbnailUrl": "https://images.tagesschau.de/image/abb53e75-31b6-4cd0-9726-694c2072492b/AAABj02urdc/AAABjwnlKNc/16x9-512.jpg", "date": "2024-05-06T11:13:56.443+02:00", "lat": 50.0485, "lon": 8.2392, "intensity": 0.8, "source": "Tagesschau"}, {"title": "Weiter L\u00fccken bei Masernimpfung von Kleinkindern", "url": "https://www.tagesschau.de/inland/regional/hessen/hr-weiter-luecken-bei-masernimpfung-von-kleinkindern-102.html", "thumbnailUrl": "https://images.tagesschau.de/image/ce5c132a-38bd-481e-bb01-e14deaf31408/AAABj00uhOs/AAABjwnlKNc/16x9-512.jpg", "date": "2024-05-06T11:13:10.336+02:00", "lat": 50.6521, "lon": 9.6752, "intensity": 0.7, "source": "Tagesschau"}, {"title": "Aufbau der Fanmeile: Stra\u00dfe des 17. Juni f\u00fcr drei Monate gesperrt", "url": "https://www.tagesschau.de/inland/regional/berlin/rbb-aufbau-der-fanmeile-strasse-des-17-juni-wird-ab-montag-fuer-drei-monate-gesperrt-100.html", "thumbnailUrl": "https://images.tagesschau.de/image/68aeb843-56e2-43ba-a3ef-c30a484d940f/AAABj00ul5o/AAABjwnlKNc/16x9-512.jpg", "date": "2024-05-06T11:10:36.000+02:00", "lat": 52.5167, "lon": 13.35, "intensity": 0.6, "source": "Tagesschau"}, {"title": "Tote Frau in Husum: Polizei sucht weiter nach dem Sohn", "url": "https://www.tagesschau.de/inland/regional/schleswigholstein/ndr-tote-frau-in-husum-entdeckt-polizei-geht-von-toetungsdelikt-aus-100.html", "thumbnailUrl": "https://images.tagesschau.de/image/ac794c64-ea20-4021-8cd6-13363262db68/AAABj00urIM/AAABjwnlKNc/16x9-512.jpg", "date": "2024-05-06T11:10:00.000+02:00", "lat": 54.4852, "lon": 9.0568, "intensity": 0.8, "source": "Tagesschau"}, {"title": "Auf offener Stra\u00dfe angeschossen: Staatsanwaltschaft will Haftbefehle beantragen", "url": "https://www.tagesschau.de/inland/regional/thueringen/mdr-auf-offener-strasse-angeschossen-mensch-in-gera-schwer-verletzt-100.html", "thumbnailUrl": "https://images.tagesschau.de/image/1442619f-8c92-4f49-8008-b25993b7835b/AAABj08bDAQ/AAABjwnlKNc/16x9-512.jpg", "date": "2024-05-06T11:03:00.000+02:00", "lat": 50.8816, "lon": 12.0824, "intensity": 0.7, "source": "Tagesschau"}, {"title": "Lebenshilfe ruft zu Aktionstag auf: Wie barrierefrei ist Peine?", "url": "https://www.tagesschau.de/inland/regional/niedersachsen/ndr-lebenshilfe-ruft-zu-aktionstag-auf-wie-barrierefrei-ist-peine-100.html", "thumbnailUrl": "https://images.tagesschau.de/image/823a0925-116b-4473-b3de-47981aaff573/AAABj00lZvs/AAABjwnlKNc/16x9-512.jpg", "date": "2024-05-06T11:02:00.000+02:00", "lat": 52.3182, "lon": 10.2314, "intensity": 0.6, "source": "Tagesschau"}, {"title": "Schon wieder Lotto-Gl\u00fcck: Saarl\u00e4nder gewinnt \u00fcber eine halbe Million Euro", "url": "https://www.tagesschau.de/inland/regional/saarland/sr-schon-wieder-lotto-glueck-saarlaender-gewinnt-ueber-eine-halbe-million-100.html", "thumbnailUrl": "https://images.tagesschau.de/image/4b6bcc5c-2b94-4752-9718-01b85ceff96b/AAABj007RLs/AAABjwnlKNc/16x9-512.jpg", "date": "2024-05-06T11:02:00.000+02:00", "lat": 49.3964, "lon": 7.0232, "intensity": 0.8, "source": "Tagesschau"}, {"title": "Demonstrationen: Mehrere Tausend Menschen solidarisieren sich mit angegriffenem SPD-Politiker", "url": "https://www.tagesschau.de/inland/regional/brandenburg/rbb-demonstrationen-hunderte-menschen-setzen-zeichen-gegen-verrohung-in-politischer-auseinandersetzung-100.html", "thumbnailUrl": "https://images.tagesschau.de/image/cb86c36e-9335-41ae-b281-5583f08229bf/AAABj072cBU/AAABjwnlKNc/16x9-512.jpg", "date": "2024-05-06T11:01:59.000+02:00", "lat": 52.520007, "lon": 13.404954, "intensity": 0.8, "source": "Tagesschau"}, {"title": "Vorfahrt genommen: F\u00fcnf Verletzte bei Unfall in Bad Iburg", "url": "https://www.tagesschau.de/inland/regional/niedersachsen/ndr-vorfahrt-genommen-fuenf-verletzte-bei-unfall-in-bad-iburg-100.html", "thumbnailUrl": "https://images.tagesschau.de/image/1ff13024-3909-4d9d-964c-caf67fe07da3/AAABj00jif4/AAABjwnlKNc/16x9-512.jpg", "date": "2024-05-06T11:01:00.000+02:00", "lat": 52.1729, "lon": 8.0326, "intensity": 0.7, "source": "Tagesschau"}, {"title": "Scharfe Kritik an Al-Jazeera-Schlie\u00dfung", "url": "https://www.tagesschau.de/ausland/israel-schliessung-aldschasira-kritik-100.html", "thumbnailUrl": "https://images.tagesschau.de/image/d62eaae5-e955-410c-9c36-dd77253c6ec7/AAABj0x20oY/AAABjwnlKNc/16x9-512.jpg", "date": "2024-05-06T10:55:55.291+02:00", "lat": 31.7683, "lon": 35.2137, "intensity": 0.8, "source": "Tagesschau"}, {"title": "Gr\u00fcne fordern bundesweite Taskforce im Kampf gegen die AfD", "url": "https://www.tagesschau.de/inland/regional/sachsenanhalt/mdr-gruene-fordern-bundesweite-taskforce-im-kampf-gegen-die-afd-100.html", "thumbnailUrl": "https://images.tagesschau.de/image/a888effa-bb11-45fd-9647-bc7b0a7d126b/AAABj00Wxvg/AAABjwnlKNc/16x9-512.jpg", "date": "2024-05-06T10:47:17.000+02:00", "lat": 52.1333, "lon": 11.6333, "intensity": 0.8, "source": "Tagesschau"}, {"title": "Ein Durchbruch in vielerlei Hinsicht", "url": "https://www.tagesschau.de/ausland/europa/30-jahre-eurotunnel-100.html", "thumbnailUrl": "https://images.tagesschau.de/image/cb8f711a-b7e5-44d9-b16e-99659ece35cb/AAABhnkGNWw/AAABjwnlKNc/16x9-512.jpg", "date": "2024-05-06T10:42:30.591+02:00", "lat": 50.9513, "lon": 1.8578, "intensity": 0.7, "source": "Tagesschau"}, {"title": "Terminausf\u00e4lle und Wartezeiten: Zwei Tage Warnstreik bei der Telekom", "url": "https://www.tagesschau.de/inland/regional/badenwuerttemberg/swr-zwei-tage-warnstreik-bei-der-telekom-102.html", "thumbnailUrl": "https://images.tagesschau.de/image/7ffb7735-f043-48a5-8465-0ba85e799fac/AAABj00Csmk/AAABjwnlKNc/16x9-512.jpg", "date": "2024-05-06T10:42:00.000+02:00", "lat": 48.7758, "lon": 9.7356, "intensity": 0.8, "source": "Tagesschau"}, {"title": "Hessen am Morgen: +++ Ausgeb\u00fcxter Bulle und Kuh weiter unterwegs +++ Motorradfahrer fast 70 km/h zu schnell +++ Frau mit Hammer verletzt +++", "url": "https://www.tagesschau.de/inland/regional/hessen/hr-hessen-am-morgen--ausgebuexter-bulle-und-kuh-weiter-unterwegs-100.html", "thumbnailUrl": "https://images.tagesschau.de/image/aae44de1-2576-455e-b20a-e79bcd9d9339/AAABj013xGQ/AAABjwnlKNc/16x9-512.jpg", "date": "2024-05-06T10:29:36.758+02:00", "lat": 50.1109, "lon": 8.6833, "intensity": 0.6, "source": "Tagesschau"}, {"title": "100.000 Zivilisten sollen Rafah verlassen", "url": "https://www.tagesschau.de/ausland/asien/israel-rafah-evakuierungen-100.html", "thumbnailUrl": "https://images.tagesschau.de/image/a276e339-8b46-47b0-b9d8-76327d670eea/AAABj0x4dmo/AAABjwnlKNc/16x9-512.jpg", "date": "2024-05-06T10:27:11.232+02:00", "lat": 31.4167, "lon": 34.25, "intensity": 0.8, "source": "Tagesschau"}, {"title": "Illegales Autorennen mit mehr als 200 Kilometer pro Stunde", "url": "https://www.tagesschau.de/inland/regional/niedersachsen/ndr-illegales-autorennen-mit-mehr-als-200-kilometer-pro-stunde-100.html", "thumbnailUrl": "https://images.tagesschau.de/image/af4cb637-c8b7-4c64-b54b-d5da4cdd5e66/AAABj0z7iXI/AAABjwnlKNc/16x9-512.jpg", "date": "2024-05-06T10:15:00.000+02:00", "lat": 52.4269, "lon": 9.6033, "intensity": 0.8, "source": "Tagesschau"}, {"title": "Diese 35 Parteien stehen in Deutschland zur Wahl", "url": "https://www.tagesschau.de/europawahl/parteien_und_programme/europawahl-2024-parteien-100.html", "thumbnailUrl": "https://images.tagesschau.de/image/097844bb-8851-4303-84c2-769c763970a0/AAABjzjsDbc/AAABjwnlKNc/16x9-512.jpg", "date": "2024-05-06T10:12:58.461+02:00", "lat": 51.1657, "lon": 9.997, "intensity": 0.5, "source": "Tagesschau"}, {"title": "Wo Europa mit Hightech punkten kann", "url": "https://www.tagesschau.de/wirtschaft/unternehmen/chip-oberkochen-zeiss-100.html", "thumbnailUrl": "https://images.tagesschau.de/image/d5a41318-b0e7-4f3b-bc4f-8c45c4d27875/AAABjzQjzM0/AAABjwnlKNc/16x9-512.jpg", "date": "2024-05-06T10:12:01.970+02:00", "lat": 52.3759, "lon": 9.8136, "intensity": 0.7, "source": "Tagesschau"}, {"title": "Kasseler Flusslandschaft: Wie Caspar David Friedrich nach 250 Jahren noch verbl\u00fcfft", "url": "https://www.tagesschau.de/inland/regional/hessen/hr-kasseler-flusslandschaft-wie-caspar-david-friedrich-nach-250-jahren-noch-verbluefft-100.html", "thumbnailUrl": "https://images.tagesschau.de/image/938535b4-ead7-48e1-b42b-bd6c4dc7a391/AAABj0zyDjI/AAABjwnlKNc/16x9-512.jpg", "date": "2024-05-06T10:06:57.251+02:00", "lat": 51.31283, "lon": 9.50265, "intensity": 0.6, "source": "Tagesschau"}, {"title": "RLP f\u00fcr besseren Schutz von Politikern, Urteil im Amok-Prozess von Trier, Blitzer angez\u00fcndet", "url": "https://www.tagesschau.de/inland/regional/rheinlandpfalz/swr-rlp-fuer-besseren-schutz-von-politikern-urteil-im-amok-prozess-von-trier-mainz-holt-punkt-in-heidenheim-100.html", "thumbnailUrl": "https://images.tagesschau.de/image/2ba38161-a51d-4dbe-8966-441c4a84864d/AAABj0yaRBE/AAABjwnlKNc/16x9-512.jpg", "date": "2024-05-06T10:01:00.000+02:00", "lat": 49.6116, "lon": 7.4458, "intensity": 0.8, "source": "Tagesschau"}, {"title": "BW-Newsticker am Morgen: Erbstreit um Drogerieunternehmer M\u00fcller vor Gericht, Angriff auf Politiker: Solidarit\u00e4t aus BW, W\u00fcrth: AfD-Brief kostete Millionen-Umsatz", "url": "https://www.tagesschau.de/inland/regional/badenwuerttemberg/swr-bw-newsticker-am-morgen-adoptivkinder-klagen-gegen-drogeriekette-mueller-reichsbuerger-wollen-sich-im-terrorprozess-aeussern-wuerth-afd-brief-kostete-millionen-umsatz-100.html", "thumbnailUrl": "https://images.tagesschau.de/image/a065d99e-da5c-4979-ae03-eb052637f222/AAABj07geSQ/AAABjwnlKNc/16x9-512.jpg", "date": "2024-05-06T10:00:00.000+02:00", "lat": 48.7374, "lon": 9.9937, "intensity": 0.7, "source": "Tagesschau"}, {"title": "Floorball: Schenefeld ab Sommer zur\u00fcck in der Bundesliga", "url": "https://www.tagesschau.de/inland/regional/schleswigholstein/ndr-floorball-schenefeld-ab-sommer-zurueck-in-der-bundesliga-100.html", "thumbnailUrl": "https://images.tagesschau.de/image/03ec7925-b899-4e9d-b003-b0cb35d9eec5/AAABj0zqy_c/AAABjwnlKNc/16x9-512.jpg", "date": "2024-05-06T09:55:00.000+02:00", "lat": 53.6226, "lon": 9.8313, "intensity": 0.6, "source": "Tagesschau"}, {"title": "Kretschmer bei Miosga: \"Es ist f\u00fcnf vor Zw\u00f6lf\"", "url": "https://www.tagesschau.de/inland/regional/sachsen/mdr-kretschmer-bei-miosga-es-ist-fuenf-vor-zwoelf-100.html", "thumbnailUrl": "https://images.tagesschau.de/image/d043d9cd-88c8-40d1-8922-3a023394d620/AAABj1B3NK4/AAABjwnlKNc/16x9-512.jpg", "date": "2024-05-06T09:51:58.000+02:00", "lat": 51.0504088, "lon": 13.7372621, "intensity": 0.8, "source": "Tagesschau"}, {"title": "Verkehrskontrollen im Mai: Polizei in MV hat Zweir\u00e4der im Fokus", "url": "https://www.tagesschau.de/inland/regional/mecklenburgvorpommern/ndr-verkehrskontrollen-im-mai-polizei-in-mv-hat-zweiraeder-im-fokus-100.html", "thumbnailUrl": "https://images.tagesschau.de/image/b6788b30-9527-463a-9837-b5254dab346a/AAABj00EWhM/AAABjwnlKNc/16x9-512.jpg", "date": "2024-05-06T09:50:00.000+02:00", "lat": 53.6505, "lon": 13.0833, "intensity": 0.6, "source": "Tagesschau"}, {"title": "So hat Wieda im Harz die Wildschweine aus dem Ort vertrieben", "url": "https://www.tagesschau.de/inland/regional/niedersachsen/ndr-so-hat-wieda-im-harz-wildschweine-aus-dem-ort-vertrieben-100.html", "thumbnailUrl": "https://images.tagesschau.de/image/88631d09-bd01-4e2e-be97-d90c935b5efe/AAABj0zf23M/AAABjwnlKNc/16x9-512.jpg", "date": "2024-05-06T09:45:00.000+02:00", "lat": 51.645, "lon": 10.6391, "intensity": 0.6, "source": "Tagesschau"}, {"title": "Niedersachsen: Rund 230 Kinder werden im Land vermisst", "url": "https://www.tagesschau.de/inland/regional/niedersachsen/ndr-mehr-als-200-kinder-werden-in-niedersachsen-vermisst-100.html", "thumbnailUrl": "https://images.tagesschau.de/image/ca6c2d65-a106-42bf-ba57-0ac25336cc3b/AAABj0zYm1A/AAABjwnlKNc/16x9-512.jpg", "date": "2024-05-06T09:39:00.000+02:00", "lat": 52.6367, "lon": 10.4515, "intensity": 0.8, "source": "Tagesschau"}, {"title": "37 Stunden Kegel-Marathon: Bohmter Club stellt Weltrekord auf", "url": "https://www.tagesschau.de/inland/regional/niedersachsen/ndr-37-stunden-kegel-marathon-bohmter-club-wagt-weltrekordversuch-100.html", "thumbnailUrl": "https://images.tagesschau.de/image/58afe7eb-bc84-4f39-92cc-608b208c14db/AAABj0zS-7c/AAABjwnlKNc/16x9-512.jpg", "date": "2024-05-06T09:33:00.000+02:00", "lat": 52.3796, "lon": 8.3074, "intensity": 0.7, "source": "Tagesschau"}, {"title": "Ab aufs Fahrrad: Fast 3.000 Celler machen beim Stadtradeln mit", "url": "https://www.tagesschau.de/inland/regional/niedersachsen/ndr-ab-aufs-fahrrad-fast-3-000-celler-machen-beim-stadtradeln-mit-100.html", "thumbnailUrl": "https://images.tagesschau.de/image/28ffa259-4415-433b-9857-05c51522aa85/AAABj00s0jw/AAABjwnlKNc/16x9-512.jpg", "date": "2024-05-06T09:23:00.000+02:00", "lat": 52.624, "lon": 10.0809, "intensity": 0.7, "source": "Tagesschau"}, {"title": "4G-Ausbau in Berlin abgeschlossen: In U-Bahnen soll es ab sofort auf allen Linien besseren Handyempfang geben", "url": "https://www.tagesschau.de/inland/regional/berlin/rbb-4g-ausbau-in-berlin-abgeschlossen-in-u-bahnen-soll-es-ab-sofort-auf-allen-linien-besseren-handyempfang-geben-100.html", "thumbnailUrl": "https://images.tagesschau.de/image/730d3f24-d759-4023-bbb1-c3a57749130f/AAABj0zAo20/AAABjwnlKNc/16x9-512.jpg", "date": "2024-05-06T09:12:39.000+02:00", "lat": 52.520008, "lon": 13.404954, "intensity": 0.7, "source": "Tagesschau"}, {"title": "Auch Gegenwind zum Jahrestag", "url": "https://www.tagesschau.de/ausland/europa/jahrestag-kroenung-charles-100.html", "thumbnailUrl": "https://images.tagesschau.de/image/136fe7d5-805e-4a96-9d64-0139d6a407d2/AAABj0yFews/AAABjwnlKNc/16x9-512.jpg", "date": "2024-05-06T09:01:53.914+02:00", "lat": 51.5074, "lon": -0.1276, "intensity": 0.7, "source": "Tagesschau"}, {"title": "Transat CIC: Segler Boris Herrmann k\u00e4mpft um den Sieg", "url": "https://www.tagesschau.de/inland/regional/hamburg/ndr-transat-cic-segler-boris-herrmann-vor-groesstem-karriereerfolg-102.html", "thumbnailUrl": "https://images.tagesschau.de/image/8fe57612-fae6-406a-aa72-9720e3be694a/AAABj0-tki4/AAABjwnlKNc/16x9-512.jpg", "date": "2024-05-06T08:45:00.000+02:00", "lat": 53.5511, "lon": 9.9937, "intensity": 0.8, "source": "Tagesschau"}, {"title": "M\u00f6gliche Einschr\u00e4nkungen bei Telekom wegen Warnstreik am Montag und Dienstag", "url": "https://www.tagesschau.de/inland/regional/berlin/rbb-moegliche-einschraenkungen-bei-telekom-wegen-warnstreik-am-montag-und-dienstag-100.html", "thumbnailUrl": "https://images.tagesschau.de/image/9ed0f357-eca2-4d53-a998-fea53da90436/AAABj0yS10U/AAABjwnlKNc/16x9-512.jpg", "date": "2024-05-06T08:20:03.000+02:00", "lat": 52.520008, "lon": 13.404954, "intensity": 0.8, "source": "Tagesschau"}, {"title": "Teile von rotierendem Windrad bei Bad K\u00f6nig abgefallen", "url": "https://www.tagesschau.de/inland/regional/hessen/hr-spaziergaenger-rufen-polizei-meterlange-teile-fallen-von-rotierenden-windraedern-100.html", "thumbnailUrl": "https://images.tagesschau.de/image/a8889ff4-7b2b-4498-81ae-0e31fb3d2f83/AAABj0yNVZo/AAABjwnlKNc/16x9-512.jpg", "date": "2024-05-06T08:17:13.969+02:00", "lat": 49.7646, "lon": 9.0151, "intensity": 0.6, "source": "Tagesschau"}, {"title": "M\u00e4rkisch-Oderland: Erster Brandenburger Landkreis teilt Bezahlkarte f\u00fcr Asylbewerber aus", "url": "https://www.tagesschau.de/inland/regional/brandenburg/rbb-maerkisch-oderland-erster-brandenburger-landkreis-teilt-bezahlkarte-fuer-asylbewerber-aus-100.html", "thumbnailUrl": "https://images.tagesschau.de/image/a79cdc42-777e-4fad-aab0-54c4cf0013af/AAABj0yLm5A/AAABjwnlKNc/16x9-512.jpg", "date": "2024-05-06T08:14:37.000+02:00", "lat": 52.6023, "lon": 13.8551, "intensity": 0.6, "source": "Tagesschau"}, {"title": "Eintracht Frankfurt unterliegt Bayer Leverkusen: Eine Ecke, aber zwei Elfer", "url": "https://www.tagesschau.de/inland/regional/hessen/hr-eintracht-frankfurt-unterliegt-bayer-leverkusen-eine-ecke-aber-zwei-elfer-102.html", "thumbnailUrl": "https://images.tagesschau.de/image/f244c990-485d-460a-a594-ce048a21c35a/AAABj0xnKWQ/AAABjwnlKNc/16x9-512.jpg", "date": "2024-05-06T07:28:48.184+02:00", "lat": 50.110922, "lon": 8.581214, "intensity": 0.8, "source": "Tagesschau"}, {"title": "Europawahl: Viel R\u00fcckenwind f\u00fcr FDP-Kandidat Helmer Krane", "url": "https://www.tagesschau.de/inland/regional/schleswigholstein/ndr-europawahl-viel-rueckenwind-fuer-fdp-kandidat-helmer-krane-100.html", "thumbnailUrl": "https://images.tagesschau.de/image/a4e74995-59ba-46c1-97ca-33e6d85f1451/AAABj0xf1QU/AAABjwnlKNc/16x9-512.jpg", "date": "2024-05-06T07:27:00.000+02:00", "lat": 54.3233, "lon": 9.9937, "intensity": 0.8, "source": "Tagesschau"}, {"title": "Ulmer Drogerieunternehmer Erwin M\u00fcller: Erbstreit vor Gericht beginnt", "url": "https://www.tagesschau.de/inland/regional/badenwuerttemberg/swr-ulmer-drogerieunternehmer-erwin-mueller-erbstreit-vor-gericht-beginnt-102.html", "thumbnailUrl": "https://images.tagesschau.de/image/b53bec67-eaee-46d3-b5a7-ce4467f33108/AAABj07gdcc/AAABjwnlKNc/16x9-512.jpg", "date": "2024-05-06T07:25:00.000+02:00", "lat": 48.401082, "lon": 9.993682, "intensity": 0.8, "source": "Tagesschau"}, {"title": "Frauenh\u00e4user in Hamburg sind fast vollst\u00e4ndig ausgelastet", "url": "https://www.tagesschau.de/inland/regional/hamburg/ndr-frauenhaeuser-in-hamburg-sind-fast-vollstaendig-ausgelastet-100.html", "thumbnailUrl": "https://images.tagesschau.de/image/060a99d1-2acc-4212-8cde-e4fa3c96496f/AAABj0wwBDg/AAABjwnlKNc/16x9-512.jpg", "date": "2024-05-06T07:24:00.000+02:00", "lat": 53.5511, "lon": 9.9937, "intensity": 0.8, "source": "Tagesschau"}, {"title": "Blitzer am Opelkreisel in Kaiserslautern angez\u00fcndet", "url": "https://www.tagesschau.de/inland/regional/rheinlandpfalz/swr-blitzer-am-opelkreisel-in-kaiserslautern-angezuendet-102.html", "thumbnailUrl": "https://images.tagesschau.de/image/1f693e59-623d-4988-9819-bf311d2abab5/AAABj01Ebi8/AAABjwnlKNc/16x9-512.jpg", "date": "2024-05-06T07:20:48.000+02:00", "lat": 49.4435, "lon": 7.7623, "intensity": 0.8, "source": "Tagesschau"}, {"title": "Online-Shop f\u00fcr Gartenger\u00e4te im Enzkreis entpuppt sich als Betrug", "url": "https://www.tagesschau.de/inland/regional/badenwuerttemberg/swr-online-shop-fuer-gartengeraete-im-enzkreis-entpuppt-sich-als-betrug-100.html", "thumbnailUrl": "https://images.tagesschau.de/image/944e570c-af4f-44aa-bc0f-e6fd79b7d6c4/AAABj0yQ_dU/AAABjwnlKNc/16x9-512.jpg", "date": "2024-05-06T07:18:59.000+02:00", "lat": 48.9021, "lon": 8.7105, "intensity": 0.8, "source": "Tagesschau"}, {"title": "Kurzer Besuch mit heiklen Themen", "url": "https://www.tagesschau.de/ausland/europa/xi-frankreich-100.html", "thumbnailUrl": "https://images.tagesschau.de/image/2de4de39-4ce8-401b-a8cd-e9368c616a1e/AAABj0w73lw/AAABjwnlKNc/16x9-512.jpg", "date": "2024-05-06T07:11:50.218+02:00", "lat": 48.8566, "lon": 2.3522, "intensity": 0.8, "source": "Tagesschau"}, {"title": "Kulturelle Landpartie: Auflagen erschweren Camping", "url": "https://www.tagesschau.de/inland/regional/niedersachsen/ndr-kulturelle-landpartie-auflagen-erschweren-camping-100.html", "thumbnailUrl": "https://images.tagesschau.de/image/70c9bdc4-d9c9-4887-afc9-a5b71a6488c4/AAABj0yhk0M/AAABjwnlKNc/16x9-512.jpg", "date": "2024-05-06T06:57:00.000+02:00", "lat": 52.9501, "lon": 10.109, "intensity": 0.6, "source": "Tagesschau"}, {"title": "Mitmach-Recherche im Wahljahr: Wer steckt hinter heimlicher Wahlwerbung? ", "url": "https://www.tagesschau.de/inland/regional/saarland/sr-mitmach-recherche-im-wahljahr-wer-steckt-hinter-heimlicher-wahlwerbung-100.html", "thumbnailUrl": "https://images.tagesschau.de/image/9513aa5d-c350-4b23-b86c-4eeaa3e956f5/AAABj0wxw4I/AAABjwnlKNc/16x9-512.jpg", "date": "2024-05-06T06:35:00.000+02:00", "lat": 49.3964, "lon": 7.0232, "intensity": 0.8, "source": "Tagesschau"}, {"title": "Gutachten: Modernes Rettungszentrum des Kreises Soest schon veraltet", "url": "https://www.tagesschau.de/inland/regional/nordrheinwestfalen/wdr-gutachten-modernes-rettungszentrum-des-kreises-soest-schon-veraltet-102.html", "thumbnailUrl": "https://images.tagesschau.de/image/adcd5f6f-5bf0-402f-860a-739897c3893d/AAABj0yAhG0/AAABjwnlKNc/16x9-512.jpg", "date": "2024-05-06T06:30:00.000+02:00", "lat": 51.5756, "lon": 8.1024, "intensity": 0.7, "source": "Tagesschau"}, {"title": "Guten Morgen, NRW!", "url": "https://www.tagesschau.de/inland/regional/nordrheinwestfalen/wdr-guten-morgen-nrw-470.html", "thumbnailUrl": "https://images.tagesschau.de/image/d4b76ea7-4e83-43ea-8611-24a8a8d68263/AAABj0xm3n0/AAABjwnlKNc/16x9-512.jpg", "date": "2024-05-06T06:27:00.000+02:00", "lat": 51.0875, "lon": 6.5356, "intensity": 0.8, "source": "Tagesschau"}, {"title": "Klimaneutral? Zwei Kreuzfahrt-Reedereien verschieben Ziel", "url": "https://www.tagesschau.de/inland/regional/hamburg/ndr-klimaneutral-zwei-kreuzfahrt-reedereien-verschieben-ziel-100.html", "thumbnailUrl": "https://images.tagesschau.de/image/c007a36f-8e38-4603-ba8e-73428bf89512/AAABj0wm2G8/AAABjwnlKNc/16x9-512.jpg", "date": "2024-05-06T06:23:00.000+02:00", "lat": 53.5511, "lon": 9.9937, "intensity": 0.8, "source": "Tagesschau"}, {"title": "Interview | Tattoos weglasern: \"Je bunter eine T\u00e4towierung, desto aufw\u00e4ndiger ist die Entfernung\"", "url": "https://www.tagesschau.de/inland/regional/brandenburg/rbb-interview--tattoos-weglasern-je-bunter-eine-taetowierung-desto-aufwaendiger-ist-die-entfernung-100.html", "thumbnailUrl": "https://images.tagesschau.de/image/d8ac8051-98a1-4425-b175-b9deb141c7a4/AAABj0wo4uk/AAABjwnlKNc/16x9-512.jpg", "date": "2024-05-06T06:23:00.000+02:00", "lat": 52.520008, "lon": 13.404954, "intensity": 0.7, "source": "Tagesschau"}, {"title": "Vor 81 Jahren: J\u00fcdische Gemeinde erinnert an Warschauer Ghetto-Aufstand", "url": "https://www.tagesschau.de/inland/regional/berlin/rbb-vor-81-jahren-juedische-gemeinde-erinnert-an-warschauer-ghetto-aufstand-100.html", "thumbnailUrl": "https://images.tagesschau.de/image/42100c1b-c262-48cf-a95c-0d98ad2e6ea6/AAABj0wjMm8/AAABjwnlKNc/16x9-512.jpg", "date": "2024-05-06T06:19:04.000+02:00", "lat": 52.520007, "lon": 13.404954, "intensity": 0.7, "source": "Tagesschau"}, {"title": "Dramatische Stunden im Moor: 81-J\u00e4hriger mit Hubschrauber gerettet", "url": "https://www.tagesschau.de/inland/regional/mecklenburgvorpommern/ndr-dramatische-stunden-im-moor-81-jaehriger-mit-hubschrauber-gerettet-100.html", "thumbnailUrl": "https://images.tagesschau.de/image/138f00c9-5ab3-4f52-bbf8-f8cefc80a500/AAABj082kTE/AAABjwnlKNc/16x9-512.jpg", "date": "2024-05-06T06:03:00.000+02:00", "lat": 53.6127, "lon": 12.7221, "intensity": 0.8, "source": "Tagesschau"}, {"title": "Nach Komplettabriss: Neuer Windpark in J\u00fcchen wird eingeweiht", "url": "https://www.tagesschau.de/inland/regional/nordrheinwestfalen/wdr-nach-komplettabriss-neuer-windpark-in-juechen-wird-eingeweiht-104.html", "thumbnailUrl": "https://images.tagesschau.de/image/370f964c-436c-4c1d-be92-5807a7bf43b6/AAABj0zjeg8/AAABjwnlKNc/16x9-512.jpg", "date": "2024-05-06T06:00:00.000+02:00", "lat": 51.1014, "lon": 6.5147, "intensity": 0.6, "source": "Tagesschau"}, {"title": "Nachnominierter Kandidat gewinnt Panama-Wahl", "url": "https://www.tagesschau.de/ausland/amerika/panama-praesidentschaftswahl-100.html", "thumbnailUrl": "https://images.tagesschau.de/image/5e5f2683-4dab-4a04-ae78-98dc91a10324/AAABj0v1FZM/AAABjwnlKNc/16x9-512.jpg", "date": "2024-05-06T05:45:33.563+02:00", "lat": 8.9824, "lon": -79.5196, "intensity": 0.8, "source": "Tagesschau"}, {"title": "Was ist los mit Steinmeier?", "url": "https://www.tagesschau.de/inland/innenpolitik/steinmeier-kritik-100.html", "thumbnailUrl": "https://images.tagesschau.de/image/6f093ae5-9b78-4623-b302-7fd5c68555ee/AAABjxEP7As/AAABjwnlKNc/16x9-512.jpg", "date": "2024-05-06T05:13:19.977+02:00", "lat": 53.551085, "lon": 9.993682, "intensity": 0.7, "source": "Tagesschau"}, {"title": "Kiel und Neum\u00fcnster: Arm und Reich leben getrennt voneinander", "url": "https://www.tagesschau.de/inland/regional/schleswigholstein/ndr-kiel-und-neumuenster-arm-und-reich-leben-getrennt-voneinander-100.html", "thumbnailUrl": "https://images.tagesschau.de/image/b758e974-f503-4126-895c-525116ba1b0f/AAABj00A9Go/AAABjwnlKNc/16x9-512.jpg", "date": "2024-05-06T05:00:00.000+02:00", "lat": 54.3233, "lon": 10.1349, "intensity": 0.7, "source": "Tagesschau"}, {"title": "Westliche Waffen gegen Ziele in Russland?", "url": "https://www.tagesschau.de/ausland/europa/ukraine-westen-waffen-krieg-100.html", "thumbnailUrl": "https://images.tagesschau.de/image/327af640-634c-47b7-83ab-ae71f098d7a6/AAABiS-6L8Q/AAABjwnlKNc/16x9-512.jpg", "date": "2024-05-06T03:55:06.732+02:00", "lat": 50.4501, "lon": 30.5234, "intensity": 0.7, "source": "Tagesschau"}, {"title": "Kretschmer sieht \"eine neue Qualit\u00e4t\" bei Gewalt", "url": "https://www.tagesschau.de/inland/gesellschaft/miosga-angriff-spd-politiker-dresden-100.html", "thumbnailUrl": "https://images.tagesschau.de/image/d5a90f1c-ba7b-43c6-acfb-19669b72410f/AAABj0tUvg8/AAABjwnlKNc/16x9-512.jpg", "date": "2024-05-06T02:43:53.074+02:00", "lat": 51.050409, "lon": 13.737262, "intensity": 0.8, "source": "Tagesschau"}, {"title": "Hamas stimmt Vorschlag f\u00fcr Feuerpause im Gazastreifen zu - Israel lehnt ab", "url": "https://www.br.de/nachrichten/meldungen/index.html#n1", "thumbnailUrl": null, "date": "2024-05-07T02:31:29+02:00", "lat": 30.0444, "lon": 31.2357, "intensity": 0.8, "source": "Bayrischer Rundfunk"}, {"title": "CDU-Parteitag best\u00e4tigt Merz mit knapp 90 Prozent im Amt", "url": "https://www.br.de/nachrichten/meldungen/index.html#n2", "thumbnailUrl": null, "date": "2024-05-07T02:31:29+02:00", "lat": 33.5138, "lon": 36.2021, "intensity": 0.8, "source": "Bayrischer Rundfunk"}, {"title": "St\u00e4dtebund fordert mehr Schutz f\u00fcr Kommunalpolitiker", "url": "https://www.br.de/nachrichten/meldungen/index.html#n3", "thumbnailUrl": null, "date": "2024-05-07T02:31:29+02:00", "lat": 39.9334, "lon": 32.8597, "intensity": 0.8, "source": "Bayrischer Rundfunk"}, {"title": "\u00c4rztepr\u00e4sident will Steuererleichterungen f\u00fcr aktive Mediziner im Rentenalter", "url": "https://www.br.de/nachrichten/meldungen/index.html#n4", "thumbnailUrl": null, "date": "2024-05-07T02:31:29+02:00", "lat": 52.520008, "lon": 13.404954, "intensity": 0.7, "source": "Bayrischer Rundfunk"}, {"title": "USA kritisierten angek\u00fcndigte Nuklear\u00fcbung in Russland", "url": "https://www.br.de/nachrichten/meldungen/index.html#n5", "thumbnailUrl": null, "date": "2024-05-07T02:31:29+02:00", "lat": 52.520008, "lon": 13.404954, "intensity": 0.6, "source": "Bayrischer Rundfunk"}, {"title": "AfD-Spitze beantragt Ausschlussverfahren gegen Halemba", "url": "https://www.br.de/nachrichten/meldungen/index.html#n6", "thumbnailUrl": null, "date": "2024-05-07T02:31:29+02:00", "lat": 48.135125, "lon": 11.581981, "intensity": 0.6, "source": "Bayrischer Rundfunk"}, {"title": "US-Luftfahrtbeh\u00f6rde leitet neue Untersuchung gegen Boeing ein", "url": "https://www.br.de/nachrichten/meldungen/index.html#n7", "thumbnailUrl": null, "date": "2024-05-07T02:31:29+02:00", "lat": 50.110922, "lon": 8.682127, "intensity": 0.8, "source": "Bayrischer Rundfunk"}, {"title": "Deutlich mehr Studierende an privaten Hochschulen", "url": "https://www.br.de/nachrichten/meldungen/index.html#n8", "thumbnailUrl": null, "date": "2024-05-07T02:31:29+02:00", "lat": 47.8684, "lon": 12.6394, "intensity": 0.8, "source": "Bayrischer Rundfunk"}, {"title": "Keine gr\u00f6\u00dfere Sch\u00e4den nach Unwettern in S\u00fcdbayern", "url": "https://www.br.de/nachrichten/meldungen/index.html#n9", "thumbnailUrl": null, "date": "2024-05-07T02:31:29+02:00", "lat": 48.5844, "lon": 13.6722, "intensity": 0.8, "source": "Bayrischer Rundfunk"}, {"title": "Berichterstattung \u00fcber Gaza-Krieg steht im Fokus der diesj\u00e4hrigen Pulitzerpreise", "url": "https://www.br.de/nachrichten/meldungen/index.html#n10", "thumbnailUrl": null, "date": "2024-05-07T02:31:29+02:00", "lat": 53.5396, "lon": 8.5761, "intensity": 0.4, "source": "Bayrischer Rundfunk"}, {"title": "Das Wetter in Bayern: Nachts gebietsweise Regen, 11 bis 7 Grad", "url": "https://www.br.de/nachrichten/meldungen/index.html#n11", "thumbnailUrl": null, "date": "2024-05-07T02:31:29+02:00", "lat": 48.1351, "lon": 11.582, "intensity": 0.3, "source": "Bayrischer Rundfunk"}, {"title": "Mann in Berlin-Spandau erschossen - T\u00e4ter fl\u00fcchtig", "url": "https://www.rbb24.de/panorama/beitrag/2024/05/berlin-spandau-falkenhagener-feld-tote-person-schuesse.html", "thumbnailUrl": null, "date": "Mon, 06 May 2024 21:16:00 +0200", "lat": 52.535143, "lon": 13.197774, "intensity": 0.8, "source": "RBB"}, {"title": "Krankenhausreform: Brandenburg dringt auf mehr Sicherheit f\u00fcr Kliniken", "url": "https://www.rbb24.de/politik/beitrag/2024/05/krankenhausreform-lauterbach-kritik-brandenburg-kliniken.html", "thumbnailUrl": null, "date": "Mon, 06 May 2024 20:12:00 +0200", "lat": 52.5013, "lon": 13.4251, "intensity": 0.7, "source": "RBB"}, {"title": "M\u00e4rkisch-Oderland: Gr\u00fcne in Neuenhagen erhalten Geldspende f\u00fcr neue Plakate - von der FDP", "url": "https://www.rbb24.de/politik/beitrag/2024/05/brandenburg-maerkisch-oderland-fdp-politiker-spendet-geld-gruenen-plakate.html", "thumbnailUrl": null, "date": "Mon, 06 May 2024 19:27:44 +0200", "lat": 52.5166, "lon": 13.6403, "intensity": 0.3, "source": "RBB"}, {"title": "Nach Angriff auf SPD-Politiker: Parteien berichten von hoher Aggressivit\u00e4t gegen\u00fcber Wahlk\u00e4mpfern", "url": "https://www.rbb24.de/politik/beitrag/2024/05/berlin-brandenburg-wahlkampf-angriff-dresden-reaktionen.html", "thumbnailUrl": null, "date": "Mon, 06 May 2024 19:23:00 +0200", "lat": 51.050409, "lon": 13.737262, "intensity": 0.8, "source": "RBB"}, {"title": "Regionalliga Nordost: So kann Energie Cottbus den Drittliga-Aufstieg perfekt machen", "url": "https://www.rbb24.de/sport/beitrag/2024/05/brandenburg-sport-fussball-energie-cottbus-regionalliga-nordost-greifswald-aufstieg.html", "thumbnailUrl": null, "date": "Mon, 06 May 2024 18:58:47 +0200", "lat": 51.769, "lon": 14.328, "intensity": 0.8, "source": "RBB"}, {"title": "Autofahrer in Berlin-Charlottenburg ausgeraubt: Zweiter tatverd\u00e4chtiger Polizist festgenommen", "url": "https://www.rbb24.de/panorama/beitrag/2024/05/berlin-zweiter-polizeibeamterfestgenommen-nach-raub-autofahrer.html", "thumbnailUrl": null, "date": "Mon, 06 May 2024 18:36:15 +0200", "lat": 52.5166, "lon": 13.2919, "intensity": 0.7, "source": "RBB"}, {"title": "Abw\u00e4rme-Projekt: Rechenzentrum heizt k\u00fcnftig dem Sch\u00f6neberger \"Pallasseum\" ein", "url": "https://www.rbb24.de/panorama/beitrag/2024/05/berlin-schoeneberg-rechenzentrum-heizt-kuenftig-pallasstrasse-pallasseum-gewobag-gasag.html", "thumbnailUrl": null, "date": "Mon, 06 May 2024 18:05:00 +0200", "lat": 52.4931, "lon": 13.3527, "intensity": 0.6, "source": "RBB"}, {"title": "155 verletzte Polizisten: Innensenatorin verurteilt Vorf\u00e4lle beim Spiel BFC Dynamo gegen Energie Cottbus", "url": "https://www.rbb24.de/sport/beitrag/2024/05/berlin-brandenburg-fussball-energie-cottbus-bfc-dynamo-fans-gewalt-polzei-verletzt.html", "thumbnailUrl": null, "date": "Mon, 06 May 2024 16:28:53 +0200", "lat": 52.505848, "lon": 13.499143, "intensity": 0.8, "source": "RBB"}, {"title": "Union entl\u00e4sst Trainer Bjelica - Marco Grote \u00fcbernimmt erneut als Interimstrainer", "url": "https://www.rbb24.de/sport/beitrag/2024/05/fussball-union-berlin-nenad-bjelica-trainer-trennung-sommer.html", "thumbnailUrl": null, "date": "Mon, 06 May 2024 15:50:00 +0200", "lat": 52.52, "lon": 13.4692, "intensity": 0.7, "source": "RBB"}, {"title": "Mehr Onlinetickets, Ampeln zeigen Auslastung an, neue Hilferuf-App", "url": "https://www.rbb24.de/wirtschaft/beitrag/2024/05/berlin-baeder-betriebe-sommerbaeder-freibaeder-onlinetickets-auslastung-ampeln.html", "thumbnailUrl": null, "date": "Mon, 06 May 2024 15:47:00 +0200", "lat": 52.520008, "lon": 13.404954, "intensity": 0.6, "source": "RBB"}, {"title": "Mietschulden: 2.369 Berliner Haushalte wurden 2023 zwangsger\u00e4umt", "url": "https://www.rbb24.de/panorama/beitrag/2024/05/berlin-2369-wohnungen-wurden-zwangsgeraeumt-zwangsraeumung-schulden.html", "thumbnailUrl": null, "date": "Mon, 06 May 2024 14:58:19 +0200", "lat": 52.52001, "lon": 13.40495, "intensity": 0.7, "source": "RBB"}, {"title": "Jugend ohne Weihe: Hunderte junge Menschen werden in Cottbus vom Veranstalter versetzt", "url": "https://www.rbb24.de/panorama/beitrag/2024/05/jugendweihe-cottbus-ausgefallen-kein-veranstalter.html", "thumbnailUrl": null, "date": "Mon, 06 May 2024 14:53:00 +0200", "lat": 51.7562, "lon": 14.3356, "intensity": 0.5, "source": "RBB"}, {"title": "Berliner Grundsch\u00fclerin landet nach Social-Media-Challenge im Krankenhaus", "url": "https://www.rbb24.de/panorama/beitrag/2024/05/berlin-kreuzberg-grundschule-challenge-krankenhaus.html", "thumbnailUrl": null, "date": "Mon, 06 May 2024 14:21:00 +0200", "lat": 52.520008, "lon": 13.404954, "intensity": 0.8, "source": "RBB"}, {"title": "Brandenburger Krankenhauskonferenz: Schrumpfen statt schlie\u00dfen?", "url": "https://www.rbb24.de/politik/beitrag/2024/05/brandenburg-gesundheit-kliniken-weiterentwicklung-krankenhausreform.html", "thumbnailUrl": null, "date": "Mon, 06 May 2024 14:02:18 +0200", "lat": 52.3906, "lon": 13.0645, "intensity": 0.8, "source": "RBB"}, {"title": "Oder-Spree: Zwei Tramfahrer bei Stra\u00dfenbahnunfall in Sch\u00f6neiche verletzt", "url": "https://www.rbb24.de/panorama/beitrag/2024/05/schoeneiche-bei-berlin-tram-unfall-zwei-verletzte.html", "thumbnailUrl": null, "date": "Mon, 06 May 2024 13:53:34 +0200", "lat": 52.4561, "lon": 13.6803, "intensity": 0.7, "source": "RBB"}, {"title": "Fu\u00dfball-Bundesliga: So muss Union im Abstiegskampf rechnen", "url": "https://www.rbb24.de/sport/beitrag/2024/05/berlin-sport-fussball-union-berlin-klassenerhalt-abstieg-tabelle-gladbach-koeln-mainz-bochum.html", "thumbnailUrl": null, "date": "Mon, 06 May 2024 12:19:27 +0200", "lat": 52.5291, "lon": 13.4656, "intensity": 0.7, "source": "RBB"},