[{"title": "++ Tote bei russischen Angriff auf Odessa ++", "url": "https://www.tagesschau.de/newsticker/liveblog-ukraine-mittwoch-358.html", "thumbnailUrl": "https://images.tagesschau.de/image/5b073b67-29bf-4703-b6b1-71469e4c25bb/AAABizMn-kk/AAABjwnlKNc/16x9-512.jpg", "date": "2024-05-01T02:58:21.373+02:00", "lat": 46.482526, "lon": 30.723308, "intensity": 0.8, "source": "Tagesschau"}, {"title": "Polen will mehr", "url": "https://www.tagesschau.de/ausland/europa/polen-eu-osterweiterung-100.html", "thumbnailUrl": "https://images.tagesschau.de/image/67b24b21-3080-415d-b9c2-d9d3c4905a63/AAABjzGX_iM/AAABjwnlKNc/16x9-512.jpg", "date": "2024-05-01T02:39:56.043+02:00", "lat": 51.9194, "lon": 19.1451, "intensity": 0.7, "source": "Tagesschau"}, {"title": "DGB warnt zum 1. Mai vor der AfD - Demos in Niedersachsen", "url": "https://www.tagesschau.de/inland/regional/niedersachsen/ndr-dgb-warnt-zum-1-mai-vor-der-afd-demos-in-niedersachsen-102.html", "thumbnailUrl": "https://images.tagesschau.de/image/a55bbde5-1226-44c2-a255-8a11d81c48b7/AAABjzFzimg/AAABjwnlKNc/16x9-512.jpg", "date": "2024-05-01T02:00:00.000+02:00", "lat": 52.3759, "lon": 9.4306, "intensity": 0.7, "source": "Tagesschau"}, {"title": "Polizei geht in Tiflis gegen Demonstranten vor", "url": "https://www.tagesschau.de/ausland/europa/georgien-proteste-122.html", "thumbnailUrl": "https://images.tagesschau.de/image/ab75ccf9-014b-4077-b2db-f52e3551f27b/AAABjzDfKnk/AAABjwnlKNc/16x9-512.jpg", "date": "2024-05-01T01:13:29.183+02:00", "lat": 41.7167, "lon": 44.793, "intensity": 0.7, "source": "Tagesschau"}, {"title": "Walpurgisnacht in Berlin: Demos am Vorabend des 1. Mai verlaufen ohne Zwischenf\u00e4lle", "url": "https://www.tagesschau.de/inland/regional/berlin/rbb-tag-vor-1-mai-demonstrationen-und-feste-zur-walpurgisnacht-in-berlin-erwartet-100.html", "thumbnailUrl": "https://images.tagesschau.de/image/818a5dfe-7ee6-43d4-b2b6-d1365d8197a8/AAABjzEdbEs/AAABjwnlKNc/16x9-512.jpg", "date": "2024-05-01T00:20:50.000+02:00", "lat": 52.520008, "lon": 13.404954, "intensity": 0.5, "source": "Tagesschau"}, {"title": "++ Guterres warnt vor Eskalation in Rafah ++", "url": "https://www.tagesschau.de/newsticker/liveblog-nahost-dienstag-132.html", "thumbnailUrl": "https://images.tagesschau.de/image/78a899f8-3d96-410e-8463-56b836b6e75f/AAABjy_3Fpo/AAABjwnlKNc/16x9-512.jpg", "date": "2024-04-30T23:24:01.438+02:00", "lat": 31.2279, "lon": 34.2599, "intensity": 0.8, "source": "Tagesschau"}, {"title": "++ Ukraine stockt Geld f\u00fcr Drohnen deutlich auf ++", "url": "https://www.tagesschau.de/newsticker/liveblog-ukraine-dienstag-346.html", "thumbnailUrl": "https://images.tagesschau.de/image/25106721-878f-4045-8f15-6d925a241099/AAABjzAlsUM/AAABjwnlKNc/16x9-512.jpg", "date": "2024-04-30T23:22:07.894+02:00", "lat": 50.4501, "lon": 30.5234, "intensity": 0.8, "source": "Tagesschau"}, {"title": "Mai-Demos in Hamburg: Polizei im Gro\u00dfeinsatz", "url": "https://www.tagesschau.de/inland/regional/hamburg/ndr-hamburger-polizei-bereitet-sich-auf-mai-demos-vor-100.html", "thumbnailUrl": "https://images.tagesschau.de/image/b1f4099f-20d8-4492-b6fd-073c456a2ce5/AAABjzDfL7w/AAABjwnlKNc/16x9-512.jpg", "date": "2024-04-30T23:17:00.000+02:00", "lat": 53.5511, "lon": 9.9937, "intensity": 0.6, "source": "Tagesschau"}, {"title": "Brandanschlag? Feuer zerst\u00f6rt Kampfsportschule in Prinzh\u00f6fte", "url": "https://www.tagesschau.de/inland/regional/niedersachsen/ndr-brandanschlag-feuer-zerstoert-kampfsportschule-in-prinzhoefte-100.html", "thumbnailUrl": "https://images.tagesschau.de/image/3749e67c-678a-4fff-b51a-4650ce093891/AAABjzDM4R4/AAABjwnlKNc/16x9-512.jpg", "date": "2024-04-30T23:06:00.000+02:00", "lat": 52.9514, "lon": 8.4825, "intensity": 0.8, "source": "Tagesschau"}, {"title": "F\u00fcchse Berlin ziehen durch Sieg in Nantes ins Halbfinale der European League ein", "url": "https://www.tagesschau.de/inland/regional/berlin/rbb-fuechse-berlin-ziehen-durch-sieg-in-nantes-ins-halbfinale-der-european-league-ein-102.html", "thumbnailUrl": "https://images.tagesschau.de/image/a39bf3d6-3b7a-4fc5-9c1b-2b501c1d73f4/AAABjzC6kIA/AAABjwnlKNc/16x9-512.jpg", "date": "2024-04-30T22:48:13.000+02:00", "lat": 52.520008, "lon": 13.404954, "intensity": 0.8, "source": "Tagesschau"}, {"title": "Mehrere Verletzte bei Unfall auf A2 bei Wunstorf", "url": "https://www.tagesschau.de/inland/regional/niedersachsen/ndr-unfall-auf-a2-bei-wunstorf-stau-in-richtung-hannover-100.html", "thumbnailUrl": "https://images.tagesschau.de/image/1f75112b-7a9f-416f-8879-f5e3359c3532/AAABjzCvlaY/AAABjwnlKNc/16x9-512.jpg", "date": "2024-04-30T22:24:00.000+02:00", "lat": 52.4389, "lon": 9.4266, "intensity": 0.8, "source": "Tagesschau"}, {"title": "Wall Street im Sog der Zinssorgen ", "url": "https://www.tagesschau.de/wirtschaft/finanzen/marktberichte/marktbericht-dax-dow-nikkei-kurse-fed-zinsen-adidas-mercedes-vw-tesla-gold-oel-boerse-100.html", "thumbnailUrl": "https://images.tagesschau.de/image/1d718893-1814-45f7-99d2-1551dee97a43/AAABjoAV9ow/AAABjwnlKNc/16x9-512.jpg", "date": "2024-04-30T22:16:19.831+02:00", "lat": 40.7589, "lon": -74.0097, "intensity": 0.8, "source": "Tagesschau"}, {"title": "Bezirks- und Europawahl 2024: Stimmabgabe in Hamburg gestartet", "url": "https://www.tagesschau.de/inland/regional/hamburg/ndr-bezirks-und-europawahlen-ab-heute-koennen-stimmen-abgegeben-werden-100.html", "thumbnailUrl": "https://images.tagesschau.de/image/23f4895c-56c6-4a4a-bba1-a17e6d43aa48/AAABjzB6eas/AAABjwnlKNc/16x9-512.jpg", "date": "2024-04-30T21:24:00.000+02:00", "lat": 53.551086, "lon": 9.993682, "intensity": 0.5, "source": "Tagesschau"}, {"title": "Nach Brand von Reisebus: A2 bei Garbsen wieder frei", "url": "https://www.tagesschau.de/inland/regional/niedersachsen/ndr-reisebus-auf-a2-bei-garbsen-ausgebrannt-autobahn-gesperrt-100.html", "thumbnailUrl": "https://images.tagesschau.de/image/a5887ae6-e547-4d51-a929-fc8a81930879/AAABjzB1MOA/AAABjwnlKNc/16x9-512.jpg", "date": "2024-04-30T21:21:00.000+02:00", "lat": 52.4186, "lon": 9.6535, "intensity": 0.7, "source": "Tagesschau"}, {"title": "Holstein Kiel: Auch bei Aufstieg kein gro\u00dfer Umbruch", "url": "https://www.tagesschau.de/inland/regional/schleswigholstein/ndr-holstein-kiel-auch-bei-aufstieg-kein-grosser-umbruch-100.html", "thumbnailUrl": "https://images.tagesschau.de/image/be464981-038b-4f68-99fc-118e38039e9a/AAABjzB1G1g/AAABjwnlKNc/16x9-512.jpg", "date": "2024-04-30T21:20:00.000+02:00", "lat": 54.3227, "lon": 10.1413, "intensity": 0.4, "source": "Tagesschau"}, {"title": "Kickers Offenbach steht nach einem Elfmeter-Krimi im Finale des Hessenpokals", "url": "https://www.tagesschau.de/inland/regional/hessen/hr-kickers-offenbach-steht-nach-einem-elfmeter-krimi-im-finale-des-hessenpokals-102.html", "thumbnailUrl": "https://images.tagesschau.de/image/18d2a4fa-7a2d-40ec-bc9d-e9a2927f38a7/AAABjzCFhoM/AAABjwnlKNc/16x9-512.jpg", "date": "2024-04-30T21:14:16.613+02:00", "lat": 50.107244, "lon": 8.759772, "intensity": 0.8, "source": "Tagesschau"}, {"title": "Outlet Center Soltau darf nicht erweitert werden", "url": "https://www.tagesschau.de/inland/regional/niedersachsen/ndr-outlet-center-soltau-darf-nicht-erweitert-werden-100.html", "thumbnailUrl": "https://images.tagesschau.de/image/55ee27b3-830c-43e4-92a9-a28c94b9592e/AAABjy96Ig8/AAABjwnlKNc/16x9-512.jpg", "date": "2024-04-30T21:14:00.000+02:00", "lat": 52.9833, "lon": 9.8333, "intensity": 0.5, "source": "Tagesschau"}, {"title": "\"Jetstream\" bringt Saharastaub in den Norden und Niedersachsen", "url": "https://www.tagesschau.de/inland/regional/niedersachsen/ndr-saharastaub-im-norden-das-erwartet-uns-in-niedersachsen-100.html", "thumbnailUrl": "https://images.tagesschau.de/image/353a8e87-9d5a-4af4-a0d2-97221327f23c/AAABjzBr1Cg/AAABjwnlKNc/16x9-512.jpg", "date": "2024-04-30T21:10:00.000+02:00", "lat": 52.6367, "lon": 9.7347, "intensity": 0.6, "source": "Tagesschau"}, {"title": "Saarbr\u00fccken schl\u00e4gt Wiesbach 3:1 im Saarlandpokal-Viertelfinale", "url": "https://www.tagesschau.de/inland/regional/saarland/sr-1-fc-saarbruecken-will-im-saarlandpokal-ins-halbfinale-100.html", "thumbnailUrl": "https://images.tagesschau.de/image/d4751785-c795-497f-94d0-ae5c14b8825e/AAABjzBzGp0/AAABjwnlKNc/16x9-512.jpg", "date": "2024-04-30T21:07:00.000+02:00", "lat": 49.2356, "lon": 6.9812, "intensity": 0.7, "source": "Tagesschau"}, {"title": "Basketball-Bundesliga: Alba Berlin ringt Heidelberg nieder und gewinnt mit 96:89", "url": "https://www.tagesschau.de/inland/regional/berlin/rbb-basketball-bundesliga-102.html", "thumbnailUrl": "https://images.tagesschau.de/image/17a15c6f-6319-498e-b2c7-c9a1fa8ea742/AAABjzBbcjA/AAABjwnlKNc/16x9-512.jpg", "date": "2024-04-30T20:50:38.000+02:00", "lat": 52.520008, "lon": 13.404954, "intensity": 0.8, "source": "Tagesschau"}, {"title": "Eimsb\u00fcttel: Polizei ermittelt nach Sch\u00fcssen auf Caf\u00e9", "url": "https://www.tagesschau.de/inland/regional/hamburg/ndr-hamburg-eimsbuettel-kriminalpolizei-ermittelt-nach-schuessen-100.html", "thumbnailUrl": "https://images.tagesschau.de/image/c8d9e8fe-95ba-41dd-9038-ac8c8c1430a9/AAABjzDvptg/AAABjwnlKNc/16x9-512.jpg", "date": "2024-04-30T20:47:00.000+02:00", "lat": 53.5744, "lon": 9.9475, "intensity": 0.8, "source": "Tagesschau"}, {"title": "Weitere Schulreformen in BW: Wieder G9 und verbindliche Grundschulempfehlung", "url": "https://www.tagesschau.de/inland/regional/badenwuerttemberg/swr-weitere-schulreformen-in-bw-grundschulempfehlung-soll-verbindlicher-werden-100.html", "thumbnailUrl": "https://images.tagesschau.de/image/53c1b703-9228-406c-90bb-4b394b7c163d/AAABjy6eXPc/AAABjwnlKNc/16x9-512.jpg", "date": "2024-04-30T20:44:00.000+02:00", "lat": 48.7823, "lon": 9.0205, "intensity": 0.8, "source": "Tagesschau"}, {"title": "G\u00fcterzug l\u00f6st B\u00f6schungsbr\u00e4nde im Emsland aus", "url": "https://www.tagesschau.de/inland/regional/niedersachsen/ndr-bahnstrecke-papenburg-rheine-wegen-boeschungsbraenden-gesperrt-100.html", "thumbnailUrl": "https://images.tagesschau.de/image/a1a22d45-8661-4f15-b52e-da0eae4d060b/AAABjzAgybA/AAABjwnlKNc/16x9-512.jpg", "date": "2024-04-30T20:28:00.000+02:00", "lat": 52.7345, "lon": 7.1676, "intensity": 0.8, "source": "Tagesschau"}, {"title": "Sommerliches Wetter und zahlreiche Attraktionen am Maifeiertag in RLP", "url": "https://www.tagesschau.de/inland/regional/rheinlandpfalz/swr-wetter-in-rlp-sommerliche-temperaturen-am-feiertag-100.html", "thumbnailUrl": "https://images.tagesschau.de/image/b041e2b2-7866-48c3-a120-985872a085fb/AAABjy_Vpr0/AAABjwnlKNc/16x9-512.jpg", "date": "2024-04-30T20:27:00.000+02:00", "lat": 49.8153, "lon": 7.2663, "intensity": 0.6, "source": "Tagesschau"}, {"title": "European League: SG Flensburg-Handewitt zieht ins Final Four ein", "url": "https://www.tagesschau.de/inland/regional/schleswigholstein/ndr-european-league-sg-flensburg-handewitt-zieht-ins-final-four-ein-102.html", "thumbnailUrl": "https://images.tagesschau.de/image/a29d0223-330a-4112-839d-751047666ad8/AAABjzBFXnw/AAABjwnlKNc/16x9-512.jpg", "date": "2024-04-30T20:25:00.000+02:00", "lat": 54.7811, "lon": 9.4319, "intensity": 0.7, "source": "Tagesschau"}, {"title": "Gerichtsbeschluss: B\u00fcttelborn muss Biblis-Bauschutt annehmen", "url": "https://www.tagesschau.de/inland/regional/hessen/hr-gerichtsbeschluss-buettelborn-muss-biblis-bauschutt-annehmen-100.html", "thumbnailUrl": "https://images.tagesschau.de/image/e7836cd4-fe93-4b67-a756-53e1253e40c7/AAABjzA08ck/AAABjwnlKNc/16x9-512.jpg", "date": "2024-04-30T20:09:55.466+02:00", "lat": 49.8981, "lon": 8.4583, "intensity": 0.8, "source": "Tagesschau"}, {"title": "Oberleitungsschaden: ICE bei Berlin-Buch liegengeblieben - 400 Passagiere betroffen", "url": "https://www.tagesschau.de/inland/regional/berlin/rbb-oberleitungsschaden-ice-bei-berlin-buch-liegengeblieben-400-passagiere-betroffen-100.html", "thumbnailUrl": "https://images.tagesschau.de/image/0b3352f3-fd9b-439c-b61b-ec92b58bbc36/AAABjy_QNPQ/AAABjwnlKNc/16x9-512.jpg", "date": "2024-04-30T19:59:34.000+02:00", "lat": 52.6151, "lon": 13.5136, "intensity": 0.7, "source": "Tagesschau"}, {"title": "Gef\u00fcrchtete Polizeibusse zur\u00fcck auf Irans Stra\u00dfen", "url": "https://www.tagesschau.de/ausland/asien/iran-sittenpolizei-108.html", "thumbnailUrl": "https://images.tagesschau.de/image/2f0a1943-ccd1-49e9-8233-51c2bdd58bc0/AAABjzAo-Vk/AAABjwnlKNc/16x9-512.jpg", "date": "2024-04-30T19:59:03.433+02:00", "lat": 32.427908, "lon": 53.688046, "intensity": 0.8, "source": "Tagesschau"}, {"title": "Hamburg: SPD und Gr\u00fcne wollen Gesichtsverh\u00fcllung an Schulen verbieten", "url": "https://www.tagesschau.de/inland/regional/hamburg/ndr-hamburg-spd-und-gruene-wollen-gesichtsverhuellung-an-schulen-verbieten-100.html", "thumbnailUrl": "https://images.tagesschau.de/image/074d3156-12d2-486d-851b-c17c125ece5e/AAABjy__05g/AAABjwnlKNc/16x9-512.jpg", "date": "2024-04-30T19:54:00.000+02:00", "lat": 53.551086, "lon": 9.993682, "intensity": 0.8, "source": "Tagesschau"}, {"title": "Kleinblittersdorf: Anwohner und Gemeinde streiten \u00fcber Erschlie\u00dfungskosten", "url": "https://www.tagesschau.de/inland/regional/saarland/sr-kleinblittersdorf-anwohner-und-gemeinde-streiten-ueber-erschliessungskosten-100.html", "thumbnailUrl": "https://images.tagesschau.de/image/a2fcc432-0a24-4ef2-8c40-2c73ffb55d9d/AAABjzAkXeg/AAABjwnlKNc/16x9-512.jpg", "date": "2024-04-30T19:53:00.000+02:00", "lat": 49.2041, "lon": 7.0365, "intensity": 0.5, "source": "Tagesschau"}, {"title": "Sachsen-Anhalter haben Angst um ihre Rente", "url": "https://www.tagesschau.de/inland/regional/sachsenanhalt/mdr-sachsen-anhalter-haben-angst-um-ihre-rente-100.html", "thumbnailUrl": "https://images.tagesschau.de/image/a8ce4f09-0ed9-4c21-8c49-ef03574679a9/AAABjzEmmRU/AAABjwnlKNc/16x9-512.jpg", "date": "2024-04-30T19:45:59.000+02:00", "lat": 52.1206, "lon": 11.628, "intensity": 0.7, "source": "Tagesschau"}, {"title": "Freispruch im Prozess gegen Mettlacher Pflegeeltern", "url": "https://www.tagesschau.de/inland/regional/saarland/sr-freispruch-im-prozess-gegen-mettlacher-pflegeeltern-100.html", "thumbnailUrl": "https://images.tagesschau.de/image/0a96f264-e953-425d-9d55-4e02251e467d/AAABjzAZYUY/AAABjwnlKNc/16x9-512.jpg", "date": "2024-04-30T19:41:00.000+02:00", "lat": 49.4307, "lon": 6.5854, "intensity": 0.7, "source": "Tagesschau"}, {"title": "Wetterlage und Temperaturen", "url": "https://www.tagesschau.de/wetter/europa-welt", "thumbnailUrl": "https://images.tagesschau.de/image/6e7d3b16-79c8-4308-822b-20c3035236b5/AAABjy5a1Iw/AAABjwnlKNc/16x9-512.jpg", "date": "2024-04-30T19:35:21.144+02:00", "lat": 51.1657, "lon": 10.4515, "intensity": 0.3, "source": "Tagesschau"}, {"title": "\"Zeitenwende\": Wie die Bundeswehr SH krisenfest machen will", "url": "https://www.tagesschau.de/inland/regional/schleswigholstein/ndr-zeitenwende-wie-die-bundeswehr-sh-krisenfest-machen-will-100.html", "thumbnailUrl": "https://images.tagesschau.de/image/b3b43df0-f57c-4ebd-adf0-59413dfe42d4/AAABjzAQTe4/AAABjwnlKNc/16x9-512.jpg", "date": "2024-04-30T19:30:00.000+02:00", "lat": 54.8598, "lon": 9.9882, "intensity": 0.6, "source": "Tagesschau"}, {"title": "Brandschutz bei Stuttgart 21: Werden die Tunnel sicher sein?", "url": "https://www.tagesschau.de/inland/regional/badenwuerttemberg/swr-brandschutz-bei-stuttgart-21-werden-die-tunnel-sicher-sein-100.html", "thumbnailUrl": "https://images.tagesschau.de/image/f86c8873-6cad-4cc8-ad89-3adef334024d/AAABjzAmNpw/AAABjwnlKNc/16x9-512.jpg", "date": "2024-04-30T19:29:22.000+02:00", "lat": 48.7758, "lon": 9.1829, "intensity": 0.7, "source": "Tagesschau"}, {"title": "Keine Sofortma\u00dfnahmen gegen deutsche Israel-Hilfe", "url": "https://www.tagesschau.de/ausland/europa/den-haag-klage-deutschland-waffenlieferung-100.html", "thumbnailUrl": "https://images.tagesschau.de/image/858ac379-2133-4d10-96c6-5fff983ead45/AAABjxz9bkQ/AAABjwnlKNc/16x9-512.jpg", "date": "2024-04-30T19:25:41.577+02:00", "lat": 52.0705, "lon": 4.3007, "intensity": 0.3, "source": "Tagesschau"}, {"title": "Bis zu 26 Grad: Bremen startet morgen in die Freibad-Saison", "url": "https://www.tagesschau.de/inland/regional/bremen/rb-bis-zu-26-grad-bremen-startet-morgen-in-die-freibad-saison-100.html", "thumbnailUrl": "https://images.tagesschau.de/image/d15146ae-42e0-4b60-91a3-a73d27cd8dd4/AAABjzAI6wk/AAABjwnlKNc/16x9-512.jpg", "date": "2024-04-30T19:11:00.000+02:00", "lat": 53.0793, "lon": 8.8017, "intensity": 0.7, "source": "Tagesschau"}, {"title": "Listeriose-F\u00e4lle: Gurkenscheiben-Skandal f\u00fchrte offenbar nicht zu Todesfall", "url": "https://www.tagesschau.de/inland/regional/hessen/hr-listeriose-faelle-gurkenscheiben-skandal-fuehrte-offenbar-nicht-zu-todesfall-100.html", "thumbnailUrl": "https://images.tagesschau.de/image/34ffb4b7-59a4-4d7b-bace-4fced352f519/AAABjy_0yvs/AAABjwnlKNc/16x9-512.jpg", "date": "2024-04-30T19:01:20.969+02:00", "lat": 49.87283, "lon": 8.67468, "intensity": 0.3, "source": "Tagesschau"}, {"title": "Volkswagen verdient im 1. Quartal deutlich weniger", "url": "https://www.tagesschau.de/inland/regional/niedersachsen/ndr-volkswagen-verdient-im-1-quartal-deutlich-weniger-100.html", "thumbnailUrl": "https://images.tagesschau.de/image/706f5268-f6ed-4a5f-b43a-9c6b259ceb76/AAABjzA4tsA/AAABjwnlKNc/16x9-512.jpg", "date": "2024-04-30T18:56:00.000+02:00", "lat": 52.3738, "lon": 9.685, "intensity": 0.7, "source": "Tagesschau"}, {"title": "Abgelehnter OB-Kandidat darf in Gera doch antreten", "url": "https://www.tagesschau.de/inland/regional/thueringen/mdr-abgelehnter-ob-kandidat-darf-in-gera-doch-antreten-100.html", "thumbnailUrl": "https://images.tagesschau.de/image/9de355ad-149b-404f-b52c-87881915cb34/AAABjzEjW6g/AAABjwnlKNc/16x9-512.jpg", "date": "2024-04-30T18:55:29.000+02:00", "lat": 50.881279, "lon": 12.078633, "intensity": 0.4, "source": "Tagesschau"}, {"title": "Jobportal soll M\u00fcttern die R\u00fcckkehr in die Berufswelt erleichtern", "url": "https://www.tagesschau.de/inland/regional/rheinlandpfalz/swr-jobportal-soll-muettern-die-rueckkehr-in-die-berufswelt-erleichtern-100.html", "thumbnailUrl": "https://images.tagesschau.de/image/5d0ff504-b7da-4258-8f01-57dd3862f3b0/AAABjy_y7ks/AAABjwnlKNc/16x9-512.jpg", "date": "2024-04-30T18:48:37.000+02:00", "lat": 50.3945, "lon": 7.6087, "intensity": 0.6, "source": "Tagesschau"}, {"title": "VfL Osnabr\u00fcck: Nutzungsunterlassung f\u00fcr Bremer Br\u00fccke", "url": "https://www.tagesschau.de/inland/regional/niedersachsen/ndr-vfl-osnabrueck-nutzungsunterlassung-fuer-bremer-bruecke-102.html", "thumbnailUrl": "https://images.tagesschau.de/image/0fabfb61-5914-42cc-a4e7-5b0ba1b1d841/AAABjzCB07g/AAABjwnlKNc/16x9-512.jpg", "date": "2024-04-30T18:45:00.000+02:00", "lat": 52.275604, "lon": 8.03741, "intensity": 0.7, "source": "Tagesschau"}, {"title": "\u00dcbungsszenario: Brand auf der Jugendsegelyacht \"Greif von Ueckerm\u00fcnde\"", "url": "https://www.tagesschau.de/inland/regional/mecklenburgvorpommern/ndr-uebungsszenario-brand-auf-der-jugendsegelyacht-greif-von-ueckermuende-100.html", "thumbnailUrl": "https://images.tagesschau.de/image/213dfb70-cf69-43bc-ac4e-82ac0db24bb4/AAABjzBMqY0/AAABjwnlKNc/16x9-512.jpg", "date": "2024-04-30T18:40:00.000+02:00", "lat": 53.7239, "lon": 14.0571, "intensity": 0.7, "source": "Tagesschau"}, {"title": "Feuer in Nordth\u00fcringer Holzbetrieb: Polizei geht von Millionen-Schaden aus", "url": "https://www.tagesschau.de/inland/regional/thueringen/mdr-feuer-in-nordthueringer-holzbetrieb-polizei-geht-von-millionen-schaden-aus-100.html", "thumbnailUrl": "https://images.tagesschau.de/image/aa54806c-3acc-44dd-a537-0f3de25b1d08/AAABjzEi-u4/AAABjwnlKNc/16x9-512.jpg", "date": "2024-04-30T18:32:13.000+02:00", "lat": 51.516, "lon": 10.468, "intensity": 0.8, "source": "Tagesschau"}, {"title": "Prozess nach Entf\u00fchrung auf Kieler Kasernengel\u00e4nde hat begonnen", "url": "https://www.tagesschau.de/inland/regional/schleswigholstein/ndr-prozessbeginn-nach-mutmasslicher-entfuehrung-auf-mfg-5-gelaende-in-kiel-100.html", "thumbnailUrl": "https://images.tagesschau.de/image/1b719cc3-e54c-4b18-b042-38bc0a230d4d/AAABjy4eVVw/AAABjwnlKNc/16x9-512.jpg", "date": "2024-04-30T18:31:00.000+02:00", "lat": 54.3233, "lon": 10.1349, "intensity": 0.8, "source": "Tagesschau"}, {"title": "Eintracht: +++ Teamarzt wechselt nach England - mit Abl\u00f6se +++ Eintracht mit Rekordumsatz +++ Heimbilanz spricht f\u00fcr Eintracht +++", "url": "https://www.tagesschau.de/inland/regional/hessen/hr--eintracht-wohl-mit-chaibi-einig--glasner-fast-nur-kolo-muani-der-tore-erzielt--bericht-eintracht-sagt-aouar-ab-100.html", "thumbnailUrl": "https://images.tagesschau.de/image/572804b2-4f58-44a2-afe6-6b6a2d7e7741/AAABjy_UCm8/AAABjwnlKNc/16x9-512.jpg", "date": "2024-04-30T18:26:10.769+02:00", "lat": 50.110922, "lon": 8.682127, "intensity": 0.6, "source": "Tagesschau"}, {"title": "Spielt das Wetter bei den Mai-Touren im Saarland mit?", "url": "https://www.tagesschau.de/inland/regional/saarland/sr-spielt-das-wetter-bei-den-mai-touren-im-saarland-mit-100.html", "thumbnailUrl": "https://images.tagesschau.de/image/74274c0a-ec10-4d57-a16d-ecbf98986186/AAABjy_Ty7c/AAABjwnlKNc/16x9-512.jpg", "date": "2024-04-30T18:22:00.000+02:00", "lat": 49.3964, "lon": 6.9538, "intensity": 0.3, "source": "Tagesschau"}, {"title": "\u201eZukunft statt K\u00fcndigung\u201c: \u00dcber 10.000 Stahlarbeiter k\u00e4mpfen f\u00fcr ihre Jobs", "url": "https://www.tagesschau.de/inland/regional/nordrheinwestfalen/wdr-zukunft-statt-kuendigung-ueber-10-000-stahlarbeiter-kaempfen-fuer-ihre-jobs-100.html", "thumbnailUrl": "https://images.tagesschau.de/image/111c9122-c790-42e3-aa60-0d5a43c82e30/AAABjzBinzA/AAABjwnlKNc/16x9-512.jpg", "date": "2024-04-30T18:20:00.000+02:00", "lat": 51.4344, "lon": 6.7917, "intensity": 0.8, "source": "Tagesschau"}, {"title": "Kaffeekisch in Velsen soll Ende des Jahres wieder \u00f6ffnen", "url": "https://www.tagesschau.de/inland/regional/saarland/sr-kaffeekisch-in-velsen-soll-ende-des-jahres-wieder-oeffnen-102.html", "thumbnailUrl": "https://images.tagesschau.de/image/5d99ea5b-a6de-48be-9c86-abda79dde18e/AAABjy_Bfhs/AAABjwnlKNc/16x9-512.jpg", "date": "2024-04-30T18:04:00.000+02:00", "lat": 49.4005, "lon": 6.9039, "intensity": 0.6, "source": "Tagesschau"}, {"title": "Israelische Sch\u00fcler besuchen Frankfurt: Eine kleine Pause vom Krieg", "url": "https://www.tagesschau.de/inland/regional/hessen/hr-israelische-schueler-besuchen-frankfurt-eine-kleine-pause-vom-krieg-100.html", "thumbnailUrl": "https://images.tagesschau.de/image/046ecf7b-3f3e-4910-9e8e-c941f661f095/AAABjy-94qg/AAABjwnlKNc/16x9-512.jpg", "date": "2024-04-30T18:00:25.431+02:00", "lat": 50.1109, "lon": 8.6821, "intensity": 0.3, "source": "Tagesschau"}, {"title": "Bis zu 28 Grad: So startet NRW in die Freibadsaison", "url": "https://www.tagesschau.de/inland/regional/nordrheinwestfalen/wdr-bis-zu-28-grad-so-startet-nrw-in-die-freibadsaison-100.html", "thumbnailUrl": "https://images.tagesschau.de/image/e07e5547-ed54-425d-8464-2f2e5981ea92/AAABjy_DVNs/AAABjwnlKNc/16x9-512.jpg", "date": "2024-04-30T17:50:00.000+02:00", "lat": 51.433236, "lon": 7.588576, "intensity": 0.5, "source": "Tagesschau"}, {"title": "Warntag in D\u00e4nemark: Handy-Testalarm auch im Grenzgebiet m\u00f6glich", "url": "https://www.tagesschau.de/inland/regional/schleswigholstein/ndr-warntag-in-daenemark-handy-testalarm-auch-im-grenzgebiet-moeglich-100.html", "thumbnailUrl": "https://images.tagesschau.de/image/dc068420-8467-42c3-9cb3-0e259d329cae/AAABjy-y5nc/AAABjwnlKNc/16x9-512.jpg", "date": "2024-04-30T17:47:00.000+02:00", "lat": 54.793, "lon": 9.4306, "intensity": 0.5, "source": "Tagesschau"}, {"title": "Hitze und Trockenheit: Weniger Erdbeeren in Brandenburg angebaut", "url": "https://www.tagesschau.de/inland/regional/brandenburg/rbb-hitze-und-trockenheit-weniger-erdbeeren-in-brandenburg-angebaut-100.html", "thumbnailUrl": "https://images.tagesschau.de/image/2aa8aa60-cf6a-4a3a-a08f-43668ac9417b/AAABjy_HC4M/AAABjwnlKNc/16x9-512.jpg", "date": "2024-04-30T17:46:30.000+02:00", "lat": 52.5013, "lon": 13.1815, "intensity": 0.7, "source": "Tagesschau"}, {"title": "Zahl der politisch motivierten Straftaten in MV sind r\u00fcckl\u00e4ufig", "url": "https://www.tagesschau.de/inland/regional/mecklenburgvorpommern/ndr-zahl-der-politisch-motivierten-straftaten-in-mv-sind-ruecklaeufig-100.html", "thumbnailUrl": "https://images.tagesschau.de/image/dd895608-f96e-47e6-a04f-ddfead8465be/AAABjy-tXRw/AAABjwnlKNc/16x9-512.jpg", "date": "2024-04-30T17:39:00.000+02:00", "lat": 53.612, "lon": 13.366, "intensity": 0.3, "source": "Tagesschau"}, {"title": "Hamburg: CDU kritisiert Rot-Gr\u00fcn f\u00fcr Umgang mit \"Muslim Interaktiv\"", "url": "https://www.tagesschau.de/inland/regional/hamburg/ndr-hamburg-cdu-kritisiert-rot-gruen-fuer-umgang-mit-muslim-interaktiv-100.html", "thumbnailUrl": "https://images.tagesschau.de/image/efa87bec-e3b2-4706-940e-baa24569753a/AAABjy-bOFs/AAABjwnlKNc/16x9-512.jpg", "date": "2024-04-30T17:35:00.000+02:00", "lat": 53.55, "lon": 10.0, "intensity": 0.6, "source": "Tagesschau"}, {"title": "Warnstreik beim SWR: Einzelne Sendungen fallen aus", "url": "https://www.tagesschau.de/inland/regional/badenwuerttemberg/swr-warnstreik-beim-swr-einzelne-sendungen-fallen-aus-100.html", "thumbnailUrl": "https://images.tagesschau.de/image/23927246-300a-4754-843f-15d61978e127/AAABjy-iYDo/AAABjwnlKNc/16x9-512.jpg", "date": "2024-04-30T17:25:26.000+02:00", "lat": 49.4539, "lon": 9.9937, "intensity": 0.7, "source": "Tagesschau"}, {"title": "Nach Unfall in Oberhof: Weitere Zeugen im Bob-Prozess geh\u00f6rt", "url": "https://www.tagesschau.de/inland/regional/thueringen/mdr-nach-unfall-in-oberhof-weitere-zeugen-im-bob-prozess-gehoert-100.html", "thumbnailUrl": "https://images.tagesschau.de/image/3aab00e3-cc32-44ee-885b-b1a57d8096c6/AAABjzEjJcY/AAABjwnlKNc/16x9-512.jpg", "date": "2024-04-30T17:24:12.000+02:00", "lat": 50.7063, "lon": 10.7002, "intensity": 0.5, "source": "Tagesschau"}, {"title": "Hessische St\u00e4dte \u00fcberfordert: Wenn das Warten aufs Wohngeld die Existenz bedroht", "url": "https://www.tagesschau.de/inland/regional/hessen/hr-hessische-staedte-ueberfordert-wenn-das-warten-aufs-wohngeld-die-existenz-bedroht-100.html", "thumbnailUrl": "https://images.tagesschau.de/image/0400df5d-83de-41da-bf4b-6a666cc04868/AAABjy-bI9U/AAABjwnlKNc/16x9-512.jpg", "date": "2024-04-30T17:23:47.876+02:00", "lat": 50.583, "lon": 9.692, "intensity": 0.8, "source": "Tagesschau"}, {"title": "Warum so viele Pflege-Azubis durchfallen und was dagegen hilft", "url": "https://www.tagesschau.de/inland/regional/schleswigholstein/ndr-warum-so-viele-pflege-azubis-durchfallen-und-was-dagegen-hilft-100.html", "thumbnailUrl": "https://images.tagesschau.de/image/69ddf15b-0dc4-481e-9450-c2a8c9a8dd4f/AAABjy-ZRrg/AAABjwnlKNc/16x9-512.jpg", "date": "2024-04-30T17:20:00.000+02:00", "lat": 54.3233, "lon": 9.6978, "intensity": 0.5, "source": "Tagesschau"}, {"title": "Die SPD setzt auf Frieden - doch auf welchen?", "url": "https://www.tagesschau.de/inland/innenpolitik/spd-russland-108.html", "thumbnailUrl": "https://images.tagesschau.de/image/dd502479-c14c-4130-a7ea-2951cc977018/AAABjy9MtiU/AAABjwnlKNc/16x9-512.jpg", "date": "2024-04-30T17:18:34.081+02:00", "lat": 50.4547, "lon": 30.5238, "intensity": 0.7, "source": "Tagesschau"}, {"title": "Landgericht Koblenz: Mann wegen Erpressung zu sieben Jahren Haft verurteilt ", "url": "https://www.tagesschau.de/inland/regional/rheinlandpfalz/swr-landgericht-koblenz-mann-wegen-erpressung-zu-sieben-jahren-haft-verurteilt-100.html", "thumbnailUrl": "https://images.tagesschau.de/image/75dc9271-11f2-4e4d-9a0b-6041a011e7e1/AAABjy-pt8Y/AAABjwnlKNc/16x9-512.jpg", "date": "2024-04-30T17:16:00.000+02:00", "lat": 50.3569, "lon": 7.5898, "intensity": 0.9, "source": "Tagesschau"}, {"title": "Nordsee: Suche nach Schlauchbootfahrer und Segler eingestellt", "url": "https://www.tagesschau.de/inland/regional/niedersachsen/ndr-schlauchbootfahrer-in-der-deutschen-bucht-vermisst-100.html", "thumbnailUrl": "https://images.tagesschau.de/image/ebd32764-e7ee-446f-9d7d-717da7208a79/AAABjy-R73M/AAABjwnlKNc/16x9-512.jpg", "date": "2024-04-30T17:12:00.000+02:00", "lat": 53.8691, "lon": 8.6861, "intensity": 0.8, "source": "Tagesschau"}, {"title": "Turm des Ulmer M\u00fcnsters: Besucher kommen wieder bis auf 102 Meter", "url": "https://www.tagesschau.de/inland/regional/badenwuerttemberg/swr-turm-des-ulmer-muensters-besucher-kommen-wieder-bis-auf-102-meter-100.html", "thumbnailUrl": "https://images.tagesschau.de/image/06e1c063-826b-4db1-802f-6ded154ac03e/AAABjy9MXX0/AAABjwnlKNc/16x9-512.jpg", "date": "2024-04-30T17:10:00.000+02:00", "lat": 48.397485, "lon": 9.993682, "intensity": 0.3, "source": "Tagesschau"}, {"title": "Sperrungen und Umleitungen: Die Generalsanierung der Bahn", "url": "https://www.tagesschau.de/inland/regional/hamburg/ndr-sperrungen-und-umleitungen-die-generalsanierung-der-bahn-100.html", "thumbnailUrl": "https://images.tagesschau.de/image/6b9af4a3-7fbb-4af0-9eef-9211e30b7130/AAABjy-bXEI/AAABjwnlKNc/16x9-512.jpg", "date": "2024-04-30T17:08:00.000+02:00", "lat": 53.55, "lon": 10.0, "intensity": 0.8, "source": "Tagesschau"}, {"title": "Hacker klauen Daten von Universit\u00e4tsmedizin Mainz ", "url": "https://www.tagesschau.de/inland/regional/rheinlandpfalz/swr-hacker-klauen-daten-von-universitaetsmedizin-mainz-100.html", "thumbnailUrl": "https://images.tagesschau.de/image/ae4d6f5b-532f-4ef8-9bd3-e1d3ade87ef1/AAABjy_DcV4/AAABjwnlKNc/16x9-512.jpg", "date": "2024-04-30T17:07:23.000+02:00", "lat": 49.992861, "lon": 8.259741, "intensity": 0.8, "source": "Tagesschau"}, {"title": "Kultur: +++ Bund unterst\u00fctzt Festivals in Karben, Homberg, Trebur und Darmstadt +++ Wasserspiele am Kasseler Herkules starten wieder +++", "url": "https://www.tagesschau.de/inland/regional/hessen/hr--schauspiel-frankfurt-bringt-putin-und-macbeth-zusammen--die-filmfestival-saison-2023-startet--lichter-filmfest-zum-thema-liebe-startet-am-dienstag-100.html", "thumbnailUrl": "https://images.tagesschau.de/image/6e6d78fd-432e-4177-b18e-504abe1dacc5/AAABjy9n92Q/AAABjwnlKNc/16x9-512.jpg", "date": "2024-04-30T17:05:58.628+02:00", "lat": 50.1109, "lon": 8.6821, "intensity": 0.6, "source": "Tagesschau"}, {"title": "Uni Oldenburg: AStA erhebt erneut Antisemitismus-Vorw\u00fcrfe", "url": "https://www.tagesschau.de/inland/regional/niedersachsen/ndr-uni-oldenburg-asta-erhebt-erneut-antisemitismus-vorwuerfe-100.html", "thumbnailUrl": "https://images.tagesschau.de/image/7adecd19-bf2c-467b-a6af-5384f3f26334/AAABjy979Ls/AAABjwnlKNc/16x9-512.jpg", "date": "2024-04-30T17:00:00.000+02:00", "lat": 53.14345, "lon": 8.215093, "intensity": 0.7, "source": "Tagesschau"}, {"title": "Brandenburgs Verfassungsschutz stuft weitere AfD-Parlamentarier als rechtsextrem ein", "url": "https://www.tagesschau.de/inland/regional/brandenburg/rbb-brandenburgs-verfassungsschutz-stuft-weitere-afd-parlamentarier-als-rechtsextrem-ein-100.html", "thumbnailUrl": "https://images.tagesschau.de/image/9a99edb6-e84d-47e4-9bcc-efd23f34adfd/AAABjy9XUzE/AAABjwnlKNc/16x9-512.jpg", "date": "2024-04-30T16:58:33.000+02:00", "lat": 52.53273, "lon": 13.15724, "intensity": 0.8, "source": "Tagesschau"}, {"title": "20 Jahre EU-Erweiterung: Brandenburger Tor leuchtet in Europa-Farben", "url": "https://www.tagesschau.de/inland/regional/berlin/rbb-20-jahre-eu-erweiterung-brandenburger-tor-leuchtet-in-europa-farben-100.html", "thumbnailUrl": "https://images.tagesschau.de/image/89d978f2-b3cb-4f33-a530-bead824eb270/AAABjy-HCNY/AAABjwnlKNc/16x9-512.jpg", "date": "2024-04-30T16:56:12.000+02:00", "lat": 52.5166, "lon": 13.3777, "intensity": 0.7, "source": "Tagesschau"}, {"title": "Berlin-Reinickendorf: Mann mit Stichverletzungen gefunden - Mordkommission ermittelt", "url": "https://www.tagesschau.de/inland/regional/berlin/rbb-berlin-reinickendorf-mann-mit-stichverletzungen-gefunden-mordkommission-ermittelt-100.html", "thumbnailUrl": "https://images.tagesschau.de/image/06e3b2b5-bb19-4f48-96bb-126b38ae6af2/AAABjy-G83E/AAABjwnlKNc/16x9-512.jpg", "date": "2024-04-30T16:54:22.000+02:00", "lat": 52.595, "lon": 13.3534, "intensity": 0.8, "source": "Tagesschau"}, {"title": "Schleuser sollen Kreismitarbeiter mit 300.000 Euro bestochen haben", "url": "https://www.tagesschau.de/inland/regional/nordrheinwestfalen/wdr-schleuser-sollen-kreismitarbeiter-mit-300-000-euro-bestochen-haben-100.html", "thumbnailUrl": "https://images.tagesschau.de/image/3254e348-409b-4d8f-aea6-04848327ede5/AAABjy__wEY/AAABjwnlKNc/16x9-512.jpg", "date": "2024-04-30T16:50:00.000+02:00", "lat": 50.8058, "lon": 6.4874, "intensity": 0.8, "source": "Tagesschau"}, {"title": "Hamburger CDU startet Wahlkampf f\u00fcr Bezirks- und Europawahl", "url": "https://www.tagesschau.de/inland/regional/hamburg/ndr-hamburger-cdu-startet-wahlkampf-fuer-bezirks-und-europawahl-100.html", "thumbnailUrl": "https://images.tagesschau.de/image/e0c8e3d9-e06c-44bf-8066-fbdfd8743545/AAABjy9tXpQ/AAABjwnlKNc/16x9-512.jpg", "date": "2024-04-30T16:31:00.000+02:00", "lat": 53.551086, "lon": 9.993682, "intensity": 0.6, "source": "Tagesschau"}, {"title": "\"S\u00e4ntis\" kann bis Ende August aus Bodensee gehoben werden", "url": "https://www.tagesschau.de/inland/regional/badenwuerttemberg/swr-kann-die-saentis-noch-aus-dem-bodensee-gehoben-werden-102.html", "thumbnailUrl": "https://images.tagesschau.de/image/ab10fe17-b14a-4966-b005-23f495cb5a31/AAABjy9vGJI/AAABjwnlKNc/16x9-512.jpg", "date": "2024-04-30T16:30:00.000+02:00", "lat": 47.0417, "lon": 9.402, "intensity": 0.5, "source": "Tagesschau"}, {"title": "Jagdhund in Potsdam-Mittelmark wurde wahrscheinlich von Wolf angegriffen", "url": "https://www.tagesschau.de/inland/regional/brandenburg/rbb-jagdhund-in-potsdam-mittelmark-wurde-wahrscheinlich-von-wolf-angegriffen-100.html", "thumbnailUrl": "https://images.tagesschau.de/image/ac3e44a8-af1a-4fce-a565-dae78349a3ca/AAABjy9rgwM/AAABjwnlKNc/16x9-512.jpg", "date": "2024-04-30T16:27:38.000+02:00", "lat": 52.1848, "lon": 13.0649, "intensity": 0.6, "source": "Tagesschau"}, {"title": "Frankfurt: Tatverd\u00e4chtiger lebte wochenlang mit get\u00f6teter Frau in Wohnung", "url": "https://www.tagesschau.de/inland/regional/hessen/hr-frankfurt-tatverdaechtiger-lebte-wochenlang-mit-getoeteter-frau-in-wohnung-100.html", "thumbnailUrl": "https://images.tagesschau.de/image/3f788334-7177-4d11-8040-fa9e3060b440/AAABjy9gff0/AAABjwnlKNc/16x9-512.jpg", "date": "2024-04-30T16:18:43.075+02:00", "lat": 50.110922, "lon": 8.682127, "intensity": 0.9, "source": "Tagesschau"}, {"title": "Polizeireiter sch\u00fctzen Biosph\u00e4renreservat in der Elbtalaue", "url": "https://www.tagesschau.de/inland/regional/niedersachsen/ndr-polizeireiter-schuetzen-bisphaerenreservat-in-der-elbtalaue-100.html", "thumbnailUrl": "https://images.tagesschau.de/image/67e297e2-7b78-4803-9883-fceeac95efd1/AAABjy9gkBs/AAABjwnlKNc/16x9-512.jpg", "date": "2024-04-30T16:18:00.000+02:00", "lat": 53.1734, "lon": 10.7172, "intensity": 0.6, "source": "Tagesschau"}, {"title": "Pistorius unterzeichnet Osnabr\u00fccker Erlass", "url": "https://www.tagesschau.de/inland/innenpolitik/pistorius-osnabruecker-erlass-100.html", "thumbnailUrl": "https://images.tagesschau.de/image/be6c7e35-65a9-4248-a877-4c4d1044dd33/AAABjy8LjEA/AAABjwnlKNc/16x9-512.jpg", "date": "2024-04-30T16:14:15.840+02:00", "lat": 52.2799, "lon": 8.0464, "intensity": 0.7, "source": "Tagesschau"}, {"title": "2. Liga: FC St. Pauli und Holstein Kiel steigen in die Bundesliga auf, wenn ...", "url": "https://www.tagesschau.de/inland/regional/hamburg/ndr-2-liga-fc-st-pauli-und-holstein-kiel-steigen-in-die-bundesliga-auf-wenn-102.html", "thumbnailUrl": "https://images.tagesschau.de/image/131e78c7-69c6-4a88-8e59-bcb22d3f6b06/AAABjy5eWkM/AAABjwnlKNc/16x9-512.jpg", "date": "2024-04-30T16:12:00.000+02:00", "lat": 53.55, "lon": 9.995, "intensity": 0.9, "source": "Tagesschau"}, {"title": "Makkabi-Trainer Wolfgang Sandhowe: \"Was wollen wir mehr an einem 1. Mai?\"", "url": "https://www.tagesschau.de/inland/regional/berlin/rbb-makkabi-trainer-wolfgang-sandhowe-was-wollen-wir-mehr-an-einem-1-mai-102.html", "thumbnailUrl": "https://images.tagesschau.de/image/ac6a5ae1-3ddc-4234-ad86-eb6006b1f5c2/AAABjy9c268/AAABjwnlKNc/16x9-512.jpg", "date": "2024-04-30T16:10:50.000+02:00", "lat": 52.52, "lon": 13.4073, "intensity": 0.8, "source": "Tagesschau"}, {"title": "Rehe werden auf Fuldaer Friedhof zum Abschuss freigegeben", "url": "https://www.tagesschau.de/inland/regional/hessen/hr-rehe-werden-auf-fuldaer-friedhof-zum-abschuss-freigegeben-100.html", "thumbnailUrl": "https://images.tagesschau.de/image/727ab66b-2238-4471-9887-adba453ae14f/AAABjy9Tpgs/AAABjwnlKNc/16x9-512.jpg", "date": "2024-04-30T16:05:46.530+02:00", "lat": 50.5511, "lon": 9.6697, "intensity": 0.7, "source": "Tagesschau"}, {"title": "14-J\u00e4hriger stirbt nach Attacke mit Schwert", "url": "https://www.tagesschau.de/ausland/europa/messerattacke-london-100.html", "thumbnailUrl": "https://images.tagesschau.de/image/259bbba4-3a8c-4263-96c8-cae336eb2efd/AAABjy9QZuk/AAABjwnlKNc/16x9-512.jpg", "date": "2024-04-30T16:02:29.757+02:00", "lat": 51.5074, "lon": -0.1276, "intensity": 0.9, "source": "Tagesschau"}, {"title": "Saar-Polizei mahnt: Wo der Spa\u00df an Hexennacht aufh\u00f6rt", "url": "https://www.tagesschau.de/inland/regional/saarland/sr-saar-polizei-mahnt-wo-der-spass-an-hexennacht-aufhoert-100.html", "thumbnailUrl": "https://images.tagesschau.de/image/eb95be76-1ded-4d4a-aa1c-e86dd6095834/AAABjy9ZHV8/AAABjwnlKNc/16x9-512.jpg", "date": "2024-04-30T16:01:00.000+02:00", "lat": 49.3964, "lon": 6.9107, "intensity": 0.7, "source": "Tagesschau"}, {"title": "Saar-Polizei mahnt: Wo der Spa\u00df an Hexennacht aufh\u00f6rt", "url": "https://www.tagesschau.de/inland/regional/saarland/sr-saar-polizei-mahnt-wo-der-spass-an-hexennacht-aufhoert-102.html", "thumbnailUrl": "https://images.tagesschau.de/image/eb95be76-1ded-4d4a-aa1c-e86dd6095834/AAABjy9ZHV8/AAABjwnlKNc/16x9-512.jpg", "date": "2024-04-30T16:01:00.000+02:00", "lat": 49.3964, "lon": 6.9798, "intensity": 0.6, "source": "Tagesschau"}, {"title": "Preis als \"Ausgezeichnete Lehrkraft\" geht nach Halberstadt", "url": "https://www.tagesschau.de/inland/regional/sachsenanhalt/mdr-preis-als-ausgezeichnete-lehrkraft-geht-nach-halberstadt-100.html", "thumbnailUrl": "https://images.tagesschau.de/image/9366f95f-42a8-4510-8898-58ed01525ba1/AAABjy7P1gM/AAABjwnlKNc/16x9-512.jpg", "date": "2024-04-30T15:54:27.000+02:00", "lat": 51.89602, "lon": 11.05191, "intensity": 0.6, "source": "Tagesschau"}, {"title": "G7 einigen sich auf Kohleausstieg bis 2035", "url": "https://www.tagesschau.de/inland/regional/brandenburg/rbb-g7-einigen-sich-auf-kohleausstieg-bis-2035-100.html", "thumbnailUrl": "https://images.tagesschau.de/image/048d0cb4-f913-4dcf-8cf0-acdd99308d8d/AAABjy4Yts8/AAABjwnlKNc/16x9-512.jpg", "date": "2024-04-30T15:53:44.000+02:00", "lat": 52.412528, "lon": 13.165117, "intensity": 0.8, "source": "Tagesschau"}, {"title": "Gruibingen: Ein Toter und ein Schwerverletzter bei zwei Unf\u00e4llen auf A8", "url": "https://www.tagesschau.de/inland/regional/badenwuerttemberg/swr-gruibingen-100.html", "thumbnailUrl": "https://images.tagesschau.de/image/86e5da1e-8a34-4045-9941-d042cec7719a/AAABjy4aiL0/AAABjwnlKNc/16x9-512.jpg", "date": "2024-04-30T15:48:00.000+02:00", "lat": 48.6053, "lon": 9.6309, "intensity": 0.8, "source": "Tagesschau"}, {"title": "Aldi-Supermarkt brennt in Gifhorn ab - Millionenschaden", "url": "https://www.tagesschau.de/inland/regional/niedersachsen/ndr-gifhorn-feuer-in-supermarkt-sorgt-fuer-schulausfall-100.html", "thumbnailUrl": "https://images.tagesschau.de/image/3cedb201-0b68-4db9-a047-44f5fadba228/AAABjy89wv0/AAABjwnlKNc/16x9-512.jpg", "date": "2024-04-30T15:40:00.000+02:00", "lat": 52.477975, "lon": 10.54623, "intensity": 0.8, "source": "Tagesschau"}, {"title": "Fu\u00dfball-Regionalliga: BFC Dynamo geht ohne Trainer Dirk Kunert in die neue Saison", "url": "https://www.tagesschau.de/inland/regional/berlin/rbb-fussball-regionalliga-bfc-dynamo-geht-ohne-trainer-dirk-kunert-in-die-neue-saison-102.html", "thumbnailUrl": "https://images.tagesschau.de/image/2c98b51d-7221-41a1-be10-ca3dbd51c062/AAABjy89sHU/AAABjwnlKNc/16x9-512.jpg", "date": "2024-04-30T15:38:26.000+02:00", "lat": 52.52, "lon": 13.4354, "intensity": 0.3, "source": "Tagesschau"}, {"title": "Fr\u00fchsommer in Brandenburg - Der Mai beginnt mit viel Sonnenschein und hoher Waldbrandgefahr", "url": "https://www.tagesschau.de/inland/regional/berlin/rbb-fruehsommer-in-brandenburg-der-mai-beginnt-mit-viel-sonnenschein-und-hoher-waldbrandgefahr-100.html", "thumbnailUrl": "https://images.tagesschau.de/image/cb0de3c8-7d94-4706-b385-6d8bd6436d21/AAABjy86Lzo/AAABjwnlKNc/16x9-512.jpg", "date": "2024-04-30T15:33:59.000+02:00", "lat": 52.520008, "lon": 13.404954, "intensity": 0.7, "source": "Tagesschau"}, {"title": "Berliner Verkehrssenatorin Schreiner tritt zur\u00fcck", "url": "https://www.tagesschau.de/inland/regional/berlin/verkehrssenatorin-schreiner-ruecktritt-berlin-100.html", "thumbnailUrl": "https://images.tagesschau.de/image/50574960-28d6-4a37-87cd-f725d688b617/AAABjy5nhOg/AAABjwnlKNc/16x9-512.jpg", "date": "2024-04-30T15:32:11.394+02:00", "lat": 52.52, "lon": 13.405, "intensity": 0.8, "source": "Tagesschau"}, {"title": "Bildungsoffensive: Berliner Schulen erhalten 460 Millionen Euro aus Startchancen-Programm", "url": "https://www.tagesschau.de/inland/regional/berlin/rbb-bildungsoffensive-berliner-schulen-erhalten-460-millionen-euro-aus-startchancen-programm-100.html", "thumbnailUrl": "https://images.tagesschau.de/image/a9feac67-9888-4377-ac9c-a98a638bc96e/AAABjy86FYs/AAABjwnlKNc/16x9-512.jpg", "date": "2024-04-30T15:27:28.000+02:00", "lat": 52.52, "lon": 13.405, "intensity": 0.8, "source": "Tagesschau"}, {"title": "Ehemaliger Tagebau: Gro\u00dfr\u00e4schener See soll f\u00fcr Boote freigegeben werden", "url": "https://www.tagesschau.de/inland/regional/brandenburg/rbb-ehemaliger-tagebau-grossraeschener-see-soll-fuer-boote-freigegeben-werden-100.html", "thumbnailUrl": "https://images.tagesschau.de/image/360ebc9f-ce8b-4ed4-8f52-16ffe67f089d/AAABjy84Oe4/AAABjwnlKNc/16x9-512.jpg", "date": "2024-04-30T15:26:54.000+02:00", "lat": 51.5167, "lon": 13.8002, "intensity": 0.6, "source": "Tagesschau"}, {"title": "Sporthalle der Hochschule Fulda: Statiker best\u00e4tigt gravierende M\u00e4ngel", "url": "https://www.tagesschau.de/inland/regional/hessen/hr-hochschule-fulda-sperrt-gebaeude-aus-sicherheitsgruenden-100.html", "thumbnailUrl": "https://images.tagesschau.de/image/c0272608-2f10-4e32-b16d-e529203a291a/AAABjy9Iqxg/AAABjwnlKNc/16x9-512.jpg", "date": "2024-04-30T15:13:59.749+02:00", "lat": 50.5707, "lon": 9.6656, "intensity": 0.8, "source": "Tagesschau"}, {"title": "Krach bei Thyssenkrupp", "url": "https://www.tagesschau.de/wirtschaft/unternehmen/thyssen-krupp-116.html", "thumbnailUrl": "https://images.tagesschau.de/image/b5d85ea6-e208-4940-8ca8-3c978c21ec27/AAABjy6eCrU/AAABjwnlKNc/16x9-512.jpg", "date": "2024-04-30T15:08:48.496+02:00", "lat": 51.5143, "lon": 7.0721, "intensity": 0.8, "source": "Tagesschau"}, {"title": "Jede(r) Zehnte in Rheinland-Pfalz will weniger arbeiten ", "url": "https://www.tagesschau.de/inland/regional/rheinlandpfalz/swr-jeder-zehnte-in-rheinland-pfalz-will-weniger-arbeiten-100.html", "thumbnailUrl": "https://images.tagesschau.de/image/b23831fe-c5dc-47df-8e40-7c5ffd866bbc/AAABjy8kD9k/AAABjwnlKNc/16x9-512.jpg", "date": "2024-04-30T15:02:54.000+02:00", "lat": 49.6116, "lon": 7.4474, "intensity": 0.5, "source": "Tagesschau"}, {"title": "Panzerverlegung mit Gro\u00df\u00fcbung im Rostocker Seehafen", "url": "https://www.tagesschau.de/inland/regional/mecklenburgvorpommern/ndr-grossuebung-im-rostocker-hafen-reservisten-und-heimatschutz-bei-panzerverlegung-102.html", "thumbnailUrl": "https://images.tagesschau.de/image/48c9f556-1942-479e-aa10-b8e11908665a/AAABjy_Mhp8/AAABjwnlKNc/16x9-512.jpg", "date": "2024-04-30T15:01:00.000+02:00", "lat": 54.146, "lon": 12.099, "intensity": 0.8, "source": "Tagesschau"}, {"title": "Polizei r\u00e4umt Zeltlager neben Pariser Rathaus", "url": "https://www.tagesschau.de/ausland/europa/paris-raeumung-migrantenlager-100.html", "thumbnailUrl": "https://images.tagesschau.de/image/1d234693-652a-4f8f-b82d-c0d1eec3b9c5/AAABjy8RB6A/AAABjwnlKNc/16x9-512.jpg", "date": "2024-04-30T15:00:59.641+02:00", "lat": 48.8566, "lon": 2.3522, "intensity": 0.8, "source": "Tagesschau"}, {"title": "Saharastaub in SH: Dieses Jahr h\u00e4ufiger als sonst", "url": "https://www.tagesschau.de/inland/regional/schleswigholstein/ndr-saharastaub-in-sh-dieses-jahr-haeufiger-als-sonst-100.html", "thumbnailUrl": "https://images.tagesschau.de/image/353a8e87-9d5a-4af4-a0d2-97221327f23c/AAABjzBr1Cg/AAABjwnlKNc/16x9-512.jpg", "date": "2024-04-30T14:55:00.000+02:00", "lat": 54.3326, "lon": 9.732, "intensity": 0.7, "source": "Tagesschau"}, {"title": "Bremen im April mit bundesweit h\u00f6chster Arbeitslosenquote", "url": "https://www.tagesschau.de/inland/regional/bremen/rb-bremen-im-april-mit-bundesweit-hoechster-arbeitslosenquote-102.html", "thumbnailUrl": "https://images.tagesschau.de/image/235212ca-809b-4f63-adc2-b8d80ab790c1/AAABjy8Tkf8/AAABjwnlKNc/16x9-512.jpg", "date": "2024-04-30T14:52:00.000+02:00", "lat": 53.0793, "lon": 8.8017, "intensity": 0.8, "source": "Tagesschau"}, {"title": "Vorwurf der Jagdwilderei: Verfahren gegen Polizistenm\u00f6rder eingestellt", "url": "https://www.tagesschau.de/inland/regional/saarland/sr-polizistenmoerder-wegen-wilderei-erneut-vor-gericht-100.html", "thumbnailUrl": "https://images.tagesschau.de/image/26ec0b29-6b15-47fb-8706-167274018733/AAABjy3EdLw/AAABjwnlKNc/16x9-512.jpg", "date": "2024-04-30T14:49:00.000+02:00", "lat": 49.5358, "lon": 7.4206, "intensity": 0.7, "source": "Tagesschau"}, {"title": "Neubrandenburg: Zwei Jugendliche wegen Mordes vor Gericht", "url": "https://www.tagesschau.de/inland/regional/mecklenburgvorpommern/ndr-neubrandenburg-zwei-jugendliche-wegen-mordes-vor-gericht-100.html", "thumbnailUrl": "https://images.tagesschau.de/image/76027add-23ca-4ce1-9970-3eb8e81011e6/AAABjy08-FQ/AAABjwnlKNc/16x9-512.jpg", "date": "2024-04-30T14:47:00.000+02:00", "lat": 53.5577, "lon": 13.2603, "intensity": 0.8, "source": "Tagesschau"}, {"title": "Bundeswehrreform: Pistorius unterzeichnet \"Osnabr\u00fccker Erlass\"", "url": "https://www.tagesschau.de/inland/regional/niedersachsen/ndr-bundeswehrreform-pistorius-unterschreibt-heute-osnabruecker-erlass-100.html", "thumbnailUrl": "https://images.tagesschau.de/image/599f80ad-b881-4975-b141-5fff4c18049a/AAABjy8IrM8/AAABjwnlKNc/16x9-512.jpg", "date": "2024-04-30T14:43:00.000+02:00", "lat": 52.279911, "lon": 8.046163, "intensity": 0.7, "source": "Tagesschau"}, {"title": "\"Die Hamas muss sich jetzt entscheiden\"", "url": "https://www.tagesschau.de/ausland/asien/israel-usa-blinken-netanyahu-100.html", "thumbnailUrl": "https://images.tagesschau.de/image/98bbbaf0-d9cf-4f97-91bb-b95287583465/AAABjy7jnUw/AAABjwnlKNc/16x9-512.jpg", "date": "2024-04-30T14:39:03.643+02:00", "lat": 31.1576, "lon": 34.3952, "intensity": 0.7, "source": "Tagesschau"}, {"title": "Fu\u00dfg\u00e4nger bei Busunfall in Saarbr\u00fccken schwer verletzt", "url": "https://www.tagesschau.de/inland/regional/saarland/sr-fussgaenger-bei-busunfall-in-saarbruecken-schwer-verletzt-100.html", "thumbnailUrl": "https://images.tagesschau.de/image/05d87c69-78b9-45cc-b673-852d720919e9/AAABjy8Rtaw/AAABjwnlKNc/16x9-512.jpg", "date": "2024-04-30T14:38:00.000+02:00", "lat": 49.2323, "lon": 6.9754, "intensity": 0.8, "source": "Tagesschau"}, {"title": "Nach Islamisten-Demo in Hamburg: Forderungen nach Konsequenzen", "url": "https://www.tagesschau.de/inland/regional/hamburg/ndr-muslim-interaktiv-hunderte-bei-demo-in-hamburg-100.html", "thumbnailUrl": "https://images.tagesschau.de/image/ac0513bc-1820-4ff5-b5bb-b8a84d7a4696/AAABjy-bQF4/AAABjwnlKNc/16x9-512.jpg", "date": "2024-04-30T14:32:00.000+02:00", "lat": 53.5511, "lon": 9.9833, "intensity": 0.7, "source": "Tagesschau"}, {"title": "Europawahl: Diese Parteien und politischen Vereinigungen stehen in BW auf dem Wahlzettel", "url": "https://www.tagesschau.de/inland/regional/badenwuerttemberg/swr-europawahl-diese-parteien-und-politischen-vereinigungen-stehen-in-bw-auf-dem-wahlzettel-100.html", "thumbnailUrl": "https://images.tagesschau.de/image/fc203f9b-28bc-42cc-a3d9-b315f5f8489e/AAABjy8tNag/AAABjwnlKNc/16x9-512.jpg", "date": "2024-04-30T14:18:45.000+02:00", "lat": 48.7371, "lon": 9.9937, "intensity": 0.3, "source": "Tagesschau"}, {"title": "Diese Parteien sind zur Europawahl in Rheinland-Pfalz zugelassen", "url": "https://www.tagesschau.de/inland/regional/rheinlandpfalz/swr-diese-parteien-sind-zur-europawahl-in-rheinland-pfalz-zugelassen-100.html", "thumbnailUrl": "https://images.tagesschau.de/image/271ebc77-21d5-41c8-8811-0dd0ba638bb4/AAABjy9a96M/AAABjwnlKNc/16x9-512.jpg", "date": "2024-04-30T14:18:23.000+02:00", "lat": 50, "lon": 7.4, "intensity": 0.6, "source": "Tagesschau"}, {"title": "Unfall bei Wesel: A3 in Richtung Oberhausen wieder frei", "url": "https://www.tagesschau.de/inland/regional/nordrheinwestfalen/wdr-unfall-bei-wesel-a3-in-richtung-oberhausen-bis-15-uhr-gesperrt-100.html", "thumbnailUrl": "https://images.tagesschau.de/image/f748c19a-b612-4fdf-83a6-d6f5ab6d99bf/AAABjy8rWPo/AAABjwnlKNc/16x9-512.jpg", "date": "2024-04-30T14:18:00.000+02:00", "lat": 51.6587, "lon": 6.6176, "intensity": 0.8, "source": "Tagesschau"}, {"title": "EuGH st\u00e4rkt deutschen Anklagebeh\u00f6rden den R\u00fccken", "url": "https://www.tagesschau.de/ausland/europa/encrochat-prozesse-100.html", "thumbnailUrl": "https://images.tagesschau.de/image/e504098c-ce03-4f7d-8852-e86481f5597d/AAABjy7rnw8/AAABjwnlKNc/16x9-512.jpg", "date": "2024-04-30T14:12:24.975+02:00", "lat": 53.5511, "lon": 9.9937, "intensity": 0.8, "source": "Tagesschau"}, {"title": "Hamburger Optikerkonzern Fielmann erwartet steigende Ums\u00e4tze", "url": "https://www.tagesschau.de/inland/regional/hamburg/ndr-hamburger-optikerkonzern-fielmann-erwartet-steigende-umsaetze-100.html", "thumbnailUrl": "https://images.tagesschau.de/image/5068b80c-3f6a-47d4-80fa-aaae646c84bb/AAABjy7rXWM/AAABjwnlKNc/16x9-512.jpg", "date": "2024-04-30T14:01:00.000+02:00", "lat": 53.5511, "lon": 9.9937, "intensity": 0.6, "source": "Tagesschau"}, {"title": "Nazisymbole auf Wahlplakaten im Bodenseeraum", "url": "https://www.tagesschau.de/inland/regional/badenwuerttemberg/swr-nazisymbole-auf-wahlplakaten-im-bodenseeraum-100.html", "thumbnailUrl": "https://images.tagesschau.de/image/b43f7e25-c77b-4696-b406-d74844a10e5c/AAABjy9nxNM/AAABjwnlKNc/16x9-512.jpg", "date": "2024-04-30T13:59:47.000+02:00", "lat": 47.5574, "lon": 9.7489, "intensity": 0.8, "source": "Tagesschau"}, {"title": "Friedland: Heimkehrer-Denkmal soll an alle Kriegsopfer erinnern", "url": "https://www.tagesschau.de/inland/regional/niedersachsen/ndr-friedland-heimkehrer-denkmal-soll-an-alle-kriegsopfer-erinnern-100.html", "thumbnailUrl": "https://images.tagesschau.de/image/2a584609-5ec3-4bf9-90a3-d37cbf2a0823/AAABjy7gYVs/AAABjwnlKNc/16x9-512.jpg", "date": "2024-04-30T13:58:00.000+02:00", "lat": 53.5281, "lon": 16.4883, "intensity": 0.7, "source": "Tagesschau"}, {"title": "Chinas K\u00fcstenwache attackiert philippinische Schiffe", "url": "https://www.tagesschau.de/ausland/asien/philippinen-kuestenwache-china-100.html", "thumbnailUrl": "https://images.tagesschau.de/image/c159964c-2c65-46f1-9500-83cdf6577e4f/AAABjy5JXvM/AAABjwnlKNc/16x9-512.jpg", "date": "2024-04-30T13:57:39.269+02:00", "lat": 39.91667, "lon": 116.41667, "intensity": 0.8, "source": "Tagesschau"}, {"title": "Bezahlkarte im Rhein-Pfalz-Kreis verz\u00f6gert sich", "url": "https://www.tagesschau.de/inland/regional/rheinlandpfalz/swr-rhein-pfalz-kreis-fuehrt-bezahlkarte-fuer-gefluechtete-ein-102.html", "thumbnailUrl": "https://images.tagesschau.de/image/b0671343-34ef-4e0b-909e-2798bcccc39a/AAABjy6TbBI/AAABjwnlKNc/16x9-512.jpg", "date": "2024-04-30T13:53:00.000+02:00", "lat": 49.364071, "lon": 8.304239, "intensity": 0.6, "source": "Tagesschau"}, {"title": "Trotz Fachkr\u00e4ftemangels: Pflegeassistent wird abgeschoben", "url": "https://www.tagesschau.de/inland/regional/niedersachsen/ndr-trotz-fachkraeftemangels-pflegeassistent-wird-abgeschoben-100.html", "thumbnailUrl": "https://images.tagesschau.de/image/725ce171-0066-453c-90dc-bc44d74a4e18/AAABjy7ZBw4/AAABjwnlKNc/16x9-512.jpg", "date": "2024-04-30T13:50:00.000+02:00", "lat": 52.268, "lon": 10.5268, "intensity": 0.7, "source": "Tagesschau"}, {"title": "FCK-Fans greifen Anh\u00e4nger von Waldhof Mannheim an", "url": "https://www.tagesschau.de/inland/regional/rheinlandpfalz/swr-fck-fans-greifen-anhaenger-von-waldhof-mannheim-an-100.html", "thumbnailUrl": "https://images.tagesschau.de/image/d2b8af20-f318-4172-b82b-064b70cda731/AAABjy8Buhc/AAABjwnlKNc/16x9-512.jpg", "date": "2024-04-30T13:47:50.000+02:00", "lat": 49.443437, "lon": 8.273989, "intensity": 0.8, "source": "Tagesschau"}, {"title": "Fragen und Antworten: Warum der SC Potsdam ins Chaos schlitterte - und wie es nun weitergeht", "url": "https://www.tagesschau.de/inland/regional/brandenburg/rbb-fragen-und-antworten-warum-der-sc-potsdam-ins-chaos-schlitterte-und-wie-es-nun-weitergeht-102.html", "thumbnailUrl": "https://images.tagesschau.de/image/2c25eccf-6009-4b75-afda-6e37679050d4/AAABjy7Tidw/AAABjwnlKNc/16x9-512.jpg", "date": "2024-04-30T13:43:57.000+02:00", "lat": 52.3906, "lon": 13.0645, "intensity": 0.8, "source": "Tagesschau"}, {"title": "Champions League: THW Kiel braucht gegen Montpellier \"magische Nacht\"", "url": "https://www.tagesschau.de/inland/regional/schleswigholstein/ndr-champions-league-thw-kiel-braucht-gegen-montpellier-magische-nacht-102.html", "thumbnailUrl": "https://images.tagesschau.de/image/d2c77aec-9f44-41b0-bfdf-d785d46c4e94/AAABjy9OL8M/AAABjwnlKNc/16x9-512.jpg", "date": "2024-04-30T13:36:00.000+02:00", "lat": 54.3233, "lon": 10.1228, "intensity": 0.7, "source": "Tagesschau"}, {"title": "SV Wehen Wiesbaden geht mit Interims-Trainerteam ins Saisonfinale", "url": "https://www.tagesschau.de/inland/regional/hessen/hr-sv-wehen-wiesbaden-geht-mit-interims-trainerteam-ins-saisonfinale-102.html", "thumbnailUrl": "https://images.tagesschau.de/image/2c7a3de1-9ee2-43a5-9f28-c2490308d86b/AAABjy7MJ3A/AAABjwnlKNc/16x9-512.jpg", "date": "2024-04-30T13:31:35.314+02:00", "lat": 50.0722, "lon": 8.2394, "intensity": 0.8, "source": "Tagesschau"}, {"title": "Was geschieht jetzt mit den Galeria-Filialen?", "url": "https://www.tagesschau.de/wirtschaft/unternehmen/galeria-zukunft-100.html", "thumbnailUrl": "https://images.tagesschau.de/image/8288d510-e2f7-4ec8-8f67-53e0906661b7/AAABjy6GKmo/AAABjwnlKNc/16x9-512.jpg", "date": "2024-04-30T13:25:45.452+02:00", "lat": 51.482, "lon": 7.609, "intensity": 0.8, "source": "Tagesschau"}, {"title": "Lok der S28 stand bei Erkrath in Flammen", "url": "https://www.tagesschau.de/inland/regional/nordrheinwestfalen/wdr-lok-der-s28-stand-bei-erkrath-in-flammen-100.html", "thumbnailUrl": "https://images.tagesschau.de/image/ba3463ac-0feb-4c54-b13f-7bb9ebf2fc46/AAABjy7ecyg/AAABjwnlKNc/16x9-512.jpg", "date": "2024-04-30T13:25:00.000+02:00", "lat": 51.2217, "lon": 6.9017, "intensity": 0.6, "source": "Tagesschau"}, {"title": "Angst vor Jobverlust: Tausende Stahlarbeiter protestieren in Duisburg", "url": "https://www.tagesschau.de/inland/regional/nordrheinwestfalen/wdr-angst-vor-jobverlust-tausende-stahlarbeiter-protestieren-in-duisburg-100.html", "thumbnailUrl": "https://images.tagesschau.de/image/e80f831a-88b1-4fcf-b3d3-127a820fd736/AAABjy7j8H8/AAABjwnlKNc/16x9-512.jpg", "date": "2024-04-30T13:18:00.000+02:00", "lat": 51.4344, "lon": 6.7775, "intensity": 0.8, "source": "Tagesschau"}, {"title": "Deutschlandticket: Teurer Flop oder Erfolg?  ", "url": "https://www.tagesschau.de/inland/regional/badenwuerttemberg/swr-deutschlandticket-teurer-flop-oder-erfolg-100.html", "thumbnailUrl": "https://images.tagesschau.de/image/a44b8e5a-1080-4366-8a46-28f0584bbfed/AAABjy6ebdU/AAABjwnlKNc/16x9-512.jpg", "date": "2024-04-30T13:14:00.000+02:00", "lat": 49.3988, "lon": 9.6812, "intensity": 0.4, "source": "Tagesschau"}, {"title": "Studierende besetzen Uni-Geb\u00e4ude in New York", "url": "https://www.tagesschau.de/ausland/amerika/usa-studierende-proteste-100.html", "thumbnailUrl": "https://images.tagesschau.de/image/a95ecddd-cbdf-4d14-952d-df895ba141cb/AAABjy6Vu0A/AAABjwnlKNc/16x9-512.jpg", "date": "2024-04-30T13:11:51.546+02:00", "lat": 40.7128, "lon": -74.006, "intensity": 0.7, "source": "Tagesschau"}, {"title": "Verfahren gegen Polizistenm\u00f6rder von Kusel wegen Jagdwilderei eingestellt", "url": "https://www.tagesschau.de/inland/regional/rheinlandpfalz/swr-polizistenmoerder-andreas-s-erneut-wegen-jagdwilderei-vor-gericht-100.html", "thumbnailUrl": "https://images.tagesschau.de/image/43680248-4ad6-4862-b678-a2d26aa7d54e/AAABjy5VP8M/AAABjwnlKNc/16x9-512.jpg", "date": "2024-04-30T13:11:00.000+02:00", "lat": 49.5531, "lon": 7.3998, "intensity": 0.7, "source": "Tagesschau"}, {"title": "Arbeiten nach Hangrutsch in Saarbr\u00fccken-St. Arnual gestartet", "url": "https://www.tagesschau.de/inland/regional/saarland/sr-arbeiten-nach-hangrutsch-in-saarbruecken-st-arnual-gestartet-100.html", "thumbnailUrl": "https://images.tagesschau.de/image/ed4e720a-4549-4be3-8dea-536077953867/AAABjy62KHo/AAABjwnlKNc/16x9-512.jpg", "date": "2024-04-30T13:11:00.000+02:00", "lat": 49.2136, "lon": 6.9912, "intensity": 0.8, "source": "Tagesschau"}, {"title": "Hamburger Steindamm: Demonstration gegen Islamisten geplant", "url": "https://www.tagesschau.de/inland/regional/hamburg/ndr-hamburg-steindamm-demonstration-gegen-islamisten-geplant-100.html", "thumbnailUrl": "https://images.tagesschau.de/image/e5dfaa3d-7549-463e-ac4f-b53022e6992e/AAABjy-bPRc/AAABjwnlKNc/16x9-512.jpg", "date": "2024-04-30T13:08:00.000+02:00", "lat": 53.5511, "lon": 9.9866, "intensity": 0.7, "source": "Tagesschau"}, {"title": "Mann auf Geburtstagsparty in Neustadt niedergestochen und lebensgef\u00e4hrlich verletzt", "url": "https://www.tagesschau.de/inland/regional/rheinlandpfalz/swr-mann-auf-geburtstagsparty-in-neustadt-niedergestochen-und-lebensgefaehrlich-verletzt-100.html", "thumbnailUrl": "https://images.tagesschau.de/image/59928de2-0245-45ac-b336-ae1900e21bd9/AAABjy6_Vg4/AAABjwnlKNc/16x9-512.jpg", "date": "2024-04-30T13:08:00.000+02:00", "lat": 49.3471, "lon": 8.1359, "intensity": 0.8, "source": "Tagesschau"}, {"title": "Diebe wollen Automaten mit Spanngurt aus Spielothek ziehen", "url": "https://www.tagesschau.de/inland/regional/niedersachsen/ndr-diebe-wollen-automaten-mit-spanngurt-aus-spielothek-ziehen-100.html", "thumbnailUrl": "https://images.tagesschau.de/image/8f148a06-7f57-4a95-a580-d0bf7230389e/AAABjy7IlIU/AAABjwnlKNc/16x9-512.jpg", "date": "2024-04-30T13:02:00.000+02:00", "lat": 52.8325, "lon": 7.4238, "intensity": 0.8, "source": "Tagesschau"}, {"title": "Darmstadt 98: +++ Pr\u00e4sidium verspricht Aufarbeitung +++ Abstieg ist \"wie mit der 102-j\u00e4hrigen Oma\" +++ Lieberknecht lobt Lilien-Fans +++", "url": "https://www.tagesschau.de/inland/regional/hessen/hr--tietz-vermisst-fehlende-gier--lilien-fans-liefern-sich-raststaetten-pruegelei--die-niederlage-der-lilien-in-der-video-zusammenfassung-102.html", "thumbnailUrl": "https://images.tagesschau.de/image/f43d9f6c-5d93-4417-87ad-af0f83bc92a8/AAABjy6paXg/AAABjwnlKNc/16x9-512.jpg", "date": "2024-04-30T12:58:53.563+02:00", "lat": 49.8728, "lon": 8.6512, "intensity": 0.8, "source": "Tagesschau"}, {"title": "Das ist die Strecke beim Radrennen Eschborn-Frankfurt 2024", "url": "https://www.tagesschau.de/inland/regional/hessen/hr-radrennen-eschborn-frankfurt-2024-verlauf-der-strecke-verspricht-naechsten-taunus-krimi-102.html", "thumbnailUrl": "https://images.tagesschau.de/image/cbe917fa-041c-440f-b1c5-2903f8734a76/AAABjy6nidk/AAABjwnlKNc/16x9-512.jpg", "date": "2024-04-30T12:56:34.186+02:00", "lat": 50.147, "lon": 8.5786, "intensity": 0.7, "source": "Tagesschau"}, {"title": "Saarlouiser Polizei schie\u00dft Angreifer nach Warnschuss ins Bein", "url": "https://www.tagesschau.de/inland/regional/saarland/sr-polizei-setzt-in-saarlouis-schusswaffe-gegen-mann-ein-100.html", "thumbnailUrl": "https://images.tagesschau.de/image/6445f4bb-57cf-4453-9864-ec3870cbe655/AAABjy8Rt2U/AAABjwnlKNc/16x9-512.jpg", "date": "2024-04-30T12:56:00.000+02:00", "lat": 49.315, "lon": 6.7533, "intensity": 0.8, "source": "Tagesschau"}, {"title": "Das arme Bad Schmiedeberg", "url": "https://www.tagesschau.de/inland/regional/sachsenanhalt/mdr-das-arme-bad-schmiedeberg-102.html", "thumbnailUrl": "https://images.tagesschau.de/image/23f51597-eeae-4462-a2c2-5b17a37ad966/AAABjzEm_VY/AAABjwnlKNc/16x9-512.jpg", "date": "2024-04-30T12:53:37.000+02:00", "lat": 51.6996, "lon": 12.7583, "intensity": 0.8, "source": "Tagesschau"}, {"title": "Waffenstillstand war nicht kurz vor dem Abschluss", "url": "https://www.tagesschau.de/faktenfinder/waffenstillstand-russland-ukraine-100.html", "thumbnailUrl": "https://images.tagesschau.de/image/8f6638d6-1e76-4318-b256-1c173cc50b8f/AAABhnRD8N4/AAABjwnlKNc/16x9-512.jpg", "date": "2024-04-30T12:50:48.490+02:00", "lat": 49.9987, "lon": 36.2316, "intensity": 0.6, "source": "Tagesschau"}, {"title": "Rohrbruch in G\u00e4rtringen: Leitungswasser abkochen ", "url": "https://www.tagesschau.de/inland/regional/badenwuerttemberg/swr-rohrbruch-in-gaertringen-leitungswasser-abkochen-100.html", "thumbnailUrl": "https://images.tagesschau.de/image/6ab44fc7-88ac-4fba-b283-61ff42a87c04/AAABjy6XEho/AAABjwnlKNc/16x9-512.jpg", "date": "2024-04-30T12:43:00.000+02:00", "lat": 48.6394, "lon": 8.8693, "intensity": 0.7, "source": "Tagesschau"}, {"title": "\u00c4rger wegen \u00dcberwachungskamera bei Feuerwehr in Hettstedt", "url": "https://www.tagesschau.de/inland/regional/sachsenanhalt/mdr-aerger-wegen-ueberwachungskamera-bei-feuerwehr-in-hettstedt-100.html", "thumbnailUrl": "https://images.tagesschau.de/image/22d43d0c-09c7-4830-b7ff-2a75b7da1f10/AAABjzEnQUU/AAABjwnlKNc/16x9-512.jpg", "date": "2024-04-30T12:32:47.000+02:00", "lat": 51.5833, "lon": 11.3014, "intensity": 0.7, "source": "Tagesschau"}, {"title": "H\u00e4mmern, kratzen, treten: \"Crash-Day\" f\u00fcr Versicherungsleute", "url": "https://www.tagesschau.de/inland/regional/niedersachsen/ndr-haemmern-kratzen-treten-crash-day-fuer-versicherungsleute-100.html", "thumbnailUrl": "https://images.tagesschau.de/image/675216a9-5392-4e38-bffb-57149c9667a6/AAABjy6KStc/AAABjwnlKNc/16x9-512.jpg", "date": "2024-04-30T12:24:00.000+02:00", "lat": 52.3759, "lon": 9.4306, "intensity": 0.8, "source": "Tagesschau"}, {"title": "\u00c4rger um Automatenkiosk an Polcher Schule", "url": "https://www.tagesschau.de/inland/regional/rheinlandpfalz/swr-aerger-um-automatenkiosk-an-polcher-schule-100.html", "thumbnailUrl": "https://images.tagesschau.de/image/93ec5cad-3b01-4970-81ba-be9f7a9377ad/AAABjy47hRg/AAABjwnlKNc/16x9-512.jpg", "date": "2024-04-30T12:09:00.000+02:00", "lat": 50.3426, "lon": 7.3447, "intensity": 0.6, "source": "Tagesschau"}, {"title": "Altbischof Bode verliert Ehrenkreuz der Katholischen Jugend", "url": "https://www.tagesschau.de/inland/regional/niedersachsen/ndr-altbischof-bode-verliert-ehrenkreuz-der-katholischen-jugend-100.html", "thumbnailUrl": "https://images.tagesschau.de/image/7a2dfc7a-fba7-44cf-8c13-61c6d7b02115/AAABjy5tDh0/AAABjwnlKNc/16x9-512.jpg", "date": "2024-04-30T11:49:00.000+02:00", "lat": 51.1657, "lon": 10.4515, "intensity": 0.6, "source": "Tagesschau"}, {"title": "Wahlkampf in Brandenburg: Innenminister verurteilt Angriff auf Wahlk\u00e4mpfer", "url": "https://www.tagesschau.de/inland/regional/brandenburg/rbb-wahlkampf-in-brandenburg-innenminister-verurteilt-angriff-auf-wahlkaempfer-100.html", "thumbnailUrl": "https://images.tagesschau.de/image/92a57855-b67d-4132-bbf8-3bccd5a34e09/AAABjy5pVKE/AAABjwnlKNc/16x9-512.jpg", "date": "2024-04-30T11:45:05.000+02:00", "lat": 52.4125, "lon": 13.1001, "intensity": 0.6, "source": "Tagesschau"}, {"title": "Anklage nach t\u00f6dlichem Unfall: Betrunken Autorennen gefahren?", "url": "https://www.tagesschau.de/inland/regional/niedersachsen/ndr-anklage-nach-toedlichem-unfall-betrunken-autorennen-gefahren-100.html", "thumbnailUrl": "https://images.tagesschau.de/image/ebe651d7-6f44-46f2-bbd5-670102365b3f/AAABjy5s-So/AAABjwnlKNc/16x9-512.jpg", "date": "2024-04-30T11:45:00.000+02:00", "lat": 51.541, "lon": 9.935, "intensity": 0.8, "source": "Tagesschau"}, {"title": "Millionen-Bargeldfund auf Dachboden: Drogenh\u00e4ndler-Bande zu langj\u00e4hrigen Haftstrafen verurteilt", "url": "https://www.tagesschau.de/inland/regional/hessen/hr-millionen-bargeldfund-auf-dachboden-drogenhaendler-bande-zu-langjaehrigen-haftstrafen-verurteilt-100.html", "thumbnailUrl": "https://images.tagesschau.de/image/4e67b790-d284-4cf8-b7ba-26a2a2eb27b0/AAABjy5jzOI/AAABjwnlKNc/16x9-512.jpg", "date": "2024-04-30T11:43:20.120+02:00", "lat": 50.58605, "lon": 9.6752, "intensity": 0.8, "source": "Tagesschau"}, {"title": "Promillegrenze, keine Kopfh\u00f6rer: Strengere Regeln auf Maschsee", "url": "https://www.tagesschau.de/inland/regional/niedersachsen/ndr-promillegrenze-keine-kopfhoerer-strengere-regeln-auf-maschsee-100.html", "thumbnailUrl": "https://images.tagesschau.de/image/ff10cdac-ab3d-4ec6-9cf0-2e27a201fbd4/AAABjy5gMKc/AAABjwnlKNc/16x9-512.jpg", "date": "2024-04-30T11:32:00.000+02:00", "lat": 52.3759, "lon": 9.7332, "intensity": 0.5, "source": "Tagesschau"}, {"title": "Deutsche Wirtschaft w\u00e4chst wieder - ein bisschen", "url": "https://www.tagesschau.de/wirtschaft/konjunktur/bip-deutschland-q1-100.html", "thumbnailUrl": "https://images.tagesschau.de/image/2c302007-4dab-4ccf-8e5f-dcae09fb7238/AAABjmWmFrQ/AAABjwnlKNc/16x9-512.jpg", "date": "2024-04-30T11:19:12.097+02:00", "lat": 51.1657, "lon": 10.4515, "intensity": 0.4, "source": "Tagesschau"}, {"title": "Geldautomaten in Contwig geknackt - Mussten T\u00e4ter Sprengung abbrechen?", "url": "https://www.tagesschau.de/inland/regional/rheinlandpfalz/swr-geldautomaten-in-contwig-aufgebrochen-taeter-auf-der-flucht-102.html", "thumbnailUrl": "https://images.tagesschau.de/image/265acde6-bb63-4c77-9a7f-4c316b03e5b3/AAABjy35raA/AAABjwnlKNc/16x9-512.jpg", "date": "2024-04-30T11:05:00.000+02:00", "lat": 49.2416, "lon": 7.5288, "intensity": 0.8, "source": "Tagesschau"}, {"title": "Sexuelle Bel\u00e4stigung am Heilbronner Marktplatz: Polizei sucht nach T\u00e4tern", "url": "https://www.tagesschau.de/inland/regional/badenwuerttemberg/swr-sexuelle-belaestigung-am-heilbronner-marktplatz-polizei-sucht-nach-taetern-100.html", "thumbnailUrl": "https://images.tagesschau.de/image/65cb613f-d704-4b2b-bad2-ff65c2e457ac/AAABjy5C0Ak/AAABjwnlKNc/16x9-512.jpg", "date": "2024-04-30T10:58:55.000+02:00", "lat": 49.1417, "lon": 9.2239, "intensity": 0.8, "source": "Tagesschau"}, {"title": "Nachfrage nach Luxusimmobilien in Hamburg gesunken", "url": "https://www.tagesschau.de/inland/regional/hamburg/ndr-nachfrage-nach-luxusimmobilien-in-hamburg-gesunken-100.html", "thumbnailUrl": "https://images.tagesschau.de/image/5dfc093b-78db-4414-9a11-a6c7a5e27626/AAABjy05Wro/AAABjwnlKNc/16x9-512.jpg", "date": "2024-04-30T10:50:00.000+02:00", "lat": 53.55, "lon": 10.0, "intensity": 0.5, "source": "Tagesschau"}, {"title": "Schwacher Jahresstart f\u00fcr VW und Mercedes-Benz ", "url": "https://www.tagesschau.de/wirtschaft/unternehmen/autohersteller-volkswagen-mercedes-gewinneinbruch-100.html", "thumbnailUrl": "https://images.tagesschau.de/image/fd858ffe-a4f9-40b2-b21d-fb79bdbe171e/AAABjnsfZuI/AAABjwnlKNc/16x9-512.jpg", "date": "2024-04-30T10:47:21.330+02:00", "lat": 53.5511, "lon": 9.9977, "intensity": 0.7, "source": "Tagesschau"}, {"title": "Arbeitsmarkt im April: Arbeitslosenzahlen trotz Fr\u00fchjahr hoch", "url": "https://www.tagesschau.de/inland/regional/hamburg/ndr-arbeitsmarkt-im-april-arbeitslosenzahlen-trotz-fruehjahr-hoch-100.html", "thumbnailUrl": "https://images.tagesschau.de/image/fb1be92f-c6ba-41da-b9ab-fa96c39976b9/AAABjy7XOj4/AAABjwnlKNc/16x9-512.jpg", "date": "2024-04-30T10:45:00.000+02:00", "lat": 53.55, "lon": 10.0, "intensity": 0.7, "source": "Tagesschau"}, {"title": "Letzte Infos zum Radrennen Eschborn-Frankfurt: Degenkolb und Sonne strahlen um die Wette", "url": "https://www.tagesschau.de/inland/regional/hessen/hr-letzte-infos-zum-radrennen-eschborn-frankfurt-degenkolb-und-sonne-strahlen-um-die-wette-102.html", "thumbnailUrl": "https://images.tagesschau.de/image/306e3f7d-e6cf-43c4-a41c-dd09094532de/AAABjy4_Nmg/AAABjwnlKNc/16x9-512.jpg", "date": "2024-04-30T10:43:39.047+02:00", "lat": 50.1123516, "lon": 8.5318252, "intensity": 0.8, "source": "Tagesschau"}, {"title": "Hessen am Morgen: +++ Lkw in Gie\u00dfen mit Desinfektionsmittel umgest\u00fcrzt +++ Wasserspiele am Herkules starten +++ Hund warnt vor Brand auf Balkon +++", "url": "https://www.tagesschau.de/inland/regional/hessen/hr-hessen-am-morgen--a3-55-jaehriger-stirbt-nach-unfall-100.html", "thumbnailUrl": "https://images.tagesschau.de/image/b1a870a7-c640-4112-8bae-85c27083327d/AAABjy4gE2M/AAABjwnlKNc/16x9-512.jpg", "date": "2024-04-30T10:43:03.457+02:00", "lat": 50.5833, "lon": 8.67, "intensity": 0.6, "source": "Tagesschau"}, {"title": "Zahl der Arbeitslosen geht im April nur leicht zur\u00fcck", "url": "https://www.tagesschau.de/wirtschaft/arbeitsmarkt/arbeitslosenzahlen-april-2024-100.html", "thumbnailUrl": "https://images.tagesschau.de/image/597aa5fb-b5ea-4751-b2b6-47d57eb80031/AAABjsaT7_Y/AAABjwnlKNc/16x9-512.jpg", "date": "2024-04-30T10:34:16.511+02:00", "lat": 52.3759, "lon": 9.741, "intensity": 0.3, "source": "Tagesschau"}, {"title": "Brotpreise seit 2019 massiv gestiegen", "url": "https://www.tagesschau.de/wirtschaft/verbraucher/anstieg-brotpreise-100.html", "thumbnailUrl": "https://images.tagesschau.de/image/e8a7a30e-3854-4be9-8037-1cb2ccf7a203/AAABjy3u4PY/AAABjwnlKNc/16x9-512.jpg", "date": "2024-04-30T10:29:09.182+02:00", "lat": 51.1657, "lon": 10.4515, "intensity": 0.6, "source": "Tagesschau"}, {"title": "Geldautomaten in Contwig aufgebrochen ", "url": "https://www.tagesschau.de/inland/regional/saarland/sr-geldautomaten-in-contwig-aufgebrochen--sprengstoff-deponiert-100.html", "thumbnailUrl": "https://images.tagesschau.de/image/dc57b3e3-cf47-4dd8-b3b5-74e948742ec1/AAABjy4nVj0/AAABjwnlKNc/16x9-512.jpg", "date": "2024-04-30T10:29:00.000+02:00", "lat": 49.2269, "lon": 7.4372, "intensity": 0.7, "source": "Tagesschau"}, {"title": "Etwas mehr Arbeitslose in Berlin, weniger in Brandenburg", "url": "https://www.tagesschau.de/inland/regional/brandenburg/rbb-berlin-und-brandenburg-zahl-der-arbeitslosen-bleibt-im-april-ueberwiegend-stabil-100.html", "thumbnailUrl": "https://images.tagesschau.de/image/e4943169-649d-46f0-b8dc-4c9206799023/AAABjy4eRpU/AAABjwnlKNc/16x9-512.jpg", "date": "2024-04-30T10:28:47.000+02:00", "lat": 52.520008, "lon": 13.404954, "intensity": 0.5, "source": "Tagesschau"}, {"title": "Warum die n\u00e4chste Mobilfunk-Auktion ausfallen soll", "url": "https://www.tagesschau.de/wirtschaft/digitales/mobilfunkauktion-frequenzen-telekommunikation-100.html", "thumbnailUrl": "https://images.tagesschau.de/image/57c119b0-bde6-4330-a515-e311440771be/AAABjy2Iu0Q/AAABjwnlKNc/16x9-512.jpg", "date": "2024-04-30T10:26:37.398+02:00", "lat": 51.163, "lon": 9.998, "intensity": 0.6, "source": "Tagesschau"}, {"title": "Bankfiliale geschlossen: Mann schiebt T\u00fcren auf und steht im Nebel", "url": "https://www.tagesschau.de/inland/regional/niedersachsen/ndr-bankkunde-im-nebel-36-jaehriger-schiebt-tuer-auf-und-loest-alarm-aus-100.html", "thumbnailUrl": "https://images.tagesschau.de/image/13640ee7-8888-4ff3-8ae8-7ae4e019b4d9/AAABjy3nYC8/AAABjwnlKNc/16x9-512.jpg", "date": "2024-04-30T10:12:00.000+02:00", "lat": 52.0581, "lon": 10.0114, "intensity": 0.8, "source": "Tagesschau"}, {"title": "Sittiche aus Wiesbaden breiten sich im Rhein-Main-Gebiet aus - und sorgen f\u00fcr \u00c4rger", "url": "https://www.tagesschau.de/inland/regional/hessen/hr-sittiche-aus-wiesbaden-breiten-sich-im-rhein-main-gebiet-aus-und-sorgen-fuer-aerger-100.html", "thumbnailUrl": "https://images.tagesschau.de/image/e65f26c6-58f0-4530-a3d2-d15775f11b21/AAABjy4Gb3E/AAABjwnlKNc/16x9-512.jpg", "date": "2024-04-30T10:01:08.884+02:00", "lat": 50.078218, "lon": 8.23976, "intensity": 0.6, "source": "Tagesschau"}, {"title": "Fr\u00fchjahrsaufschwung am Arbeitsmarkt bleibt weiter aus   ", "url": "https://www.tagesschau.de/inland/regional/hessen/hr-fruehjahrsaufschwung-am-arbeitsmarkt-bleibt-weiter-aus-100.html", "thumbnailUrl": "https://images.tagesschau.de/image/9a201890-1e76-48c1-9a22-02eef5165e9d/AAABjy4GlYo/AAABjwnlKNc/16x9-512.jpg", "date": "2024-04-30T10:00:00.337+02:00", "lat": 50.535, "lon": 9.692, "intensity": 0.3, "source": "Tagesschau"}, {"title": "Geldautomat in Contwig aufgebrochen, Weiterer Prozess gegen Polizisten-M\u00f6rder von Kusel, K\u00e4nguru-Nachwuchs", "url": "https://www.tagesschau.de/inland/regional/rheinlandpfalz/swr-gewaltfreie-erziehung-weiterer-prozess-gegen-polizisten-moerder-von-kusel-arbeitsmarktzahlen-100.html", "thumbnailUrl": "https://images.tagesschau.de/image/9e8277c7-aba6-43e5-95dd-eaf01495a8e4/AAABjy2hwvc/AAABjwnlKNc/16x9-512.jpg", "date": "2024-04-30T10:00:00.000+02:00", "lat": 49.1972, "lon": 7.4292, "intensity": 0.6, "source": "Tagesschau"}, {"title": "BW-Newsticker am Morgen: Gewinneinbruch bei Mercedes-Benz, Brandbrief wegen gesprengter Geldautomaten", "url": "https://www.tagesschau.de/inland/regional/badenwuerttemberg/swr-bw-newsticker-am-morgen-brandbrief-wegen-gesprengter-geldautomaten-kitaverband-kritisiert-sprachfoerderplan-100.html", "thumbnailUrl": "https://images.tagesschau.de/image/3ac10e41-2da3-45d5-a818-f13f79291acb/AAABjy27YDI/AAABjwnlKNc/16x9-512.jpg", "date": "2024-04-30T10:00:00.000+02:00", "lat": 48.6616, "lon": 9.4815, "intensity": 0.7, "source": "Tagesschau"}, {"title": "Arbeitslosenquote im Saarland bleibt im April stabil", "url": "https://www.tagesschau.de/inland/regional/saarland/sr-arbeitslosenquote-im-saarland-bleibt-im-april-stabil-100.html", "thumbnailUrl": "https://images.tagesschau.de/image/4f3835b5-70bf-4acb-bb2c-ab73d045eeda/AAABjy6rSFs/AAABjwnlKNc/16x9-512.jpg", "date": "2024-04-30T09:55:00.000+02:00", "lat": 49.3964, "lon": 7.0, "intensity": 0.3, "source": "Tagesschau"}, {"title": "Unfall in Edewecht: Mann f\u00e4hrt in Graben und wird schwer verletzt", "url": "https://www.tagesschau.de/inland/regional/niedersachsen/ndr-29-jaehriger-bei-unfall-in-edewecht-schwer-verletzt-100.html", "thumbnailUrl": "https://images.tagesschau.de/image/6ea886c4-a89d-4b30-8100-d8429be02f40/AAABjy3lelM/AAABjwnlKNc/16x9-512.jpg", "date": "2024-04-30T09:46:00.000+02:00", "lat": 53.125, "lon": 8.088, "intensity": 0.7, "source": "Tagesschau"}, {"title": "Wildunfall: Paketauto erfasst Hirsch und prallt gegen Baum", "url": "https://www.tagesschau.de/inland/regional/niedersachsen/ndr-wildunfall-paketbote-erfasst-hirsch-und-prallt-gegen-baum-100.html", "thumbnailUrl": "https://images.tagesschau.de/image/19b91474-8334-4456-b799-73d12820163c/AAABjy237Fc/AAABjwnlKNc/16x9-512.jpg", "date": "2024-04-30T09:41:00.000+02:00", "lat": 51.1657, "lon": 10.4515, "intensity": 0.8, "source": "Tagesschau"}, {"title": "A3-Sperrung nach Unfall: Auto ger\u00e4t bei Bad Camberg unter Lkw", "url": "https://www.tagesschau.de/inland/regional/hessen/hr-unfall-auf-a3-vollsperrung-zwischen-idstein-und-bad-camberg-100.html", "thumbnailUrl": "https://images.tagesschau.de/image/b4535d5e-f6e7-474c-82e6-b4134e955c24/AAABjy3yTPM/AAABjwnlKNc/16x9-512.jpg", "date": "2024-04-30T09:38:27.860+02:00", "lat": 50.3148, "lon": 8.2827, "intensity": 0.8, "source": "Tagesschau"}, {"title": "Europa- und Kommunalwahl in MV: Was bringt mir die Europawahl?", "url": "https://www.tagesschau.de/inland/regional/mecklenburgvorpommern/ndr-europa-und-kommunalwahl-in-mv-was-bringt-mir-die-europawahl-102.html", "thumbnailUrl": "https://images.tagesschau.de/image/8ac32d21-8058-4058-9a04-f6870b6a6772/AAABjy3q6-U/AAABjwnlKNc/16x9-512.jpg", "date": "2024-04-30T09:29:00.000+02:00", "lat": 53.61, "lon": 13.22, "intensity": 0.5, "source": "Tagesschau"}, {"title": "Wetter am 1. Mai: Feiertag lockt mit Sommerwetter", "url": "https://www.tagesschau.de/inland/regional/hessen/hr-wetter-in-hessen-1-mai-soll-waermster-tag-des-jahres-werden-100.html", "thumbnailUrl": "https://images.tagesschau.de/image/f12e1abc-ca9e-4ed5-8e39-ae59a758f7ea/AAABjy4Pu9c/AAABjwnlKNc/16x9-512.jpg", "date": "2024-04-30T09:22:04.768+02:00", "lat": 50.1109, "lon": 8.4206, "intensity": 0.7, "source": "Tagesschau"}, {"title": "Indonesischer Vulkan Ruang erneut ausgebrochen", "url": "https://www.tagesschau.de/ausland/asien/indonesien-vulkanausbruch-104.html", "thumbnailUrl": "https://images.tagesschau.de/image/49236586-efeb-4015-a384-4b4e70f25cc9/AAABjy3JDlQ/AAABjwnlKNc/16x9-512.jpg", "date": "2024-04-30T09:21:19.477+02:00", "lat": -5.85, "lon": 120.02, "intensity": 0.9, "source": "Tagesschau"}, {"title": "Elefantenrunde in Maastricht", "url": "https://www.tagesschau.de/europawahl/aktuell/maastricht-spitzenkandidaten-100.html", "thumbnailUrl": "https://images.tagesschau.de/image/8f0eeaec-3d63-4b19-95ce-7aaae13b5a53/AAABjy3bY8I/AAABjwnlKNc/16x9-512.jpg", "date": "2024-04-30T09:15:04.030+02:00", "lat": 50.85137, "lon": 5.68815, "intensity": 0.8, "source": "Tagesschau"}, {"title": "Unbegleitete minderj\u00e4hrige Gefl\u00fcchtete warten lange auf Registrierung und verschwinden oftmals spurlos", "url": "https://www.tagesschau.de/inland/regional/berlin/rbb-unbegleitete-minderjaehrige-gefluechtete-warten-lange-auf-registrierung-und-verschwinden-oftmals-spurlos-100.html", "thumbnailUrl": "https://images.tagesschau.de/image/1c15ac5d-38c0-41fa-bae4-ea6ace14b5c6/AAABjy3Ys-A/AAABjwnlKNc/16x9-512.jpg", "date": "2024-04-30T09:09:20.000+02:00", "lat": 52.520008, "lon": 13.404954, "intensity": 0.8, "source": "Tagesschau"}, {"title": "Elbkinder-Kitas: Warnstreik des K\u00fcchen- und Reinigungspersonals", "url": "https://www.tagesschau.de/inland/regional/hamburg/ndr-elbkinder-kitas-warnstreik-des-kuechen-und-reinigungspersonals-100.html", "thumbnailUrl": "https://images.tagesschau.de/image/b8ce6b83-ddd6-41dc-a7a8-dc77a980431f/AAABjyl2M6o/AAABjwnlKNc/16x9-512.jpg", "date": "2024-04-30T09:09:00.000+02:00", "lat": 53.55, "lon": 10.0, "intensity": 0.7, "source": "Tagesschau"}, {"title": "Senat diskutiert \u00fcber Notbetrieb des Bremer Unibads", "url": "https://www.tagesschau.de/inland/regional/bremen/rb-senat-diskutiert-ueber-notbetrieb-des-bremer-unibads-102.html", "thumbnailUrl": "https://images.tagesschau.de/image/cd05f0de-53d0-457f-b221-39d19a1116b2/AAABjy3Pk34/AAABjwnlKNc/16x9-512.jpg", "date": "2024-04-30T08:57:00.000+02:00", "lat": 53.0793, "lon": 8.8017, "intensity": 0.7, "source": "Tagesschau"}, {"title": "Gro\u00dfbritannien startet Kontrolle von EU-Waren", "url": "https://www.tagesschau.de/wirtschaft/weltwirtschaft/grossbritannien-brexit-kontrollen-100.html", "thumbnailUrl": "https://images.tagesschau.de/image/cc5813f9-0534-44ad-a2af-0c62f9d69776/AAABjy2CxQ8/AAABjwnlKNc/16x9-512.jpg", "date": "2024-04-30T08:56:19.941+02:00", "lat": 52.3555, "lon": -1.4746, "intensity": 0.8, "source": "Tagesschau"}, {"title": "Lehrer aus Ostfriesland gewinnt den \"Deutschen Lehrkr\u00e4ftepreis\"", "url": "https://www.tagesschau.de/inland/regional/niedersachsen/ndr-lehrer-aus-ostfriesland-gewinnt-deutschen-lehrkraeftepreis-100.html", "thumbnailUrl": "https://images.tagesschau.de/image/48e308b6-9575-4447-876e-3a9c2f88dede/AAABjy3Nq30/AAABjwnlKNc/16x9-512.jpg", "date": "2024-04-30T08:56:00.000+02:00", "lat": 53.5494, "lon": 7.201, "intensity": 0.6, "source": "Tagesschau"}, {"title": "Nach t\u00f6dlichen Sch\u00fcssen in Rinteln: Polizei sucht Zeugen", "url": "https://www.tagesschau.de/inland/regional/niedersachsen/ndr-nach-toedlichen-schuessen-in-rinteln-polizei-sucht-zeugen-100.html", "thumbnailUrl": "https://images.tagesschau.de/image/a3af0deb-0515-4592-855f-30017f7af17f/AAABjy3ITAY/AAABjwnlKNc/16x9-512.jpg", "date": "2024-04-30T08:53:00.000+02:00", "lat": 52.1866, "lon": 9.0834, "intensity": 0.8, "source": "Tagesschau"}, {"title": "European League: Flensburg fehlt nicht mehr viel zum Final Four", "url": "https://www.tagesschau.de/inland/regional/schleswigholstein/ndr-european-league-flensburg-fehlt-nicht-mehr-viel-zum-final-four-102.html", "thumbnailUrl": "https://images.tagesschau.de/image/af3c8f9c-0103-4828-9afc-920522ee23bf/AAABjynGyAQ/AAABjwnlKNc/16x9-512.jpg", "date": "2024-04-30T08:52:00.000+02:00", "lat": 54.7817, "lon": 9.4356, "intensity": 0.8, "source": "Tagesschau"}, {"title": "DLRG-Retter m\u00fcssen ihre Einsatzkleidung zum Teil selbst zahlen", "url": "https://www.tagesschau.de/inland/regional/niedersachsen/ndr-dlrg-retter-muessen-ihre-ausruestung-selbst-zahlen-100.html", "thumbnailUrl": "https://images.tagesschau.de/image/3f30e2cc-a718-47b0-896a-39edcb6f4c43/AAABjy3gCbM/AAABjwnlKNc/16x9-512.jpg", "date": "2024-04-30T08:51:00.000+02:00", "lat": 52.37392, "lon": 9.993682, "intensity": 0.6, "source": "Tagesschau"}, {"title": "Frankfurt (Oder) - Slubice: Doppelstadt feiert 20. Jahrestag der EU-Osterweiterung", "url": "https://www.tagesschau.de/inland/regional/brandenburg/rbb-frankfurt-oder-slubice-doppelstadt-feiert-20-jahrestag-der-eu-osterweiterung-100.html", "thumbnailUrl": "https://images.tagesschau.de/image/17ec0ea6-7a42-4f64-81e4-d9129e546b0a/AAABjy3GZjQ/AAABjwnlKNc/16x9-512.jpg", "date": "2024-04-30T08:49:13.000+02:00", "lat": 52.3413, "lon": 14.5602, "intensity": 0.6, "source": "Tagesschau"}, {"title": "Verkehrskontrollen: Fast 140 Motorradfahrer im Harz geblitzt", "url": "https://www.tagesschau.de/inland/regional/niedersachsen/ndr-verkehrskontrollen-fast-140-motorradfahrer-im-harz-geblitzt-100.html", "thumbnailUrl": "https://images.tagesschau.de/image/2b469895-ceff-4928-a07e-beeb0107ee5f/AAABjy3IM5U/AAABjwnlKNc/16x9-512.jpg", "date": "2024-04-30T08:47:00.000+02:00", "lat": 51.7721, "lon": 10.5593, "intensity": 0.7, "source": "Tagesschau"}, {"title": "M\u00e4rkisch-Oderland: Hoppegartens B\u00fcrgermeister Siebert beurlaubt", "url": "https://www.tagesschau.de/inland/regional/brandenburg/rbb-maerkisch-oderland-hoppegartens-buergermeister-siebert-beurlaubt-100.html", "thumbnailUrl": "https://images.tagesschau.de/image/9a4c19c6-a38c-45c6-ad70-9dec33de6e92/AAABjy232vk/AAABjwnlKNc/16x9-512.jpg", "date": "2024-04-30T08:31:04.000+02:00", "lat": 52.5736, "lon": 13.7145, "intensity": 0.5, "source": "Tagesschau"}, {"title": "Berliner Ensemble: Satire oder Wahlkampf?", "url": "https://www.tagesschau.de/inland/regional/berlin/rbb-berliner-ensemble-satire-oder-wahlkampf-100.html", "thumbnailUrl": "https://images.tagesschau.de/image/8bf1d926-71b0-4ddf-919e-c1da583d5458/AAABjy2s34E/AAABjwnlKNc/16x9-512.jpg", "date": "2024-04-30T08:20:36.000+02:00", "lat": 52.52, "lon": 13.3889, "intensity": 0.8, "source": "Tagesschau"}, {"title": "Hilfe f\u00fcr die Menschen in der Ukraine", "url": "https://www.tagesschau.de/spendenkonten/spendenkonten-133.html", "thumbnailUrl": "https://images.tagesschau.de/image/af005073-bb3d-428a-b6f8-a685c725811f/AAABh4VRChA/AAABjwnlKNc/16x9-512.jpg", "date": "2024-04-30T08:11:16.431+02:00", "lat": 50.4501, "lon": 30.5234, "intensity": 0.7, "source": "Tagesschau"}, {"title": "Schadstoffbelastung: Erneute Verzehrwarnung f\u00fcr Kleing\u00e4rten in L\u00fcnen", "url": "https://www.tagesschau.de/inland/regional/nordrheinwestfalen/wdr-schadstoffbelastung-erneute-verzehrwarnung-fuer-kleingaerten-in-luenen-100.html", "thumbnailUrl": "https://images.tagesschau.de/image/b86364ab-8d2b-4b19-8a90-69dd110926d3/AAABjy49Vo8/AAABjwnlKNc/16x9-512.jpg", "date": "2024-04-30T08:11:00.000+02:00", "lat": 51.6166, "lon": 7.5322, "intensity": 0.8, "source": "Tagesschau"}, {"title": "Sch\u00f6neiche: F\u00fcnf Menschen bei Zusammensto\u00df von Betonmischer und Tram verletzt", "url": "https://www.tagesschau.de/inland/regional/brandenburg/rbb-schoeneiche-bei-berlin-fuenf-menschen-bei-zusammenstoss-von-betonmischer-und-tram-verletzt-100.html", "thumbnailUrl": "https://images.tagesschau.de/image/27cd675b-e645-4a89-9b3c-0c954ed02fd9/AAABjy1jw8M/AAABjwnlKNc/16x9-512.jpg", "date": "2024-04-30T08:06:07.000+02:00", "lat": 52.4362, "lon": 13.7044, "intensity": 0.8, "source": "Tagesschau"}, {"title": "Das M\u00e4rchen vom \"b\u00f6sen Wolfshybrid\" in MV", "url": "https://www.tagesschau.de/inland/regional/mecklenburgvorpommern/ndr-das-maerchen-vom-boesen-wolfshybrid-in-mv-100.html", "thumbnailUrl": "https://images.tagesschau.de/image/9d218fcc-e3de-406e-8cb1-8b46c3940e0a/AAABjy2o_xg/AAABjwnlKNc/16x9-512.jpg", "date": "2024-04-30T07:59:00.000+02:00", "lat": 53.612, "lon": 13.228, "intensity": 0.7, "source": "Tagesschau"}, {"title": "Deutschland liefert weitere Waffen an die Ukraine", "url": "https://www.tagesschau.de/ausland/europa/ukraine-waffenlieferung-deutschland-100.html", "thumbnailUrl": "https://images.tagesschau.de/image/36baa28e-cd49-409c-9ce7-75b5be9fb73e/AAABjy7ADMA/AAABjwnlKNc/16x9-512.jpg", "date": "2024-04-30T07:46:51.911+02:00", "lat": 50.4501, "lon": 30.5234, "intensity": 0.9, "source": "Tagesschau"}, {"title": "Hoffen auf einen Durchbruch", "url": "https://www.tagesschau.de/ausland/asien/nahost-feuerpause-verhandlungen-100.html", "thumbnailUrl": "https://images.tagesschau.de/image/1f1e4683-379c-4a8b-a19c-35a45b6ce106/AAABjy7AeSk/AAABjwnlKNc/16x9-512.jpg", "date": "2024-04-30T07:27:44.416+02:00", "lat": 31.52493, "lon": 34.88544, "intensity": 0.8, "source": "Tagesschau"}, {"title": "Nach t\u00f6dlichem Raserunfall in H\u00fcrth - Prozess beginnt", "url": "https://www.tagesschau.de/inland/regional/nordrheinwestfalen/wdr-nach-toedlichem-raserunfall-in-huerth-prozess-beginnt-104.html", "thumbnailUrl": "https://images.tagesschau.de/image/629b30a9-974b-4d73-95c3-ea45b3250c1c/AAABjy5Yx58/AAABjwnlKNc/16x9-512.jpg", "date": "2024-04-30T07:23:00.000+02:00", "lat": 50.8776, "lon": 6.8737, "intensity": 0.8, "source": "Tagesschau"}, {"title": "Wetter am 1. Mai in BW: Es wird fr\u00fchlingshaft bis sommerlich ", "url": "https://www.tagesschau.de/inland/regional/badenwuerttemberg/swr-wetter-am-1-mai-in-bw-es-wird-fruehlingshaft-bis-sommerlich-100.html", "thumbnailUrl": "https://images.tagesschau.de/image/fcab6356-0127-4762-a844-c190ad7a708d/AAABjzGNHlU/AAABjwnlKNc/16x9-512.jpg", "date": "2024-04-30T07:06:37.000+02:00", "lat": 48.7904, "lon": 9.0238, "intensity": 0.6, "source": "Tagesschau"}, {"title": "Lachgas als Partydroge: Wuppertal ruft Bundespolitik um Hilfe", "url": "https://www.tagesschau.de/inland/regional/nordrheinwestfalen/wdr-lachgas-als-partydroge-wuppertal-will-hilferuf-an-bundespolitik-senden-100.html", "thumbnailUrl": "https://images.tagesschau.de/image/e711d452-e706-414b-88dd-483936ee2bc9/AAABjy2At08/AAABjwnlKNc/16x9-512.jpg", "date": "2024-04-30T06:50:00.000+02:00", "lat": 51.2562, "lon": 7.1048, "intensity": 0.8, "source": "Tagesschau"}, {"title": "Wo gefeiert wird, wo demonstriert wird - und wo es leiser wird als sonst", "url": "https://www.tagesschau.de/inland/regional/brandenburg/rbb-hier-wird-zu-walpurgis-und-am-1-mai-gefeiert-und-demonstriert-102.html", "thumbnailUrl": "https://images.tagesschau.de/image/e109688b-d52c-4f97-96c5-1184cffcf7a0/AAABjy_Xha8/AAABjwnlKNc/16x9-512.jpg", "date": "2024-04-30T06:13:59.000+02:00", "lat": 52.520008, "lon": 13.404954, "intensity": 0.8, "source": "Tagesschau"}, {"title": "Deutlich mehr SaarVV-Abos dank Deutschlandticket", "url": "https://www.tagesschau.de/inland/regional/saarland/sr-deutlich-mehr-saarvv-abos-dank-deutschlandticket-100.html", "thumbnailUrl": "https://images.tagesschau.de/image/4a453457-e7e7-44f6-a8d0-79043c4aacc7/AAABjy01oqw/AAABjwnlKNc/16x9-512.jpg", "date": "2024-04-30T06:12:00.000+02:00", "lat": 49.3964, "lon": 6.9537, "intensity": 0.8, "source": "Tagesschau"}, {"title": "Weiter Kritik an Cannabis-Gesetz im Saarland ", "url": "https://www.tagesschau.de/inland/regional/saarland/sr-weiter-kritik-an-cannabis-gesetz-im-saarland-100.html", "thumbnailUrl": "https://images.tagesschau.de/image/eaa59824-8af3-408d-a9fb-38016f1a713b/AAABjy0wJS8/AAABjwnlKNc/16x9-512.jpg", "date": "2024-04-30T06:01:00.000+02:00", "lat": 49.3964, "lon": 7.0232, "intensity": 0.6, "source": "Tagesschau"}, {"title": "51.000 gefl\u00fcchtete Minderj\u00e4hrige vermisst", "url": "https://www.tagesschau.de/investigativ/rbb/vermisste-fluechtlinge-europa-unbegleitete-kinder-jugendliche-bka-100.html", "thumbnailUrl": "https://images.tagesschau.de/image/a397976f-ae3e-4d23-991c-1d42be94f596/AAABjy3hLj4/AAABjwnlKNc/16x9-512.jpg", "date": "2024-04-30T06:00:07.404+02:00", "lat": 51.1657, "lon": 10.4515, "intensity": 0.7, "source": "Tagesschau"}, {"title": "75 Millionen Euro f\u00fcr Ersatzoper: Sondersitzung in D\u00fcsseldorf", "url": "https://www.tagesschau.de/inland/regional/nordrheinwestfalen/wdr-75-millionen-euro-fuer-ersatzoper-sondersitzung-in-duesseldorf-100.html", "thumbnailUrl": "https://images.tagesschau.de/image/35fb1d8b-5172-43dc-95b6-844018323ee8/AAABjy3swr8/AAABjwnlKNc/16x9-512.jpg", "date": "2024-04-30T06:00:00.000+02:00", "lat": 51.2254, "lon": 6.7735, "intensity": 0.7, "source": "Tagesschau"}, {"title": "Bundesweit einzigartig: Batterieforschungszentrum in M\u00fcnster wird er\u00f6ffnet", "url": "https://www.tagesschau.de/inland/regional/nordrheinwestfalen/wdr-bundesweit-einzigartig-batterieforschungszentrum-in-muenster-wird-eroeffnet-100.html", "thumbnailUrl": "https://images.tagesschau.de/image/b6079487-cf3d-40eb-8da9-8f50f5815ece/AAABjy07Ueo/AAABjwnlKNc/16x9-512.jpg", "date": "2024-04-30T06:00:00.000+02:00", "lat": 51.9607, "lon": 7.6261, "intensity": 0.8, "source": "Tagesschau"}, {"title": "Hat der Alkohol ausgedient? | MEINUNG", "url": "https://www.tagesschau.de/inland/regional/nordrheinwestfalen/wdr-hat-der-alkohol-ausgedient--meinung-100.html", "thumbnailUrl": "https://images.tagesschau.de/image/ef753723-30cd-4f49-b606-6614aaedcb1f/AAABjzAHEvQ/AAABjwnlKNc/16x9-512.jpg", "date": "2024-04-30T06:00:00.000+02:00", "lat": 51.4584, "lon": 7.6261, "intensity": 0.6, "source": "Tagesschau"}, {"title": "Bewerbungszeit f\u00fcr duales Lehramtsstudium startet", "url": "https://www.tagesschau.de/inland/regional/badenwuerttemberg/swr-bewerbungszeit-fuer-duales-lehramtsstudium-startet-102.html", "thumbnailUrl": "https://images.tagesschau.de/image/da95f492-cdc2-4de3-be46-a5a9ea961525/AAABjy1yI1E/AAABjwnlKNc/16x9-512.jpg", "date": "2024-04-30T05:46:30.000+02:00", "lat": 48.6616, "lon": 9.98621, "intensity": 0.8, "source": "Tagesschau"}, {"title": "Gesprengte Geldautomaten in S\u00fcdbaden: B\u00fcrgermeister fordern mehr Polizeipr\u00e4senz", "url": "https://www.tagesschau.de/inland/regional/badenwuerttemberg/swr-gesprengte-geldautomaten-in-suedbaden-buergermeister-fordern-mehr-polizeipraesenz-100.html", "thumbnailUrl": "https://images.tagesschau.de/image/2338723b-cd67-4908-af7f-b5cb8e395eae/AAABjy30InI/AAABjwnlKNc/16x9-512.jpg", "date": "2024-04-30T05:44:13.000+02:00", "lat": 47.9103, "lon": 7.8647, "intensity": 0.8, "source": "Tagesschau"}, {"title": "Streckensperrung bei der Bahn: Ausf\u00e4lle zwischen Hamburg und Schwerin", "url": "https://www.tagesschau.de/inland/regional/mecklenburgvorpommern/ndr-streckensperrung-bei-der-bahn-ausfaelle-zwischen-hamburg-und-schwerin-100.html", "thumbnailUrl": "https://images.tagesschau.de/image/85adb2e0-5002-47ad-a3e9-175025250ead/AAABjy0PMR8/AAABjwnlKNc/16x9-512.jpg", "date": "2024-04-30T05:15:00.000+02:00", "lat": 53.5477, "lon": 10.6866, "intensity": 0.8, "source": "Tagesschau"}, {"title": "\"Die Kinder haben Gedanken, dass Papa Mama vielleicht umbringt\"", "url": "https://www.tagesschau.de/inland/regional/rheinlandpfalz/swr-die-kinder-haben-gedanken-dass-papa-mama-vielleicht-umbringt-100.html", "thumbnailUrl": "https://images.tagesschau.de/image/7c8833c1-4067-4044-b508-0ef7cb885ac6/AAABjy19KfQ/AAABjwnlKNc/16x9-512.jpg", "date": "2024-04-30T04:00:00.000+02:00", "lat": 50.0011, "lon": 7.2661, "intensity": 0.8, "source": "Tagesschau"}, {"title": "\"Jetzt kann man nicht einfach abhauen\"", "url": "https://www.tagesschau.de/ausland/europa/ukraine-krieg-auslandsukrainer-100.html", "thumbnailUrl": "https://images.tagesschau.de/image/db3e5d60-e293-4674-896b-2f58ec306674/AAABjy7BFtc/AAABjwnlKNc/16x9-512.jpg", "date": "2024-04-30T02:37:34.953+02:00", "lat": 50.4501, "lon": 30.5234, "intensity": 0.7, "source": "Tagesschau"}, {"title": "Botschaft zum 1. Mai: Scholz lobt Mindestlohn und verteidigt Rentenalter", "url": "https://www.br.de/nachrichten/meldungen/index.html#n1", "thumbnailUrl": null, "date": "2024-05-01T02:35:43+02:00", "lat": 30.0444, "lon": 31.2357, "intensity": 0.8, "source": "Bayrischer Rundfunk"}, {"title": "Polizei bef\u00fcrchtet Krawalle bei Mai-Kundgebungen", "url": "https://www.br.de/nachrichten/meldungen/index.html#n2", "thumbnailUrl": null, "date": "2024-05-01T02:35:43+02:00", "lat": 33.5138, "lon": 36.2021, "intensity": 0.8, "source": "Bayrischer Rundfunk"}, {"title": "Deutsche R\u00fcstungslieferungen an Israel k\u00f6nnen weitergehen", "url": "https://www.br.de/nachrichten/meldungen/index.html#n3", "thumbnailUrl": null, "date": "2024-05-01T02:35:43+02:00", "lat": 39.9334, "lon": 32.8597, "intensity": 0.8, "source": "Bayrischer Rundfunk"}, {"title": "Gro\u00dfbritannien schickt ersten Asylbewerber nach Ruanda", "url": "https://www.br.de/nachrichten/meldungen/index.html#n4", "thumbnailUrl": null, "date": "2024-05-01T02:35:43+02:00", "lat": 52.520008, "lon": 13.404954, "intensity": 0.7, "source": "Bayrischer Rundfunk"}, {"title": "Weitere drei Tote durch russische Raketen in Odessa", "url": "https://www.br.de/nachrichten/meldungen/index.html#n5", "thumbnailUrl": null, "date": "2024-05-01T02:35:43+02:00", "lat": 52.520008, "lon": 13.404954, "intensity": 0.6, "source": "Bayrischer Rundfunk"}, {"title": "Verpflichtendes Auto-Label soll Kunden \u00fcber Verbrauch informieren", "url": "https://www.br.de/nachrichten/meldungen/index.html#n6", "thumbnailUrl": null, "date": "2024-05-01T02:35:43+02:00", "lat": 48.135125, "lon": 11.581981, "intensity": 0.6, "source": "Bayrischer Rundfunk"}, {"title": "CSU fordert h\u00e4rtere Strafen nach islamistischer Demo in Hamburg", "url": "https://www.br.de/nachrichten/meldungen/index.html#n7", "thumbnailUrl": null, "date": "2024-05-01T02:35:43+02:00", "lat": 50.110922, "lon": 8.682127, "intensity": 0.8, "source": "Bayrischer Rundfunk"}, {"title": "Drohne st\u00fcrzt auf fr\u00fcherem Fliegerhorst in Erding ab", "url": "https://www.br.de/nachrichten/meldungen/index.html#n8", "thumbnailUrl": null, "date": "2024-05-01T02:35:43+02:00", "lat": 47.8684, "lon": 12.6394, "intensity": 0.8, "source": "Bayrischer Rundfunk"}, {"title": "W\u00fcrzburger Projekt als \"Gutes Beispiel 2024\" ausgezeichnet", "url": "https://www.br.de/nachrichten/meldungen/index.html#n9", "thumbnailUrl": null, "date": "2024-05-01T02:35:43+02:00", "lat": 48.5844, "lon": 13.6722, "intensity": 0.8, "source": "Bayrischer Rundfunk"}, {"title": "Fu\u00dfball: FC Bayern und Madrid trennen sich 2:2", "url": "https://www.br.de/nachrichten/meldungen/index.html#n10", "thumbnailUrl": null, "date": "2024-05-01T02:35:43+02:00", "lat": 53.5396, "lon": 8.5761, "intensity": 0.4, "source": "Bayrischer Rundfunk"}, {"title": "Das Wetter: Nachts klar oder locker bew\u00f6lkt, Tiefstwerte 13 bis 7 Grad", "url": "https://www.br.de/nachrichten/meldungen/index.html#n11", "thumbnailUrl": null, "date": "2024-05-01T02:35:43+02:00", "lat": 48.1351, "lon": 11.582, "intensity": 0.3, "source": "Bayrischer Rundfunk"}, {"title": "Walpurgisnacht in Berlin: Demos am Vorabend des 1. Mai verlaufen ohne Zwischenf\u00e4lle", "url": "https://www.rbb24.de/panorama/beitrag/2024/04/walpurgisnacht-nacht-1-mai-berlin-brandenburg-demonstrationen.html", "thumbnailUrl": null, "date": "Wed, 01 May 2024 00:20:50 +0200", "lat": 52.52, "lon": 13.405, "intensity": 0.3, "source": "RBB"}, {"title": "Bildergalerie | Vor dem 1. Mai: Die Bilder rund um die Walpurgisnacht in Berlin", "url": "https://www.rbb24.de/panorama/beitrag/2024/04/berlin-walpurgisnacht-1-mai-demos-bildergalerie.html", "thumbnailUrl": null, "date": "Wed, 01 May 2024 00:11:00 +0200", "lat": 52.52, "lon": 13.351, "intensity": 0.6, "source": "RBB"}, {"title": "F\u00fcchse Berlin ziehen durch Sieg in Nantes ins Halbfinale der European League ein", "url": "https://www.rbb24.de/sport/beitrag/2024/04/handball-european-league-fuechse-berlin-hbc-nantes-viertelfinale-rueckspiel-spielbericht.html", "thumbnailUrl": null, "date": "Tue, 30 Apr 2024 22:48:13 +0200", "lat": 47.2184, "lon": -1.5532, "intensity": 0.8, "source": "RBB"}, {"title": "Video | Kindersprechstunde in Spandau: Wie Kinder f\u00fcr ihr Recht auf gewaltfreie Erziehung sensibilisiert werden", "url": "https://www.rbb24.de/panorama/beitrag/av7/video-berlin-schule-sensibilisierung-kinder-recht-auf-gewaltfreie-erziehung.html", "thumbnailUrl": null, "date": "Tue, 30 Apr 2024 21:48:23 +0200", "lat": 52.5357, "lon": 13.2026, "intensity": 0.7, "source": "RBB"}, {"title": "Basketball-Bundesliga: Alba Berlin ringt Heidelberg nieder und gewinnt mit 96:89", "url": "https://www.rbb24.de/sport/beitrag/2024/04/basketball-bundesliga-alba-berlin-heidelberg-spielbericht.html", "thumbnailUrl": null, "date": "Tue, 30 Apr 2024 20:50:00 +0200", "lat": 52.519171, "lon": 13.413215, "intensity": 0.7, "source": "RBB"}, {"title": "Oberleitungsschaden: ICE bei Berlin-Buch liegengeblieben - 400 Passagiere betroffen", "url": "https://www.rbb24.de/panorama/beitrag/2024/04/berlin-buch-ice-liegengeblieben-400-passagiere-sbahnhof.html", "thumbnailUrl": null, "date": "Tue, 30 Apr 2024 19:59:34 +0200", "lat": 52.6325, "lon": 13.5128, "intensity": 0.7, "source": "RBB"}, {"title": "Hitze und Trockenheit: Weniger Erdbeeren in Brandenburg angebaut", "url": "https://www.rbb24.de/wirtschaft/beitrag/2024/04/erdbeeren-brandenburg-weniger-anbau.html", "thumbnailUrl": null, "date": "Tue, 30 Apr 2024 17:46:30 +0200", "lat": 52.3989, "lon": 13.0846, "intensity": 0.6, "source": "RBB"}, {"title": "Brandenburgs Verfassungsschutz stuft weitere AfD-Parlamentarier als rechtsextrem ein", "url": "https://www.rbb24.de/politik/beitrag/2024/04/brandenburger-verfassungsschutz-stuft-afd-abgeordnete-rechtsextrem-ein-hohloch-schieske.html", "thumbnailUrl": null, "date": "Tue, 30 Apr 2024 16:58:33 +0200", "lat": 52.3, "lon": 13.0645, "intensity": 0.8, "source": "RBB"}, {"title": "20 Jahre EU-Erweiterung: Brandenburger Tor leuchtet in Europa-Farben", "url": "https://www.rbb24.de/politik/beitrag/2024/04/20-jahre-eu-erweiterung-berlin-brandenburger-tor-europafarben-1-mai.html", "thumbnailUrl": null, "date": "Tue, 30 Apr 2024 16:56:12 +0200", "lat": 52.5163, "lon": 13.3777, "intensity": 0.7, "source": "RBB"}, {"title": "Berlin-Reinickendorf: Mann mit Stichverletzungen gefunden - Mordkommission ermittelt", "url": "https://www.rbb24.de/panorama/beitrag/2024/04/berlin-reinickendorf-schwerverletzter-gehweg-ermittlungen.html", "thumbnailUrl": null, "date": "Tue, 30 Apr 2024 16:54:22 +0200", "lat": 52.5942, "lon": 13.3298, "intensity": 0.8, "source": "RBB"}, {"title": "Jagdhund in Potsdam-Mittelmark wurde wahrscheinlich von Wolf angegriffen", "url": "https://www.rbb24.de/panorama/beitrag/2024/04/potsdam-mittelmark-wolf-hat-jagdhund-angegriffen-brandenburg.html", "thumbnailUrl": null, "date": "Tue, 30 Apr 2024 16:27:00 +0200", "lat": 52.3154, "lon": 13.0645, "intensity": 0.7, "source": "RBB"}, {"title": "Bildergalerie: Das sind die erfolgreichsten Teams im Berliner Landespokal", "url": "https://www.rbb24.de/sport/beitrag/2024/04/bildergalerie-berlin-pokal-fussbal-rekordsieger-tebe-hertha.html", "thumbnailUrl": null, "date": "Tue, 30 Apr 2024 16:11:11 +0200", "lat": 52.520008, "lon": 13.404954, "intensity": 0.6, "source": "RBB"}, {"title": "Makkabi-Trainer Wolfgang Sandhowe: \"Was wollen wir mehr an einem 1. Mai?\"", "url": "https://www.rbb24.de/sport/beitrag/2024/04/landespokal-berlin-makkabi-interview-trainer-sandhowe-.html", "thumbnailUrl": null, "date": "Tue, 30 Apr 2024 16:10:50 +0200", "lat": 52.52, "lon": 13.4825, "intensity": 0.7, "source": "RBB"},