[{"title": "++ Guterres: Lage in Rafah \"auf Messers Schneide\" ++", "url": "https://www.tagesschau.de/newsticker/liveblog-nahost-samstag-134.html", "thumbnailUrl": "https://images.tagesschau.de/image/78a899f8-3d96-410e-8463-56b836b6e75f/AAABjy_3Fpo/AAABjwnlKNc/16x9-512.jpg", "date": "2024-05-11T02:51:17.441+02:00", "lat": 31.341, "lon": 34.284, "intensity": 0.7, "source": "Tagesschau"}, {"title": "Russland startet massive Offensive gegen Charkiw", "url": "https://www.tagesschau.de/ausland/europa/ukraine-russische-offensive-charkiw-102.html", "thumbnailUrl": "https://images.tagesschau.de/image/9150a09c-a43d-4f7c-bb91-ffb5a39a3805/AAABj2SznYw/AAABjwnlKNc/16x9-512.jpg", "date": "2024-05-11T02:35:52.545+02:00", "lat": 49.9935, "lon": 36.230383, "intensity": 0.8, "source": "Tagesschau"}, {"title": "\"\u00c4rzte und Elektriker sind genauso wichtig wie Panzer\" ", "url": "https://www.tagesschau.de/ausland/europa/schulze-kiew-112.html", "thumbnailUrl": "https://images.tagesschau.de/image/5d86bee2-575f-44f4-beb2-921705904c0f/AAABj2PgfIQ/AAABjwnlKNc/16x9-512.jpg", "date": "2024-05-11T02:35:15.951+02:00", "lat": 50.4501, "lon": 30.5241, "intensity": 0.8, "source": "Tagesschau"}, {"title": "USA sehen Hinweise auf israelischen V\u00f6lkerrechtsversto\u00df", "url": "https://www.tagesschau.de/ausland/amerika/usa-israel-voelkerrecht-verstoss-100.html", "thumbnailUrl": "https://images.tagesschau.de/image/14a0d635-e57c-4f15-a22b-34fb8ed4ac01/AAABi-Z8aTg/AAABjwnlKNc/16x9-512.jpg", "date": "2024-05-11T02:33:37.430+02:00", "lat": 31.5278, "lon": 34.4358, "intensity": 0.8, "source": "Tagesschau"}, {"title": "Seit Freitagabend Polarlichter \u00fcber RLP zu sehen", "url": "https://www.tagesschau.de/inland/regional/rheinlandpfalz/swr-kommende-nacht-grosse-chance-auf-polarlichter-ueber-rlp-100.html", "thumbnailUrl": "https://images.tagesschau.de/image/c501be37-fac3-4ffe-ba5d-63e550ff155c/AAABj2T04jw/AAABjwnlKNc/16x9-512.jpg", "date": "2024-05-11T01:51:00.000+02:00", "lat": 50.3569, "lon": 7.6129, "intensity": 0.6, "source": "Tagesschau"}, {"title": "Hafengeburtstag: Zweiter Tag geht mit Scooter und Feuerwerk zu Ende", "url": "https://www.tagesschau.de/inland/regional/hamburg/ndr-hamburger-hafengeburtstag-2024-heute-feuerwerk-und-scooter-konzert-100.html", "thumbnailUrl": "https://images.tagesschau.de/image/0e2b048a-17d5-497f-8930-f6863d1c7d30/AAABj2SMjHs/AAABjwnlKNc/16x9-512.jpg", "date": "2024-05-11T00:59:00.000+02:00", "lat": 53.55, "lon": 9.9833, "intensity": 0.8, "source": "Tagesschau"}, {"title": "++ USA k\u00fcndigen neue Milit\u00e4rhilfe f\u00fcr Kiew an ++", "url": "https://www.tagesschau.de/newsticker/liveblog-ukraine-freitag-384.html", "thumbnailUrl": "https://images.tagesschau.de/image/9b1bee8d-2150-46a4-bf90-6fc581d22e51/AAABizeGTcs/AAABjwnlKNc/16x9-512.jpg", "date": "2024-05-10T23:23:58.914+02:00", "lat": 37.0902, "lon": -95.7129, "intensity": 0.8, "source": "Tagesschau"}, {"title": "+ S\u00fcdafrika stellt Eilantrag gegen Israel bei UN-Gericht +", "url": "https://www.tagesschau.de/newsticker/liveblog-nahost-freitag-134.html", "thumbnailUrl": "https://images.tagesschau.de/image/0f59ec1d-5c9b-433d-9270-3610775b3d38/AAABja4T-ek/AAABjwnlKNc/16x9-512.jpg", "date": "2024-05-10T23:22:58.885+02:00", "lat": 31.7961, "lon": 35.2433, "intensity": 0.8, "source": "Tagesschau"}, {"title": "Kultur: +++ Br\u00fcder-Grimm-Festspiele in Hanau gestartet +++ hr-Sinfonieorchester geht wieder auf Schultour +++ 170 Ch\u00f6re und Ensembles in Limburg +++ ", "url": "https://www.tagesschau.de/inland/regional/hessen/hr--schauspiel-frankfurt-bringt-putin-und-macbeth-zusammen--die-filmfestival-saison-2023-startet--lichter-filmfest-zum-thema-liebe-startet-am-dienstag-100.html", "thumbnailUrl": "https://images.tagesschau.de/image/86a9c8f1-7aae-462a-b9ec-a6f0cdcb64e9/AAABj2LrJrk/AAABjwnlKNc/16x9-512.jpg", "date": "2024-05-10T23:22:03.492+02:00", "lat": 50.1109, "lon": 8.5683, "intensity": 0.4, "source": "Tagesschau"}, {"title": "Polarlichter \u00fcber BW: Hier stehen die Chancen gut, sie zu sehen", "url": "https://www.tagesschau.de/inland/regional/badenwuerttemberg/swr-polarlichter-ueber-bw-moeglich-hier-stehen-die-chancen-gut-100.html", "thumbnailUrl": "https://images.tagesschau.de/image/31f8428c-545f-4a48-88b3-de82b0098487/AAABj2T05Wc/AAABjwnlKNc/16x9-512.jpg", "date": "2024-05-10T23:21:00.000+02:00", "lat": 48.6616, "lon": 9.6815, "intensity": 0.7, "source": "Tagesschau"}, {"title": "Tesla-Gegner versuchen auf Werksgel\u00e4nde vorzudringen - Lage wieder ruhig", "url": "https://www.tagesschau.de/inland/regional/brandenburg/rbb-gruenheide-protestzug-ist-auf-dem-weg-zum-tesla-werk-100.html", "thumbnailUrl": "https://images.tagesschau.de/image/7cb35fba-7b70-46b7-a707-91f452852325/AAABj2PemlE/AAABjwnlKNc/16x9-512.jpg", "date": "2024-05-10T22:28:30.000+02:00", "lat": 52.345, "lon": 13.605, "intensity": 0.7, "source": "Tagesschau"}, {"title": "Nichts geht mehr: HSV verliert in Paderborn und bleibt Zweitligist", "url": "https://www.tagesschau.de/inland/regional/hamburg/ndr-nichts-geht-mehr-hsv-verliert-in-paderborn-und-bleibt-zweitligist-102.html", "thumbnailUrl": "https://images.tagesschau.de/image/82979d49-77b8-4853-a388-2d9c2de0df19/AAABj2PprgA/AAABjwnlKNc/16x9-512.jpg", "date": "2024-05-10T22:22:00.000+02:00", "lat": 51.716196, "lon": 8.756856, "intensity": 0.9, "source": "Tagesschau"}, {"title": "Musical \"& Julia\": Osnabr\u00fcckerin Fuhrmann beim Hafengeburtstag ", "url": "https://www.tagesschau.de/inland/regional/niedersachsen/ndr-osnabrueckerin-chiara-fuhrmann-spielt-titelrolle-im-musical--julia-100.html", "thumbnailUrl": "https://images.tagesschau.de/image/fd401c40-34c2-4ff9-86d0-5ede3c98e95c/AAABj2QtiW0/AAABjwnlKNc/16x9-512.jpg", "date": "2024-05-10T22:18:00.000+02:00", "lat": 52.2799, "lon": 9.6833, "intensity": 0.3, "source": "Tagesschau"}, {"title": "RB ebnet Eintracht-Frauen Weg in K\u00f6nigsklassen-Quali", "url": "https://www.tagesschau.de/inland/regional/hessen/hr-eintracht-frauen-erneut-in-der-koenigsklassen-quali-dabei-102.html", "thumbnailUrl": "https://images.tagesschau.de/image/3ec8db74-65f9-44cb-b8d0-592b8f88b211/AAABj2QkTzg/AAABjwnlKNc/16x9-512.jpg", "date": "2024-05-10T22:08:41.580+02:00", "lat": 50.1109, "lon": 8.6819, "intensity": 0.7, "source": "Tagesschau"}, {"title": "So wird das Wetter am Wochenende im Norden", "url": "https://www.tagesschau.de/inland/regional/niedersachsen/ndr-himmelfahrt-wie-wird-das-wetter-im-norden-am-langen-wochenende-100.html", "thumbnailUrl": "https://images.tagesschau.de/image/0cecd460-28e6-43f0-9cbf-83020a57265b/AAABj2Qe1eY/AAABjwnlKNc/16x9-512.jpg", "date": "2024-05-10T21:55:00.000+02:00", "lat": 52.4, "lon": 9.7, "intensity": 0.4, "source": "Tagesschau"}, {"title": "Wenig Punkte, viel Erfolg: Alba ringt Bayern in au\u00dfergew\u00f6hnlichem Basketballspiel nieder", "url": "https://www.tagesschau.de/inland/regional/berlin/rbb-wenig-punkte-viel-erfolg-alba-ringt-bayern-in-aussergewoehnlichem-basketballspiel-nieder-102.html", "thumbnailUrl": "https://images.tagesschau.de/image/24de3df1-db1b-4886-a255-dad1218fb7d7/AAABj2Qeug8/AAABjwnlKNc/16x9-512.jpg", "date": "2024-05-10T21:52:59.000+02:00", "lat": 52.520008, "lon": 13.404954, "intensity": 0.8, "source": "Tagesschau"}, {"title": "TUIfly-Flieger muss zweimal wegen Problemen nach Frankfurt umkehren", "url": "https://www.tagesschau.de/inland/regional/hessen/hr-tuifly-flieger-muss-zweimal-wegen-problemen-nach-frankfurt-umkehren-100.html", "thumbnailUrl": "https://images.tagesschau.de/image/6fec310d-3a64-425f-816d-628c250eee9f/AAABj2QQCUQ/AAABjwnlKNc/16x9-512.jpg", "date": "2024-05-10T21:50:30.101+02:00", "lat": 50.110924, "lon": 8.682127, "intensity": 0.6, "source": "Tagesschau"}, {"title": "Jetzt live: Augsburg gegen Stuttgart - der 33. Spieltag", "url": "https://www.sportschau.de/live-und-ergebnisse/fussball/deutschland-bundesliga/ma9684659/fc-augsburg_vfb-stuttgart/liveticker/", "thumbnailUrl": "https://images.tagesschau.de/image/9f8165ba-ca30-4328-b2f7-799fe3637a8c/AAABiNkNSio/AAABjwnlKNc/16x9-512.jpg", "date": "2024-05-10T21:42:13.491+02:00", "lat": 48.37054, "lon": 10.89779, "intensity": 0.6, "source": "Tagesschau"}, {"title": "Viele Tote durch Sturzfluten", "url": "https://www.tagesschau.de/ausland/asien/ueberschwemmungen-afghanistan-102.html", "thumbnailUrl": "https://images.tagesschau.de/image/d17b4984-d5ba-47fb-b60a-b71900429e3b/AAABj2PwbHI/AAABjwnlKNc/16x9-512.jpg", "date": "2024-05-10T21:18:56.630+02:00", "lat": 33.9391, "lon": 66.2385, "intensity": 0.8, "source": "Tagesschau"}, {"title": "Langes Wochenende: Am Sonntag viel Verkehr im Norden erwartet", "url": "https://www.tagesschau.de/inland/regional/niedersachsen/ndr-himmelfahrt-adac-rechnet-mit-vielen-staus-am-mittwoch-100.html", "thumbnailUrl": "https://images.tagesschau.de/image/1d924bd8-cb8a-4e8a-87d0-5615db670f84/AAABj2Qe27E/AAABjwnlKNc/16x9-512.jpg", "date": "2024-05-10T21:15:00.000+02:00", "lat": 52.6367, "lon": 10.3819, "intensity": 0.8, "source": "Tagesschau"}, {"title": "Kreise und Kommunen: Rentner sollen Niedersachsens Kitas entlasten", "url": "https://www.tagesschau.de/inland/regional/niedersachsen/ndr-verlaesslich-geoeffnete-kitas-kommunen-fordern-geld-und-personal-100.html", "thumbnailUrl": "https://images.tagesschau.de/image/880bd669-0918-4464-a194-da829c95fb79/AAABj2Pp71Q/AAABjwnlKNc/16x9-512.jpg", "date": "2024-05-10T21:09:00.000+02:00", "lat": 52.6367, "lon": 9.3949, "intensity": 0.7, "source": "Tagesschau"}, {"title": "Mann aus Teltowkanal in Berlin-Neuk\u00f6lln gerettet ", "url": "https://www.tagesschau.de/inland/regional/berlin/rbb-mann-aus-teltowkanal-in-berlin-neukoelln-gerettet-100.html", "thumbnailUrl": "https://images.tagesschau.de/image/8436bd72-3e93-4ac3-a0d6-aa8113cbb816/AAABj2Pnyik/AAABjwnlKNc/16x9-512.jpg", "date": "2024-05-10T21:05:20.000+02:00", "lat": 52.4632, "lon": 13.4447, "intensity": 0.7, "source": "Tagesschau"}, {"title": "Holstein-Euphorie in Kiel: \"Alle in Blau\"", "url": "https://www.tagesschau.de/inland/regional/schleswigholstein/ndr-holstein-euphorie-in-kiel-alle-in-blau-100.html", "thumbnailUrl": "https://images.tagesschau.de/image/42461be9-8274-4d16-ab1d-c51a9ed16982/AAABj2LMCBs/AAABjwnlKNc/16x9-512.jpg", "date": "2024-05-10T21:03:00.000+02:00", "lat": 54.3233, "lon": 10.1302, "intensity": 0.8, "source": "Tagesschau"}, {"title": "Der Ziegenmelker an der Uniklinik T\u00fcbingen: Lebt er \u00fcberhaupt noch dort? ", "url": "https://www.tagesschau.de/inland/regional/badenwuerttemberg/swr-der-ziegenmelker-an-der-uniklinik-tuebingen-lebt-er-ueberhaupt-noch-dort-100.html", "thumbnailUrl": "https://images.tagesschau.de/image/1c9a08b1-b9ae-40bf-a844-264ae1a9fce2/AAABj2Pl47s/AAABjwnlKNc/16x9-512.jpg", "date": "2024-05-10T21:03:00.000+02:00", "lat": 48.5236, "lon": 9.0939, "intensity": 0.7, "source": "Tagesschau"}, {"title": "Mit KI schnellere Hilfe bei Schlaganf\u00e4llen", "url": "https://www.tagesschau.de/inland/regional/rheinlandpfalz/swr-mit-ki-schnellere-hilfe-bei-schlaganfaellen-102.html", "thumbnailUrl": "https://images.tagesschau.de/image/0fb9e228-9866-4f28-bb0d-99397f419f19/AAABj2PiS1o/AAABjwnlKNc/16x9-512.jpg", "date": "2024-05-10T20:57:21.000+02:00", "lat": 50.0036, "lon": 8.2395, "intensity": 0.8, "source": "Tagesschau"}, {"title": "Unterzeichner Michael Barenboim: \"Die Menschenrechte gelten f\u00fcr alle, au\u00dfer anscheinend f\u00fcr Pal\u00e4stinenser\"", "url": "https://www.tagesschau.de/inland/regional/berlin/rbb-interview--michael-barenboim-zu-protest-an-fu-die-menschenrechte-gelten-fuer-alle-ausser-anscheinend-fuer-palaestinenser-100.html", "thumbnailUrl": "https://images.tagesschau.de/image/b1e7e6d8-ed2c-40c0-81aa-c32fa31cec98/AAABj2PexYQ/AAABjwnlKNc/16x9-512.jpg", "date": "2024-05-10T20:56:25.000+02:00", "lat": 52.52, "lon": 13.2904, "intensity": 0.8, "source": "Tagesschau"}, {"title": "\"Caramelo\" gibt den Menschen Hoffnung", "url": "https://www.tagesschau.de/ausland/amerika/brasilien-hochwasser-pferd-100.html", "thumbnailUrl": "https://images.tagesschau.de/image/3f48e655-b6c7-4460-9090-9e7d3419536d/AAABj2PW8M8/AAABjwnlKNc/16x9-512.jpg", "date": "2024-05-10T20:49:42.791+02:00", "lat": -14.235, "lon": -51.9253, "intensity": 0.8, "source": "Tagesschau"}, {"title": "Hamburger Badeseen: Saisonstart an den ersten Badestellen", "url": "https://www.tagesschau.de/inland/regional/hamburg/ndr-hamburger-badeseen-saisonstart-an-den-ersten-badestellen-100.html", "thumbnailUrl": "https://images.tagesschau.de/image/093166d5-76e2-42f4-9f4d-bccb1a9e0a68/AAABj2FH1xg/AAABjwnlKNc/16x9-512.jpg", "date": "2024-05-10T20:48:00.000+02:00", "lat": 53.5511, "lon": 10.0009, "intensity": 0.6, "source": "Tagesschau"}, {"title": "Patrick Franziska macht Finaleinzug bei \u201eSaudi Smash\u201c klar", "url": "https://www.tagesschau.de/inland/regional/saarland/sr-patrick-franziska-macht-finaleinzug-bei-saudi-smash-klar-100.html", "thumbnailUrl": "https://images.tagesschau.de/image/8f803d84-2d3b-46c0-890c-30db332bfd47/AAABj2PZD0c/AAABjwnlKNc/16x9-512.jpg", "date": "2024-05-10T20:28:00.000+02:00", "lat": 49.396, "lon": 0.735, "intensity": 0.8, "source": "Tagesschau"}, {"title": "Vierj\u00e4hriger bei Verkehrsunfall in Hilzingen gestorben", "url": "https://www.tagesschau.de/inland/regional/badenwuerttemberg/swr-vierjaehriger-bei-verkehrsunfall-in-hilzingen-gestorben-100.html", "thumbnailUrl": "https://images.tagesschau.de/image/1e390daa-3973-4050-a777-f2224dfb3aa9/AAABj2PMQQg/AAABjwnlKNc/16x9-512.jpg", "date": "2024-05-10T20:21:17.000+02:00", "lat": 47.7333, "lon": 8.7833, "intensity": 1, "source": "Tagesschau"}, {"title": "Polarlichter in Hessen: Seltenes Naturschauspiel in der Nacht zum Samstag", "url": "https://www.tagesschau.de/inland/regional/hessen/hr-polarlichter-in-hessen-seltenes-naturschauspiel-in-der-nacht-zum-samstag-100.html", "thumbnailUrl": "https://images.tagesschau.de/image/34138817-1cff-4929-957b-81a5e4cb9da0/AAABj2O7y4Q/AAABjwnlKNc/16x9-512.jpg", "date": "2024-05-10T20:18:40.692+02:00", "lat": 50.652, "lon": 9.429, "intensity": 0.7, "source": "Tagesschau"}, {"title": "Warum Wahlplakate wirken", "url": "https://www.tagesschau.de/inland/regional/saarland/sr-warum-wahlplakate-wirken-100.html", "thumbnailUrl": "https://images.tagesschau.de/image/cf8a0564-b90d-42af-91ea-07864ec20e59/AAABj2O0cfY/AAABjwnlKNc/16x9-512.jpg", "date": "2024-05-10T20:06:00.000+02:00", "lat": 49.3964, "lon": 7.0, "intensity": 0.5, "source": "Tagesschau"}, {"title": "Immer wieder sonntags?", "url": "https://www.tagesschau.de/wirtschaft/unternehmen/galeria-karstadt-kaufhof-konzept-100.html", "thumbnailUrl": "https://images.tagesschau.de/image/924b18bc-cd38-4d30-85bd-b5fc7535f5dd/AAABj2Oad5Q/AAABjwnlKNc/16x9-512.jpg", "date": "2024-05-10T19:43:38.907+02:00", "lat": 49.00937, "lon": 8.450707, "intensity": 0.6, "source": "Tagesschau"}, {"title": "Corona-Soforthilfen: Zweites R\u00fcckmeldeverfahren startet", "url": "https://www.tagesschau.de/inland/regional/schleswigholstein/ndr-corona-soforthilfen-zweites-rueckmeldeverfahren-startet-100.html", "thumbnailUrl": "https://images.tagesschau.de/image/3e78ee28-6e69-4d46-a4fa-c5fded4fd164/AAABj2OiRD8/AAABjwnlKNc/16x9-512.jpg", "date": "2024-05-10T19:40:00.000+02:00", "lat": 54.3233, "lon": 9.9804, "intensity": 0.6, "source": "Tagesschau"}, {"title": "Hilfe f\u00fcr Wohnungslose in Jena: Zittern um die neuen R\u00e4ume", "url": "https://www.tagesschau.de/inland/regional/thueringen/mdr-hilfe-fuer-wohnungslose-in-jena-zittern-um-die-neuen-raeume-100.html", "thumbnailUrl": "https://images.tagesschau.de/image/5a3cbb65-8007-4fef-897f-acd4ca3b3a7c/AAABj2TZz5c/AAABjwnlKNc/16x9-512.jpg", "date": "2024-05-10T19:39:30.000+02:00", "lat": 50.928, "lon": 11.587, "intensity": 0.7, "source": "Tagesschau"}, {"title": "Pr\u00fcgeln, P\u00f6beln und Parolen: Polizei registriert ungew\u00f6hnlich viele rechte Straftaten an Himmelfahrt", "url": "https://www.tagesschau.de/inland/regional/sachsen/mdr-pruegeln-poebeln-und-parolen-polizei-registriert-ungewoehnlich-viele-rechte-straftaten-an-himmelfahrt-100.html", "thumbnailUrl": "https://images.tagesschau.de/image/6d455ea7-b647-40e9-8555-a018dc601eeb/AAABj2TbiTQ/AAABjwnlKNc/16x9-512.jpg", "date": "2024-05-10T19:37:51.000+02:00", "lat": 51.1045, "lon": 13.4083, "intensity": 0.8, "source": "Tagesschau"}, {"title": "Deutsche Eishockey-Nationalmannschaft gewinnt WM-Auftakt mit 6:4 gegen Slowakei", "url": "https://www.tagesschau.de/inland/regional/berlin/rbb-deutsche-eishockey-nationalmannschaft-gewinnt-wm-auftakt-mit-64-gegen-slowakei-102.html", "thumbnailUrl": "https://images.tagesschau.de/image/d9ad57e3-9836-4db1-9e05-3acadaf5d9db/AAABj2OZBGQ/AAABjwnlKNc/16x9-512.jpg", "date": "2024-05-10T19:37:15.000+02:00", "lat": 52.52, "lon": 13.405, "intensity": 0.8, "source": "Tagesschau"}, {"title": "Sanitzer Patriot-Einheit startet per F\u00e4hre nach Finnland", "url": "https://www.tagesschau.de/inland/regional/mecklenburgvorpommern/ndr-sanitzer-patrioteinheit-startet-per-faehre-nach-finnland-102.html", "thumbnailUrl": "https://images.tagesschau.de/image/e23cfaca-cab8-4f2e-aef3-9e7554415f6d/AAABj2J3vco/AAABjwnlKNc/16x9-512.jpg", "date": "2024-05-10T19:29:00.000+02:00", "lat": 54.270598, "lon": 12.230777, "intensity": 0.6, "source": "Tagesschau"}, {"title": "Unterst\u00fctzung f\u00fcr Pro-Pal\u00e4stina-Camp: Stark-Watzinger \"fassungslos\" \u00fcber Brief von Uni-Lehrkr\u00e4ften - Kritik auch vom Senat ", "url": "https://www.tagesschau.de/inland/regional/berlin/rbb-unterstuetzung-fuer-pro-palaestina-camp-stark-watzinger-fassungslos-ueber-brief-von-uni-lehrkraeften-kritik-auch-von-wegner-100.html", "thumbnailUrl": "https://images.tagesschau.de/image/80c6ba6c-e788-41c3-aa5a-330d7c85d611/AAABj2Pey5A/AAABjwnlKNc/16x9-512.jpg", "date": "2024-05-10T19:25:10.000+02:00", "lat": 52.520008, "lon": 13.404954, "intensity": 0.8, "source": "Tagesschau"}, {"title": "Motivation gesucht - Hertha BSC vor dem Spiel gegen Kaiserslautern", "url": "https://www.tagesschau.de/inland/regional/berlin/rbb-motivation-gesucht-hertha-bsc-vor-dem-spiel-gegen-kaiserslautern-102.html", "thumbnailUrl": "https://images.tagesschau.de/image/f692bc54-902c-489a-b8ab-eb4018766555/AAABj2OKYSc/AAABjwnlKNc/16x9-512.jpg", "date": "2024-05-10T19:21:42.000+02:00", "lat": 52.52, "lon": 13.4073, "intensity": 0.3, "source": "Tagesschau"}, {"title": "Weniger Miete? Neue Hoffnung f\u00fcr Galeria in Oldenburg", "url": "https://www.tagesschau.de/inland/regional/niedersachsen/ndr-weniger-miete-neue-hoffnung-fuer-galeria-in-oldenburg-100.html", "thumbnailUrl": "https://images.tagesschau.de/image/81c42b52-1daf-476f-8782-8a6f5a88ceca/AAABj2OGxwI/AAABjwnlKNc/16x9-512.jpg", "date": "2024-05-10T19:20:00.000+02:00", "lat": 53.1435, "lon": 8.2159, "intensity": 0.8, "source": "Tagesschau"}, {"title": "Auto erfasst Dreij\u00e4hrigen: Junge schwer am Kopf verletzt", "url": "https://www.tagesschau.de/inland/regional/niedersachsen/ndr-auto-erfasst-dreijaehrigen-junge-schwer-am-kopf-verletzt-100.html", "thumbnailUrl": "https://images.tagesschau.de/image/6ea886c4-a89d-4b30-8100-d8429be02f40/AAABj2OVXlw/AAABjwnlKNc/16x9-512.jpg", "date": "2024-05-10T19:19:00.000+02:00", "lat": 52.9253, "lon": 8.6091, "intensity": 0.8, "source": "Tagesschau"}, {"title": "Airbus testet neue Drohne Heron TP", "url": "https://www.tagesschau.de/inland/regional/schleswigholstein/ndr-airbus-testet-neue-drohne-heron-tp-100.html", "thumbnailUrl": "https://images.tagesschau.de/image/b18087b1-dd1d-4c01-85c7-ca5e6fd67159/AAABj2N9pMI/AAABjwnlKNc/16x9-512.jpg", "date": "2024-05-10T19:15:00.000+02:00", "lat": 54.457569, "lon": 9.991007, "intensity": 0.8, "source": "Tagesschau"}, {"title": "Dawn Patrol Kiel - zusammen in den Sonnenaufgang radeln", "url": "https://www.tagesschau.de/inland/regional/schleswigholstein/ndr-dawn-patrol-kiel-zusammen-in-den-sonnenaufgang-radeln-100.html", "thumbnailUrl": "https://images.tagesschau.de/image/5d4a31e6-f130-4f38-bdfd-b7061ff88294/AAABj2MXFqo/AAABjwnlKNc/16x9-512.jpg", "date": "2024-05-10T19:09:00.000+02:00", "lat": 54.3233, "lon": 10.1228, "intensity": 0.7, "source": "Tagesschau"}, {"title": "Unfall im Magdeburger Zollhafen: Flo\u00df von Kran gerutscht, Elbe verunreinigt", "url": "https://www.tagesschau.de/inland/regional/sachsenanhalt/mdr-unfall-im-magdeburger-zollhafen-floss-von-kran-gerutscht-elbe-verunreinigt-100.html", "thumbnailUrl": "https://images.tagesschau.de/image/605bed47-2908-4f5a-bd15-04a36e6825f5/AAABj2TX2nU/AAABjwnlKNc/16x9-512.jpg", "date": "2024-05-10T19:00:14.000+02:00", "lat": 52.1205, "lon": 11.6347, "intensity": 0.8, "source": "Tagesschau"}, {"title": "Wetterlage und Temperaturen", "url": "https://www.tagesschau.de/wetter/europa-welt", "thumbnailUrl": "https://images.tagesschau.de/image/6e7d3b16-79c8-4308-822b-20c3035236b5/AAABj2NxGYc/AAABjwnlKNc/16x9-512.jpg", "date": "2024-05-10T18:59:43.903+02:00", "lat": 51.1657, "lon": 10.4515, "intensity": 0.3, "source": "Tagesschau"}, {"title": "Mallorca gegen Sauftourismus: Alkohol-Verbot auf offener Stra\u00dfe", "url": "https://www.tagesschau.de/inland/regional/nordrheinwestfalen/wdr-mallorca-gegen-sauftourismus-alkohol-verbot-auf-offener-strasse-100.html", "thumbnailUrl": "https://images.tagesschau.de/image/e12187a9-887a-44d1-9127-74bb62865fa8/AAABj2O_bdo/AAABjwnlKNc/16x9-512.jpg", "date": "2024-05-10T18:55:00.000+02:00", "lat": 39.5696, "lon": 2.7399, "intensity": 0.8, "source": "Tagesschau"}, {"title": "\"The Game\" in der Laeiszhalle: Live-Fu\u00dfball vertont", "url": "https://www.tagesschau.de/inland/regional/hamburg/ndr-the-game-in-der-laeiszhalle-live-fussball-vertont-100.html", "thumbnailUrl": "https://images.tagesschau.de/image/be53b625-227d-44fd-8004-ca0a3e8b60f9/AAABj2N553s/AAABjwnlKNc/16x9-512.jpg", "date": "2024-05-10T18:41:00.000+02:00", "lat": 53.5511, "lon": 9.979, "intensity": 0.7, "source": "Tagesschau"}, {"title": "Pro-israelische Demonstranten verurteilen Brief von Berliner Uni-Dozenten", "url": "https://www.tagesschau.de/inland/regional/berlin/rbb-pro-israelische-demonstranten-verurteilen-brief-von-berliner-uni-dozenten-100.html", "thumbnailUrl": "https://images.tagesschau.de/image/4f148355-d6b6-4111-aa39-bc57f3f1754f/AAABj2NiFzw/AAABjwnlKNc/16x9-512.jpg", "date": "2024-05-10T18:36:40.000+02:00", "lat": 52.520008, "lon": 13.404954, "intensity": 0.7, "source": "Tagesschau"}, {"title": "Mehr Anzeigen wegen Gewalt gegen Prostituierte - neuer H\u00f6chststand ", "url": "https://www.tagesschau.de/inland/regional/badenwuerttemberg/swr-mehr-anzeigen-wegen-gewalt-gegen-prostituierte-neuer-hoechststand-100.html", "thumbnailUrl": "https://images.tagesschau.de/image/2cf61db2-89ec-4acf-9d5b-6490eb3eda5f/AAABj2Nec5I/AAABjwnlKNc/16x9-512.jpg", "date": "2024-05-10T18:27:26.000+02:00", "lat": 48.9934, "lon": 9.8413, "intensity": 0.8, "source": "Tagesschau"}, {"title": "Stadtderby HSV - St. Pauli: Fanladen-Mitarbeiter schwer verletzt", "url": "https://www.tagesschau.de/inland/regional/hamburg/ndr-stadtderby-hsv-st-pauli-fanladen-mitarbeiter-schwer-verletzt-102.html", "thumbnailUrl": "https://images.tagesschau.de/image/c648bc52-e438-4fc1-88d9-131253f76b6b/AAABj2PptjM/AAABjwnlKNc/16x9-512.jpg", "date": "2024-05-10T18:23:00.000+02:00", "lat": 53.5511, "lon": 9.9937, "intensity": 0.8, "source": "Tagesschau"}, {"title": "Sch\u00fcsse in Hamburger Park: Zwei M\u00e4nner schwer verletzt", "url": "https://www.tagesschau.de/inland/regional/hamburg/ndr-schuesse-in-park-in-horn-zwei-maenner-schwer-verletzt-100.html", "thumbnailUrl": "https://images.tagesschau.de/image/2b858a36-9d93-4f57-a7e1-42fff7681623/AAABj2Mnfxw/AAABjwnlKNc/16x9-512.jpg", "date": "2024-05-10T18:22:00.000+02:00", "lat": 53.551, "lon": 9.984, "intensity": 0.8, "source": "Tagesschau"}, {"title": "Tod von 88-J\u00e4hriger in Klinik: Verd\u00e4chtiger festgenommen", "url": "https://www.tagesschau.de/inland/regional/niedersachsen/ndr-tod-von-88-jaehriger-in-klinik-verdaechtiger-festgenommen-100.html", "thumbnailUrl": "https://images.tagesschau.de/image/d04b679a-37b7-404a-b4ae-437041766c6e/AAABj2Nu84o/AAABjwnlKNc/16x9-512.jpg", "date": "2024-05-10T18:21:00.000+02:00", "lat": 52.4757, "lon": 10.4515, "intensity": 0.8, "source": "Tagesschau"}, {"title": "St\u00e4rkstes Wochenplus seit November", "url": "https://www.tagesschau.de/wirtschaft/finanzen/marktberichte/marktbericht-dax-neues-rekordhoch-kurse-ezb-fed-dow-gold-oel-boerse-aktien-100.html", "thumbnailUrl": "https://images.tagesschau.de/image/c80e681d-4ba5-4e9f-93a2-e2ff9118cfb7/AAABjhKF9BE/AAABjwnlKNc/16x9-512.jpg", "date": "2024-05-10T18:17:58.876+02:00", "lat": 50.1109, "lon": 8.6821, "intensity": 0.7, "source": "Tagesschau"}, {"title": "Samstagfr\u00fch: Polarlichter \u00fcber NRW m\u00f6glich", "url": "https://www.tagesschau.de/inland/regional/nordrheinwestfalen/wdr-samstagfrueh-polarlichter-ueber-nrw-moeglich-100.html", "thumbnailUrl": "https://images.tagesschau.de/image/d0799f19-8f34-4853-8eea-c94707c7c7f0/AAABj2O4JCs/AAABjwnlKNc/16x9-512.jpg", "date": "2024-05-10T18:17:00.000+02:00", "lat": 51.4332, "lon": 7.6261, "intensity": 0.7, "source": "Tagesschau"}, {"title": "Satiriker Helge Schneider erh\u00e4lt M\u00fcnchhausen-Preis 2024", "url": "https://www.tagesschau.de/inland/regional/niedersachsen/ndr-satiriker-helge-schneider-erhaelt-muenchhausen-preis-2024-100.html", "thumbnailUrl": "https://images.tagesschau.de/image/5a58d03b-daca-4abc-8807-20a1263e28ed/AAABj2NP6V8/AAABjwnlKNc/16x9-512.jpg", "date": "2024-05-10T18:16:00.000+02:00", "lat": 51.9862, "lon": 9.4459, "intensity": 0.6, "source": "Tagesschau"}, {"title": "Fleischtransporter auf der A7 bei Ellwangen umgekippt", "url": "https://www.tagesschau.de/inland/regional/badenwuerttemberg/swr-fleischtransporter-auf-der-a7-bei-ellwangen-umgekippt-100.html", "thumbnailUrl": "https://images.tagesschau.de/image/f1443a96-8897-4706-8382-4dfbf56c3e5f/AAABj2Nek80/AAABjwnlKNc/16x9-512.jpg", "date": "2024-05-10T18:15:39.000+02:00", "lat": 48.9642, "lon": 10.1333, "intensity": 0.7, "source": "Tagesschau"}, {"title": "S\u00f6der sieht Gemeinsamkeiten mit Meloni ", "url": "https://www.tagesschau.de/ausland/europa/soeder-meloni-rom-100.html", "thumbnailUrl": "https://images.tagesschau.de/image/f25c45c7-d035-4ac8-9e34-c367d952dea0/AAABj2N9hng/AAABjwnlKNc/16x9-512.jpg", "date": "2024-05-10T18:05:47.923+02:00", "lat": 48.135125, "lon": 11.58198, "intensity": 0.6, "source": "Tagesschau"}, {"title": "Sieben Menschen st\u00fcrzen in die Lahn, Frau treibt hunderte Meter ab", "url": "https://www.tagesschau.de/inland/regional/hessen/hr-sieben-menschen-stuerzen-in-die-lahn-frau-treibt-hunderte-meter-ab-100.html", "thumbnailUrl": "https://images.tagesschau.de/image/4220e62c-8102-46b2-b4cc-a35f5ce994ba/AAABj2NBIFI/AAABjwnlKNc/16x9-512.jpg", "date": "2024-05-10T18:05:37.426+02:00", "lat": 50.6669, "lon": 8.7164, "intensity": 0.8, "source": "Tagesschau"}, {"title": "Die Generation \"stuck at home\"", "url": "https://www.tagesschau.de/ausland/europa/irland-wohnungsnot-100.html", "thumbnailUrl": "https://images.tagesschau.de/image/9ef0c900-6c0d-486c-9d5e-92a890cdee67/AAABjBCfzDk/AAABjwnlKNc/16x9-512.jpg", "date": "2024-05-10T18:02:36.437+02:00", "lat": 53.4129, "lon": -8.2439, "intensity": 0.8, "source": "Tagesschau"}, {"title": "Mallorca versch\u00e4rft Alkohol-Regeln", "url": "https://www.tagesschau.de/ausland/europa/ballermann-mallorca-104.html", "thumbnailUrl": "https://images.tagesschau.de/image/c91ce9cc-cf88-4cce-b330-99a7d54b0671/AAABj2M3Lx0/AAABjwnlKNc/16x9-512.jpg", "date": "2024-05-10T17:55:58.906+02:00", "lat": 39.5726, "lon": 2.9386, "intensity": 0.7, "source": "Tagesschau"}, {"title": "Live-Blog 2. Liga: Matchday! Wahrt der HSV in Paderborn seine Restchance?", "url": "https://www.tagesschau.de/inland/regional/hamburg/ndr-live-blog-2-liga-hsv-oder-st-pauli-wer-gewinnt-das-stadtderby-102.html", "thumbnailUrl": "https://images.tagesschau.de/image/20a71f17-6489-4796-b155-aadd67983881/AAABj2M4CdQ/AAABjwnlKNc/16x9-512.jpg", "date": "2024-05-10T17:53:00.000+02:00", "lat": 53.5511, "lon": 9.9937, "intensity": 0.7, "source": "Tagesschau"}, {"title": "F\u00fchrerschein wird f\u00fcr viele junge Menschen zum teuren Spa\u00df", "url": "https://www.tagesschau.de/inland/regional/hessen/hr-fuehrerschein-wird-fuer-viele-junge-menschen-zum-teuren-spass-102.html", "thumbnailUrl": "https://images.tagesschau.de/image/90c21bf3-17d3-45b8-87f0-e7c5d310d739/AAABj2M7ngM/AAABjwnlKNc/16x9-512.jpg", "date": "2024-05-10T17:47:15.188+02:00", "lat": 50.6521, "lon": 9.6933, "intensity": 0.8, "source": "Tagesschau"}, {"title": "Zu wenig Lebensretter in Brandenburg: Potentielle Rettungsschwimmer werden jetzt auch am Badestellen angesprochen ", "url": "https://www.tagesschau.de/inland/regional/brandenburg/rbb-zu-wenig-lebensretter-in-brandenburg-potentielle-rettungsschwimmer-werden-jetzt-auch-am-badestellen-angesprochen-100.html", "thumbnailUrl": "https://images.tagesschau.de/image/731bba50-c48b-4459-8d52-bf553032deed/AAABj2IyIPI/AAABjwnlKNc/16x9-512.jpg", "date": "2024-05-10T17:41:36.000+02:00", "lat": 52.5186, "lon": 13.1936, "intensity": 0.6, "source": "Tagesschau"}, {"title": "Frau bel\u00e4stigt: 23-J\u00e4hrige schl\u00e4gt zu, Zeugen halten Mann fest", "url": "https://www.tagesschau.de/inland/regional/niedersachsen/ndr-frau-belaestigt-23-jaehrige-schlaegt-zu-zeugen-halten-mann-fest-100.html", "thumbnailUrl": "https://images.tagesschau.de/image/26375dce-2f62-4857-a921-03fcd54e992f/AAABj2M2KjE/AAABjwnlKNc/16x9-512.jpg", "date": "2024-05-10T17:36:00.000+02:00", "lat": 53.064636, "lon": 8.827575, "intensity": 0.8, "source": "Tagesschau"}, {"title": "Tauben in der Stadt: Das hilft wirklich", "url": "https://www.tagesschau.de/inland/regional/nordrheinwestfalen/wdr-tauben-in-der-stadt-das-hilft-wirklich-100.html", "thumbnailUrl": "https://images.tagesschau.de/image/76180932-d39d-49ae-a497-2387a78b2b70/AAABj2OP0kI/AAABjwnlKNc/16x9-512.jpg", "date": "2024-05-10T17:34:00.000+02:00", "lat": 51.3587, "lon": 7.4729, "intensity": 0.6, "source": "Tagesschau"}, {"title": "Dichtheitspr\u00fcfung von privaten Abwasserleitungen: Frist bis 2040", "url": "https://www.tagesschau.de/inland/regional/schleswigholstein/ndr-dichtheitspruefung-von-privaten-abwasserleitungen-100.html", "thumbnailUrl": "https://images.tagesschau.de/image/bbaad536-9fb2-4390-be0d-a7518208979b/AAABj2Mj3BM/AAABjwnlKNc/16x9-512.jpg", "date": "2024-05-10T17:31:00.000+02:00", "lat": 54.2194, "lon": 9.3128, "intensity": 0.7, "source": "Tagesschau"}, {"title": "T\u00f6tung in Berlin-Gesundbrunnen: Verd\u00e4chtiger in Polen gefasst", "url": "https://www.tagesschau.de/inland/regional/berlin/rbb-toetung-in-berlin-gesundbrunnen-verdaechtiger-in-polen-gefasst-100.html", "thumbnailUrl": "https://images.tagesschau.de/image/8a220615-f2a3-49e3-bb70-a81118b9808e/AAABj2MGjm8/AAABjwnlKNc/16x9-512.jpg", "date": "2024-05-10T17:27:33.000+02:00", "lat": 52.55087, "lon": 13.38864, "intensity": 0.8, "source": "Tagesschau"}, {"title": "BMW r\u00e4umt Umweltprobleme in Kobalt-Mine ein  ", "url": "https://www.tagesschau.de/investigativ/ndr-wdr/bmw-zulieferer-kobalt-marokko-100.html", "thumbnailUrl": "https://images.tagesschau.de/image/d7fbd762-fd77-4ea1-b0bc-390b5b377690/AAABj2Maq1c/AAABjwnlKNc/16x9-512.jpg", "date": "2024-05-10T17:24:03.568+02:00", "lat": 31.7604, "lon": -4.1426, "intensity": 0.8, "source": "Tagesschau"}, {"title": "Bei Sonnenschein: Blutritt in Weingarten", "url": "https://www.tagesschau.de/inland/regional/badenwuerttemberg/swr-auftakt-zum-blutritt-in-weingarten-100.html", "thumbnailUrl": "https://images.tagesschau.de/image/64e921ab-46e9-4d9a-bc52-b8376e4613fb/AAABj2ElP38/AAABjwnlKNc/16x9-512.jpg", "date": "2024-05-10T17:22:00.000+02:00", "lat": 47.8085, "lon": 9.6295, "intensity": 0.8, "source": "Tagesschau"}, {"title": "Was liefert Deutschland an Israel?", "url": "https://www.tagesschau.de/inland/gesellschaft/deutschland-waffen-israel-100.html", "thumbnailUrl": "https://images.tagesschau.de/image/ecbd3518-8fd3-4da6-bc25-5cf44cebe735/AAABj2KTY6k/AAABjwnlKNc/16x9-512.jpg", "date": "2024-05-10T17:11:47.046+02:00", "lat": 51.1657, "lon": 10.4515, "intensity": 0.8, "source": "Tagesschau"}, {"title": "Wie die Hamas um ihr politisches \u00dcberleben k\u00e4mpft", "url": "https://www.tagesschau.de/ausland/asien/hamas-verhandlungstaktik-100.html", "thumbnailUrl": "https://images.tagesschau.de/image/1e03f405-fc7a-464d-b2a2-7e09684093e5/AAABj2MPSds/AAABjwnlKNc/16x9-512.jpg", "date": "2024-05-10T17:11:37.750+02:00", "lat": 31.7683, "lon": 34.2558, "intensity": 0.8, "source": "Tagesschau"}, {"title": "Russische Truppen sto\u00dfen Richtung Charkiw vor ", "url": "https://www.tagesschau.de/ausland/europa/ukraine-russische-offensive-charkiw-100.html", "thumbnailUrl": "https://images.tagesschau.de/image/d8dfe85b-4d6b-446b-b83e-e573e614167e/AAABj2J7GHQ/AAABjwnlKNc/16x9-512.jpg", "date": "2024-05-10T17:08:27.395+02:00", "lat": 49.9935, "lon": 36.230383, "intensity": 1, "source": "Tagesschau"}, {"title": "Blauzungenkrankheit bei Kuh in RLP nachgewiesen", "url": "https://www.tagesschau.de/inland/regional/rheinlandpfalz/swr-blauzungenkrankheit-bei-kuh-in-rlp-nachgewiesen-100.html", "thumbnailUrl": "https://images.tagesschau.de/image/1fb603cc-0a0b-4306-b342-8030b063722c/AAABj2MVLrU/AAABjwnlKNc/16x9-512.jpg", "date": "2024-05-10T17:07:17.000+02:00", "lat": 49.9697, "lon": 6.4575, "intensity": 0.6, "source": "Tagesschau"}, {"title": "Notlage hat \"noch nie dagewesenes Ausma\u00df\" erreicht", "url": "https://www.tagesschau.de/ausland/asien/rafah-fluechtlinge-israel-100.html", "thumbnailUrl": "https://images.tagesschau.de/image/a6253a78-6e90-441a-a1f5-b65e5769e5bb/AAABj2MJH3Q/AAABjwnlKNc/16x9-512.jpg", "date": "2024-05-10T17:04:53.669+02:00", "lat": 31.2934, "lon": 34.2594, "intensity": 0.8, "source": "Tagesschau"}, {"title": "\u00dcberfl\u00fcssig und teuer? Gesetz gegen Diskriminierung f\u00e4llt bei B\u00fcrokratie-T\u00dcV durch", "url": "https://www.tagesschau.de/inland/regional/badenwuerttemberg/swr-ueberfluessig-und-teuer-gesetz-gegen-diskriminierung-faellt-bei-buerokratie-tuev-durch-100.html", "thumbnailUrl": "https://images.tagesschau.de/image/14e8b8a6-2442-42a2-91b1-0e0695fbfff1/AAABj2IcHr8/AAABjwnlKNc/16x9-512.jpg", "date": "2024-05-10T16:59:00.000+02:00", "lat": 48.78232, "lon": 9.993682, "intensity": 0.7, "source": "Tagesschau"}, {"title": "Darum soll man im Westerwald Unterhosen verbuddeln", "url": "https://www.tagesschau.de/inland/regional/rheinlandpfalz/swr-darum-soll-man-im-westerwald-unterhosen-verbuddeln-100.html", "thumbnailUrl": "https://images.tagesschau.de/image/ce891e7f-ac54-4cdd-9f2f-a84cf56c66a6/AAABj2MVRAU/AAABjwnlKNc/16x9-512.jpg", "date": "2024-05-10T16:57:09.000+02:00", "lat": 50.6944, "lon": 7.7969, "intensity": 0.6, "source": "Tagesschau"}, {"title": "\"Sehr erleichtert\": J\u00e4ger bet\u00e4ubt fl\u00fcchtige Rinder aus Ober-M\u00f6rlen nach zehn Stunden auf der Lauer", "url": "https://www.tagesschau.de/inland/regional/hessen/hr-fluechtige-rinder-aus-ober-moerlen-entdeckt-fangversuch-am-donnerstag-100.html", "thumbnailUrl": "https://images.tagesschau.de/image/43262a7e-c618-4290-a447-1a461fff661c/AAABj2MBA2U/AAABjwnlKNc/16x9-512.jpg", "date": "2024-05-10T16:55:09.043+02:00", "lat": 50.3756, "lon": 8.7304, "intensity": 0.5, "source": "Tagesschau"}, {"title": "Eintracht: +++ Fix: Manga startet bei Schalke +++ Ekitik\u00e9 noch nicht in Topform +++ Eintracht hat CL im Hinterkopf +++ ", "url": "https://www.tagesschau.de/inland/regional/hessen/hr--eintracht-wohl-mit-chaibi-einig--glasner-fast-nur-kolo-muani-der-tore-erzielt--bericht-eintracht-sagt-aouar-ab-100.html", "thumbnailUrl": "https://images.tagesschau.de/image/25717ea9-359c-4ab8-b5d5-db0a0ee8777a/AAABj2L2NH0/AAABjwnlKNc/16x9-512.jpg", "date": "2024-05-10T16:42:28.377+02:00", "lat": 50.110922, "lon": 8.682127, "intensity": 0.6, "source": "Tagesschau"}, {"title": "Christi Himmelfahrt: Krawall und Messerangriffe", "url": "https://www.tagesschau.de/inland/regional/mecklenburgvorpommern/ndr-christi-himmelfahrt-krawall-und-messerangriffe-100.html", "thumbnailUrl": "https://images.tagesschau.de/image/6cdee75e-e116-4954-8ef3-e8e746493716/AAABj2D1U2w/AAABjwnlKNc/16x9-512.jpg", "date": "2024-05-10T16:42:00.000+02:00", "lat": 53.61265, "lon": 12.650297, "intensity": 0.8, "source": "Tagesschau"}, {"title": "Wie umgehen mit Protesten gegen Israel?", "url": "https://www.tagesschau.de/inland/gesellschaft/proteste-israel-gaza-106.html", "thumbnailUrl": "https://images.tagesschau.de/image/b71f2f0a-fe4e-47d4-b9fa-f39e235257c1/AAABj1L2Ph0/AAABjwnlKNc/16x9-512.jpg", "date": "2024-05-10T16:35:38.878+02:00", "lat": 52.4535, "lon": 13.2962, "intensity": 0.6, "source": "Tagesschau"}, {"title": "Bundeswehr-Gel\u00f6bnis vor Berliner Abgeordnetenhaus l\u00f6st geteiltes Echo aus", "url": "https://www.tagesschau.de/inland/regional/berlin/rbb-bundeswehr-geloebnis-vor-berliner-abgeordnetenhaus-loest-geteiltes-echo-aus-100.html", "thumbnailUrl": "https://images.tagesschau.de/image/8142804c-830a-46ef-8121-edd0ca1509bb/AAABj2Lu0f0/AAABjwnlKNc/16x9-512.jpg", "date": "2024-05-10T16:32:07.000+02:00", "lat": 52.5186, "lon": 13.4023, "intensity": 0.7, "source": "Tagesschau"}, {"title": "Nach Angriff bei Einsatz: Rettungssanit\u00e4ter wieder im Dienst", "url": "https://www.tagesschau.de/inland/regional/niedersachsen/ndr-grenze-ueberschritten-sanitaeter-bei-einsatz-angegriffen-100.html", "thumbnailUrl": "https://images.tagesschau.de/image/9d7f7ea3-961d-4c05-98c0-a5cb3459ff2e/AAABj2LpT08/AAABjwnlKNc/16x9-512.jpg", "date": "2024-05-10T16:31:00.000+02:00", "lat": 52.2595, "lon": 10.8143, "intensity": 0.7, "source": "Tagesschau"}, {"title": "Mehrere Verletzte bei schwerem Verkehrsunfall nahe Uetze", "url": "https://www.tagesschau.de/inland/regional/niedersachsen/ndr-mehrere-verletzte-bei-schwerem-verkehrsunfall-nahe-uetze-100.html", "thumbnailUrl": "https://images.tagesschau.de/image/cc6f167b-b471-4aa0-86d6-3119a61738b7/AAABj2LGdn0/AAABjwnlKNc/16x9-512.jpg", "date": "2024-05-10T16:19:00.000+02:00", "lat": 52.4889, "lon": 10.1874, "intensity": 0.8, "source": "Tagesschau"}, {"title": "Sexueller Missbrauch an zwei Jungen in Lohne?", "url": "https://www.tagesschau.de/inland/regional/niedersachsen/ndr-sexueller-missbrauch-an-zwei-jungen-in-lohne-100.html", "thumbnailUrl": "https://images.tagesschau.de/image/727dcba6-ac88-4df8-82af-54be1d2418f9/AAABj2LjzLE/AAABjwnlKNc/16x9-512.jpg", "date": "2024-05-10T16:19:00.000+02:00", "lat": 52.6721, "lon": 8.2816, "intensity": 0.8, "source": "Tagesschau"}, {"title": "Buchenwald-\u00dcberlebender Ivan Ivanji gestorben", "url": "https://www.tagesschau.de/inland/gesellschaft/ivan-ivanji-gestorben-100.html", "thumbnailUrl": "https://images.tagesschau.de/image/ab6c0306-daa5-4229-a9f5-a8a065570554/AAABj2LenGk/AAABjwnlKNc/16x9-512.jpg", "date": "2024-05-10T16:18:27.741+02:00", "lat": 51.0464, "lon": 11.2702, "intensity": 0.8, "source": "Tagesschau"}, {"title": "Antisemitismus an Unis: Wie umgehen mit Pro-Pal\u00e4stina-Camps?", "url": "https://www.tagesschau.de/inland/regional/nordrheinwestfalen/wdr-antisemitismus-an-unis-wie-umgehen-mit-pro-palaestina-camps-100.html", "thumbnailUrl": "https://images.tagesschau.de/image/7aaac5c9-daab-4c66-bf27-b7c76e49eda6/AAABj2MPqKg/AAABjwnlKNc/16x9-512.jpg", "date": "2024-05-10T16:14:00.000+02:00", "lat": 51.4818, "lon": 7.6261, "intensity": 0.7, "source": "Tagesschau"}, {"title": "Chemieunfall bei Sprudelfirma Hochwald in Thalfang", "url": "https://www.tagesschau.de/inland/regional/saarland/sr-chemieunfall-bei-sprudelfirma-hochwald-in-thalfang-100.html", "thumbnailUrl": "https://images.tagesschau.de/image/bf6ef6cc-c51c-4094-836d-6ebb40d36d98/AAABj2LgCjI/AAABjwnlKNc/16x9-512.jpg", "date": "2024-05-10T16:13:00.000+02:00", "lat": 49.75, "lon": 7.1, "intensity": 0.8, "source": "Tagesschau"}, {"title": "Islamisten-Demo in Hamburg: Kalifatsforderung verboten", "url": "https://www.tagesschau.de/inland/regional/hamburg/ndr-islamisten-demo-in-hamburg-kalifatsforderung-verboten-100.html", "thumbnailUrl": "https://images.tagesschau.de/image/ac0513bc-1820-4ff5-b5bb-b8a84d7a4696/AAABj2LgUYk/AAABjwnlKNc/16x9-512.jpg", "date": "2024-05-10T16:13:00.000+02:00", "lat": 53.5511, "lon": 10.0081, "intensity": 0.5, "source": "Tagesschau"}, {"title": "Darmstadt 98 vor emotionalem Bundesliga-Abschied am B\u00f6lle", "url": "https://www.tagesschau.de/inland/regional/hessen/hr-darmstadt-98-vor-emotionalem-bundesliga-abschied-am-boelle-102.html", "thumbnailUrl": "https://images.tagesschau.de/image/ca398d0f-35d1-4682-8d17-76061034afdc/AAABj2LiEQg/AAABjwnlKNc/16x9-512.jpg", "date": "2024-05-10T16:12:16.258+02:00", "lat": 49.8768, "lon": 8.6577, "intensity": 0.7, "source": "Tagesschau"}, {"title": "Solargro\u00dfprojekt im Landkreis Mittelsachsen startet mit Firmengr\u00fcndung", "url": "https://www.tagesschau.de/inland/regional/sachsen/mdr-solargrossprojekt-im-landkreis-mittelsachsen-startet-mit-firmengruendung-100.html", "thumbnailUrl": "https://images.tagesschau.de/image/83cf6ca2-da18-4156-9439-6cdabc7ceea0/AAABj2TbXoQ/AAABjwnlKNc/16x9-512.jpg", "date": "2024-05-10T16:12:08.000+02:00", "lat": 50.8833, "lon": 13.3, "intensity": 0.7, "source": "Tagesschau"}, {"title": "Comics und Lesef\u00f6rderung: Bibliotheken und H\u00e4ndler hoffen auf Ansturm am Gratis Comic Tag f\u00fcr Kids", "url": "https://www.tagesschau.de/inland/regional/hessen/hr-comics-und-lesefoerderung-bibliotheken-und-haendler-hoffen-auf-ansturm-am-gratis-comic-tag-fuer-kids-100.html", "thumbnailUrl": "https://images.tagesschau.de/image/edbdcd1a-cdd0-428a-828f-0e3909705e7e/AAABj2LW6ko/AAABjwnlKNc/16x9-512.jpg", "date": "2024-05-10T16:09:24.281+02:00", "lat": 50.5727, "lon": 9.6606, "intensity": 0.7, "source": "Tagesschau"}, {"title": "Handel-Tarifeinigung mit Signalwirkung f\u00fcrs Saarland?", "url": "https://www.tagesschau.de/inland/regional/saarland/sr-handel-tarifeinigung-mit-signalwirkung-fuers-saarland-100.html", "thumbnailUrl": "https://images.tagesschau.de/image/d29dc5e9-5f51-45b8-9f04-f08091bc402c/AAABj10pBss/AAABjwnlKNc/16x9-512.jpg", "date": "2024-05-10T16:03:00.000+02:00", "lat": 49.3964, "lon": 7.0, "intensity": 0.6, "source": "Tagesschau"}, {"title": "Kulturstiftung muss Abfindung f\u00fcr Kunstvorst\u00e4ndin Jahn offenlegen", "url": "https://www.tagesschau.de/inland/regional/saarland/sr-kulturstiftung-muss-abfindung-fuer-kunstvorstaendin-jahn-offenlegen-100.html", "thumbnailUrl": "https://images.tagesschau.de/image/ae5fd36a-713e-4b09-ad07-c7ae87617465/AAABj2LTOVc/AAABjwnlKNc/16x9-512.jpg", "date": "2024-05-10T16:00:00.000+02:00", "lat": 49.1659, "lon": 6.9603, "intensity": 0.6, "source": "Tagesschau"}, {"title": "Polarlichter \u00fcber dem Saarland erwartet", "url": "https://www.tagesschau.de/inland/regional/saarland/sr-polarlichter-ueber-dem-saarland-erwartet-100.html", "thumbnailUrl": "https://images.tagesschau.de/image/34f5c3cb-0a98-4808-8212-a4c0f8b5d76e/AAABj2L_KVU/AAABjwnlKNc/16x9-512.jpg", "date": "2024-05-10T16:00:00.000+02:00", "lat": 49.3964, "lon": 6.9538, "intensity": 0.7, "source": "Tagesschau"}, {"title": "Reiten: Franzose George gewinnt Zweite Derby-Qualifikation ", "url": "https://www.tagesschau.de/inland/regional/hamburg/ndr-reiten-franzose-george-gewinnt-zweite-derby-qualifikation-102.html", "thumbnailUrl": "https://images.tagesschau.de/image/18726f8a-1fa5-4c81-8e9d-9d2832f18761/AAABj2L0StM/AAABjwnlKNc/16x9-512.jpg", "date": "2024-05-10T15:58:00.000+02:00", "lat": 53.5461, "lon": 9.8589, "intensity": 0.6, "source": "Tagesschau"}, {"title": "Masern: 80 Prozent der Kleinkindern geimpft", "url": "https://www.tagesschau.de/inland/regional/mecklenburgvorpommern/ndr-masern-80-prozent-der-kleinkindern-geimpft-100.html", "thumbnailUrl": "https://images.tagesschau.de/image/528a2753-5721-4b59-a89f-4ba8a3ea29e1/AAABj2LgOcw/AAABjwnlKNc/16x9-512.jpg", "date": "2024-05-10T15:54:00.000+02:00", "lat": 52.52, "lon": 13.4251, "intensity": 0.6, "source": "Tagesschau"}, {"title": "Nach Unfall mit mehreren Fahrzeugen: A4 Richtung K\u00f6ln voll gesperrt", "url": "https://www.tagesschau.de/inland/regional/nordrheinwestfalen/wdr-nach-unfall-mit-mehreren-fahrzeugen-a4-richtung-koeln-voll-gesperrt-100.html", "thumbnailUrl": "https://images.tagesschau.de/image/856a4b8b-14ca-4529-a9e4-170281b8d996/AAABj2L3_fw/AAABjwnlKNc/16x9-512.jpg", "date": "2024-05-10T15:54:00.000+02:00", "lat": 50.7601, "lon": 6.0916, "intensity": 0.8, "source": "Tagesschau"}, {"title": "Zieht K\u00f6ln den 1. FC Union Berlin mit in den Abgrund?", "url": "https://www.tagesschau.de/inland/regional/berlin/rbb-zieht-koeln-den-1-fc-union-berlin-mit-in-den-abgrund-102.html", "thumbnailUrl": "https://images.tagesschau.de/image/254e95c6-7d73-427f-af06-8ca2fb1ef172/AAABj2OKZsQ/AAABjwnlKNc/16x9-512.jpg", "date": "2024-05-10T15:51:12.000+02:00", "lat": 52.52, "lon": 13.407, "intensity": 0.8, "source": "Tagesschau"}, {"title": "Proteste gegen EU-Politik in Warschau", "url": "https://www.tagesschau.de/ausland/europa/polen-bauern-proteste-102.html", "thumbnailUrl": "https://images.tagesschau.de/image/674fca88-9454-45e6-8d47-62dc6279cb78/AAABj2KziOM/AAABjwnlKNc/16x9-512.jpg", "date": "2024-05-10T15:50:08.278+02:00", "lat": 52.2297, "lon": 21.0118, "intensity": 0.8, "source": "Tagesschau"}, {"title": "Fan-Proteste: VfL Osnabr\u00fcck scheitert mit Einspruch gegen DFB-Strafe", "url": "https://www.tagesschau.de/inland/regional/niedersachsen/ndr-fan-proteste-vfl-osnabrueck-scheitert-mit-einspruch-gegen-dfb-strafe-102.html", "thumbnailUrl": "https://images.tagesschau.de/image/38cde78f-f3e9-451f-bfe6-c3d078447155/AAABj2LIT2s/AAABjwnlKNc/16x9-512.jpg", "date": "2024-05-10T15:50:00.000+02:00", "lat": 52.2799, "lon": 8.0467, "intensity": 0.6, "source": "Tagesschau"}, {"title": "Eine Woche nach dem Unwetter: So geht es den Menschen in Glaadt in der Eifel", "url": "https://www.tagesschau.de/inland/regional/rheinlandpfalz/swr-eine-woche-nach-dem-unwetter-so-geht-es-den-menschen-in-glaadt-in-der-eifel-100.html", "thumbnailUrl": "https://images.tagesschau.de/image/e845cdbc-d8f9-4b20-8e96-8322852ef637/AAABj2Lan0I/AAABjwnlKNc/16x9-512.jpg", "date": "2024-05-10T15:47:37.000+02:00", "lat": 50.1841, "lon": 6.8564, "intensity": 0.8, "source": "Tagesschau"}, {"title": "Mann in Kaiserslautern mit Axt angegriffen und schwer verletzt", "url": "https://www.tagesschau.de/inland/regional/rheinlandpfalz/swr-mann-in-kaiserslautern-mit-axt-angegriffen-und-schwer-verletzt-100.html", "thumbnailUrl": "https://images.tagesschau.de/image/c487f57c-50b7-40b5-b86e-434d6ed769fb/AAABj2Iqysg/AAABjwnlKNc/16x9-512.jpg", "date": "2024-05-10T15:46:00.000+02:00", "lat": 49.4416, "lon": 7.755, "intensity": 0.8, "source": "Tagesschau"}, {"title": "Paraglider und Fallschirmspringer: Zwei Flugsportler auf Flugpl\u00e4tzen in Cottbus abgest\u00fcrzt", "url": "https://www.tagesschau.de/inland/regional/brandenburg/rbb-paraglider-und-fallschirmspringer-zwei-flugsportler-auf-flugplaetzen-in-cottbus-abgestuerzt-100.html", "thumbnailUrl": "https://images.tagesschau.de/image/26c7c74b-0fff-482b-80af-1339227c661c/AAABj2Eqimo/AAABjwnlKNc/16x9-512.jpg", "date": "2024-05-10T15:45:32.000+02:00", "lat": 51.7562, "lon": 14.3356, "intensity": 0.8, "source": "Tagesschau"}, {"title": "Chemieunfall in Thalfang: 14 Menschen betroffen", "url": "https://www.tagesschau.de/inland/regional/rheinlandpfalz/swr-chemieunfall-bei-sprudelfirma-in-thalfang-100.html", "thumbnailUrl": "https://images.tagesschau.de/image/da7590dc-1e9e-4196-a952-e9d457bc6f16/AAABj2JLvwc/AAABjwnlKNc/16x9-512.jpg", "date": "2024-05-10T15:45:00.000+02:00", "lat": 49.7483, "lon": 6.9704, "intensity": 0.8, "source": "Tagesschau"}, {"title": "Vogelsterben in RLP: Immer weniger V\u00f6gel auch auf Feld, Wiese und Weide", "url": "https://www.tagesschau.de/inland/regional/rheinlandpfalz/swr-vogelsterben-in-rlp-immer-weniger-voegel-auch-auf-feld-wiese-und-weide-100.html", "thumbnailUrl": "https://images.tagesschau.de/image/aaef5d00-dff4-4bcd-91bd-ab404125e648/AAABj2Lwkbw/AAABjwnlKNc/16x9-512.jpg", "date": "2024-05-10T15:42:00.000+02:00", "lat": 49.8153, "lon": 7.3723, "intensity": 0.8, "source": "Tagesschau"}, {"title": "MV-Trend: AfD trotz Verlusten Nummer 1 - BSW auf Anhieb zweistellig", "url": "https://www.tagesschau.de/inland/regional/mecklenburgvorpommern/ndr-mv-trend-afd-trotz-verlusten-nummer-1-bsw-auf-anhieb-zweistellig-100.html", "thumbnailUrl": "https://images.tagesschau.de/image/39e1685d-bf91-4c07-8e8b-cf6a5c4ec97b/AAABj15MLwY/AAABjwnlKNc/16x9-512.jpg", "date": "2024-05-10T15:42:00.000+02:00", "lat": 53.6127, "lon": 13.2847, "intensity": 0.7, "source": "Tagesschau"}, {"title": "Feuerwehr stoppt Fl\u00fcssiggas-Leck bei Saarstahl", "url": "https://www.tagesschau.de/inland/regional/saarland/sr-feuerwehr-stoppt-fluessiggas-leck-bei-saarstahl-100.html", "thumbnailUrl": "https://images.tagesschau.de/image/ee026302-9c3e-4f28-a8bb-8d428cc05538/AAABj2LgC6A/AAABjwnlKNc/16x9-512.jpg", "date": "2024-05-10T15:31:00.000+02:00", "lat": 49.25, "lon": 6.8306, "intensity": 0.8, "source": "Tagesschau"}, {"title": "Fu\u00dfballer bricht auf dem Platz zusammen und stirbt sp\u00e4ter im Krankenhaus", "url": "https://www.tagesschau.de/inland/regional/badenwuerttemberg/swr-fussballer-bricht-auf-dem-platz-zusammen-und-stirbt-spaeter-im-krankenhaus-100.html", "thumbnailUrl": "https://images.tagesschau.de/image/28637410-bc5b-4624-922c-17c5c8f95a8e/AAABj2K2CcQ/AAABjwnlKNc/16x9-512.jpg", "date": "2024-05-10T15:29:14.000+02:00", "lat": 47.8184, "lon": 9.8642, "intensity": 1, "source": "Tagesschau"}, {"title": "Prozess in Hamburg: Zwei M\u00e4nner wegen Menschenhandels angeklagt", "url": "https://www.tagesschau.de/inland/regional/hamburg/ndr-prozess-in-hamburg-zwei-maenner-wegen-menschenhandels-angeklagt-100.html", "thumbnailUrl": "https://images.tagesschau.de/image/573dda1f-f515-4717-9819-55367541ce1a/AAABj2KwfUM/AAABjwnlKNc/16x9-512.jpg", "date": "2024-05-10T15:24:00.000+02:00", "lat": 53.5511, "lon": 9.9937, "intensity": 0.8, "source": "Tagesschau"}, {"title": "SPD glaubt an Einigung bei Rentenreform", "url": "https://www.tagesschau.de/inland/innenpolitik/fdp-rente-ampel-102.html", "thumbnailUrl": "https://images.tagesschau.de/image/ec2a8596-e721-44b3-83f6-674062f9989d/AAABj2KtPYg/AAABjwnlKNc/16x9-512.jpg", "date": "2024-05-10T15:21:44.288+02:00", "lat": 51.5426, "lon": 9.9937, "intensity": 0.5, "source": "Tagesschau"}, {"title": "Darmstadt 98: +++ Lieberknecht freut sich auf Stojilkovic-R\u00fcckkehr +++ Lilien verabschieden mehrere Spieler +++ Lilien motiviert ins letzte Heimspiel +++", "url": "https://www.tagesschau.de/inland/regional/hessen/hr--tietz-vermisst-fehlende-gier--lilien-fans-liefern-sich-raststaetten-pruegelei--die-niederlage-der-lilien-in-der-video-zusammenfassung-102.html", "thumbnailUrl": "https://images.tagesschau.de/image/7db53f73-4914-4c02-9bf9-57a17643e532/AAABj2KjwEU/AAABjwnlKNc/16x9-512.jpg", "date": "2024-05-10T15:12:58.360+02:00", "lat": 49.8717, "lon": 8.6553, "intensity": 0.5, "source": "Tagesschau"}, {"title": "Oderberg (Barnim): Tourenanbieter verlieren wegen Sperrung von Oder-Havel-Kanal zahlreiche Kunden", "url": "https://www.tagesschau.de/inland/regional/brandenburg/rbb-oderberg-barnim-tourenanbieter-verlieren-wegen-sperrung-von-oder-havel-kanal-zahlreiche-kunden-100.html", "thumbnailUrl": "https://images.tagesschau.de/image/2f9cb5e5-a201-41ce-8681-1e82329672d3/AAABj2Pepq4/AAABjwnlKNc/16x9-512.jpg", "date": "2024-05-10T15:10:56.000+02:00", "lat": 52.8589, "lon": 13.8936, "intensity": 0.8, "source": "Tagesschau"}, {"title": "Gemeinde M\u00fcnstertal will Z\u00e4une gegen W\u00f6lfe verbieten", "url": "https://www.tagesschau.de/inland/regional/badenwuerttemberg/swr-gemeinde-muenstertal-will-zaeune-gegen-woelfe-verbieten-100.html", "thumbnailUrl": "https://images.tagesschau.de/image/e78039d6-0785-4790-b2b2-2b715f3f1a00/AAABj2LC1Wo/AAABjwnlKNc/16x9-512.jpg", "date": "2024-05-10T15:07:12.000+02:00", "lat": 47.8333, "lon": 7.8167, "intensity": 0.7, "source": "Tagesschau"}, {"title": "Berlin-Pankow: Sperrung der A114 nach schwerem Verkehrsunfall wieder aufgehoben", "url": "https://www.tagesschau.de/inland/regional/berlin/rbb-berlin-pankow-a114-nach-schwerem-unfall-gesperrt-100.html", "thumbnailUrl": "https://images.tagesschau.de/image/05585b68-cd6a-444f-9939-324a8cc90217/AAABj2Jh_ug/AAABjwnlKNc/16x9-512.jpg", "date": "2024-05-10T15:04:40.000+02:00", "lat": 52.5565, "lon": 13.4376, "intensity": 0.8, "source": "Tagesschau"}, {"title": "Dramatische Rettung: Zehnj\u00e4hriger Junge am Strand versch\u00fcttet", "url": "https://www.tagesschau.de/inland/regional/niedersachsen/ndr-dramatische-rettung-zehnjaehriger-junge-am-strand-verschuettet-100.html", "thumbnailUrl": "https://images.tagesschau.de/image/b0f93df5-cb9a-471e-aac6-553948588d26/AAABj2IlWkA/AAABjwnlKNc/16x9-512.jpg", "date": "2024-05-10T14:58:00.000+02:00", "lat": 53.7829, "lon": 7.8887, "intensity": 0.6, "source": "Tagesschau"}, {"title": "20 Jahre EU-Beitritt Polens - Eindr\u00fccke aus Szczecin und Greifswald", "url": "https://www.tagesschau.de/inland/regional/mecklenburgvorpommern/ndr-20-jahre-eu-beitritt-polens-eindruecke-aus-szczecin-und-greifswald-100.html", "thumbnailUrl": "https://images.tagesschau.de/image/39a3c99e-803b-4ade-ba97-3c8884b3d9e5/AAABj2KagSk/AAABjwnlKNc/16x9-512.jpg", "date": "2024-05-10T14:56:00.000+02:00", "lat": 53.4289, "lon": 14.5511, "intensity": 0.6, "source": "Tagesschau"}, {"title": "Tr\u00fcbe Aussichten f\u00fcr europ\u00e4ische Firmen in China", "url": "https://www.tagesschau.de/wirtschaft/weltwirtschaft/china-erwartung-europa-unternehmen-100.html", "thumbnailUrl": "https://images.tagesschau.de/image/d9859133-1618-4298-b893-3b4815d3ffeb/AAABhnbBe5U/AAABjwnlKNc/16x9-512.jpg", "date": "2024-05-10T14:54:03.783+02:00", "lat": 39.9042, "lon": 116.4074, "intensity": 0.8, "source": "Tagesschau"}, {"title": "Stauffenbergallee: Dresdner Huckelpiste wird saniert", "url": "https://www.tagesschau.de/inland/regional/sachsen/mdr-stauffenbergallee-dresdner-huckelpiste-wird-saniert-100.html", "thumbnailUrl": "https://images.tagesschau.de/image/29bc0a66-3d00-4c7e-b623-6d8030b43b3d/AAABj2TbSps/AAABjwnlKNc/16x9-512.jpg", "date": "2024-05-10T14:49:31.000+02:00", "lat": 51.068785, "lon": 13.737139, "intensity": 0.4, "source": "Tagesschau"}, {"title": "Unfalltote aus der Hafencity sollen schwarz gearbeitet haben", "url": "https://www.tagesschau.de/inland/regional/hamburg/ndr-unfalltote-aus-der-hafencity-sollen-schwarz-gearbeitet-haben-100.html", "thumbnailUrl": "https://images.tagesschau.de/image/15a7d8c4-157e-43d5-bf4f-3c157cb40a16/AAABj2KNxjQ/AAABjwnlKNc/16x9-512.jpg", "date": "2024-05-10T14:46:00.000+02:00", "lat": 53.539, "lon": 9.976, "intensity": 0.8, "source": "Tagesschau"}, {"title": "Horrorfilm l\u00f6st Polizeieinsatz in Kaiserslautern aus", "url": "https://www.tagesschau.de/inland/regional/saarland/sr-horrorfilm-loest-polizeieinsatz-in-kaiserslautern-aus-100.html", "thumbnailUrl": "https://images.tagesschau.de/image/6d9faa4f-a2c0-49cb-aee5-a65ed7f3013c/AAABj2LgDJg/AAABjwnlKNc/16x9-512.jpg", "date": "2024-05-10T14:45:00.000+02:00", "lat": 49.4444, "lon": 7.7661, "intensity": 0.3, "source": "Tagesschau"}, {"title": "Beuth wird Strategie-Berater in der Wirtschaft", "url": "https://www.tagesschau.de/inland/regional/hessen/hr-beuth-wird-strategie-berater-in-der-wirtschaft-100.html", "thumbnailUrl": "https://images.tagesschau.de/image/ff87acd6-c366-46f5-9e80-f598ad036543/AAABj2J7X-4/AAABjwnlKNc/16x9-512.jpg", "date": "2024-05-10T14:28:05.441+02:00", "lat": 50.8522, "lon": 9.3717, "intensity": 0.6, "source": "Tagesschau"}, {"title": "Auto f\u00e4hrt in Motorrad-Gruppe: Ein Toter, zwei Schwerverletzte", "url": "https://www.tagesschau.de/inland/regional/niedersachsen/ndr-auto-faehrt-in-motorraeder-65-jaehriger-stirbt-maedchen-schwer-verletzt-100.html", "thumbnailUrl": "https://images.tagesschau.de/image/2485797f-23f9-4c3f-8c93-ea109dc833c2/AAABj2J7cEo/AAABjwnlKNc/16x9-512.jpg", "date": "2024-05-10T14:28:00.000+02:00", "lat": 53.3617, "lon": 10.0739, "intensity": 0.8, "source": "Tagesschau"}, {"title": "Ist der Islamunterricht gescheitert?", "url": "https://www.tagesschau.de/inland/regional/nordrheinwestfalen/wdr-ist-der-islamunterricht-gescheitert-100.html", "thumbnailUrl": "https://images.tagesschau.de/image/04ad482c-58da-43f5-b32e-3ad707441bde/AAABj2M5w3E/AAABjwnlKNc/16x9-512.jpg", "date": "2024-05-10T14:22:00.000+02:00", "lat": 51.9607, "lon": 7.6261, "intensity": 0.4, "source": "Tagesschau"}, {"title": "Ermittlungen nach Gewalt bei Antisemitismus-Vorlesung", "url": "https://www.tagesschau.de/inland/regional/hamburg/uni-hamburg-gewalttaetiger-streit-100.html", "thumbnailUrl": "https://images.tagesschau.de/image/47c02600-f7e0-462e-8bd0-89d17c025302/AAABj2Luu2A/AAABjwnlKNc/16x9-512.jpg", "date": "2024-05-10T14:16:58.581+02:00", "lat": 53.5511, "lon": 9.9937, "intensity": 0.8, "source": "Tagesschau"}, {"title": "Patrick Weihrauch verl\u00e4ngert beim FC Homburg", "url": "https://www.tagesschau.de/inland/regional/saarland/sr-patrick-weihrauch-verlaengert-beim-fc-homburg-102.html", "thumbnailUrl": "https://images.tagesschau.de/image/f4b4323e-1df4-4803-b4ae-740350594581/AAABj2KIJW4/AAABjwnlKNc/16x9-512.jpg", "date": "2024-05-10T14:16:00.000+02:00", "lat": 49.312, "lon": 7.337, "intensity": 0.3, "source": "Tagesschau"}, {"title": "Bis zu 100 Millionen Euro f\u00fcr Galeria", "url": "https://www.tagesschau.de/wirtschaft/unternehmen/galeria-eigentuemer-investition-100-millionen-100.html", "thumbnailUrl": "https://images.tagesschau.de/image/d5218d5d-fd03-4587-b5cd-0e894cc0a2aa/AAABj2JmBBE/AAABjwnlKNc/16x9-512.jpg", "date": "2024-05-10T14:06:44.500+02:00", "lat": 50.7358, "lon": 7.1097, "intensity": 0.8, "source": "Tagesschau"}, {"title": "\"Maxton Hall\" bei Prime: Serie zum Roman \"Save Me\" von Mona Kasten", "url": "https://www.tagesschau.de/inland/regional/hamburg/ndr-maxton-hall-bei-prime-serie-zum-roman-save-me-von-mona-kasten-100.html", "thumbnailUrl": "https://images.tagesschau.de/image/c79e7c81-da04-4b55-bc31-36c4c06e8105/AAABj15P4PQ/AAABjwnlKNc/16x9-512.jpg", "date": "2024-05-10T14:00:00.000+02:00", "lat": 53.5511, "lon": 9.9937, "intensity": 0.6, "source": "Tagesschau"}, {"title": "Klein Flottbek: David Will siegt im Championat von Hamburg", "url": "https://www.tagesschau.de/inland/regional/hamburg/ndr-klein-flottbek-david-will-triumphiert-im-championat-von-hamburg-104.html", "thumbnailUrl": "https://images.tagesschau.de/image/11703884-2ef2-4844-a7a9-29f282aee782/AAABj2L0Vpw/AAABjwnlKNc/16x9-512.jpg", "date": "2024-05-10T13:59:00.000+02:00", "lat": 53.566929, "lon": 9.889575, "intensity": 0.7, "source": "Tagesschau"}, {"title": "Holstein begeistert Kiel - Wird der Aufstiegstraum gegen Fortuna D\u00fcsseldorf wahr?", "url": "https://www.tagesschau.de/inland/regional/schleswigholstein/ndr-holstein-begeistert-kiel-wird-der-aufstiegstraum-gegen-fortuna-duesseldorf-wahr-102.html", "thumbnailUrl": "https://images.tagesschau.de/image/35a8f05e-feba-4f17-ad71-6ce66f6b39fe/AAABj2LMFPU/AAABjwnlKNc/16x9-512.jpg", "date": "2024-05-10T13:45:00.000+02:00", "lat": 54.3234, "lon": 10.1234, "intensity": 0.8, "source": "Tagesschau"}, {"title": "Staatsschutz ermittelt nach Brandanschlag", "url": "https://www.tagesschau.de/inland/regional/berlin/berlin-brandstiftung-rathaus-tiergarten-100.html", "thumbnailUrl": "https://images.tagesschau.de/image/306a2899-25e8-457c-a5c1-e254d61a24dc/AAABj2K33xw/AAABjwnlKNc/16x9-512.jpg", "date": "2024-05-10T13:44:12.269+02:00", "lat": 52.5074, "lon": 13.3594, "intensity": 0.8, "source": "Tagesschau"}, {"title": "Nach Leichenfund in Hockenheim: Baby bleibt vorerst in Pflegefamilie", "url": "https://www.tagesschau.de/inland/regional/badenwuerttemberg/swr-nach-leichenfund-in-hockenheim-baby-bleibt-vorerst-in-pflegefamilie-100.html", "thumbnailUrl": "https://images.tagesschau.de/image/287daafc-9e2e-4447-ad67-49df70cb84e5/AAABj2JaanE/AAABjwnlKNc/16x9-512.jpg", "date": "2024-05-10T13:33:49.000+02:00", "lat": 49.3277, "lon": 8.5592, "intensity": 0.7, "source": "Tagesschau"}, {"title": "Verurteilter HNO-Arzt offenbar nicht mehr Klinikchef", "url": "https://www.tagesschau.de/inland/regional/saarland/sr-verurteilter-hno-arzt-offenbar-nicht-mehr-klinikchef-100.html", "thumbnailUrl": "https://images.tagesschau.de/image/c0afbab9-d140-4bb0-9713-340595e7c712/AAABj2JROHA/AAABjwnlKNc/16x9-512.jpg", "date": "2024-05-10T13:33:00.000+02:00", "lat": 49.3108, "lon": 7.3321, "intensity": 0.6, "source": "Tagesschau"}, {"title": "Mann st\u00fcrzt bei Polizeikontrolle in Wittenberg \u00fcber Br\u00fcckengel\u00e4nder und stirbt", "url": "https://www.tagesschau.de/inland/regional/brandenburg/rbb-mann-stuerzt-bei-polizeikontrolle-in-wittenberg-ueber-brueckengelaender-und-stirbt-100.html", "thumbnailUrl": "https://images.tagesschau.de/image/840d24d4-d379-4fff-9420-2f44ed221845/AAABj2JJ6MM/AAABjwnlKNc/16x9-512.jpg", "date": "2024-05-10T13:30:51.000+02:00", "lat": 51.866379, "lon": 12.648098, "intensity": 0.8, "source": "Tagesschau"}, {"title": "Kiel: 30 neue Hinweise zu Vergewaltigung nach \"Aktenzeichen XY\"", "url": "https://www.tagesschau.de/inland/regional/schleswigholstein/ndr-kiel-30-neue-hinweise-zu-vergewaltigung-nach-aktenzeichen-xy-100.html", "thumbnailUrl": "https://images.tagesschau.de/image/2acf1835-d518-4909-b5e4-4f9dd6a40aaa/AAABj2KEi9E/AAABjwnlKNc/16x9-512.jpg", "date": "2024-05-10T13:29:00.000+02:00", "lat": 54.3233, "lon": 10.1393, "intensity": 0.7, "source": "Tagesschau"}, {"title": "Illegales Autorennen: Mit Tempo 130 durch die Stadt gerast", "url": "https://www.tagesschau.de/inland/regional/niedersachsen/ndr-illegales-autorennen-mit-tempo-130-durch-die-stadt-gerast-100.html", "thumbnailUrl": "https://images.tagesschau.de/image/1413ca67-7b33-415b-ba8c-0f8e168d8ba4/AAABj2JCoNo/AAABjwnlKNc/16x9-512.jpg", "date": "2024-05-10T13:22:00.000+02:00", "lat": 53.0793, "lon": 8.8017, "intensity": 0.8, "source": "Tagesschau"}, {"title": "Buchenwald-\u00dcberlebender Ivan Ivanji in Weimar gestorben", "url": "https://www.tagesschau.de/inland/regional/thueringen/mdr-buchenwald-ueberlebender-ivan-ivanji-in-weimar-gestorben-102.html", "thumbnailUrl": "https://images.tagesschau.de/image/8f1e7cb3-e3ce-45e7-84ff-feb8b69e4ae7/AAABj2TZcu0/AAABjwnlKNc/16x9-512.jpg", "date": "2024-05-10T13:05:24.000+02:00", "lat": 50.9795, "lon": 11.3295, "intensity": 0.8, "source": "Tagesschau"}, {"title": "Nach Sch\u00fcssen in Rotterdam: Spur f\u00fchrt ins Ruhrgebiet", "url": "https://www.tagesschau.de/inland/regional/nordrheinwestfalen/wdr-nach-schuessen-in-rotterdam-spur-fuehrt-ins-ruhrgebiet-100.html", "thumbnailUrl": "https://images.tagesschau.de/image/1c397ed6-f9bb-4456-a779-89733951b485/AAABj2LCv1w/AAABjwnlKNc/16x9-512.jpg", "date": "2024-05-10T12:55:00.000+02:00", "lat": 51.5035, "lon": 6.9603, "intensity": 0.8, "source": "Tagesschau"}, {"title": "Antifa bekennt sich zu St\u00f6raktion in Stuttgart", "url": "https://www.tagesschau.de/inland/regional/badenwuerttemberg/afd-antifa-baden-wuerttemberg-100.html", "thumbnailUrl": "https://images.tagesschau.de/image/08b691ea-4a0a-4877-bb86-faab9fd8fc4a/AAABj2IYijU/AAABjwnlKNc/16x9-512.jpg", "date": "2024-05-10T12:50:58.269+02:00", "lat": 48.7758, "lon": 9.1829, "intensity": 0.8, "source": "Tagesschau"}, {"title": "Nach Erdrutsch: Stra\u00dfe zwischen Elzach und Oberwinden gesperrt", "url": "https://www.tagesschau.de/inland/regional/badenwuerttemberg/swr-nach-erdrutsch-strasse-zwischen-elzach-und-oberwinden-gesperrt-100.html", "thumbnailUrl": "https://images.tagesschau.de/image/a593b990-b4b1-42d4-9a89-279ae92e0f88/AAABj2Ijd5U/AAABjwnlKNc/16x9-512.jpg", "date": "2024-05-10T12:49:32.000+02:00", "lat": 48.1333, "lon": 8.0833, "intensity": 0.7, "source": "Tagesschau"}, {"title": "Polizei Siegen-Wittgenstein warnt vor Betrug mit Kryptow\u00e4hrung", "url": "https://www.tagesschau.de/inland/regional/nordrheinwestfalen/wdr-polizei-siegen-wittgenstein-warnt-vor-betrug-mit-kryptowaehrung-102.html", "thumbnailUrl": "https://images.tagesschau.de/image/2424f5c9-6049-40f4-bd10-018562576657/AAABj2IfylI/AAABjwnlKNc/16x9-512.jpg", "date": "2024-05-10T12:44:00.000+02:00", "lat": 50.9804, "lon": 8.0287, "intensity": 0.6, "source": "Tagesschau"}, {"title": "Unfall mit Pedelec: 54-J\u00e4hrige in Berne schwer verletzt", "url": "https://www.tagesschau.de/inland/regional/niedersachsen/ndr-unfall-mit-pedelec-54-jaehrige-in-berne-schwer-verletzt-100.html", "thumbnailUrl": "https://images.tagesschau.de/image/22d00e2d-a5bc-496a-a8ca-59185248c115/AAABj2IuoUc/AAABjwnlKNc/16x9-512.jpg", "date": "2024-05-10T12:42:00.000+02:00", "lat": 53.1648, "lon": 8.4301, "intensity": 0.7, "source": "Tagesschau"}, {"title": "FC St. Pauli empf\u00e4ngt Osnabr\u00fcck: Alles bereit f\u00fcr die Aufstiegsfeier", "url": "https://www.tagesschau.de/inland/regional/hamburg/ndr-fc-st-pauli-empfaengt-osnabrueck-alles-bereit-fuer-die-aufstiegsfeier-102.html", "thumbnailUrl": "https://images.tagesschau.de/image/9ff53568-b98b-440e-99f6-9b51665f116a/AAABj2LPv_M/AAABjwnlKNc/16x9-512.jpg", "date": "2024-05-10T12:24:00.000+02:00", "lat": 53.5714, "lon": 10.0184, "intensity": 0.8, "source": "Tagesschau"}, {"title": "Im Interview: Warum Reinhard Ernst Wiesbaden ein spektakul\u00e4res Museum schenkt", "url": "https://www.tagesschau.de/inland/regional/hessen/hr-im-interview-warum-reinhard-ernst-wiesbaden-ein-spektakulaeres-museum-schenkt-100.html", "thumbnailUrl": "https://images.tagesschau.de/image/b8ec4c35-252e-4a77-ab43-e7a360db6330/AAABj2ILrPA/AAABjwnlKNc/16x9-512.jpg", "date": "2024-05-10T12:18:29.563+02:00", "lat": 50.0782184, "lon": 8.2397603, "intensity": 0.7, "source": "Tagesschau"}, {"title": "Ermittler finden 190 Kilo Kokain in Bananenkisten", "url": "https://www.tagesschau.de/inland/regional/niedersachsen/drogen-in-bananenkisten-ermittler-finden-190-kilogramm-kokain-100.html", "thumbnailUrl": "https://images.tagesschau.de/image/8c51f8b9-c30e-4f54-aeaf-171b35dd91a3/AAABj2IPX-Q/AAABjwnlKNc/16x9-512.jpg", "date": "2024-05-10T12:11:05.158+02:00", "lat": 52.1508, "lon": 9.9512, "intensity": 0.8, "source": "Tagesschau"}, {"title": "Carport-Brand greift auf zwei Doppelhaush\u00e4lften \u00fcber", "url": "https://www.tagesschau.de/inland/regional/niedersachsen/ndr-haus-in-westerstede-brennt-feuerwehr-warnt-anwohner-100.html", "thumbnailUrl": "https://images.tagesschau.de/image/5e629ab1-536f-4cf3-9300-06b60f8be940/AAABj2H7Rzs/AAABjwnlKNc/16x9-512.jpg", "date": "2024-05-10T12:08:00.000+02:00", "lat": 53.2458, "lon": 7.9152, "intensity": 0.7, "source": "Tagesschau"}, {"title": "Von Pannen und Whistleblowern", "url": "https://www.tagesschau.de/wirtschaft/boeing-timeline-flugzeughersteller-probleme-100.html", "thumbnailUrl": "https://images.tagesschau.de/image/0e7b7c98-8d06-4ba5-9236-e411013008c7/AAABjsvvB4s/AAABjwnlKNc/16x9-512.jpg", "date": "2024-05-10T12:06:48.858+02:00", "lat": 47.529996, "lon": -122.298676, "intensity": 0.8, "source": "Tagesschau"}, {"title": "Eintracht Frankfurt vorm Spiel in Gladbach: Siegen f\u00fcr Seppl und Hase", "url": "https://www.tagesschau.de/inland/regional/hessen/hr-eintracht-frankfurt-vorm-spiel-in-gladbach-siegen-fuer-seppl-und-hase-102.html", "thumbnailUrl": "https://images.tagesschau.de/image/f394cb43-0439-433c-b6b5-ce0ff57bb362/AAABj2Hz2p4/AAABjwnlKNc/16x9-512.jpg", "date": "2024-05-10T11:55:12.135+02:00", "lat": 50.9961, "lon": 6.8649, "intensity": 0.6, "source": "Tagesschau"}, {"title": "Lederberg Stuttgart: Linienbus der SSB brennt komplett aus", "url": "https://www.tagesschau.de/inland/regional/badenwuerttemberg/swr-lederberg-stuttgart-linienbus-der-ssb-steht-in-flammen-100.html", "thumbnailUrl": "https://images.tagesschau.de/image/0ec4f556-5e1e-4af3-87aa-1a5f774bf42c/AAABj2IRI_g/AAABjwnlKNc/16x9-512.jpg", "date": "2024-05-10T11:51:15.000+02:00", "lat": 48.7758, "lon": 9.1833, "intensity": 0.8, "source": "Tagesschau"}, {"title": "Vandalismus im Wahlkampf: Parteien h\u00e4ngen Plakate m\u00f6glichst hoch", "url": "https://www.tagesschau.de/inland/regional/sachsenanhalt/mdr-vandalismus-im-wahlkampf-parteien-haengen-plakate-moeglichst-hoch-100.html", "thumbnailUrl": "https://images.tagesschau.de/image/effcc16a-0fa5-44ba-b9a3-45da61dd92c4/AAABj2TXo9k/AAABjwnlKNc/16x9-512.jpg", "date": "2024-05-10T11:48:22.000+02:00", "lat": 52.120533, "lon": 11.6345, "intensity": 0.7, "source": "Tagesschau"}, {"title": "Strombr\u00fcckenzug wird noch mal teurer als geplant", "url": "https://www.tagesschau.de/inland/regional/sachsenanhalt/mdr-strombrueckenzug-wird-noch-mal-teurer-als-geplant-100.html", "thumbnailUrl": "https://images.tagesschau.de/image/35743335-0035-43d4-a023-2071131b0dc3/AAABj2TX9_8/AAABjwnlKNc/16x9-512.jpg", "date": "2024-05-10T11:48:09.000+02:00", "lat": 52.1205, "lon": 11.6276, "intensity": 0.7, "source": "Tagesschau"}, {"title": "Tresor an Bushaltestelle gefunden - viele Fragen offen", "url": "https://www.tagesschau.de/inland/regional/niedersachsen/ndr-tresor-an-bushaltestelle-gefunden-viele-fragen-offen-100.html", "thumbnailUrl": "https://images.tagesschau.de/image/7d1a6616-0ad6-4b98-9f54-f49f9478872d/AAABj2HnIck/AAABjwnlKNc/16x9-512.jpg", "date": "2024-05-10T11:45:00.000+02:00", "lat": 52.2602, "lon": 9.0542, "intensity": 0.5, "source": "Tagesschau"}, {"title": "HSV will mit Sieg in Paderborn Druck auf D\u00fcsseldorf erh\u00f6hen", "url": "https://www.tagesschau.de/inland/regional/hamburg/ndr-hsv-will-mit-sieg-in-paderborn-druck-auf-duesseldorf-erhoehen-102.html", "thumbnailUrl": "https://images.tagesschau.de/image/03e9c1bb-9cec-44ee-8a61-626bbeeb4d2a/AAABj2Hz-IE/AAABjwnlKNc/16x9-512.jpg", "date": "2024-05-10T11:44:00.000+02:00", "lat": 51.7126, "lon": 9.7453, "intensity": 0.7, "source": "Tagesschau"}, {"title": "UNRWA schlie\u00dft B\u00fcro in Jerusalem nach Angriffen", "url": "https://www.tagesschau.de/ausland/asien/ostjerusalem-unrwa-buero-geschlossen-100.html", "thumbnailUrl": "https://images.tagesschau.de/image/87daf250-e1be-400e-a442-daf4f90424e7/AAABj2Hv0EQ/AAABjwnlKNc/16x9-512.jpg", "date": "2024-05-10T11:43:08.717+02:00", "lat": 31.76832, "lon": 35.21371, "intensity": 0.7, "source": "Tagesschau"}, {"title": "Flugzeuge am Luxemburger Flughafen konnten nicht starten", "url": "https://www.tagesschau.de/inland/regional/saarland/sr-flugzeuge-am-luxemburger-flughafen-konnten-nicht-starten-100.html", "thumbnailUrl": "https://images.tagesschau.de/image/d5cc32c1-2d0d-49ff-bcbc-9db8df17ed54/AAABj2HnBDk/AAABjwnlKNc/16x9-512.jpg", "date": "2024-05-10T11:37:00.000+02:00", "lat": 49.6476, "lon": 6.2115, "intensity": 0.7, "source": "Tagesschau"}, {"title": "Lebenslange Haft f\u00fcr Amokfahrer von Trier", "url": "https://www.tagesschau.de/inland/regional/rheinlandpfalz/prozess-amokfahrt-trier-urteil-102.html", "thumbnailUrl": "https://images.tagesschau.de/image/4e65052f-0ded-4105-b4a3-34fb2bb6ebd3/AAABhnjI2qI/AAABjwnlKNc/16x9-512.jpg", "date": "2024-05-10T11:31:00.000+02:00", "lat": 49.7571, "lon": 6.6417, "intensity": 0.8, "source": "Tagesschau"}, {"title": "Ehestreit mit Messer: Frau wegen versuchten Totschlags in Haft", "url": "https://www.tagesschau.de/inland/regional/badenwuerttemberg/swr-ehestreit-mit-messer-frau-wegen-versuchten-totschlags-in-haft-100.html", "thumbnailUrl": "https://images.tagesschau.de/image/2b63c8d8-a6f4-4766-885f-68bd4fbcb433/AAABj2HaN18/AAABjwnlKNc/16x9-512.jpg", "date": "2024-05-10T11:23:45.000+02:00", "lat": 49.0528, "lon": 9.1167, "intensity": 0.8, "source": "Tagesschau"}, {"title": "Rechtsextreme Prominenz versammelt sich auf \"Buchmesse\" von Berliner AfD-Fraktionsvize", "url": "https://www.tagesschau.de/inland/regional/berlin/rbb-rechtsextreme-prominenz-versammelt-sich-auf-buchmesse-von-berliner-afd-fraktionsvize-100.html", "thumbnailUrl": "https://images.tagesschau.de/image/fed724af-3895-4e13-bee4-7a40e4237af1/AAABj2HPRfI/AAABjwnlKNc/16x9-512.jpg", "date": "2024-05-10T11:19:30.000+02:00", "lat": 52.520008, "lon": 13.404954, "intensity": 0.8, "source": "Tagesschau"}, {"title": "2023 sind deutlich mehr Menschen im Saarland eingeb\u00fcrgert worden", "url": "https://www.tagesschau.de/inland/regional/saarland/sr-2023-sind-deutlich-mehr-menschen-im-saarland-eingebuergert-worden-100.html", "thumbnailUrl": "https://images.tagesschau.de/image/1a20301a-5a28-4f55-9fd4-32b2df8e21c6/AAABj2HS38A/AAABjwnlKNc/16x9-512.jpg", "date": "2024-05-10T11:16:00.000+02:00", "lat": 49.3964, "lon": 6.9969, "intensity": 0.6, "source": "Tagesschau"}, {"title": "Berliner Landesamt f\u00fcr Fl\u00fcchtlingsangelegenheiten: Beh\u00f6rdenchef beklagt \u00dcberlastung - \"schon heute unser Alltag\" ", "url": "https://www.tagesschau.de/inland/regional/berlin/rbb-berliner-landesamt-fuer-fluechtlingsangelegenheiten-behoerdenchef-beklagt-ueberlastung-schon-heute-unser-alltag-100.html", "thumbnailUrl": "https://images.tagesschau.de/image/6b100dda-e0ab-440b-83bb-a0bb793bc44d/AAABj2HJ2sg/AAABjwnlKNc/16x9-512.jpg", "date": "2024-05-10T11:13:50.000+02:00", "lat": 52.52, "lon": 13.405, "intensity": 0.8, "source": "Tagesschau"}, {"title": "Britische Wirtschaft \u00fcberwindet Rezession", "url": "https://www.tagesschau.de/wirtschaft/wirtschaft-grossbritannien-rezession-ueberwunden-100.html", "thumbnailUrl": "https://images.tagesschau.de/image/04b55c74-0915-4b8e-b42a-bb0a05863dff/AAABj2JRITk/AAABjwnlKNc/16x9-512.jpg", "date": "2024-05-10T10:58:15.138+02:00", "lat": 51.5074, "lon": -0.1276, "intensity": 0.7, "source": "Tagesschau"}, {"title": "\"Stunde der Gartenv\u00f6gel\": Hobby-Ornithologen im Saarland gefragt ", "url": "https://www.tagesschau.de/inland/regional/saarland/sr-stunde-der-gartenvoegel-hobby-ornithologen-im-saarland-gefragt-100.html", "thumbnailUrl": "https://images.tagesschau.de/image/3272f2ce-f138-47c7-a63a-20c42af1ba01/AAABj2G1lFA/AAABjwnlKNc/16x9-512.jpg", "date": "2024-05-10T10:51:00.000+02:00", "lat": 49.3944, "lon": 6.9467, "intensity": 0.3, "source": "Tagesschau"}, {"title": "\u00dcbergang Rafah als \"Rettungsanker\" verloren", "url": "https://www.tagesschau.de/ausland/asien/gaza-rafah-israel-100.html", "thumbnailUrl": "https://images.tagesschau.de/image/2d3fe21a-e2e4-4431-a1a1-07d88fb71078/AAABj1MAh_o/AAABjwnlKNc/16x9-512.jpg", "date": "2024-05-10T10:47:09.031+02:00", "lat": 31.5147, "lon": 34.4025, "intensity": 0.8, "source": "Tagesschau"}, {"title": "Fahrgast wirft Flasche und verletzt sechsj\u00e4hrigen Jungen im Bus", "url": "https://www.tagesschau.de/inland/regional/niedersachsen/ndr-fahrgast-wirft-flasche-und-verletzt-sechsjaehrigen-jungen-im-bus-100.html", "thumbnailUrl": "https://images.tagesschau.de/image/723afdee-9a1f-4786-a0e9-457db092879c/AAABj2G-3tc/AAABjwnlKNc/16x9-512.jpg", "date": "2024-05-10T10:46:00.000+02:00", "lat": 53.1534, "lon": 9.0006, "intensity": 0.7, "source": "Tagesschau"}, {"title": "Bessere Hilfe f\u00fcr Suizidgef\u00e4hrdete - Zuspruch von Angeh\u00f6rigen aus Koblenz", "url": "https://www.tagesschau.de/inland/regional/rheinlandpfalz/swr-bessere-hilfe-fuer-suizidgefaehrdete-zuspruch-von-angehoerigen-aus-koblenz-100.html", "thumbnailUrl": "https://images.tagesschau.de/image/c652b958-ab0a-4a2e-890e-a6513f708ab4/AAABj2HJuzE/AAABjwnlKNc/16x9-512.jpg", "date": "2024-05-10T10:42:11.000+02:00", "lat": 50.3569, "lon": 7.5945, "intensity": 0.7, "source": "Tagesschau"}, {"title": "Pokalsieger VfL Wolfsburg: \"Weltklasse\"-Oberdorf zeigt es ihren Kritikern", "url": "https://www.tagesschau.de/inland/regional/niedersachsen/ndr-pokalsieger-vfl-wolfsburg-weltklasse-oberdorf-zeigt-es-ihren-kritikern-102.html", "thumbnailUrl": "https://images.tagesschau.de/image/4a54059c-3307-44ed-b375-7190b8e96b08/AAABj2HCtC0/AAABjwnlKNc/16x9-512.jpg", "date": "2024-05-10T10:27:00.000+02:00", "lat": 52.4226, "lon": 10.7499, "intensity": 0.8, "source": "Tagesschau"}, {"title": "Bislang mehr als 120.000 Euro Schaden durch gesprengte Geldautomaten", "url": "https://www.tagesschau.de/inland/regional/rheinlandpfalz/swr-bislang-mehr-als-120-000-euro-schaden-durch-gesprengte-geldautomaten-100.html", "thumbnailUrl": "https://images.tagesschau.de/image/5e61bcdd-fa88-47cc-80e0-41736785e12f/AAABj2GNUpY/AAABjwnlKNc/16x9-512.jpg", "date": "2024-05-10T10:23:00.000+02:00", "lat": 49.8153, "lon": 7.2659, "intensity": 0.8, "source": "Tagesschau"}, {"title": "Landkreis Osnabr\u00fcck investiert 2,5 Millionen Euro in Radwege", "url": "https://www.tagesschau.de/inland/regional/niedersachsen/ndr-landkreis-osnabrueck-investiert-25-millionen-euro-in-radwege-100.html", "thumbnailUrl": "https://images.tagesschau.de/image/363907e1-629f-45d1-9dac-2f8eee313b42/AAABj2Gd1W8/AAABjwnlKNc/16x9-512.jpg", "date": "2024-05-10T10:20:00.000+02:00", "lat": 52.2799, "lon": 8.0476, "intensity": 0.7, "source": "Tagesschau"}, {"title": "Prozess in Gie\u00dfen: Betrunkener 31-J\u00e4hriger soll Fahrradfahrerin \u00fcberfahren haben", "url": "https://www.tagesschau.de/inland/regional/hessen/hr-prozess-in-giessen-betrunkener-31-jaehriger-soll-fahrradfahrerin-ueberfahren-haben-100.html", "thumbnailUrl": "https://images.tagesschau.de/image/9d8ee098-32e6-46b9-b208-b10625808659/AAABj2GYVcs/AAABjwnlKNc/16x9-512.jpg", "date": "2024-05-10T10:11:12.977+02:00", "lat": 50.5861, "lon": 8.6766, "intensity": 0.8, "source": "Tagesschau"}, {"title": "Hessen am Morgen: +++ Polarlichter \u00fcber Hessen erwartet +++ Medien: Ex-Minister Beuth geht zu PwC +++ LH-Maschine dreht wegen Geruch an Bord um +++", "url": "https://www.tagesschau.de/inland/regional/hessen/hr-hessen-am-morgen--lh-maschine-dreht-wegen-geruch-um-100.html", "thumbnailUrl": "https://images.tagesschau.de/image/ea85b0c6-49b8-4fcf-8600-34781be7ec5d/AAABj2GSzrY/AAABjwnlKNc/16x9-512.jpg", "date": "2024-05-10T10:11:12.168+02:00", "lat": 50.5985, "lon": 9.9736, "intensity": 0.5, "source": "Tagesschau"}, {"title": "Kanuparadies Brandenburg von Klimawandel und Tagebauende bedroht", "url": "https://www.tagesschau.de/inland/regional/brandenburg/rbb-spreewald-havel-und-co--das-kanuparadies-brandenburg-und-die-angst-vor-dem-wassermangel-102.html", "thumbnailUrl": "https://images.tagesschau.de/image/e1beae67-21ca-4c5d-a2ba-1280248f8346/AAABj2Fm3rw/AAABjwnlKNc/16x9-512.jpg", "date": "2024-05-10T10:08:42.000+02:00", "lat": 52.52, "lon": 13.6071, "intensity": 0.8, "source": "Tagesschau"}, {"title": "Vatertag 2024: Viel Alkohol, Sonne und kleinere Zwischenf\u00e4lle", "url": "https://www.tagesschau.de/inland/regional/niedersachsen/ndr-vatertag-2024-in-niedersachsen-appell-an-eltern-und-jugendliche-102.html", "thumbnailUrl": "https://images.tagesschau.de/image/dc6f729e-ba9f-4afd-beb7-f35468ac29c3/AAABj2GLiA0/AAABjwnlKNc/16x9-512.jpg", "date": "2024-05-10T10:02:00.000+02:00", "lat": 51.71308, "lon": 9.73201, "intensity": 0.3, "source": "Tagesschau"}, {"title": "Blutritt in Weingarten seit 7 Uhr im Livestream, Antifa bekennt sich zu \"St\u00f6raktion\" gegen AfD", "url": "https://www.tagesschau.de/inland/regional/badenwuerttemberg/swr-bw-newsticker-am-morgen-blutritt-in-weingarten-ab-7-uhr-im-livestream-landtagspraesidentin-aras-verurteilt-angriff-auf-afd-abgeordnete-vor-landtag-100.html", "thumbnailUrl": "https://images.tagesschau.de/image/867e9de6-ec62-479f-bf31-040f86e0712b/AAABj2IU1aE/AAABjwnlKNc/16x9-512.jpg", "date": "2024-05-10T10:00:00.000+02:00", "lat": 48.1207, "lon": 9.6275, "intensity": 0.6, "source": "Tagesschau"}, {"title": "Kein Regionalverkehr zwischen Worms und Biblis ab Mittag, Hochstra\u00dfe Nord gesperrt, Sonne satt am Wochenende", "url": "https://www.tagesschau.de/inland/regional/rheinlandpfalz/swr-toedliche-motorradunfaelle-in-rlp-hochstrasse-nord-gesperrt-sonne-satt-am-wochenende-100.html", "thumbnailUrl": "https://images.tagesschau.de/image/0e119b8b-fd09-44fe-b436-82e64083ebbf/AAABj2FoylE/AAABjwnlKNc/16x9-512.jpg", "date": "2024-05-10T10:00:00.000+02:00", "lat": 49.6337, "lon": 8.3651, "intensity": 0.7, "source": "Tagesschau"}, {"title": "Vatertag: Polizei im Einsatz wegen Ruhest\u00f6rungen und Bel\u00e4stigungen", "url": "https://www.tagesschau.de/inland/regional/schleswigholstein/ndr-vatertag-keine-grosseinsaetze-fuer-polizei-und-rettungsdienste-100.html", "thumbnailUrl": "https://images.tagesschau.de/image/0393cb41-87e1-4f68-bd2c-5193f36b385b/AAABj2F847c/AAABjwnlKNc/16x9-512.jpg", "date": "2024-05-10T09:47:00.000+02:00", "lat": 54.3326, "lon": 9.6961, "intensity": 0.7, "source": "Tagesschau"}, {"title": "Bad Bevensen: Aufmerksame Nachbarn retten hilflosen Rentner", "url": "https://www.tagesschau.de/inland/regional/niedersachsen/ndr-bad-bevensen-aufmerksame-nachbarn-retten-hilflosen-rentner-100.html", "thumbnailUrl": "https://images.tagesschau.de/image/6d5f7b1f-2738-4bb8-8d04-f674f40add99/AAABj2F5NmI/AAABjwnlKNc/16x9-512.jpg", "date": "2024-05-10T09:44:00.000+02:00", "lat": 53.1167, "lon": 10.5667, "intensity": 0.7, "source": "Tagesschau"}, {"title": "\"Stunde der Gartenv\u00f6gel\" 2024: Jetzt wieder mitz\u00e4hlen!", "url": "https://www.tagesschau.de/inland/regional/hamburg/ndr-stunde-der-gartenvoegel-2024-jetzt-wieder-mitzaehlen-102.html", "thumbnailUrl": "https://images.tagesschau.de/image/ab601b1d-2462-46c4-9420-4e6232e17ee4/AAABj2GP9iQ/AAABjwnlKNc/16x9-512.jpg", "date": "2024-05-10T09:44:00.000+02:00", "lat": 53.5511, "lon": 9.9937, "intensity": 0.5, "source": "Tagesschau"}, {"title": "Brief an H\u00e4rtefallkommission: Pflegeassistent darf vorerst bleiben", "url": "https://www.tagesschau.de/inland/regional/niedersachsen/ndr-brief-an-haertefallkommission-pflegeassistent-darf-vorerst-bleiben-100.html", "thumbnailUrl": "https://images.tagesschau.de/image/725ce171-0066-453c-90dc-bc44d74a4e18/AAABj2Fx6yc/AAABjwnlKNc/16x9-512.jpg", "date": "2024-05-10T09:39:00.000+02:00", "lat": 52.268226, "lon": 10.52677, "intensity": 0.7, "source": "Tagesschau"}, {"title": "Auto erfasst Elfj\u00e4hrigen - Junge muss notoperiert werden", "url": "https://www.tagesschau.de/inland/regional/niedersachsen/ndr-auto-erfasst-elfjaehrigen-junge-muss-notoperiert-werden-100.html", "thumbnailUrl": "https://images.tagesschau.de/image/0f297812-a2b6-451c-a108-609bfa1a6476/AAABj2FnENw/AAABjwnlKNc/16x9-512.jpg", "date": "2024-05-10T09:27:00.000+02:00", "lat": 52.3261, "lon": 9.6488, "intensity": 0.8, "source": "Tagesschau"}, {"title": "Schallplatten-Sessions in Freiburg: Vinyl ist nicht tot", "url": "https://www.tagesschau.de/inland/regional/badenwuerttemberg/swr-schallplatten-sessions-in-freiburg-vinyl-ist-nicht-tot-100.html", "thumbnailUrl": "https://images.tagesschau.de/image/44136819-af92-4e6e-94c4-123fdc8a6e94/AAABj2GU_jQ/AAABjwnlKNc/16x9-512.jpg", "date": "2024-05-10T09:24:54.000+02:00", "lat": 47.996, "lon": 7.849, "intensity": 0.3, "source": "Tagesschau"}, {"title": "NATO-Soldaten \u00fcben bei \"Swift Response\" Luftlandungen", "url": "https://www.tagesschau.de/inland/regional/saarland/sr-nato-soldaten-ueben-bei-swift-reponse-luftlandungen-100.html", "thumbnailUrl": "https://images.tagesschau.de/image/5c100238-462c-4356-a6e7-9c6b4157fe00/AAABj2F3UXQ/AAABjwnlKNc/16x9-512.jpg", "date": "2024-05-10T09:24:00.000+02:00", "lat": 46.2276, "lon": 21.0067, "intensity": 0.8, "source": "Tagesschau"}, {"title": "Neugier statt Brandmauer? S\u00f6der besucht Meloni", "url": "https://www.tagesschau.de/inland/regional/bayern/br-neugier-statt-brandmauer-soeder-besucht-meloni-102.html", "thumbnailUrl": "https://images.tagesschau.de/image/1067184b-9daf-49d3-8e56-26d45cd48b18/AAABj2FfjZ4/AAABjwnlKNc/16x9-512.jpg", "date": "2024-05-10T09:19:25.627+02:00", "lat": 41.9028, "lon": 12.4964, "intensity": 0.6, "source": "Tagesschau"}, {"title": "Radlweg in der Mitte: Gef\u00e4hrliches Pflaster f\u00fcr Radfahrer?", "url": "https://www.tagesschau.de/inland/regional/bayern/br-radlweg-in-der-mitte-gefaehrliches-pflaster-fuer-radfahrer-104.html", "thumbnailUrl": "https://images.tagesschau.de/image/fa93e1d4-d3bf-48f3-ad85-f3c79bb16610/AAABj2FfnWY/AAABjwnlKNc/16x9-512.jpg", "date": "2024-05-10T09:18:24.565+02:00", "lat": 48.135125, "lon": 11.581981, "intensity": 0.8, "source": "Tagesschau"}, {"title": "Wenn es schnell gehen muss: Blutproben fliegen mit Drohne", "url": "https://www.tagesschau.de/inland/regional/bayern/br-wenn-es-schnell-gehen-muss-blutproben-fliegen-mit-drohne-102.html", "thumbnailUrl": "https://images.tagesschau.de/image/f538df9f-dcb3-4002-ba22-5ba3c1b07682/AAABj2Fdu_0/AAABjwnlKNc/16x9-512.jpg", "date": "2024-05-10T09:17:02.535+02:00", "lat": 48.1351, "lon": 11.582, "intensity": 0.7, "source": "Tagesschau"}, {"title": "Was bayerische Unis tun, um j\u00fcdische Studierende zu sch\u00fctzen", "url": "https://www.tagesschau.de/inland/regional/bayern/br-was-bayerische-unis-tun-um-juedische-studierende-zu-schuetzen-100.html", "thumbnailUrl": "https://images.tagesschau.de/image/e8ee0539-7ded-4dec-a817-b7fea9fc56e3/AAABj2FaGO0/AAABjwnlKNc/16x9-512.jpg", "date": "2024-05-10T09:12:38.521+02:00", "lat": 48.135125, "lon": 11.58198, "intensity": 0.7, "source": "Tagesschau"}, {"title": "Treptow-K\u00f6penick: Radfahrer von Tram erfasst und schwer verletzt ", "url": "https://www.tagesschau.de/inland/regional/berlin/rbb-treptow-koepenick-radfahrer-von-tram-erfasst-und-schwer-verletzt-100.html", "thumbnailUrl": "https://images.tagesschau.de/image/65295d16-2651-4bc3-9fda-8f389337cd3c/AAABj2FaJtY/AAABjwnlKNc/16x9-512.jpg", "date": "2024-05-10T09:10:33.000+02:00", "lat": 52.44, "lon": 13.582, "intensity": 0.8, "source": "Tagesschau"}, {"title": "Batterie-F\u00f6rderprogramm: Keine F\u00f6rdermittel f\u00fcr Rock Tech - Bundeswirtschaftsministerium reagiert auf Kritik", "url": "https://www.tagesschau.de/inland/regional/brandenburg/rbb-batterie-foerderprogramm-keine-foerdermittel-fuer-rock-tech-bundeswirtschaftsministerium-reagiert-auf-kritik-100.html", "thumbnailUrl": "https://images.tagesschau.de/image/b80b10f6-fa29-448e-8486-3f777c6a6b35/AAABj2FWcXM/AAABjwnlKNc/16x9-512.jpg", "date": "2024-05-10T09:05:37.000+02:00", "lat": 52, "lon": 13.15, "intensity": 0.6, "source": "Tagesschau"}, {"title": "Allianz zahlt Autoreparatur mit gebrauchten Teilen", "url": "https://www.tagesschau.de/wirtschaft/verbraucher/allianz-reparatur-gebrauchte-ersatzteile-100.html", "thumbnailUrl": "https://images.tagesschau.de/image/18b5fd89-1b1d-4e24-b47c-ffaf745eddf2/AAABjTw763w/AAABjwnlKNc/16x9-512.jpg", "date": "2024-05-10T08:55:14.291+02:00", "lat": 48.1371, "lon": 11.5734, "intensity": 0.7, "source": "Tagesschau"}, {"title": "Harpstedt: Auto f\u00e4hrt gegen Baum - Fahrer schwer verletzt", "url": "https://www.tagesschau.de/inland/regional/niedersachsen/ndr-harpstedt-auto-prallt-gegen-baum-fahrer-schwer-verletzt-100.html", "thumbnailUrl": "https://images.tagesschau.de/image/3749e67c-678a-4fff-b51a-4650ce093891/AAABj2FH8Qk/AAABjwnlKNc/16x9-512.jpg", "date": "2024-05-10T08:52:00.000+02:00", "lat": 52.9066, "lon": 8.4718, "intensity": 0.7, "source": "Tagesschau"}, {"title": "Festnahme durch SEK: Mann bedroht Familie in Friedrichsthal", "url": "https://www.tagesschau.de/inland/regional/saarland/sr-sek-einsatz-wegen-hinweisen-auf-haeusliche-gewalt-in-friedrichsthal-100.html", "thumbnailUrl": "https://images.tagesschau.de/image/9fc51b53-65aa-411e-ba6c-abac9dcf09e5/AAABj2KTKL4/AAABjwnlKNc/16x9-512.jpg", "date": "2024-05-10T08:48:00.000+02:00", "lat": 49.3031, "lon": 7.1061, "intensity": 0.8, "source": "Tagesschau"}, {"title": "Leiche nach Feuer in Idstedt gefunden", "url": "https://www.tagesschau.de/inland/regional/schleswigholstein/ndr-leiche-nach-feuer-in-idstedt-gefunden-100.html", "thumbnailUrl": "https://images.tagesschau.de/image/4b16aae0-8d02-4f98-87a0-9987bba7d671/AAABj2FH5Ew/AAABjwnlKNc/16x9-512.jpg", "date": "2024-05-10T08:47:00.000+02:00", "lat": 54.5582, "lon": 9.3744, "intensity": 0.7, "source": "Tagesschau"}, {"title": "Auto prallt gegen Baum: Zwei Frauen in Oldenburg schwer verletzt", "url": "https://www.tagesschau.de/inland/regional/niedersachsen/ndr-auto-prallt-gegen-baum-zwei-frauen-in-oldenburg-schwer-verletzt-100.html", "thumbnailUrl": "https://images.tagesschau.de/image/13640ee7-8888-4ff3-8ae8-7ae4e019b4d9/AAABj2HaTX8/AAABjwnlKNc/16x9-512.jpg", "date": "2024-05-10T08:46:00.000+02:00", "lat": 53.1435, "lon": 8.2159, "intensity": 0.8, "source": "Tagesschau"}, {"title": "Richter fl\u00fcchtet nach Belarus - Polen alarmiert", "url": "https://www.tagesschau.de/ausland/europa/polen-richter-belarus-100.html", "thumbnailUrl": "https://images.tagesschau.de/image/5a2301a4-79cc-430c-b6d0-15e417d5bb91/AAABj2ETwJY/AAABjwnlKNc/16x9-512.jpg", "date": "2024-05-10T08:45:58.553+02:00", "lat": 53.3498, "lon": 25.2797, "intensity": 0.8, "source": "Tagesschau"}, {"title": "1.000 Veranstaltungen: Kulturelle Landpartie lockt Tausende G\u00e4ste", "url": "https://www.tagesschau.de/inland/regional/niedersachsen/ndr-73-orte-1-000-veranstaltungen-kulturelle-landpartie-startet-100.html", "thumbnailUrl": "https://images.tagesschau.de/image/b187ecd4-4abb-440c-8bfc-e8267667d3ff/AAABj2E5Jto/AAABjwnlKNc/16x9-512.jpg", "date": "2024-05-10T08:35:00.000+02:00", "lat": 52.8881, "lon": 11.2077, "intensity": 0.8, "source": "Tagesschau"}, {"title": "Selenskyj entl\u00e4sst Chef seiner Leibgarde", "url": "https://www.tagesschau.de/ausland/europa/ukraine-selenskyj-leibgarde-100.html", "thumbnailUrl": "https://images.tagesschau.de/image/c098fd9a-c772-4df7-8f93-185d4c044713/AAABjy6_vEA/AAABjwnlKNc/16x9-512.jpg", "date": "2024-05-10T08:14:44.733+02:00", "lat": 50.4501, "lon": 30.5234, "intensity": 0.8, "source": "Tagesschau"}, {"title": "Schockanruf: Falsche Polizisten erbeuten Geld und Schmuck", "url": "https://www.tagesschau.de/inland/regional/niedersachsen/ndr-schockanruf-falsche-polizisten-erbeuten-geld-und-schmuck-100.html", "thumbnailUrl": "https://images.tagesschau.de/image/74d4bb26-b85c-4231-9587-7370176d5e95/AAABj2Efnj0/AAABjwnlKNc/16x9-512.jpg", "date": "2024-05-10T08:08:00.000+02:00", "lat": 52.1571, "lon": 9.9512, "intensity": 0.8, "source": "Tagesschau"}, {"title": "Bo\u00dfel-EM \"immer internationaler\": In Neuharlingersiel rollen die Kugeln", "url": "https://www.tagesschau.de/inland/regional/niedersachsen/ndr-immer-internationaler-neuharlingersiel-laedt-zur-bossel-em-100.html", "thumbnailUrl": "https://images.tagesschau.de/image/1c9ecb75-484c-43c9-93ba-c4e8a4b12cf1/AAABj2EaEag/AAABjwnlKNc/16x9-512.jpg", "date": "2024-05-10T08:01:00.000+02:00", "lat": 53.688245, "lon": 7.573791, "intensity": 0.3, "source": "Tagesschau"}, {"title": "Unfall auf B441 bei Seelze: Pedelec-Fahrer st\u00fcrzt und stirbt", "url": "https://www.tagesschau.de/inland/regional/niedersachsen/ndr-unfall-auf-b441-bei-seelze-pedelec-fahrer-stuerzt-und-stirbt-100.html", "thumbnailUrl": "https://images.tagesschau.de/image/43b76780-159b-4401-8838-633de7b98158/AAABj2ELZFc/AAABjwnlKNc/16x9-512.jpg", "date": "2024-05-10T07:35:00.000+02:00", "lat": 52.3798, "lon": 9.6033, "intensity": 0.8, "source": "Tagesschau"}, {"title": "Dorsten: T\u00f6dlicher Unfall eines 21-J\u00e4hrigen offenbar aufgekl\u00e4rt", "url": "https://www.tagesschau.de/inland/regional/nordrheinwestfalen/wdr-21-jaehriger-stirbt-bei-unfall-in-dorsten-100.html", "thumbnailUrl": "https://images.tagesschau.de/image/f9c06e5b-117b-4f23-bcb9-34b33b04ef23/AAABj2IJ1Ho/AAABjwnlKNc/16x9-512.jpg", "date": "2024-05-10T07:35:00.000+02:00", "lat": 51.6609, "lon": 6.9653, "intensity": 0.8, "source": "Tagesschau"}, {"title": "R\u00fcgen: Prora-Zentrum vor dem Aus", "url": "https://www.tagesschau.de/inland/regional/mecklenburgvorpommern/ndr-ruegen-prora-zentrum-vor-dem-aus-100.html", "thumbnailUrl": "https://images.tagesschau.de/image/45a41626-2613-49f8-bb0e-35e06eede437/AAABj2DzhJA/AAABjwnlKNc/16x9-512.jpg", "date": "2024-05-10T07:14:00.000+02:00", "lat": 54.431, "lon": 13.526, "intensity": 0.7, "source": "Tagesschau"}, {"title": "Radfahrer prallt gegen Baumstumpf: 50-J\u00e4hriger t\u00f6dlich verletzt", "url": "https://www.tagesschau.de/inland/regional/niedersachsen/ndr-radfahrer-prallt-gegen-baumstumpf-50-jaehriger-toedlich-verletzt-100.html", "thumbnailUrl": "https://images.tagesschau.de/image/7854d572-d70c-4d44-bb81-07d45a24e997/AAABj2Dol3k/AAABjwnlKNc/16x9-512.jpg", "date": "2024-05-10T07:09:00.000+02:00", "lat": 52.2799, "lon": 8.0472, "intensity": 0.8, "source": "Tagesschau"}, {"title": "H\u00f6gl kritisiert Frauenmangel in der Bundeswehr", "url": "https://www.tagesschau.de/inland/gesellschaft/hoegl-bundeswehr-mangel-frauen-100.html", "thumbnailUrl": "https://images.tagesschau.de/image/3c9867b4-91ca-45d8-b93d-1ad04180b623/AAABj2EYN78/AAABjwnlKNc/16x9-512.jpg", "date": "2024-05-10T07:04:59.310+02:00", "lat": 52.52, "lon": 13.407, "intensity": 0.6, "source": "Tagesschau"}, {"title": "Berlin: Justizsenatorin Badenberg will Sicherheitsarchitektur reformieren", "url": "https://www.tagesschau.de/inland/regional/berlin/rbb-berlin-justizsenatorin-badenberg-will-sicherheitsarchitektur-reformieren-100.html", "thumbnailUrl": "https://images.tagesschau.de/image/75808ad9-ca48-4fc1-aea3-40162c8ada61/AAABj2DfZJU/AAABjwnlKNc/16x9-512.jpg", "date": "2024-05-10T06:56:35.000+02:00", "lat": 52.520008, "lon": 13.404954, "intensity": 0.7, "source": "Tagesschau"}, {"title": "Feuer zerst\u00f6rt Dachstuhl in Stutensee bei Karlsruhe", "url": "https://www.tagesschau.de/inland/regional/badenwuerttemberg/swr-feuer-zerstoert-dachstuhl-in-stutensee-bei-karlsruhe-100.html", "thumbnailUrl": "https://images.tagesschau.de/image/cc9b0b35-1e8c-4c83-ba4c-594066a14468/AAABj2Fhckk/AAABjwnlKNc/16x9-512.jpg", "date": "2024-05-10T06:51:07.000+02:00", "lat": 49.0911, "lon": 8.4547, "intensity": 0.8, "source": "Tagesschau"}, {"title": "Todesopfer bei Wohnhausbrand in Riegelsberg ", "url": "https://www.tagesschau.de/inland/regional/saarland/sr-mann-stirbt-bei-wohnhausbrand-in-riegelsberg-100.html", "thumbnailUrl": "https://images.tagesschau.de/image/4ae2b0d5-69fb-49b7-b902-ec737523b16d/AAABj2MwmZg/AAABjwnlKNc/16x9-512.jpg", "date": "2024-05-10T06:43:00.000+02:00", "lat": 49.275, "lon": 7.0776, "intensity": 0.8, "source": "Tagesschau"}, {"title": "Unfall auf Campingplatz: Kind mit Rettungshubschrauber in Klinik", "url": "https://www.tagesschau.de/inland/regional/niedersachsen/ndr-kind-bei-unfall-auf-campingplatz-schwer-verletzt-100.html", "thumbnailUrl": "https://images.tagesschau.de/image/f9927396-7cda-456f-9f87-aa73601c8622/AAABj2DNKF0/AAABjwnlKNc/16x9-512.jpg", "date": "2024-05-10T06:38:00.000+02:00", "lat": 52.4849, "lon": 7.0481, "intensity": 0.8, "source": "Tagesschau"}, {"title": "Nach Tritten gegen den Kopf: Fahnder nehmen 22-J\u00e4hrigen fest", "url": "https://www.tagesschau.de/inland/regional/niedersachsen/ndr-nach-tritten-gegen-den-kopf-couragierter-zeuge-rettet-42-jaehrigen-100.html", "thumbnailUrl": "https://images.tagesschau.de/image/53a614c6-5d70-4e52-811d-6f91f10de0ee/AAABj2DHqJ0/AAABjwnlKNc/16x9-512.jpg", "date": "2024-05-10T06:33:00.000+02:00", "lat": 53.0793, "lon": 8.8017, "intensity": 0.8, "source": "Tagesschau"}, {"title": "Bremen will im Herbst \u00fcber CO2-Hafen entscheiden", "url": "https://www.tagesschau.de/inland/regional/bremen/rb-bremen-will-im-herbst-ueber-co2-hafen-entscheiden-100.html", "thumbnailUrl": "https://images.tagesschau.de/image/d4e0dce3-df69-4f16-97b7-235780c89541/AAABj2DYCbY/AAABjwnlKNc/16x9-512.jpg", "date": "2024-05-10T06:33:00.000+02:00", "lat": 53.0793, "lon": 8.8017, "intensity": 0.6, "source": "Tagesschau"}, {"title": "Nach S21-Urteil: Sanierungsstau bei Regionalbahnstrecken bef\u00fcrchtet", "url": "https://www.tagesschau.de/inland/regional/badenwuerttemberg/swr-nach-s21-urteil-sanierungsstau-bei-regionalbahnstrecken-befuerchtet-100.html", "thumbnailUrl": "https://images.tagesschau.de/image/0190e07b-4afd-40e1-9c00-ace33eb8914b/AAABj2HS-TI/AAABjwnlKNc/16x9-512.jpg", "date": "2024-05-10T06:23:50.000+02:00", "lat": 48.7758, "lon": 9.1829, "intensity": 0.7, "source": "Tagesschau"}, {"title": "Viele Antr\u00e4ge auf Pflegegradanerkennung von Kassen abgelehnt - oft zu Unrecht.", "url": "https://www.tagesschau.de/inland/regional/brandenburg/rbb-viele-antraege-auf-pflegegradanerkennung-von-kassen-abgelehnt-oft-zu-unrecht-100.html", "thumbnailUrl": "https://images.tagesschau.de/image/3df76fcc-54b2-4fbf-94fd-168739f38cfd/AAABj2DCLBs/AAABjwnlKNc/16x9-512.jpg", "date": "2024-05-10T06:23:33.000+02:00", "lat": 52.52, "lon": 13.4049, "intensity": 0.8, "source": "Tagesschau"}, {"title": "16-J\u00e4hrige k\u00e4mpft mit Post-Covid: \"Es hie\u00df immer, ich habe nichts.\"", "url": "https://www.tagesschau.de/inland/regional/rheinlandpfalz/swr-edelsteinklinik-in-bruchweiler-hoffnung-fuer-junge-post-covid-patienten-100.html", "thumbnailUrl": "https://images.tagesschau.de/image/3c970d14-4e23-4740-aa7c-6bc1f464f350/AAABj2H3iiI/AAABjwnlKNc/16x9-512.jpg", "date": "2024-05-10T06:13:59.000+02:00", "lat": 49.6799, "lon": 7.3495, "intensity": 0.6, "source": "Tagesschau"}, {"title": "Mr. ESC - Backstage mit Peter Urban", "url": "https://www.tagesschau.de/multimedia/podcast/11km/11km-feed-100.html", "thumbnailUrl": "https://images.tagesschau.de/image/892499f9-9fc5-4ffe-93a1-fdea0c8b8a17/AAABj2F9nwM/AAABjwnlKNc/16x9-512.jpg", "date": "2024-05-10T06:13:32.398+02:00", "lat": 53.551086, "lon": 9.993682, "intensity": 0.7, "source": "Tagesschau"}, {"title": "Einschr\u00e4nkungen im Bahnverkehr bei K\u00f6ln", "url": "https://www.tagesschau.de/inland/regional/nordrheinwestfalen/wdr-einschraenkungen-im-bahnverkehr-bei-koeln-102.html", "thumbnailUrl": "https://images.tagesschau.de/image/4b53f6fc-f127-4bd0-8022-5daa84e59186/AAABj2KU-Hg/AAABjwnlKNc/16x9-512.jpg", "date": "2024-05-10T06:00:00.000+02:00", "lat": 50.9413, "lon": 6.9538, "intensity": 0.6, "source": "Tagesschau"}, {"title": "S\u00fcdostasien \u00e4chzt unter Hitzewelle", "url": "https://www.tagesschau.de/ausland/asien/hitzewelle-suedostasien-klima-100.html", "thumbnailUrl": "https://images.tagesschau.de/image/ca42056f-ba9e-42e0-b389-3e9ef0efe32b/AAABj2CaZiE/AAABjwnlKNc/16x9-512.jpg", "date": "2024-05-10T05:44:42.827+02:00", "lat": 10.0, "lon": 105.0, "intensity": 0.8, "source": "Tagesschau"}, {"title": "BKA nutzte Polizeifotos f\u00fcr Software-Test\u00a0\u00a0", "url": "https://www.tagesschau.de/investigativ/br-recherche/gesichtserkennung-bka-software-test-100.html", "thumbnailUrl": "https://images.tagesschau.de/image/3983750c-fb0a-4907-8d89-65c6f402db9c/AAABj2ElHeY/AAABjwnlKNc/16x9-512.jpg", "date": "2024-05-10T05:01:54.875+02:00", "lat": 51.1657, "lon": 10.4515, "intensity": 0.7, "source": "Tagesschau"}, {"title": "Nach Kobra-Fehlalarm: Diese drei Schlangen-Arten gibt es in SH", "url": "https://www.tagesschau.de/inland/regional/schleswigholstein/ndr-kobra-gesichtet-diese-drei-schlangen-gibt-es-in-sh-100.html", "thumbnailUrl": "https://images.tagesschau.de/image/509ba25e-563e-4085-b1fd-416dedd3fc47/AAABj2ENMeE/AAABjwnlKNc/16x9-512.jpg", "date": "2024-05-10T05:00:00.000+02:00", "lat": 54.2, "lon": 9.9456, "intensity": 0.3, "source": "Tagesschau"}, {"title": "Eine Stadt im Widerstand", "url": "https://www.tagesschau.de/ausland/charkiw-206.html", "thumbnailUrl": "https://images.tagesschau.de/image/9e8bbc67-48eb-4c85-ae7a-f8aa353029c9/AAABj2A63sk/AAABjwnlKNc/16x9-512.jpg", "date": "2024-05-10T04:00:23.000+02:00", "lat": 49.9935, "lon": 36.230383, "intensity": 0.8, "source": "Tagesschau"}, {"title": "ESC in Malm\u00f6: Israel trotz Protesten im Finale", "url": "https://www.tagesschau.de/inland/regional/nordrheinwestfalen/wdr-esc-halbfinale-in-malmoe-warum-demos-gegen-den-israel-auftritt-erwartet-werden-100.html", "thumbnailUrl": "https://images.tagesschau.de/image/bdc4c91d-779b-4481-a421-32d39a742460/AAABj2GF-hQ/AAABjwnlKNc/16x9-512.jpg", "date": "2024-05-10T02:09:00.000+02:00", "lat": 55.6044, "lon": 13.1038, "intensity": 0.8, "source": "Tagesschau"}, {"title": "Xi und Orban vereinbaren Partnerschaft", "url": "https://www.tagesschau.de/ausland/europa/xi-orban-ungarn-100.html", "thumbnailUrl": "https://images.tagesschau.de/image/5b8c95a1-7cb1-4448-927b-d9bf298089b8/AAABj2IMCes/AAABjwnlKNc/16x9-512.jpg", "date": "2024-05-10T00:22:18.501+02:00", "lat": 47.4979, "lon": 19.0402, "intensity": 0.8, "source": "Tagesschau"}, {"title": "Drau\u00dfen Demos, drinnen bejubelter Triumph", "url": "https://www.tagesschau.de/ausland/europa/demonstrationen-schweden-esc-israel-102.html", "thumbnailUrl": "https://images.tagesschau.de/image/f918cee1-b909-4a53-9374-dccc16a90dfd/AAABj2GiugA/AAABjwnlKNc/16x9-512.jpg", "date": "2024-05-10T00:08:53.746+02:00", "lat": 55.703, "lon": 13.0878, "intensity": 0.8, "source": "Tagesschau"},