[{"title": "Sommerliche Temperaturen von bis zu 27 Grad am Wochenende vorhergesagt", "url": "https://www.tagesschau.de/inland/regional/brandenburg/rbb-sommerliche-temperaturen-von-bis-zu-27-grad-am-wochenende-vorhergesagt-100.html", "thumbnailUrl": "https://images.tagesschau.de/image/3a952e6d-a75e-4aed-821f-60ed8ec936ec/AAABjqPNmVI/AAABjcWesUg/16x9-512.jpg", "date": "2024-04-03T13:49:09.000+02:00", "lat": 52.520008, "lon": 13.404954, "intensity": 0.7, "source": "Tagesschau"}, {"title": "\"Silo 1\" in Rostock: Getreidespeicher wird saniert", "url": "https://www.tagesschau.de/inland/regional/mecklenburgvorpommern/ndr-silo-1-in-rostock-getreidespeicher-im-stadthafen-wird-buero-100.html", "thumbnailUrl": "https://images.tagesschau.de/image/e95d6648-458d-43f7-ba82-0b72e50b0456/AAABjqNds-M/AAABjcWesUg/16x9-512.jpg", "date": "2024-04-03T13:46:00.000+02:00", "lat": 54.0887, "lon": 12.118, "intensity": 0.6, "source": "Tagesschau"}, {"title": "T\u00fcrkei weiter in der Hyperinflation", "url": "https://www.tagesschau.de/wirtschaft/konjunktur/tuerkei-inflation-teuerung-100.html", "thumbnailUrl": "https://images.tagesschau.de/image/1299ae8c-fd78-467e-81a6-b31080741cf6/AAABjgjM1JU/AAABjcWesUg/16x9-512.jpg", "date": "2024-04-03T13:43:22.336+02:00", "lat": 38.9637, "lon": 35.2433, "intensity": 0.8, "source": "Tagesschau"}, {"title": "Warum ein Allg\u00e4uer See lila leuchtet", "url": "https://www.tagesschau.de/inland/regional/bayern/allgaeu-see-lila-100.html", "thumbnailUrl": "https://images.tagesschau.de/image/53400d02-eee2-42a3-a672-67f14ebfd9ab/AAABjqPDC9A/AAABjcWesUg/16x9-512.jpg", "date": "2024-04-03T13:40:52.919+02:00", "lat": 47.8902, "lon": 10.542, "intensity": 0.8, "source": "Tagesschau"}, {"title": "++ Ausw\u00e4rtiges Amt bef\u00fcrchtet R\u00fcckzug von Helfern ++", "url": "https://www.tagesschau.de/newsticker/liveblog-nahost-mittwoch-118.html", "thumbnailUrl": "https://images.tagesschau.de/image/8451e155-7a16-4215-82fb-b57711b9a1b2/AAABjeB8beA/AAABjcWesUg/16x9-512.jpg", "date": "2024-04-03T13:38:40.394+02:00", "lat": 31.7683, "lon": 35.2137, "intensity": 0.8, "source": "Tagesschau"}, {"title": "Kultur : +++ Geschwister Korn und Gerstenmann-Preis f\u00fcr Natan Sznaider +++ Suche nach NS-Raubkunst in H\u00fcnfeld, Hanau und Korbach +++", "url": "https://www.tagesschau.de/inland/regional/hessen/hr--schauspiel-frankfurt-bringt-putin-und-macbeth-zusammen--die-filmfestival-saison-2023-startet--lichter-filmfest-zum-thema-liebe-startet-am-dienstag-100.html", "thumbnailUrl": "https://images.tagesschau.de/image/bdda8d64-5919-4ac7-b8ef-4d40c49c3e88/AAABjqPGIaQ/AAABjcWesUg/16x9-512.jpg", "date": "2024-04-03T13:38:27.692+02:00", "lat": 50.3155, "lon": 9.6862, "intensity": 0.7, "source": "Tagesschau"}, {"title": "Bombe in Wiesbaden: Evakuierung nach Verz\u00f6gerung abgeschlossen ", "url": "https://www.tagesschau.de/inland/regional/hessen/hr-500-kilo-bombe-in-wiesbaden-biebrich-gefunden-10-000-anwohner-betroffen-100.html", "thumbnailUrl": "https://images.tagesschau.de/image/86a00f8d-af9b-491e-b957-1d68980fd017/AAABjqO-wMo/AAABjcWesUg/16x9-512.jpg", "date": "2024-04-03T13:36:04.638+02:00", "lat": 50.0408, "lon": 8.2087, "intensity": 0.8, "source": "Tagesschau"}, {"title": "Zwei Verletzte bei Kleinflugzeug-Unfall am Dortmunder Flughafen", "url": "https://www.tagesschau.de/inland/regional/nordrheinwestfalen/wdr-zwei-verletzte-bei-kleinflugzeug-unfall-am-dortmunder-flughafen-100.html", "thumbnailUrl": "https://images.tagesschau.de/image/d444e165-01ca-4114-aef9-db8a341338a3/AAABjqPSw10/AAABjcWesUg/16x9-512.jpg", "date": "2024-04-03T13:34:00.000+02:00", "lat": 51.51845, "lon": 7.60238, "intensity": 0.8, "source": "Tagesschau"}, {"title": "Fernsehreihe \"Inside Skyline Frankfurt\": Wer in Frankfurts Hochh\u00e4usern arbeitet", "url": "https://www.tagesschau.de/inland/regional/hessen/hr-fernsehreihe-inside-skyline-frankfurt-wer-in-frankfurts-hochhaeusern-arbeitet-100.html", "thumbnailUrl": "https://images.tagesschau.de/image/ec4a0c92-88cb-4bfb-9ce9-7cdd8ee67e83/AAABjqOwIXY/AAABjcWesUg/16x9-512.jpg", "date": "2024-04-03T13:18:55.764+02:00", "lat": 50.1109, "lon": 8.6821, "intensity": 0.5, "source": "Tagesschau"}, {"title": "Inflation verliert an Tempo: Werden Lebensmittel jetzt dauerhaft billiger?", "url": "https://www.tagesschau.de/inland/regional/nordrheinwestfalen/wdr-inflation-verliert-an-tempo-werden-lebensmittel-jetzt-dauerhaft-billiger-100.html", "thumbnailUrl": "https://images.tagesschau.de/image/c08442c9-08bf-44e4-9b7c-158de2a9a9d4/AAABjqO3SnY/AAABjcWesUg/16x9-512.jpg", "date": "2024-04-03T13:10:00.000+02:00", "lat": 51.9607, "lon": 7.6261, "intensity": 0.8, "source": "Tagesschau"}, {"title": "Modellprojekt zur Armutsbek\u00e4mpfung im Saarland gestartet", "url": "https://www.tagesschau.de/inland/regional/saarland/sr-modellprojekt-zur-armutsbekaempfung-im-saarland-gestartet-100.html", "thumbnailUrl": "https://images.tagesschau.de/image/39e39d79-0dbc-4454-8bf9-6b8ec80d9269/AAABjqOsTGA/AAABjcWesUg/16x9-512.jpg", "date": "2024-04-03T13:09:00.000+02:00", "lat": 49.3964, "lon": 6.9108, "intensity": 0.8, "source": "Tagesschau"}, {"title": "Schwesigs SPD-Ostergru\u00df an Schweriner Kita-Kinder \"unanst\u00e4ndig\"?", "url": "https://www.tagesschau.de/inland/regional/mecklenburgvorpommern/ndr-schwesigs-spd-ostergruss-an-schweriner-kita-kinder-unanstaendig-100.html", "thumbnailUrl": "https://images.tagesschau.de/image/ccb31d2d-8404-4e91-a40d-e8ca3339e8af/AAABjqIoXCU/AAABjcWesUg/16x9-512.jpg", "date": "2024-04-03T13:05:00.000+02:00", "lat": 53.6297, "lon": 11.4075, "intensity": 0.6, "source": "Tagesschau"}, {"title": "Schwerer Unfall auf dem s\u00fcdlichen Berliner Ring - Sperrung auf A10 in Richtung Potsdam aufgehoben", "url": "https://www.tagesschau.de/inland/regional/brandenburg/rbb-schwerer-unfall-auf-dem-suedlichen-berliner-ring-a10-in-richtung-potsdam-gesperrt-100.html", "thumbnailUrl": "https://images.tagesschau.de/image/8b8c7e64-022a-4d68-92ed-38593a2ac7ec/AAABjqMuJkM/AAABjcWesUg/16x9-512.jpg", "date": "2024-04-03T13:02:27.000+02:00", "lat": 52.3806, "lon": 13.2064, "intensity": 0.8, "source": "Tagesschau"}, {"title": "Tusk sieht Solidarit\u00e4t mit Israel auf \"harter Probe\"", "url": "https://www.tagesschau.de/ausland/europa/polen-israel-spannungen-gaza-100.html", "thumbnailUrl": "https://images.tagesschau.de/image/1392ff14-e84e-4b0f-84e5-c76a8835003b/AAABjqOasOg/AAABjcWesUg/16x9-512.jpg", "date": "2024-04-03T12:57:03.884+02:00", "lat": 31.52037, "lon": 34.308825, "intensity": 0.8, "source": "Tagesschau"}, {"title": "Bahnverkehr betroffen: Weltkriegsbombe in K\u00f6ln wird auf Rhein entsch\u00e4rft", "url": "https://www.tagesschau.de/inland/regional/nordrheinwestfalen/wdr-weltkriegsbombe-am-rheinufer-in-koeln-deutz-entdeckt-100.html", "thumbnailUrl": "https://images.tagesschau.de/image/238c7ac5-3672-43d5-a8a9-2f70e43f98c6/AAABjqO3YHA/AAABjcWesUg/16x9-512.jpg", "date": "2024-04-03T12:49:00.000+02:00", "lat": 50.9333, "lon": 7.0069, "intensity": 0.8, "source": "Tagesschau"}, {"title": "Inflationsdaten geben R\u00fcckenwind", "url": "https://www.tagesschau.de/wirtschaft/finanzen/marktberichte/marktbericht-dax-dow-jones-boerse-aktien-100.html", "thumbnailUrl": "https://images.tagesschau.de/image/c61540df-3c13-43b1-8af3-034d19c1d7d6/AAABhnjiP2E/AAABjcWesUg/16x9-512.jpg", "date": "2024-04-03T12:47:31.915+02:00", "lat": 51.226, "lon": 10.412, "intensity": 0.6, "source": "Tagesschau"}, {"title": "Kulturst\u00e4tte YAAM kann f\u00fcr mehrere Jahrzehnte an der Schillingbr\u00fccke bleiben - Mietvertrag unterzeichnet", "url": "https://www.tagesschau.de/inland/regional/berlin/rbb-kulturstaette-yaam-kann-fuer-mehrere-jahrzehnte-an-der-schillingbruecke-bleiben-mietvertrag-unterzeichnet-100.html", "thumbnailUrl": "https://images.tagesschau.de/image/37e535c0-d4b7-475c-bb27-e8c4f3aeb45b/AAABjqOLuwA/AAABjcWesUg/16x9-512.jpg", "date": "2024-04-03T12:37:05.000+02:00", "lat": 52.5093, "lon": 13.4346, "intensity": 0.7, "source": "Tagesschau"}, {"title": "82-j\u00e4hriger Radfahrer stirbt nach Sturz im Krankenhaus", "url": "https://www.tagesschau.de/inland/regional/niedersachsen/ndr-82-jaehriger-radfahrer-stirbt-nach-sturz-im-krankenhaus-100.html", "thumbnailUrl": "https://images.tagesschau.de/image/c86b4ba7-d5e7-4811-a87a-38970bd92d37/AAABjqOTNOE/AAABjcWesUg/16x9-512.jpg", "date": "2024-04-03T12:37:00.000+02:00", "lat": 52.0655, "lon": 7.9296, "intensity": 0.8, "source": "Tagesschau"}, {"title": "MS Goldberg: J\u00fcdisches Kulturschiff startet in Eisenh\u00fcttenstadt in neue Spielzeit ", "url": "https://www.tagesschau.de/inland/regional/brandenburg/rbb-ms-goldberg-juedisches-kulturschiff-startet-in-eisenhuettenstadt-in-neue-spielzeit-100.html", "thumbnailUrl": "https://images.tagesschau.de/image/c5ba9924-bf00-4218-9562-57b2255000b5/AAABjqOH4iY/AAABjcWesUg/16x9-512.jpg", "date": "2024-04-03T12:31:26.000+02:00", "lat": 52.1436, "lon": 14.6517, "intensity": 0.3, "source": "Tagesschau"}, {"title": "Mutma\u00dfliche \u00dcbergriffe durch Lehrer stuft Innenministerium als ausl\u00e4nderfeindlich ein", "url": "https://www.tagesschau.de/inland/regional/brandenburg/rbb-oberschule-in-cottbus-mutmassliche-uebergriffe-durch-lehrer-stuft-innenministerium-als-auslaenderfeindlich-ein-100.html", "thumbnailUrl": "https://images.tagesschau.de/image/a06624ac-94e7-4d1b-bf54-95876264f899/AAABjmHvYQQ/AAABjcWesUg/16x9-512.jpg", "date": "2024-04-03T12:29:40.000+02:00", "lat": 51.7562, "lon": 14.3356, "intensity": 0.8, "source": "Tagesschau"}, {"title": "Barnim: Eberswalde erh\u00e4lt 2,3 Millionen Euro f\u00fcr Projekte zur Klimaanpassung", "url": "https://www.tagesschau.de/inland/regional/brandenburg/rbb-barnim-eberswalde-erhaelt-23-millionen-euro-fuer-projekte-zur-klimaanpassung-100.html", "thumbnailUrl": "https://images.tagesschau.de/image/67e6804f-ef20-448a-97d9-2a72eee83b6d/AAABjqOCWRU/AAABjcWesUg/16x9-512.jpg", "date": "2024-04-03T12:26:25.000+02:00", "lat": 52.8333, "lon": 13.8189, "intensity": 0.7, "source": "Tagesschau"}, {"title": "Freiburg: Wie ein israelisch zubereitetes Gericht in einem arabischen Restaurant die Gem\u00fcter erhitzt", "url": "https://www.tagesschau.de/inland/regional/badenwuerttemberg/swr-freiburg-wie-ein-israelisch-zubereitetes-gericht-in-einem-arabischen-restaurant-die-gemueter-erhitzt-100.html", "thumbnailUrl": "https://images.tagesschau.de/image/36648b97-f56c-4439-b6d8-e3204b0c61db/AAABjqPF-dI/AAABjcWesUg/16x9-512.jpg", "date": "2024-04-03T12:21:16.000+02:00", "lat": 47.9990077, "lon": 7.8490209, "intensity": 0.6, "source": "Tagesschau"}, {"title": "Forscherteam aus Trippstadt zeigt, was der Feldhase im Pf\u00e4lzerwald treibt", "url": "https://www.tagesschau.de/inland/regional/rheinlandpfalz/swr-forscherteam-aus-trippstadt-zeigt-was-der-feldhase-im-pfaelzerwald-treibt-100.html", "thumbnailUrl": "https://images.tagesschau.de/image/54c951d6-5c08-4833-b53c-dc543ea36d06/AAABjqOF60o/AAABjcWesUg/16x9-512.jpg", "date": "2024-04-03T12:17:34.000+02:00", "lat": 49.4142, "lon": 7.7158, "intensity": 0.2, "source": "Tagesschau"}, {"title": "Saarbr\u00fccker Weltrekordhalterin Czerwenka-Nagel ist verstorben", "url": "https://www.tagesschau.de/inland/regional/saarland/sr-saarbruecker-weltrekordhalterin-czerwenka-nagel-ist-verstorben-100.html", "thumbnailUrl": "https://images.tagesschau.de/image/e174129f-1e49-45fb-b951-90b58ffe5ea7/AAABjqN3YXw/AAABjcWesUg/16x9-512.jpg", "date": "2024-04-03T12:15:00.000+02:00", "lat": 49.2354, "lon": 6.9969, "intensity": 0.8, "source": "Tagesschau"}, {"title": "Toter in Nienburg: Haftbefehl wurde in Hamburg abgelehnt", "url": "https://www.tagesschau.de/inland/regional/hamburg/ndr-toter-in-nienburg-haftbefehl-wurde-in-hamburg-abgelehnt-100.html", "thumbnailUrl": "https://images.tagesschau.de/image/fe871530-9d7b-4384-a451-80d7445cc255/AAABjqO5w08/AAABjcWesUg/16x9-512.jpg", "date": "2024-04-03T12:15:00.000+02:00", "lat": 52.3415, "lon": 9.6625, "intensity": 0.8, "source": "Tagesschau"}, {"title": "Wenn es juckt und krabbelt: Wieder mehr L\u00e4use-F\u00e4lle in SH", "url": "https://www.tagesschau.de/inland/regional/schleswigholstein/ndr-wenn-es-juckt-und-krabbelt-wieder-mehr-laeuse-faelle-in-sh-100.html", "thumbnailUrl": "https://images.tagesschau.de/image/7144ce3e-d48a-454a-9a76-aca4f81b174c/AAABjqN10V8/AAABjcWesUg/16x9-512.jpg", "date": "2024-04-03T12:13:00.000+02:00", "lat": 54.2194, "lon": 9.6961, "intensity": 0.7, "source": "Tagesschau"}, {"title": "Kind auf Campingplatz Schillig niedergeschlagen? Mehrere Hinweise", "url": "https://www.tagesschau.de/inland/regional/niedersachsen/ndr-kind-auf-campingplatz-niedergeschlagen-mehrere-zeugenhinweise-100.html", "thumbnailUrl": "https://images.tagesschau.de/image/54283d80-02c8-4387-9fb5-a5e606234e28/AAABjqNlaK8/AAABjcWesUg/16x9-512.jpg", "date": "2024-04-03T11:55:00.000+02:00", "lat": 53.6118, "lon": 8.2317, "intensity": 0.8, "source": "Tagesschau"}, {"title": "Starker Regen: Pegelst\u00e4nde von Aller, Leine und Fuhse steigen wieder", "url": "https://www.tagesschau.de/inland/regional/niedersachsen/ndr-starker-regen-pegelstaende-von-aller-leine-und-fuhse-steigen-wieder-100.html", "thumbnailUrl": "https://images.tagesschau.de/image/f00cca9a-202e-4fe8-bde1-0c7e9c05f981/AAABjqOYp-Q/AAABjcWesUg/16x9-512.jpg", "date": "2024-04-03T11:55:00.000+02:00", "lat": 52.3759, "lon": 9.7356, "intensity": 0.8, "source": "Tagesschau"}, {"title": "Wie Hessen gegen Stechm\u00fccken vorgeht - und was auch Sie tun k\u00f6nnen", "url": "https://www.tagesschau.de/inland/regional/hessen/hr-wie-hessen-gegen-stechmuecken-vorgeht-und-was-auch-sie-tun-koennen-100.html", "thumbnailUrl": "https://images.tagesschau.de/image/91bfb609-f0d3-494d-86b7-8f5801fe0544/AAABjqNhc14/AAABjcWesUg/16x9-512.jpg", "date": "2024-04-03T11:52:31.576+02:00", "lat": 50.6333, "lon": 9.6447, "intensity": 0.8, "source": "Tagesschau"}, {"title": "Heuschrecken in Hamburg: So viele Arten wie nie zuvor", "url": "https://www.tagesschau.de/inland/regional/hamburg/ndr-heuschrecken-in-hamburg-so-viele-arten-wie-nie-zuvor-100.html", "thumbnailUrl": "https://images.tagesschau.de/image/78baa28a-43bf-4cc2-af8a-495dbf19a76c/AAABjqNubsY/AAABjcWesUg/16x9-512.jpg", "date": "2024-04-03T11:51:00.000+02:00", "lat": 53.5511, "lon": 9.9937, "intensity": 0.8, "source": "Tagesschau"}, {"title": "\u00dcberraschende Wendung um tonnenweise gestohlenen B\u00e4rlauch in Kupferzell  ", "url": "https://www.tagesschau.de/inland/regional/badenwuerttemberg/swr-kuriose-wendung-um-tonnenweise-gestohlenen-baerlauch-in-kupferzell-100.html", "thumbnailUrl": "https://images.tagesschau.de/image/1d2edf5f-0faa-48ab-a71b-48fee6b5a3e5/AAABjqNuD2Q/AAABjcWesUg/16x9-512.jpg", "date": "2024-04-03T11:50:27.000+02:00", "lat": 49.2138, "lon": 9.6256, "intensity": 0.6, "source": "Tagesschau"}, {"title": "Hemmschwelle sinkt: Ostdeutsche Sch\u00fclerr\u00e4te warnen vor Rechtsextremismus an Schulen", "url": "https://www.tagesschau.de/inland/regional/brandenburg/rbb-hemmschwelle-sinkt-ostdeutsche-schuelerraete-warnen-vor-rechtsextremismus-an-schulen-100.html", "thumbnailUrl": "https://images.tagesschau.de/image/e860fb0d-50d3-4815-ac34-8b2f2ce5459d/AAABjqNfljI/AAABjcWesUg/16x9-512.jpg", "date": "2024-04-03T11:47:42.000+02:00", "lat": 52.4125, "lon": 13.0827, "intensity": 0.6, "source": "Tagesschau"}, {"title": "Unfall im Berufsverkehr: Zwei Autos sto\u00dfen frontal zusammen", "url": "https://www.tagesschau.de/inland/regional/niedersachsen/ndr-unfall-im-berufsverkehr-zwei-autos-stossen-frontal-zusammen-100.html", "thumbnailUrl": "https://images.tagesschau.de/image/1940cecd-5be1-4549-9e56-6e5f4e5b7a80/AAABjqNlepg/AAABjcWesUg/16x9-512.jpg", "date": "2024-04-03T11:44:00.000+02:00", "lat": 53.1111, "lon": 9.3996, "intensity": 0.8, "source": "Tagesschau"}, {"title": "Nach Antisemitismusvorw\u00fcrfen: Judith Butler reagiert auf Forderung nach Preis-Aberkennung", "url": "https://www.tagesschau.de/inland/regional/hessen/hr-nach-antisemitismusvorwuerfen-forderung-nach-aberkennung-des-adorno-preises-fuer-judith-butler-100.html", "thumbnailUrl": "https://images.tagesschau.de/image/11be16ba-1fe7-484e-80ef-a7754850b8af/AAABjqNWoDc/AAABjcWesUg/16x9-512.jpg", "date": "2024-04-03T11:40:51.343+02:00", "lat": 50.1109, "lon": 8.6833, "intensity": 0.8, "source": "Tagesschau"}, {"title": "Karstadt-Geb\u00e4ude in Harburg ist verkauft", "url": "https://www.tagesschau.de/inland/regional/hamburg/ndr-karstadt-gebaeude-in-hamburg-harburg-ist-verkauft-100.html", "thumbnailUrl": "https://images.tagesschau.de/image/5da816e2-6540-4b2e-9f04-52db31c8cae8/AAABjqOyTIc/AAABjcWesUg/16x9-512.jpg", "date": "2024-04-03T11:36:00.000+02:00", "lat": 53.4563, "lon": 9.9827, "intensity": 0.7, "source": "Tagesschau"}, {"title": "\"Padderborn\" Schreibfehler sorgt f\u00fcr Schmunzler", "url": "https://www.tagesschau.de/inland/regional/nordrheinwestfalen/wdr-padderborn-schreibfehler-sorgt-fuer-schmunzler-102.html", "thumbnailUrl": "https://images.tagesschau.de/image/6b647c47-92d3-428e-986c-aecea8a5d00c/AAABjqOx8GU/AAABjcWesUg/16x9-512.jpg", "date": "2024-04-03T11:35:00.000+02:00", "lat": 51.717, "lon": 8.7206, "intensity": 0.4, "source": "Tagesschau"}, {"title": "Sohn soll Vater in B\u00f6hl-Iggelheim get\u00f6tet haben", "url": "https://www.tagesschau.de/inland/regional/rheinlandpfalz/swr-sohn-soll-vater-in-boehl-iggelheim-getoetet-haben-100.html", "thumbnailUrl": "https://images.tagesschau.de/image/39666759-4767-4d76-9633-df1b0544d517/AAABjqNv61s/AAABjcWesUg/16x9-512.jpg", "date": "2024-04-03T11:34:26.000+02:00", "lat": 49.3642, "lon": 8.2919, "intensity": 0.8, "source": "Tagesschau"}, {"title": "Nach Tod von 22-J\u00e4hriger bei Osterfeuer: Polizei bittet um Fotos", "url": "https://www.tagesschau.de/inland/regional/niedersachsen/ndr-toedliches-unglueck-bei-osterfeuer-22-jaehrige-von-baum-getroffen-100.html", "thumbnailUrl": "https://images.tagesschau.de/image/3f105132-f5c1-4328-ba02-69569a5c9a21/AAABjqNyMrg/AAABjcWesUg/16x9-512.jpg", "date": "2024-04-03T11:34:00.000+02:00", "lat": 52.3764, "lon": 9.2733, "intensity": 0.8, "source": "Tagesschau"}, {"title": "Autorennen mit 100 Sachen durch Tempo-30-Zone in Alzey", "url": "https://www.tagesschau.de/inland/regional/rheinlandpfalz/swr-autorennen-mit-100-sachen-durch-tempo-30-zone-in-alzey-100.html", "thumbnailUrl": "https://images.tagesschau.de/image/e6f94e19-b3b9-4f75-8bbd-392bf6be5c62/AAABjqNhPvg/AAABjcWesUg/16x9-512.jpg", "date": "2024-04-03T11:28:39.000+02:00", "lat": 49.7489, "lon": 8.1142, "intensity": 0.7, "source": "Tagesschau"}, {"title": "Klage gegen Anti-LGBTQ-Gesetz gescheitert", "url": "https://www.tagesschau.de/ausland/afrika/uganda-gesetz-lgbtq-klage-100.html", "thumbnailUrl": "https://images.tagesschau.de/image/c0a2cce0-24bc-4d3c-a3d5-7a06285e6d5d/AAABjqM4g4o/AAABjcWesUg/16x9-512.jpg", "date": "2024-04-03T11:27:33.229+02:00", "lat": 0.3136, "lon": 32.2903, "intensity": 0.9, "source": "Tagesschau"}, {"title": "Sensor \"Oscar\" aus SH soll M\u00fcllberge verhindern", "url": "https://www.tagesschau.de/inland/regional/schleswigholstein/ndr-sensor-oscar-aus-sh-soll-muellberge-verhindern-100.html", "thumbnailUrl": "https://images.tagesschau.de/image/1d8c98e2-cd9e-431d-a40f-874f9d1dab2f/AAABjqNNh80/AAABjcWesUg/16x9-512.jpg", "date": "2024-04-03T11:26:00.000+02:00", "lat": 54.3326, "lon": 9.6961, "intensity": 0.8, "source": "Tagesschau"}, {"title": "Lkw-Fahrer stirbt nach Panne auf A7 bei Kassel", "url": "https://www.tagesschau.de/inland/regional/hessen/hr-lkw-fahrer-stirbt-auf-a7-bei-kassel-gegenrichtung-nach-brand-blockiert-100.html", "thumbnailUrl": "https://images.tagesschau.de/image/90cc87e6-6596-4cd4-a4ef-f1572ddc480b/AAABjqNF9HU/AAABjcWesUg/16x9-512.jpg", "date": "2024-04-03T11:22:48.165+02:00", "lat": 51.3114, "lon": 9.4158, "intensity": 0.8, "source": "Tagesschau"}, {"title": "Kann ein \u00dcbergangsrat die Gewalt beenden?", "url": "https://www.tagesschau.de/ausland/amerika/haiti-krise-uebergangsrat-100.html", "thumbnailUrl": "https://images.tagesschau.de/image/26a19817-2dcd-463b-bf41-abd67ff61565/AAABjqM_POU/AAABjcWesUg/16x9-512.jpg", "date": "2024-04-03T11:16:54.636+02:00", "lat": 18.594395, "lon": -72.285215, "intensity": 0.7, "source": "Tagesschau"}, {"title": "Corona-Impfp\u00e4sse gef\u00e4lscht: 32-J\u00e4hriger steht vor Gericht", "url": "https://www.tagesschau.de/inland/regional/schleswigholstein/ndr-corona-impfpaesse-gefaelscht-32-jaehriger-steht-vor-gericht-100.html", "thumbnailUrl": "https://images.tagesschau.de/image/bd279528-355c-44a5-a1cf-100427653be3/AAABjqNGMmk/AAABjcWesUg/16x9-512.jpg", "date": "2024-04-03T11:04:00.000+02:00", "lat": 54.3327, "lon": 9.9886, "intensity": 0.7, "source": "Tagesschau"}, {"title": "Dutzende Menschen in Tunneln eingeschlossen", "url": "https://www.tagesschau.de/ausland/asien/taiwan-erdbeben-108.html", "thumbnailUrl": "https://images.tagesschau.de/image/663ec8a1-6730-4f9d-8a37-9e400b040a0c/AAABjqMzHnA/AAABjcWesUg/16x9-512.jpg", "date": "2024-04-03T11:03:40.422+02:00", "lat": 25.033, "lon": 121.5654, "intensity": 0.9, "source": "Tagesschau"}, {"title": "Mehr Biobauern in Deutschland", "url": "https://www.tagesschau.de/wirtschaft/unternehmen/oekobetriebe-deutschland-bauern-landwirtschaft-100.html", "thumbnailUrl": "https://images.tagesschau.de/image/4a7ee25e-747e-425a-9dd0-222d06c8298d/AAABjqMutME/AAABjcWesUg/16x9-512.jpg", "date": "2024-04-03T10:58:56.869+02:00", "lat": 51.1657, "lon": 10.4515, "intensity": 0.5, "source": "Tagesschau"}, {"title": "B1 in Gerwisch: Ortsdurchfahrt monatelang gesperrt", "url": "https://www.tagesschau.de/inland/regional/sachsenanhalt/mdr-b1-in-gerwisch-ortsdurchfahrt-monatelang-gesperrt-100.html", "thumbnailUrl": "https://images.tagesschau.de/image/784ef8e7-439a-4b39-bd49-1a67b4f023b5/AAABjqMz1Vo/AAABjcWesUg/16x9-512.jpg", "date": "2024-04-03T10:53:56.000+02:00", "lat": 52.3392, "lon": 11.7261, "intensity": 0.8, "source": "Tagesschau"}, {"title": "Brand bei der Feuerwehr: Flammen in der Fahrzeughalle", "url": "https://www.tagesschau.de/inland/regional/niedersachsen/ndr-brand-bei-der-feuerwehr-flammen-in-der-fahrzeughalle-100.html", "thumbnailUrl": "https://images.tagesschau.de/image/b3256ef1-46be-4997-85e3-ba89be6d0381/AAABjqM3oTQ/AAABjcWesUg/16x9-512.jpg", "date": "2024-04-03T10:53:00.000+02:00", "lat": 53.7303, "lon": 8.6466, "intensity": 0.8, "source": "Tagesschau"}, {"title": "Frachter aus Russland in Rostock festgesetzt", "url": "https://www.tagesschau.de/inland/regional/mecklenburgvorpommern/frachter-rostock-festgesetzt-100.html", "thumbnailUrl": "https://images.tagesschau.de/image/a39e991a-ed1a-4a68-b2ce-e7d32fcde83a/AAABjqMt-jM/AAABjcWesUg/16x9-512.jpg", "date": "2024-04-03T10:50:00.000+02:00", "lat": 54.083, "lon": 12.099, "intensity": 0.6, "source": "Tagesschau"}, {"title": "Krankenkassen: Komasaufen unter Jugendlichen nimmt weiter ab", "url": "https://www.tagesschau.de/inland/regional/badenwuerttemberg/swr-krankenkassen-komasaufen-unter-jugendlichen-nimmt-weiter-ab-100.html", "thumbnailUrl": "https://images.tagesschau.de/image/bbedf6cf-caab-4fbb-bbf2-d14afbc77975/AAABjqM1VxA/AAABjcWesUg/16x9-512.jpg", "date": "2024-04-03T10:49:00.000+02:00", "lat": 48.6616, "lon": 9.4895, "intensity": 0.4, "source": "Tagesschau"}, {"title": "Ironman 2024: Patrick Lange traut sich weiteren Triumph auf Hawaii zu", "url": "https://www.tagesschau.de/inland/regional/hessen/hr-ironman-2024-patrick-lange-traut-sich-weiteren-triumph-auf-hawaii-zu-102.html", "thumbnailUrl": "https://images.tagesschau.de/image/0d10f6d8-2ac4-4dea-94f4-281e930e5f79/AAABjqMwDPA/AAABjcWesUg/16x9-512.jpg", "date": "2024-04-03T10:47:02.542+02:00", "lat": 21.3069, "lon": -157.8583, "intensity": 0.6, "source": "Tagesschau"}, {"title": "Ratinger Hochhaus nach Wasserschaden ohne Strom", "url": "https://www.tagesschau.de/inland/regional/nordrheinwestfalen/wdr-ratinger-hochhaus-nach-wasserschaden-ohne-strom-100.html", "thumbnailUrl": "https://images.tagesschau.de/image/390cf0ba-0015-4930-8b55-301556b93990/AAABjqND80I/AAABjcWesUg/16x9-512.jpg", "date": "2024-04-03T10:41:00.000+02:00", "lat": 51.2965, "lon": 6.8613, "intensity": 0.7, "source": "Tagesschau"}, {"title": "Cannabis: Einfuhr aus Niederlanden bleibt verboten", "url": "https://www.tagesschau.de/inland/regional/niedersachsen/ndr-cannabis-einfuhr-aus-niederlanden-bleibt-verboten-100.html", "thumbnailUrl": "https://images.tagesschau.de/image/0f69af4e-1f78-4173-a89a-b4681c02223a/AAABjqMf4eU/AAABjcWesUg/16x9-512.jpg", "date": "2024-04-03T10:41:00.000+02:00", "lat": 52.338611, "lon": 7.073056, "intensity": 0.5, "source": "Tagesschau"}, {"title": "Hamburgs Wirtschaft informiert sich \u00fcber Sicherheitslage im Baltikum", "url": "https://www.tagesschau.de/inland/regional/hamburg/ndr-hamburgs-wirtschaft-informiert-sich-ueber-sicherheitslage-im-baltikum-100.html", "thumbnailUrl": "https://images.tagesschau.de/image/53028a4c-9d9e-4bb8-93a5-85ab07d6cecc/AAABjqMsgw4/AAABjcWesUg/16x9-512.jpg", "date": "2024-04-03T10:31:00.000+02:00", "lat": 53.55, "lon": 10.0, "intensity": 0.6, "source": "Tagesschau"}, {"title": "Burg im Spreewald: 22-J\u00e4hriger von Vermummtem attackiert - Sch\u00e4delbruch", "url": "https://www.tagesschau.de/inland/regional/brandenburg/rbb-burg-im-spreewald-22-jaehriger-von-vermummten-attackiert-schaedelbruch-100.html", "thumbnailUrl": "https://images.tagesschau.de/image/5412691c-6a77-4547-82cb-da47280fde5a/AAABjp7yO2Y/AAABjcWesUg/16x9-512.jpg", "date": "2024-04-03T10:30:54.000+02:00", "lat": 51.8331, "lon": 14.0757, "intensity": 0.8, "source": "Tagesschau"}, {"title": "\"Unglaubliche Reise mit unfassbar beschissenem Ende\"", "url": "https://www.tagesschau.de/inland/regional/saarland/sr-unglaubliche-reise-mit-unfassbar-beschissenem-ende-102.html", "thumbnailUrl": "https://images.tagesschau.de/image/881e04f2-eee8-438a-ad2b-8ed476dc6523/AAABjqN5BXM/AAABjcWesUg/16x9-512.jpg", "date": "2024-04-03T10:27:00.000+02:00", "lat": 49.2367, "lon": 6.9684, "intensity": 0.8, "source": "Tagesschau"}, {"title": "Anteil der \u00fcber 80-J\u00e4hrigen in Berlin und Brandenburg w\u00e4chst", "url": "https://www.tagesschau.de/inland/regional/berlin/rbb-anteil-der-ueber-80-jaehrigen-waechst-100.html", "thumbnailUrl": "https://images.tagesschau.de/image/b0c6744f-ffbb-414f-8832-bcff006ab93f/AAABjqMQ1SM/AAABjcWesUg/16x9-512.jpg", "date": "2024-04-03T10:21:52.000+02:00", "lat": 52.520008, "lon": 13.404954, "intensity": 0.6, "source": "Tagesschau"}, {"title": "Stra\u00dfenbahnen der BSAG fahren wieder nach Plan \u2013 Busse aber nicht", "url": "https://www.tagesschau.de/inland/regional/bremen/rb-strassenbahnen-der-bsag-fahren-wieder-nach-plan--busse-aber-nicht-102.html", "thumbnailUrl": "https://images.tagesschau.de/image/851224ce-a6e9-4231-b99d-6623a6a4913d/AAABjqI1CuI/AAABjcWesUg/16x9-512.jpg", "date": "2024-04-03T10:21:00.000+02:00", "lat": 53.0793, "lon": 8.8017, "intensity": 0.6, "source": "Tagesschau"}, {"title": "Entsch\u00e4rfung am Donnerstag: Erneut Weltkriegsbombe in Berlin-Schmargendorf gefunden ", "url": "https://www.tagesschau.de/inland/regional/berlin/rbb-medienberichte-erneut-weltkriegsbombe-in-schmargendorf-gefunden-100.html", "thumbnailUrl": "https://images.tagesschau.de/image/8360af90-2199-4cad-8db2-349b88c9f2db/AAABjqMREWs/AAABjcWesUg/16x9-512.jpg", "date": "2024-04-03T10:20:57.000+02:00", "lat": 52.4699, "lon": 13.2854, "intensity": 0.8, "source": "Tagesschau"}, {"title": "Tote und Verletzte nach schwerem Erdbeben", "url": "https://www.tagesschau.de/ausland/asien/taiwan-erdbeben-106.html", "thumbnailUrl": "https://images.tagesschau.de/image/bb68d11f-ab44-4f62-acf5-5e0959571dcb/AAABjqLLIrM/AAABjcWesUg/16x9-512.jpg", "date": "2024-04-03T10:17:37.704+02:00", "lat": 23.69781, "lon": 121.509062, "intensity": 0.8, "source": "Tagesschau"}, {"title": "Mannheim: Betrunkener Autofahrer verursacht zwei Unf\u00e4lle und f\u00e4hrt weiter", "url": "https://www.tagesschau.de/inland/regional/badenwuerttemberg/swr-mannheim-betrunkener-autofahrer-verursacht-zwei-unfaelle-und-faehrt-weiter-100.html", "thumbnailUrl": "https://images.tagesschau.de/image/ae92c9de-134e-44ba-82cf-8fbf8d15ebc5/AAABjqMbwvA/AAABjcWesUg/16x9-512.jpg", "date": "2024-04-03T10:17:26.000+02:00", "lat": 49.4875, "lon": 8.4636, "intensity": 0.8, "source": "Tagesschau"}, {"title": "F\u00fcnf Verletzte bei K\u00fcchenbrand in Diepenau", "url": "https://www.tagesschau.de/inland/regional/niedersachsen/ndr-fuenf-verletzte-bei-kuechenbrand-in-diepenau-100.html", "thumbnailUrl": "https://images.tagesschau.de/image/5b6f0cf2-27d0-4a6e-b7ce-97611b20897f/AAABjqMrFqU/AAABjcWesUg/16x9-512.jpg", "date": "2024-04-03T10:12:00.000+02:00", "lat": 52.5938, "lon": 8.7681, "intensity": 0.7, "source": "Tagesschau"}, {"title": "Agrarpolitik in Brandenburg: Ostdeutsche Landwirte fordern Verkauf von bundeseigenen Agrarfl\u00e4chen", "url": "https://www.tagesschau.de/inland/regional/brandenburg/rbb-agrarpolitik-in-brandenburg-ostdeutsche-landwirte-fordern-verkauf-von-bundeseigenen-agrarflaechen-100.html", "thumbnailUrl": "https://images.tagesschau.de/image/9b76b511-deaf-4b4d-a0b3-0b1cd8e8eced/AAABjqOCZIU/AAABjcWesUg/16x9-512.jpg", "date": "2024-04-03T10:11:41.000+02:00", "lat": 52.4125, "lon": 13.4651, "intensity": 0.7, "source": "Tagesschau"}, {"title": "Hessen am Morgen: +++ Bombenfund in Wiesbaden - Evakuierung l\u00e4uft noch +++ Mordprozess in Frankfurt +++ Langer Stau auf A7 nach Lkw-Brand +++", "url": "https://www.tagesschau.de/inland/regional/hessen/hr-hessen-am-morgen--bombenfund-in-wiesbaden-biebrich-evakuierung-am-morgen-100.html", "thumbnailUrl": "https://images.tagesschau.de/image/44d0a1df-dc20-4b4a-9679-b9ce299ecb9e/AAABjqM80KQ/AAABjcWesUg/16x9-512.jpg", "date": "2024-04-03T10:11:39.013+02:00", "lat": 51.3126, "lon": 9.4952, "intensity": 0.8, "source": "Tagesschau"}, {"title": "DFB-Pokal-Halbfinale in Saarbr\u00fccken laut Polizei friedlich verlaufen ", "url": "https://www.tagesschau.de/inland/regional/saarland/sr-dfb-pokal-halbfinale-in-saarbruecken-laut-polizei-friedlich-verlaufen-100.html", "thumbnailUrl": "https://images.tagesschau.de/image/849acdaf-2883-4ab8-8810-56ecb25a75f7/AAABjqMFq3g/AAABjcWesUg/16x9-512.jpg", "date": "2024-04-03T10:08:00.000+02:00", "lat": 49.2354, "lon": 6.9969, "intensity": 0.3, "source": "Tagesschau"}, {"title": "VfL-Torj\u00e4gerin Vivien Endemann: Mit Bodenhaftung auf H\u00f6henflug ", "url": "https://www.tagesschau.de/inland/regional/niedersachsen/ndr-vfl-torjaegerin-vivien-endemann-mit-bodenhaftung-auf-hoehenflug-102.html", "thumbnailUrl": "https://images.tagesschau.de/image/034053e0-ba1c-448e-a5cf-035f2c2e3e53/AAABjqMYfjc/AAABjcWesUg/16x9-512.jpg", "date": "2024-04-03T10:05:00.000+02:00", "lat": 52.4226, "lon": 10.5378, "intensity": 0.4, "source": "Tagesschau"}, {"title": "Millionen Steuergelder in den Sand gesetzt: Hessische Kommunen ziehen Schlussstrich unter Greensill-Aff\u00e4re", "url": "https://www.tagesschau.de/inland/regional/hessen/hr-millionen-steuergelder-in-den-sand-gesetzt-hessische-kommunen-ziehen-schlussstrich-unter-greensill-affaere-100.html", "thumbnailUrl": "https://images.tagesschau.de/image/e11f92c8-948d-4d7f-afd5-2eda62e6843b/AAABjqL8rZw/AAABjcWesUg/16x9-512.jpg", "date": "2024-04-03T10:03:30.279+02:00", "lat": 50.1109, "lon": 8.6833, "intensity": 0.8, "source": "Tagesschau"}, {"title": "BW-Newsticker am Morgen: Diebe wollen tonnenweise B\u00e4rlauch klauen, Sch\u00e4uble-Memoiren skizzieren m\u00f6glichen Merkel-Sturz, Halmich will es gegen Raab knallen lassen", "url": "https://www.tagesschau.de/inland/regional/badenwuerttemberg/swr-bw-newsticker-am-morgen-weniger-komasaufen-bei-jugendlichen-diebe-wollen-tonnenweise-baerlauch-klauen-halmich-will-es-gegen-raab-knallen-lassen-100.html", "thumbnailUrl": "https://images.tagesschau.de/image/a115f24e-0cef-4265-8b78-74d0ba8b7b66/AAABjqJg7yU/AAABjcWesUg/16x9-512.jpg", "date": "2024-04-03T10:00:00.000+02:00", "lat": 48.6617, "lon": 9.4895, "intensity": 0.5, "source": "Tagesschau"}, {"title": "FCK feiert Einzug in DFB-Pokalfinale, Vollsperrung am Schiersteiner Kreuz, Unfall mit Pferd", "url": "https://www.tagesschau.de/inland/regional/rheinlandpfalz/swr-fck-feiert-einzug-in-dfb-pokalfinale-vollsperrung-am-schiersteiner-kreuz-wildschweine-verwuesten-graeber-100.html", "thumbnailUrl": "https://images.tagesschau.de/image/2e11680f-b4cc-49dd-843a-279f7184b705/AAABjqKM97A/AAABjcWesUg/16x9-512.jpg", "date": "2024-04-03T10:00:00.000+02:00", "lat": 49.9929, "lon": 8.2394, "intensity": 0.8, "source": "Tagesschau"}, {"title": "Alarm in Chemiebetrieb: Feuerwehr r\u00fcckt in Schutzanz\u00fcgen vor", "url": "https://www.tagesschau.de/inland/regional/niedersachsen/ndr-alarm-in-chemiebetrieb-feuerwehr-rueckt-in-schutzanzuegen-vor-100.html", "thumbnailUrl": "https://images.tagesschau.de/image/993a6e2a-0883-42ca-b21b-0eb5e7ea1578/AAABjqKb_Ig/AAABjcWesUg/16x9-512.jpg", "date": "2024-04-03T09:58:00.000+02:00", "lat": 53.10904, "lon": 8.890938, "intensity": 0.7, "source": "Tagesschau"}, {"title": "Aktienhandel per Smartphone", "url": "https://www.tagesschau.de/wirtschaft/verbraucher/n26-verbraucher-aktienhandel-100.html", "thumbnailUrl": "https://images.tagesschau.de/image/c8847089-2f88-46a7-a078-cc863a894676/AAABjqLKe8w/AAABjcWesUg/16x9-512.jpg", "date": "2024-04-03T09:48:31.192+02:00", "lat": 52.52, "lon": 13.405, "intensity": 0.6, "source": "Tagesschau"}, {"title": "Darmstadt 98: +++ Vilhelmssons Quote macht Lilien Hoffnung +++ M\u00fcller nimmt Holtmann in Schutz +++ M\u00fcller hofft auf Topleistung und Matchgl\u00fcck +++", "url": "https://www.tagesschau.de/inland/regional/hessen/hr--tietz-vermisst-fehlende-gier--lilien-fans-liefern-sich-raststaetten-pruegelei--die-niederlage-der-lilien-in-der-video-zusammenfassung-102.html", "thumbnailUrl": "https://images.tagesschau.de/image/d2379d55-1e00-4bc6-99c6-30f4c8d23c13/AAABjqLsUKw/AAABjcWesUg/16x9-512.jpg", "date": "2024-04-03T09:45:41.962+02:00", "lat": 49.8717, "lon": 8.65, "intensity": 0.5, "source": "Tagesschau"}, {"title": "Brand in psychiatrischer Klinik in Rosdorf: Ursache steht fest", "url": "https://www.tagesschau.de/inland/regional/niedersachsen/ndr-goettingen-vier-verletzte-bei-brand-in-psychiatrischer-klinik-100.html", "thumbnailUrl": "https://images.tagesschau.de/image/ab0986c1-39ff-4a83-ad3b-aa13c7c03c49/AAABjqLsv68/AAABjcWesUg/16x9-512.jpg", "date": "2024-04-03T09:42:00.000+02:00", "lat": 51.5353, "lon": 9.9135, "intensity": 0.8, "source": "Tagesschau"}, {"title": "Diebe zapfen Lkw-Tanks an - und stehlen 900 Liter Diesel", "url": "https://www.tagesschau.de/inland/regional/niedersachsen/ndr-diebe-zapfen-lkw-tanks-an-und-stehlen-900-liter-diesel-100.html", "thumbnailUrl": "https://images.tagesschau.de/image/005aca29-80ec-4e84-991f-99662b9dfac6/AAABjqLqucc/AAABjcWesUg/16x9-512.jpg", "date": "2024-04-03T09:37:00.000+02:00", "lat": 53.0878, "lon": 8.7381, "intensity": 0.7, "source": "Tagesschau"}, {"title": "Unfall bei Goldenstedt: 14 Tonnen Getreide auf Landstra\u00dfe", "url": "https://www.tagesschau.de/inland/regional/niedersachsen/ndr-traktor-kippt-um-14-tonnen-getreide-auf-landstrasse-100.html", "thumbnailUrl": "https://images.tagesschau.de/image/cb324d2f-66a2-4622-83f9-5fe8c1cb63bc/AAABjqLjZPA/AAABjcWesUg/16x9-512.jpg", "date": "2024-04-03T09:34:00.000+02:00", "lat": 52.7784, "lon": 8.3803, "intensity": 0.7, "source": "Tagesschau"}, {"title": "Prostitution in Stuttgart: Bordellbetreiber gewinnt im Rechtsstreit gegen Politikerin", "url": "https://www.tagesschau.de/inland/regional/badenwuerttemberg/swr-prostitution-in-stuttgart-bordellbetreiber-gewinnt-im-rechtsstreit-gegen-politikerin-100.html", "thumbnailUrl": "https://images.tagesschau.de/image/27556f68-5a61-4ecc-8418-4156a9def4a2/AAABjqLhLCM/AAABjcWesUg/16x9-512.jpg", "date": "2024-04-02T16:15:47.000+02:00", "lat": 48.7758, "lon": 9.1829, "intensity": 0.7, "source": "Tagesschau"}, {"title": "Wegen Shisha-Kohle: Kinder in Idar-Oberstein im Krankenhaus", "url": "https://www.tagesschau.de/inland/regional/rheinlandpfalz/swr-wegen-shisha-kohle-kinder-in-idar-oberstein-im-krankenhaus-100.html", "thumbnailUrl": "https://images.tagesschau.de/image/cff94542-cb48-429c-a940-89ff447d3024/AAABjqLv_x8/AAABjcWesUg/16x9-512.jpg", "date": "2024-04-03T09:29:57.000+02:00", "lat": 49.7139, "lon": 7.3027, "intensity": 0.8, "source": "Tagesschau"}, {"title": "Finale und Relegation? Terminstress f\u00fcr den FCK m\u00f6glich", "url": "https://www.tagesschau.de/inland/regional/rheinlandpfalz/swr-finale-und-relegation-terminstress-fuer-den-fck-moeglich-106.html", "thumbnailUrl": "https://images.tagesschau.de/image/ca8e4d5d-8fee-4151-a47a-21f3cb481033/AAABjqNk7M8/AAABjcWesUg/16x9-512.jpg", "date": "2024-04-03T09:29:43.000+02:00", "lat": 49.4431, "lon": 7.7774, "intensity": 0.8, "source": "Tagesschau"}, {"title": "Alkoholkonsum im und am Hamburger Hauptbahnhof verboten", "url": "https://www.tagesschau.de/inland/regional/hamburg/ndr-alkoholverbot-am-hamburger-hauptbahnhof-tritt-am-dienstag-in-kraft-100.html", "thumbnailUrl": "https://images.tagesschau.de/image/ccd52a46-1451-463a-ac31-373402f10c2d/AAABjqLb63c/AAABjcWesUg/16x9-512.jpg", "date": "2024-04-03T09:19:00.000+02:00", "lat": 53.5511, "lon": 9.9937, "intensity": 0.8, "source": "Tagesschau"}, {"title": "Lohnl\u00fccke zwischen Ost und West bleibt gro\u00df", "url": "https://www.tagesschau.de/wirtschaft/arbeitsmarkt/lohnluecke-ost-west-100.html", "thumbnailUrl": "https://images.tagesschau.de/image/c9ccf309-cfc0-480e-9db3-fba217dde22e/AAABiiGWZ_c/AAABjcWesUg/16x9-512.jpg", "date": "2024-04-03T09:14:47.311+02:00", "lat": 52.4643, "lon": 11.582, "intensity": 0.7, "source": "Tagesschau"}, {"title": "Berauscht und mit Kokain in der Socke: Polizei stoppt Autofahrer", "url": "https://www.tagesschau.de/inland/regional/niedersachsen/ndr-berauscht-und-mit-kokain-in-der-socke-polizei-stoppt-autofahrer-100.html", "thumbnailUrl": "https://images.tagesschau.de/image/bb3ec6df-5d6c-478b-9193-e61ee0de2be2/AAABjqMaS48/AAABjcWesUg/16x9-512.jpg", "date": "2024-04-03T09:14:00.000+02:00", "lat": 52.6367, "lon": 10.4515, "intensity": 0.8, "source": "Tagesschau"}, {"title": "Polizei ermittelt nach Fund von mehreren Bomben in Wolfsburg", "url": "https://www.tagesschau.de/inland/regional/niedersachsen/ndr-polizei-findet-sprengvorrichtungen-in-wohnung-drei-festnahmen-100.html", "thumbnailUrl": "https://images.tagesschau.de/image/8f728b88-03cb-4657-a15f-c2cf116cdb2b/AAABjqLRFhM/AAABjcWesUg/16x9-512.jpg", "date": "2024-04-03T09:13:00.000+02:00", "lat": 52.4226, "lon": 10.7769, "intensity": 0.8, "source": "Tagesschau"}, {"title": "Herpes: Impfung f\u00fcr Turnier-Pferde bald nicht mehr Pflicht", "url": "https://www.tagesschau.de/inland/regional/niedersachsen/ndr-herpes-impfung-fuer-turnierpferde-bald-nicht-mehr-pflicht-100.html", "thumbnailUrl": "https://images.tagesschau.de/image/110b95f9-9ed6-4442-a618-ec52c304d0bd/AAABjqLJuAk/AAABjcWesUg/16x9-512.jpg", "date": "2024-04-03T09:07:00.000+02:00", "lat": 51.1657, "lon": 10.4515, "intensity": 0.6, "source": "Tagesschau"}, {"title": "Steuererkl\u00e4rung im Alter: Was Rentner wissen m\u00fcssen", "url": "https://www.tagesschau.de/inland/regional/saarland/sr-steuererklaerung-im-alter-was-rentner-wissen-muessen-100.html", "thumbnailUrl": "https://images.tagesschau.de/image/516a199e-9bd9-4bca-bf6e-01a079095096/AAABjqMLKXo/AAABjcWesUg/16x9-512.jpg", "date": "2024-04-03T09:01:00.000+02:00", "lat": 49.3964, "lon": 7.0005, "intensity": 0.6, "source": "Tagesschau"}, {"title": "Autofahrer st\u00f6\u00dft bei Traisen mit Pferd zusammen", "url": "https://www.tagesschau.de/inland/regional/rheinlandpfalz/swr-autofahrer-stoesst-bei-traisen-mit-pferd-zusammen-100.html", "thumbnailUrl": "https://images.tagesschau.de/image/8f34466d-cc8d-4497-9cbc-13e7ee206a9b/AAABjqMqe2k/AAABjcWesUg/16x9-512.jpg", "date": "2024-04-03T08:53:14.000+02:00", "lat": 49.8429, "lon": 7.8706, "intensity": 0.6, "source": "Tagesschau"}, {"title": "Doku \u00fcber die \"G\u00f6hrde-Morde\" und das Verschwinden von Birgit Meier", "url": "https://www.tagesschau.de/inland/regional/niedersachsen/ndr-doku-ueber-die-goehrde-morde-und-das-verschwinden-von-birgit-meier-100.html", "thumbnailUrl": "https://images.tagesschau.de/image/cf382c2e-d633-4892-b4dd-2682d67d0a36/AAABjqK7D50/AAABjcWesUg/16x9-512.jpg", "date": "2024-04-03T08:45:00.000+02:00", "lat": 53.2405, "lon": 10.5293, "intensity": 0.8, "source": "Tagesschau"}, {"title": "W\u00f6lfe: Brandenburger J\u00e4ger dr\u00e4ngen auf baldige Einf\u00fchrung von Schnellabsch\u00fcssen", "url": "https://www.tagesschau.de/inland/regional/brandenburg/rbb-woelfe-brandenburger-jaeger-draengen-auf-baldige-einfuehrung-von-schnellabschuessen-100.html", "thumbnailUrl": "https://images.tagesschau.de/image/6bce7b03-47e3-477d-8866-4cef0df49ae0/AAABjqKsHhk/AAABjcWesUg/16x9-512.jpg", "date": "2024-04-03T08:44:58.000+02:00", "lat": 52.3001, "lon": 13.1683, "intensity": 0.8, "source": "Tagesschau"}, {"title": "Seltene Funde an der Nordsee: Kehren verschwundene Arten zur\u00fcck?", "url": "https://www.tagesschau.de/inland/regional/schleswigholstein/ndr-seltene-funde-an-der-nordsee-kehren-verschwundene-arten-zurueck-100.html", "thumbnailUrl": "https://images.tagesschau.de/image/66d39a31-4098-40c1-b670-8ff72574ed96/AAABjp5BBJ4/AAABjcWesUg/16x9-512.jpg", "date": "2024-04-03T08:44:00.000+02:00", "lat": 53.5444, "lon": 8.8139, "intensity": 0.7, "source": "Tagesschau"}, {"title": "A31 bei D\u00f6rpen nach Unfall wieder frei - Vorfahrt missachtet?", "url": "https://www.tagesschau.de/inland/regional/niedersachsen/ndr-a31-bei-doerpen-nach-unfall-wieder-frei-vorfahrt-missachtet-100.html", "thumbnailUrl": "https://images.tagesschau.de/image/22d00e2d-a5bc-496a-a8ca-59185248c115/AAABjqK1pAQ/AAABjcWesUg/16x9-512.jpg", "date": "2024-04-03T08:44:00.000+02:00", "lat": 52.8567, "lon": 7.3357, "intensity": 0.6, "source": "Tagesschau"}, {"title": "Mieten steigen in Niedersachsen: So sieht es in Ihrem Landkreis aus", "url": "https://www.tagesschau.de/inland/regional/niedersachsen/ndr-mieten-steigen-in-niedersachsen-so-sieht-es-in-ihrem-landkreis-aus-100.html", "thumbnailUrl": "https://images.tagesschau.de/image/e3931de4-cb6f-43a5-b0b7-abd7fa7f0295/AAABjqKzxXY/AAABjcWesUg/16x9-512.jpg", "date": "2024-04-03T08:43:00.000+02:00", "lat": 52.6367, "lon": 9.7356, "intensity": 0.8, "source": "Tagesschau"}, {"title": "Weniger Jungtiere bei Kegelrobben im Wattenmeer gez\u00e4hlt", "url": "https://www.tagesschau.de/inland/regional/niedersachsen/ndr-weniger-jungtiere-bei-kegelrobben-im-wattenmeer-gezaehlt-100.html", "thumbnailUrl": "https://images.tagesschau.de/image/efd1d214-6e94-49b4-af73-2965d83ae54b/AAABjqLo4Pg/AAABjcWesUg/16x9-512.jpg", "date": "2024-04-03T08:40:00.000+02:00", "lat": 53.1355, "lon": 7.8451, "intensity": 0.7, "source": "Tagesschau"}, {"title": "Frau muss nach Betrug ihres Ex-Partners 11.000 Euro bezahlen", "url": "https://www.tagesschau.de/inland/regional/niedersachsen/ndr-frau-muss-fuer-betrug-ihres-ex-partners-11-000-euro-bezahlen-100.html", "thumbnailUrl": "https://images.tagesschau.de/image/9c5ed984-b994-48d7-a953-9845e5428680/AAABjqKx_xI/AAABjcWesUg/16x9-512.jpg", "date": "2024-04-03T08:40:00.000+02:00", "lat": 52.6367, "lon": 10.4234, "intensity": 0.7, "source": "Tagesschau"}, {"title": "Weniger Br\u00fctereien seit K\u00fckent\u00f6tungsverbot", "url": "https://www.tagesschau.de/wirtschaft/unternehmen/bruetereien-kuekentoeten-landwirtschaft-100.html", "thumbnailUrl": "https://images.tagesschau.de/image/31f8d8c7-daff-409d-9466-69fbb62f9f49/AAABhnRYNcE/AAABjcWesUg/16x9-512.jpg", "date": "2024-04-03T08:36:01.507+02:00", "lat": 53.5511, "lon": 9.9937, "intensity": 0.8, "source": "Tagesschau"}, {"title": "Bayern und seine Muslime \u2013 kein unkompliziertes Verh\u00e4ltnis", "url": "https://www.tagesschau.de/inland/regional/bayern/br-bayern-und-seine-muslime--kein-unkompliziertes-verhaeltnis-102.html", "thumbnailUrl": "https://images.tagesschau.de/image/7d46c95b-ff3c-4339-9326-263131b50e07/AAABjqKsPr0/AAABjcWesUg/16x9-512.jpg", "date": "2024-04-03T08:34:22.691+02:00", "lat": 48.1351, "lon": 11.582, "intensity": 0.7, "source": "Tagesschau"}, {"title": "Verwaltungsgerichte in Niedersachsen verzeichnen mehr Asylverfahren", "url": "https://www.tagesschau.de/inland/regional/niedersachsen/ndr-verwaltungsgerichte-in-niedersachsen-verzeichnen-mehr-asylverfahren-100.html", "thumbnailUrl": "https://images.tagesschau.de/image/b23a5269-4a6a-465c-8213-bd06f7e87ca8/AAABjqLfuDk/AAABjcWesUg/16x9-512.jpg", "date": "2024-04-03T08:34:00.000+02:00", "lat": 52.6367, "lon": 10.4515, "intensity": 0.6, "source": "Tagesschau"}, {"title": "Firmen unterst\u00fctzen Klimaschutzma\u00dfnahmen von Landwirten", "url": "https://www.tagesschau.de/inland/regional/bayern/br-firmen-unterstuetzen-klimaschutzmassnahmen-von-landwirten-102.html", "thumbnailUrl": "https://images.tagesschau.de/image/0e64ac67-7e79-44df-b79a-21ab478c6d6f/AAABjqKqZ5g/AAABjcWesUg/16x9-512.jpg", "date": "2024-04-03T08:32:50.157+02:00", "lat": 49.0379, "lon": 10.4515, "intensity": 0.6, "source": "Tagesschau"}, {"title": "Solarbike: 19-j\u00e4hriger \"Sonnenradler\" auf dem Weg zur Sahara", "url": "https://www.tagesschau.de/inland/regional/bayern/br-solarbike-19-jaehriger-sonnenradler-auf-dem-weg-zur-sahara-102.html", "thumbnailUrl": "https://images.tagesschau.de/image/e2e936e1-a883-417b-9667-005ee969f79e/AAABjqKmyng/AAABjcWesUg/16x9-512.jpg", "date": "2024-04-03T08:29:37.237+02:00", "lat": 48.135125, "lon": 11.581981, "intensity": 0.7, "source": "Tagesschau"}, {"title": "Was die Bahn mit vergessenen Fahrr\u00e4dern macht", "url": "https://www.tagesschau.de/wirtschaft/verbraucher/bahn-fahrraeder-versteigerung-bauprogramm-puenktlichkeit-100.html", "thumbnailUrl": "https://images.tagesschau.de/image/7a8c1fda-3db8-40b1-950f-51c4b53b4bb4/AAABjqLIcU0/AAABjcWesUg/16x9-512.jpg", "date": "2024-04-03T08:26:40.922+02:00", "lat": 51.515, "lon": 9.998, "intensity": 0.6, "source": "Tagesschau"}, {"title": "Rund um die Uhr den Pass abholen im Rathaus in Wachenheim", "url": "https://www.tagesschau.de/inland/regional/rheinlandpfalz/swr-rund-um-die-uhr-den-pass-abholen-im-rathaus-in-wachenheim-100.html", "thumbnailUrl": "https://images.tagesschau.de/image/53724a22-4b0a-4259-a1cd-69ab9884f9d6/AAABjqLM_Eg/AAABjcWesUg/16x9-512.jpg", "date": "2024-04-03T08:11:43.000+02:00", "lat": 49.4841, "lon": 8.2151, "intensity": 0.2, "source": "Tagesschau"}, {"title": "Wann kommt die neue Br\u00fccke \u00fcber die Hunte? Wirtschaft macht Druck", "url": "https://www.tagesschau.de/inland/regional/niedersachsen/ndr-wann-kommt-die-neue-bruecke-ueber-die-hunte-wirtschaft-macht-druck-100.html", "thumbnailUrl": "https://images.tagesschau.de/image/f17c1be0-ff2e-4314-9777-c67d8f502fdd/AAABjqNNtdI/AAABjcWesUg/16x9-512.jpg", "date": "2024-04-03T08:05:00.000+02:00", "lat": 53.2372, "lon": 8.462, "intensity": 0.6, "source": "Tagesschau"}, {"title": "Kinder zum Essen gezwungen? Kita-Mitarbeiterin geht in Berufung", "url": "https://www.tagesschau.de/inland/regional/niedersachsen/ndr-kinder-zum-essen-gezwungen-kita-mitarbeiterin-geht-in-berufung-100.html", "thumbnailUrl": "https://images.tagesschau.de/image/f6d7fbc7-5d4a-42b0-b7db-f609f53e5969/AAABjqKS5eg/AAABjcWesUg/16x9-512.jpg", "date": "2024-04-03T08:04:00.000+02:00", "lat": 51.5414, "lon": 9.8867, "intensity": 0.6, "source": "Tagesschau"}, {"title": "Weiter viel Kritik an Pl\u00e4nen f\u00fcr autoarmes Ottensen ", "url": "https://www.tagesschau.de/inland/regional/hamburg/ndr-weiter-viel-kritik-an-plaenen-fuer-autoarmes-ottensen-100.html", "thumbnailUrl": "https://images.tagesschau.de/image/ea050f7f-eaef-48b0-b274-367f27b29c51/AAABjqKSveA/AAABjcWesUg/16x9-512.jpg", "date": "2024-04-03T08:02:00.000+02:00", "lat": 53.5511, "lon": 9.9372, "intensity": 0.6, "source": "Tagesschau"}, {"title": "BDI-Pr\u00e4sident kritisiert Kanzler Scholz scharf", "url": "https://www.tagesschau.de/wirtschaft/konjunktur/kritik-bdi-regierung-100.html", "thumbnailUrl": "https://images.tagesschau.de/image/4ecc6647-a7a6-4461-b8e2-c68c37883baf/AAABjqKJKlo/AAABjcWesUg/16x9-512.jpg", "date": "2024-04-03T07:58:02.325+02:00", "lat": 53.5511, "lon": 9.9937, "intensity": 0.7, "source": "Tagesschau"}, {"title": "Unbekannte legen N\u00e4gel vor Rettungszufahrt am St\u00f6ffel-Park aus", "url": "https://www.tagesschau.de/inland/regional/rheinlandpfalz/swr-unbekannte-legen-naegel-vor-rettungszufahrt-am-stoeffel-park-aus-100.html", "thumbnailUrl": "https://images.tagesschau.de/image/3459fb19-b3ba-4b82-a863-23fd14414867/AAABjqMCP0I/AAABjcWesUg/16x9-512.jpg", "date": "2024-04-03T07:55:46.000+02:00", "lat": 50.6674, "lon": 7.9156, "intensity": 0.6, "source": "Tagesschau"}, {"title": "Tochter Quecksilber gespritzt? Lange Haftstrafe f\u00fcr Vater gefordert", "url": "https://www.tagesschau.de/inland/regional/niedersachsen/ndr-tochter-quecksilber-gespritzt-lange-haftstrafe-fuer-vater-gefordert-100.html", "thumbnailUrl": "https://images.tagesschau.de/image/2a555426-4b6c-46c4-b031-d2d5fc04c14f/AAABjqKuRfw/AAABjcWesUg/16x9-512.jpg", "date": "2024-04-03T07:54:00.000+02:00", "lat": 52.3759, "lon": 9.7332, "intensity": 0.8, "source": "Tagesschau"}, {"title": "Postbankbesch\u00e4ftigte heute zu Streiks aufgerufen", "url": "https://www.tagesschau.de/inland/regional/saarland/sr-verdi-ruft-postbankbeschaeftigte-erneut-zu-streiks-auf-100.html", "thumbnailUrl": "https://images.tagesschau.de/image/18eb5b36-c5eb-424c-b3bc-0d77131dd0a7/AAABjp4fZsQ/AAABjcWesUg/16x9-512.jpg", "date": "2024-04-03T07:50:00.000+02:00", "lat": 49.2354, "lon": 6.9815, "intensity": 0.8, "source": "Tagesschau"}, {"title": "Unbekannte bewerfen NordWestBahn mit Stein und Glasflasche", "url": "https://www.tagesschau.de/inland/regional/niedersachsen/ndr-unbekannte-bewerfen-nordwestbahn-mit-stein-und-glasflasche-100.html", "thumbnailUrl": "https://images.tagesschau.de/image/89c7a875-b64c-47da-bee0-8df2a596aeb6/AAABjqKF8l4/AAABjcWesUg/16x9-512.jpg", "date": "2024-04-03T07:48:00.000+02:00", "lat": 52.2796, "lon": 8.2275, "intensity": 0.7, "source": "Tagesschau"}, {"title": "Beleuchteter Zebrastreifen in Heiden", "url": "https://www.tagesschau.de/inland/regional/nordrheinwestfalen/wdr-beleuchteter-zebrastreifen-in-heiden-102.html", "thumbnailUrl": "https://images.tagesschau.de/image/87f3e6e5-68df-4cec-88dd-0c93afe150ac/AAABjqLhDr4/AAABjcWesUg/16x9-512.jpg", "date": "2024-04-03T07:48:00.000+02:00", "lat": 51.9435, "lon": 7.0373, "intensity": 0.6, "source": "Tagesschau"}, {"title": "Litauens Angst vor Putin", "url": "https://www.tagesschau.de/ausland/europa/podcast-11km-litauen-russland-100.html", "thumbnailUrl": "https://images.tagesschau.de/image/499d663f-437f-4dc5-90de-2ab19a80aa0a/AAABjqIopOI/AAABjcWesUg/16x9-512.jpg", "date": "2024-04-03T07:46:35.489+02:00", "lat": 54.6872, "lon": 25.2797, "intensity": 0.8, "source": "Tagesschau"}, {"title": "Cannabis in der Region Stuttgart: Viele Raucherkneipen erlauben kein Kiffen", "url": "https://www.tagesschau.de/inland/regional/badenwuerttemberg/swr-cannabis-in-der-region-stuttgart-viele-raucherkneipen-erlauben-kein-kiffen-100.html", "thumbnailUrl": "https://images.tagesschau.de/image/58ca691b-8673-42d0-b4ce-99fa6debcfb2/AAABjqLvzfI/AAABjcWesUg/16x9-512.jpg", "date": "2024-04-03T06:57:51.000+02:00", "lat": 48.7758, "lon": 9.1829, "intensity": 0.4, "source": "Tagesschau"}, {"title": "Auto f\u00e4hrt in Magdeburger Caf\u00e9 \u2013 mehrere Verletzte", "url": "https://www.tagesschau.de/inland/regional/sachsenanhalt/mdr-auto-faehrt-in-magdeburger-caf--mehrere-verletzte-100.html", "thumbnailUrl": "https://images.tagesschau.de/image/11bd4b3c-b0eb-49e7-a1fb-c0e65fa618c1/AAABjqJD_hw/AAABjcWesUg/16x9-512.jpg", "date": "2024-04-03T06:40:33.000+02:00", "lat": 52.1285, "lon": 11.6276, "intensity": 0.8, "source": "Tagesschau"}, {"title": "Gasleitung wird bei Bauarbeiten in Hamburg besch\u00e4digt", "url": "https://www.tagesschau.de/inland/regional/hamburg/ndr-gasleitung-wird-bei-bauarbeiten-beschaedigt-100.html", "thumbnailUrl": "https://images.tagesschau.de/image/2c1f749d-f6d5-4497-8af0-c5bbe15ae0d3/AAABjqO126E/AAABjcWesUg/16x9-512.jpg", "date": "2024-04-03T06:36:00.000+02:00", "lat": 53.6336, "lon": 9.9392, "intensity": 0.7, "source": "Tagesschau"}, {"title": "Hochbegabte im Job: Schlauer als der Boss", "url": "https://www.tagesschau.de/inland/regional/brandenburg/rbb-hochbegabte-im-job-schlauer-als-der-boss-100.html", "thumbnailUrl": "https://images.tagesschau.de/image/4f8284f4-7030-488b-b082-d1d0c0f77459/AAABjqIv0-A/AAABjcWesUg/16x9-512.jpg", "date": "2024-04-03T06:15:00.000+02:00", "lat": 52.52, "lon": 13.405, "intensity": 0.7, "source": "Tagesschau"}, {"title": "Mediziner abgesprungen: B\u00fchlertal wieder ohne \u00e4rztliche Versorgung", "url": "https://www.tagesschau.de/inland/regional/badenwuerttemberg/swr-mediziner-abgesprungen-buehlertal-wieder-ohne-aerztliche-versorgung-100.html", "thumbnailUrl": "https://images.tagesschau.de/image/a01fc478-fe32-40b1-8616-3248a043537d/AAABjqK1H9k/AAABjcWesUg/16x9-512.jpg", "date": "2024-04-03T06:14:13.000+02:00", "lat": 49.2611, "lon": 9.7272, "intensity": 0.8, "source": "Tagesschau"}, {"title": "Neuer Stopp in Brunsb\u00fcttel: \u00dcber Hamburg und Cuxhaven nach Helgoland", "url": "https://www.tagesschau.de/inland/regional/niedersachsen/ndr-neuer-stopp-in-brunsbuettel-ueber-hamburg-und-cuxhaven-nach-helgoland-100.html", "thumbnailUrl": "https://images.tagesschau.de/image/cbd452e2-f3f2-457d-8cf0-16dc1612afe0/AAABjqI3KY0/AAABjcWesUg/16x9-512.jpg", "date": "2024-04-03T06:13:00.000+02:00", "lat": 53.8948, "lon": 9.1192, "intensity": 0.7, "source": "Tagesschau"}, {"title": "Nutzen Islamisten in Hamburg den Ramadan f\u00fcr ihre Ideologien?", "url": "https://www.tagesschau.de/inland/regional/hamburg/ndr-nutzen-islamisten-in-hamburg-den-ramadan-fuer-ihre-ideologien-100.html", "thumbnailUrl": "https://images.tagesschau.de/image/efbbfc7f-f651-4a35-8a37-075fa4eee533/AAABjp6Ay5E/AAABjcWesUg/16x9-512.jpg", "date": "2024-04-03T06:11:00.000+02:00", "lat": 53.5511, "lon": 9.9937, "intensity": 0.8, "source": "Tagesschau"}, {"title": "Freilichtmuseum am Kiekeberg pflanzt \"Apfel des Jahres\" 2024", "url": "https://www.tagesschau.de/inland/regional/niedersachsen/ndr-freilichtmuseum-am-kiekeberg-pflanzt-100.html", "thumbnailUrl": "https://images.tagesschau.de/image/c2864c4d-405b-4165-ba52-ec2f8668d921/AAABjqL1p44/AAABjcWesUg/16x9-512.jpg", "date": "2024-04-03T06:10:00.000+02:00", "lat": 53.3777, "lon": 9.8442, "intensity": 0.3, "source": "Tagesschau"}, {"title": "R\u00fcgener LNG-Terminal: Regelbetrieb soll genehmigt werden", "url": "https://www.tagesschau.de/inland/regional/mecklenburgvorpommern/ndr-ruegener-lng-terminal-regelbetrieb-soll-genehmigt-werden-100.html", "thumbnailUrl": "https://images.tagesschau.de/image/97dbb740-273b-48bd-9e7b-189feead52e6/AAABjqIoLaE/AAABjcWesUg/16x9-512.jpg", "date": "2024-04-03T06:09:00.000+02:00", "lat": 54.383, "lon": 13.468, "intensity": 0.5, "source": "Tagesschau"}, {"title": "Baustelle A8 bei Pforzheim: Wann ist wieder freie Fahrt?", "url": "https://www.tagesschau.de/inland/regional/badenwuerttemberg/swr-baustelle-a8-bei-pforzheim-wann-ist-wieder-freie-fahrt-100.html", "thumbnailUrl": "https://images.tagesschau.de/image/d3f86d80-f1b0-427f-9d6f-8b3c268f5cac/AAABjqMb4K4/AAABjcWesUg/16x9-512.jpg", "date": "2024-04-03T06:04:16.000+02:00", "lat": 48.8922, "lon": 8.6947, "intensity": 0.7, "source": "Tagesschau"}, {"title": "Hochbegabung bei Kindern - Wie Eltern das erkennen k\u00f6nnen", "url": "https://www.tagesschau.de/inland/regional/nordrheinwestfalen/wdr-hochbegabung-bei-kindern-wie-eltern-das-erkennen-koennen-100.html", "thumbnailUrl": "https://images.tagesschau.de/image/d490a0b9-679b-4078-89ab-a80894051fc3/AAABjqMCACc/AAABjcWesUg/16x9-512.jpg", "date": "2024-04-03T06:00:00.000+02:00", "lat": 51.9607, "lon": 7.6261, "intensity": 0.3, "source": "Tagesschau"}, {"title": "Noch immer kein Strom f\u00fcr K\u00f6lner Blitzer", "url": "https://www.tagesschau.de/inland/regional/nordrheinwestfalen/wdr-noch-immer-kein-strom-fuer-koelner-blitzer-100.html", "thumbnailUrl": "https://images.tagesschau.de/image/0e13ac23-59f6-4f77-ae7e-7be38ad64d8b/AAABjqIxWqk/AAABjcWesUg/16x9-512.jpg", "date": "2024-04-03T06:00:00.000+02:00", "lat": 50.9469, "lon": 6.9694, "intensity": 0.4, "source": "Tagesschau"}, {"title": "Industrialisierung an der Westk\u00fcste: Die gr\u00fcne Zukunft?", "url": "https://www.tagesschau.de/inland/regional/schleswigholstein/ndr-industrialisierung-an-der-westkueste-die-gruene-zukunft-100.html", "thumbnailUrl": "https://images.tagesschau.de/image/a88cdc73-5ee9-432a-becd-e49666c51690/AAABjqHmn_Y/AAABjcWesUg/16x9-512.jpg", "date": "2024-04-03T05:00:00.000+02:00", "lat": 54.2194, "lon": 9.6963, "intensity": 0.6, "source": "Tagesschau"}, {"title": "Israelische Armee gesteht \"schweren Fehler\" ein", "url": "https://www.tagesschau.de/ausland/asien/netanyahu-wck-angriff-102.html", "thumbnailUrl": "https://images.tagesschau.de/image/e69bdd78-75d7-417a-8e6f-25ece38e6959/AAABjqFmVNE/AAABjcWesUg/16x9-512.jpg", "date": "2024-04-03T03:00:15.403+02:00", "lat": 31.51, "lon": 34.3449, "intensity": 0.8, "source": "Tagesschau"}, {"title": "DFB-Pokal: Mehr Zuschauer beim Public Viewing des FCK als in Saarbr\u00fccken im Stadion", "url": "https://www.tagesschau.de/inland/regional/rheinlandpfalz/swr-dfb-pokal-mehr-zuschauer-beim-public-viewing-des-fck-als-in-saarbruecken-102.html", "thumbnailUrl": "https://images.tagesschau.de/image/4fa2ac47-22e6-4118-b631-7bb1fd1ef3f5/AAABjqMCNFM/AAABjcWesUg/16x9-512.jpg", "date": "2024-04-03T02:44:00.000+02:00", "lat": 49.758076, "lon": 7.28134, "intensity": 0.7, "source": "Tagesschau"}, {"title": "\"Der Fu\u00dfball schreibt die sch\u00f6nsten Geschichten\" - Der FCK steht im DFB-Pokalfinale", "url": "https://www.tagesschau.de/inland/regional/rheinlandpfalz/swr-der-fussball-schreibt-die-schoensten-geschichten-der-fck-steht-im-dfb-pokalfinale-102.html", "thumbnailUrl": "https://images.tagesschau.de/image/d95c31d1-481b-48a6-bb3e-7dcb57596c75/AAABjqMCIfE/AAABjcWesUg/16x9-512.jpg", "date": "2024-04-03T01:06:14.000+02:00", "lat": 49.4444, "lon": 7.7551, "intensity": 0.7, "source": "Tagesschau"}, {"title": "Feuerwehr befreit zwei eingeschlossene Deutsche nach Erdbeben in Taiwan", "url": "https://www.br.de/nachrichten/meldungen/index.html#n1", "thumbnailUrl": null, "date": "2024-04-03T13:53:22+02:00", "lat": 30.0444, "lon": 31.2357, "intensity": 0.8, "source": "Bayrischer Rundfunk"}, {"title": "Stoltenberg ruft Nato zu st\u00e4rkerer Unterst\u00fctzung der Ukraine auf", "url": "https://www.br.de/nachrichten/meldungen/index.html#n2", "thumbnailUrl": null, "date": "2024-04-03T13:53:22+02:00", "lat": 33.5138, "lon": 36.2021, "intensity": 0.8, "source": "Bayrischer Rundfunk"}, {"title": "Finnland gedenkt der Opfer des Schusswaffenangriffs an Schule", "url": "https://www.br.de/nachrichten/meldungen/index.html#n3", "thumbnailUrl": null, "date": "2024-04-03T13:53:22+02:00", "lat": 39.9334, "lon": 32.8597, "intensity": 0.8, "source": "Bayrischer Rundfunk"}, {"title": "Inflation in der Eurozone schw\u00e4cht sich im M\u00e4rz auf 2,4 Prozent ab", "url": "https://www.br.de/nachrichten/meldungen/index.html#n4", "thumbnailUrl": null, "date": "2024-04-03T13:53:22+02:00", "lat": 52.520008, "lon": 13.404954, "intensity": 0.7, "source": "Bayrischer Rundfunk"}, {"title": "Gut zehn Millionen Menschen d\u00fcrfen in Bayern an Europawahl teilnehmen", "url": "https://www.br.de/nachrichten/meldungen/index.html#n5", "thumbnailUrl": null, "date": "2024-04-03T13:53:22+02:00", "lat": 52.520008, "lon": 13.404954, "intensity": 0.6, "source": "Bayrischer Rundfunk"}, {"title": "Ostdeutsche Sch\u00fclerr\u00e4te warnen vor zunehmendem Rechtsextremismus an Schulen", "url": "https://www.br.de/nachrichten/meldungen/index.html#n6", "thumbnailUrl": null, "date": "2024-04-03T13:53:22+02:00", "lat": 48.135125, "lon": 11.581981, "intensity": 0.6, "source": "Bayrischer Rundfunk"}, {"title": "Abtprimas Notker Wolf ist tot", "url": "https://www.br.de/nachrichten/meldungen/index.html#n7", "thumbnailUrl": null, "date": "2024-04-03T13:53:22+02:00", "lat": 50.110922, "lon": 8.682127, "intensity": 0.8, "source": "Bayrischer Rundfunk"}, {"title": "Zahl der \u00d6ko-H\u00f6fe in Deutschland nimmt weiter zu", "url": "https://www.br.de/nachrichten/meldungen/index.html#n8", "thumbnailUrl": null, "date": "2024-04-03T13:53:22+02:00", "lat": 47.8684, "lon": 12.6394, "intensity": 0.8, "source": "Bayrischer Rundfunk"}, {"title": "Das Wetter: Wechselnd bew\u00f6lkt, zeitweise Regen; H\u00f6chstwerte 10 bis 15 Grad", "url": "https://www.br.de/nachrichten/meldungen/index.html#n9", "thumbnailUrl": null, "date": "2024-04-03T13:53:22+02:00", "lat": 48.5844, "lon": 13.6722, "intensity": 0.8, "source": "Bayrischer Rundfunk"}, {"title": "Kulturst\u00e4tte YAAM kann f\u00fcr mehrere Jahrzehnte an der Schillingbr\u00fccke in Berlin-Friedrichshain bleiben - Mietvertrag unterzeichnet", "url": "https://www.rbb24.de/kultur/beitrag/2024/04/yaam-standort-gesichert-berlin-friedrichshain-subkultur-freizeitstaette.html", "thumbnailUrl": null, "date": "Wed, 03 Apr 2024 14:01:35 +0200", "lat": 52.5145, "lon": 13.4408, "intensity": 0.7, "source": "RBB"}, {"title": "Boxkampf gegen Murtazaliev: Im Havelland will sich Culcay endlich zum Weltmeister kr\u00f6nen", "url": "https://www.rbb24.de/sport/beitrag/2024/04/boxkampf-falkensee-jack-culcay-murtazaliev-axel-schulz.html", "thumbnailUrl": null, "date": "Wed, 03 Apr 2024 14:01:14 +0200", "lat": 52.5614, "lon": 13.0854, "intensity": 0.8, "source": "RBB"}, {"title": "Schwerer Unfall auf dem s\u00fcdlichen Berliner Ring - Sperrung auf A10 in Richtung Potsdam aufgehoben", "url": "https://www.rbb24.de/panorama/beitrag/2024/04/brandenburg-a10-berliner-ring-schwerer-verkehrsunfall-niederlehme.html", "thumbnailUrl": null, "date": "Wed, 03 Apr 2024 13:02:00 +0200", "lat": 52.4392, "lon": 13.5566, "intensity": 0.8, "source": "RBB"}, {"title": "MS Goldberg: J\u00fcdisches Kulturschiff startet in Eisenh\u00fcttenstadt in neue Spielzeit", "url": "https://www.rbb24.de/kultur/beitrag/2024/04/brandenburg-saisonauftakt-juedisches-kulturschiff-eisenhuettenstadt.html", "thumbnailUrl": null, "date": "Wed, 03 Apr 2024 12:31:26 +0200", "lat": 52.1462, "lon": 14.6392, "intensity": 0.7, "source": "RBB"}, {"title": "Mutma\u00dfliche \u00dcbergriffe durch Lehrer stuft Innenministerium als ausl\u00e4nderfeindlich ein", "url": "https://www.rbb24.de/politik/beitrag/2024/04/brandenburg-cottbus-innenministerium-einstufung-uebergriffe-lehrer-auslaenderfeindlich.html", "thumbnailUrl": null, "date": "Wed, 03 Apr 2024 12:29:00 +0200", "lat": 51.7562, "lon": 14.3356, "intensity": 0.8, "source": "RBB"}, {"title": "Hemmschwelle sinkt: Ostdeutsche Sch\u00fclerr\u00e4te warnen vor Rechtsextremismus an Schulen", "url": "https://www.rbb24.de/panorama/beitrag/2024/04/ostdeutschland-brandenburg-schule-schuelerraete-warnung-rechtsextremismus.html", "thumbnailUrl": null, "date": "Wed, 03 Apr 2024 11:47:00 +0200", "lat": 51.337908, "lon": 12.496365, "intensity": 0.7, "source": "RBB"}, {"title": "Burg im Spreewald: 22-J\u00e4hriger von Vermummtem attackiert - Sch\u00e4delbruch", "url": "https://www.rbb24.de/panorama/beitrag/2024/04/brandenburg-mueschen-burg-angriff-osterfeuer-auf-mann-schaedelbruch-polizei.html", "thumbnailUrl": null, "date": "Wed, 03 Apr 2024 10:30:54 +0200", "lat": 52.033, "lon": 14.065, "intensity": 0.8, "source": "RBB"}, {"title": "Entsch\u00e4rfung am Donnerstag: Erneut Weltkriegsbombe in Berlin-Schmargendorf gefunden", "url": "https://www.rbb24.de/panorama/beitrag/2024/04/berlin-schmargendorf-erneut-weltkriegsbombe-gefunden.html", "thumbnailUrl": null, "date": "Wed, 03 Apr 2024 10:20:00 +0200", "lat": 52.4773, "lon": 13.2889, "intensity": 0.8, "source": "RBB"}, {"title": "Agrarpolitik in Brandenburg: Ostdeutsche Landwirte fordern Verkauf von bundeseigenen Agrarfl\u00e4chen", "url": "https://www.rbb24.de/wirtschaft/beitrag/2024/04/ostdeutsche-bauern-fordern-von-bund-weiteren-verkauf-flaechen.html", "thumbnailUrl": null, "date": "Wed, 03 Apr 2024 10:11:41 +0200", "lat": 52.4125, "lon": 13.6416, "intensity": 0.7, "source": "RBB"}, {"title": "W\u00f6lfe: Brandenburger J\u00e4ger dr\u00e4ngen auf baldige Einf\u00fchrung von Schnellabsch\u00fcssen", "url": "https://www.rbb24.de/panorama/beitrag/2024/04/jaeger-fordern-zuegige-regelung-fuer-schnellabschuesse-von-woelf.html", "thumbnailUrl": null, "date": "Wed, 03 Apr 2024 08:44:58 +0200", "lat": 52.5131, "lon": 13.4803, "intensity": 0.7, "source": "RBB"}, {"title": "Corona-Sp\u00e4tfolgen: Berliner Clubs k\u00e4mpfen mit finanziellen Schwierigkeiten", "url": "https://www.rbb24.de/wirtschaft/beitrag/2024/04/berlin-club-sommer-betreiber-finanzen-probleme-clubcommission.html", "thumbnailUrl": null, "date": "Wed, 03 Apr 2024 07:43:49 +0200", "lat": 52.52, "lon": 13.4066, "intensity": 0.8, "source": "RBB"}, {"title": "Sanierung: DB-Reisezentrum im Berliner Hauptbahnhof zieht vor\u00fcbergehend um", "url": "https://www.rbb24.de/wirtschaft/beitrag/2024/04/berlin-hauptbahnhof-db-reisezentrum-zieht-um.html", "thumbnailUrl": null, "date": "Wed, 03 Apr 2024 06:34:00 +0200", "lat": 52.525, "lon": 13.369, "intensity": 0.5, "source": "RBB"}, {"title": "Sieg gegen Schaffhausen: F\u00fcchse ziehen souver\u00e4n ins Viertelfinale der European League ein", "url": "https://www.rbb24.de/sport/beitrag/2024/04/berlin-sport-handball-european-league-playoff-rueckspiel-fuechse-schaffhausen-spielbericht.html", "thumbnailUrl": null, "date": "Tue, 02 Apr 2024 22:22:00 +0200", "lat": 47.706, "lon": 8.571, "intensity": 0.6, "source": "RBB"}, {"title": "Video | Neues Format: Aus rbbKultur wird radio3", "url": "https://www.rbb24.de/panorama/beitrag/av7/video-berlin-brandenburg-rbbkultur-wird-zu-radio3-umbenennung-programmaenderung-rbb.html", "thumbnailUrl": null, "date": "Tue, 02 Apr 2024 21:33:14 +0200", "lat": 52.520008, "lon": 13.404954, "intensity": 0.5, "source": "RBB"}, {"title": "Osterfeiertage: Fast 10.000 Besucher beim Anbaden im Strandbad Wannsee", "url": "https://www.rbb24.de/panorama/beitrag/2024/04/anbaden-strandbad-berlin-wannsee-10000-besucher-ostern.html", "thumbnailUrl": null, "date": "Tue, 02 Apr 2024 21:01:00 +0200", "lat": 52.4372, "lon": 13.1848, "intensity": 0.7, "source": "RBB"}, {"title": "Tesla macht Brandanschlag in Gr\u00fcnheide f\u00fcr Absatzr\u00fcckgang mitverantwortlich", "url": "https://www.rbb24.de/wirtschaft/beitrag/2024/04/tesla-absatz-sinkt-acht-prozent-musk-gruenheide-brandanschlag.html", "thumbnailUrl": null, "date": "Tue, 02 Apr 2024 19:21:00 +0200", "lat": 52.3791, "lon": 13.7534, "intensity": 0.8, "source": "RBB"}, {"title": "Ammoniak auf Firmengel\u00e4nde in Berlin-Bohnsdorf ausgetreten", "url": "https://www.rbb24.de/panorama/beitrag/2024/04/ammoniak-austritt-bohnsdorf-feuerwehr-einsatz.html", "thumbnailUrl": null, "date": "Tue, 02 Apr 2024 17:47:25 +0200", "lat": 52.3787, "lon": 13.5786, "intensity": 0.7, "source": "RBB"}, {"title": "\u00d6kolandbau in Brandenburg w\u00e4chst", "url": "https://www.rbb24.de/wirtschaft/beitrag/2024/04/oekolandbau-brandenburg-wachstum-bio-bio-produkte-axel-vogel.html", "thumbnailUrl": null, "date": "Tue, 02 Apr 2024 17:08:00 +0200", "lat": 52.4125, "lon": 13.9001, "intensity": 0.6, "source": "RBB"}, {"title": "W\u00e4rmster M\u00e4rz in Berlin und Brandenburg seit Beginn der Aufzeichnungen", "url": "https://www.rbb24.de/panorama/beitrag/2024/04/brandenburg-cottbus-temperatur-rekord-maerz-klitzschen-dwd.html", "thumbnailUrl": null, "date": "Tue, 02 Apr 2024 16:55:00 +0200", "lat": 51.756, "lon": 14.3333, "intensity": 0.6, "source": "RBB"}, {"title": "Mitgliederbefragung: Berliner SPD verschickt Wahlunterlagen f\u00fcr k\u00fcnftigen Parteivorsitz", "url": "https://www.rbb24.de/politik/beitrag/2024/04/berlin-spd-mitgliederbefragung-briefwahl-saleh-parteivorsitz.html", "thumbnailUrl": null, "date": "Tue, 02 Apr 2024 16:27:00 +0200", "lat": 52.520008, "lon": 13.404954, "intensity": 0.6, "source": "RBB"}, {"title": "Staus zum Ende der Osterferien am Wochenende erwartet", "url": "https://www.rbb24.de/panorama/beitrag/2024/04/stau-ostern-adac-berlin-brandenburg-verkehr-autobahn-auto.html", "thumbnailUrl": null, "date": "Tue, 02 Apr 2024 14:20:07 +0200", "lat": 51.5143, "lon": 9.9937, "intensity": 0.3, "source": "RBB"}, {"title": "Verkehr in Berlin und Brandenburg: Kreisverkehr am Gro\u00dfen Stern gesperrt - Einschr\u00e4nkungen auch bei der Bahn", "url": "https://www.rbb24.de/panorama/beitrag/2024/04/berlin-brandenburg-verkehr-einschraenkungen-grosser-stern-ampelanlage-kraneinsatz-tiefbauarbeiten-re1-bahn-a100.html", "thumbnailUrl": null, "date": "Tue, 02 Apr 2024 13:53:03 +0200", "lat": 52.517, "lon": 13.3696, "intensity": 0.6, "source": "RBB"}, {"title": "Identit\u00e4t aller Todesopfer von Busunfall auf A9 gekl\u00e4rt", "url": "https://www.rbb24.de/panorama/beitrag/2024/04/busunfall-a9-flixbus-todesopfer-leipzig-busfahrer-unfall.html", "thumbnailUrl": null, "date": "Tue, 02 Apr 2024 13:46:00 +0200", "lat": 51.3401, "lon": 12.3926, "intensity": 1, "source": "RBB"}, {"title": "Auf der Flucht Waffen und Munition aus Fahrzeug geworfen", "url": "https://www.rbb24.de/panorama/beitrag/2024/04/auto-schnell-berlin-kontrolle-polizei-waffen-aus-fenster.html", "thumbnailUrl": null, "date": "Tue, 02 Apr 2024 13:18:37 +0200", "lat": 41.8902, "lon": 12.4924, "intensity": 0.6, "source": "RBB"}, {"title": "Trotz Warnstreiks bei Lidl und Kaufland in Berlin und Brandenburg sind keine Filialschlie\u00dfungen zu erwarten", "url": "https://www.rbb24.de/wirtschaft/beitrag/2024/04/warnstreik-kaufland-lidl-verdi-tarifstreit-lohn-luebbenau.html", "thumbnailUrl": null, "date": "Tue, 02 Apr 2024 12:29:00 +0200", "lat": 52.520008, "lon": 13.404954, "intensity": 0.7, "source": "RBB"}, {"title": "Barnim: Motorradfahrer stirbt bei Verkehrsunfall in Joachimsthal", "url": "https://www.rbb24.de/panorama/beitrag/2024/04/motorrad-fahrer-tot-verkehr-unfall-joachimsthal-barnim-brandenburg.html", "thumbnailUrl": null, "date": "Tue, 02 Apr 2024 10:27:16 +0200", "lat": 52.9821, "lon": 13.7858, "intensity": 0.8, "source": "RBB"}, {"title": "Martin Matz: Berliner SPD-Innenexperte erwartet kaum Probleme durch Cannabis-Teil-Legalisierung", "url": "https://www.rbb24.de/politik/beitrag/2024/04/innenexperte-spd-martin-matz-legalisierung-cannabis-wenige-probleme.html", "thumbnailUrl": null, "date": "Tue, 02 Apr 2024 10:08:00 +0200", "lat": 52.520008, "lon": 13.404954, "intensity": 0.2, "source": "RBB"}, {"title": "Berlin: Autofahrer st\u00f6\u00dft mit Motorradfahrer in Kreuzberg zusammen", "url": "https://www.rbb24.de/panorama/beitrag/2024/04/motorradfahrer-berlin-kreuzberg-auto-zusammengestossen-prinzenstrasse.html", "thumbnailUrl": null, "date": "Tue, 02 Apr 2024 08:32:30 +0200", "lat": 52.4931, "lon": 13.3986, "intensity": 0.6, "source": "RBB"}, {"title": "Gro\u00dfer Stern in Berlin-Tiergarten f\u00fcr vier Tage gesperrt", "url": "https://www.rbb24.de/panorama/beitrag/2024/03/berlin-tiergarten-grosser-stern-sperrung-neue-ampeln.html", "thumbnailUrl": null, "date": "Tue, 02 Apr 2024 06:52:00 +0200", "lat": 52.5146, "lon": 13.3503, "intensity": 0.6, "source": "RBB"}, {"title": "Landkreis Spree-Nei\u00dfe: Vier Menschen bei Verkehrsunfall in Kolkwitz schwer verletzt", "url": "https://www.rbb24.de/panorama/beitrag/2024/03/brandenburg-kolkwitz-verkehrsunfall-verletzte.html", "thumbnailUrl": null, "date": "Mon, 01 Apr 2024 14:53:24 +0200", "lat": 51.722, "lon": 14.308, "intensity": 0.8, "source": "RBB"}, {"title": "Berlin-Nikolassee: Zwei Schwerverletzte nach mutma\u00dflichem illegalen Rennen", "url": "https://www.rbb24.de/panorama/beitrag/2024/04/illegales-rennen-unfall-zehlendorf.html", "thumbnailUrl": null, "date": "Mon, 01 Apr 2024 13:47:00 +0200", "lat": 52.431, "lon": 13.2377, "intensity": 0.8, "source": "RBB"}, {"title": "Video: Hertha und N\u00fcrnberg trennen sich nach furiosem Spiel mit 3:3", "url": "https://www.rbb24.de/sport/beitrag/av7/video-fussball-berlin-hertha-bsc-zweite-bundesliga-1-fc-nuernberg.html", "thumbnailUrl": null, "date": "Mon, 01 Apr 2024 00:00:00 +0200", "lat": 52.52, "lon": 13.5007, "intensity": 0.8, "source": "RBB"}, {"title": "Video: Union Berlin entf\u00fchrt einen Punkt aus Frankfurt", "url": "https://www.rbb24.de/sport/beitrag/av7/video-fussball-berlin-1-fc-union-bundesliga-eintracht-frankfurt.html", "thumbnailUrl": null, "date": "Mon, 01 Apr 2024 00:00:00 +0200", "lat": 52.457778, "lon": 13.494167, "intensity": 0.7, "source": "RBB"}, {"title": "Video | Spreewald: Sorbische Ostern", "url": "https://www.rbb24.de/panorama/beitrag/av7/video-sorbisch-ostern-ostersingen-tradition.html", "thumbnailUrl": null, "date": "Sun, 31 Mar 2024 21:40:56 +0200", "lat": 51.8667, "lon": 14.0833, "intensity": 0.2, "source": "RBB"}, {"title": "Video | Baustopp: Wie es um das Bauprojekt \"Upside Berlin\" steht", "url": "https://www.rbb24.de/panorama/beitrag/av7/video-baustopp-hochhaeuser-friedrichshain-berlin.html", "thumbnailUrl": null, "date": "Fri, 29 Mar 2024 21:13:11 +0100", "lat": 52.466, "lon": 13.739, "intensity": 0.8, "source": "RBB"}, {"title": "Video | Lost Place Fotografie: Auf den Spuren der Tuberkuloseklinik Kolkwitz", "url": "https://www.rbb24.de/panorama/beitrag/av7/video-lost-place-fotografie-kunst-verborgen.html", "thumbnailUrl": null, "date": "Fri, 29 Mar 2024 20:57:05 +0100", "lat": 51.751525, "lon": 14.323335, "intensity": 0.7, "source": "RBB"}, {"title": "Video | Frankfurt-Oder: Experimentelles Ballett im Kleist Forum", "url": "https://www.rbb24.de/kultur/beitrag/av7/video-kleist-ballett-tanz-kultur-kunst.html", "thumbnailUrl": null, "date": "Fri, 29 Mar 2024 20:50:15 +0100", "lat": 52.3412, "lon": 14.5471, "intensity": 0.4, "source": "RBB"}, {"title": "Video | Teltow-Fl\u00e4ming: Wie die Evangelische Kirche mit sexualisierter Gewalt umgeht", "url": "https://www.rbb24.de/panorama/beitrag/av7/video-sexualisiert-gewalt-evangelisch-kirche-konfirmanten.html", "thumbnailUrl": null, "date": "Fri, 29 Mar 2024 20:41:17 +0100", "lat": 52.3321, "lon": 13.2457, "intensity": 0.6, "source": "RBB"}, {"title": "Toter in Nienburg: Haftbefehl wurde in Hamburg abgelehnt", "url": "https://www.ndr.de/nachrichten/hamburg/Toter-in-Nienburg-Haftbefehl-wurde-in-Hamburg-abgelehnt,nienburg412.html", "thumbnailUrl": "https://www.ndr.de/nachrichten/niedersachsen/nienburg396_v-contentwidescreen.jpg", "date": "2024-04-03T13:24:37.781+02:00", "lat": 53.551086, "lon": 9.993682, "intensity": 0.8, "source": "NDR"}, {"title": "Schiff mit sanktionierter Fracht in Rostock: Reederei will kooperieren", "url": "https://www.ndr.de/nachrichten/mecklenburg-vorpommern/Schiff-mit-sanktionierter-Fracht-in-Rostock-Reederei-will-kooperieren-,frachtschiff128.html", "thumbnailUrl": "https://www.ndr.de/nachrichten/schleswig-holstein/zoll1050_v-contentwidescreen.jpg", "date": "2024-04-03T11:18:54.538+02:00", "lat": 54.0924, "lon": 12.1144, "intensity": 0.8, "source": "NDR"}, {"title": "Weniger Jungtiere bei Kegelrobben im Wattenmeer gez\u00e4hlt", "url": "https://www.ndr.de/nachrichten/niedersachsen/oldenburg_ostfriesland/Weniger-Jungtiere-bei-Kegelrobben-im-Wattenmeer-gezaehlt,kegelrobben408.html", "thumbnailUrl": "https://www.ndr.de/nachrichten/schleswig-holstein/schleswig-holstein_magazin/hintergrundbilder13042_v-contentwidescreen.jpg", "date": "2024-04-03T10:47:02.028+02:00", "lat": 53.7267, "lon": 8.5417, "intensity": 0.4, "source": "NDR"}, {"title": "Starker Regen: Pegelst\u00e4nde von Aller, Leine und Fuhse steigen wieder", "url": "https://www.ndr.de/nachrichten/niedersachsen/hannover_weser-leinegebiet/Starker-Regen-Pegelstaende-von-Aller-Leine-und-Fuhse-steigen-wieder,pegel236.html", "thumbnailUrl": "https://www.ndr.de/nachrichten/niedersachsen/braunschweig_harz_goettingen/talsperre178_v-contentwidescreen.jpg", "date": "2024-04-03T12:48:47.539+02:00", "lat": 52.582, "lon": 9.4632, "intensity": 0.8, "source": "NDR"}, {"title": "Sensor \"Oscar\" aus SH soll M\u00fcllberge verhindern", "url": "https://www.ndr.de/nachrichten/schleswig-holstein/Sensor-Oscar-aus-SH-soll-Muellberge-verhindern,oscar660.html", "thumbnailUrl": "https://www.ndr.de/nachrichten/schleswig-holstein/oscar662_v-contentwidescreen.jpg", "date": "2024-04-03T12:17:35.285+02:00", "lat": 53.6957, "lon": 9.9876, "intensity": 0.8, "source": "NDR"}, {"title": "Nach Tod von 22-J\u00e4hriger bei Osterfeuer: Polizei bittet um Fotos", "url": "https://www.ndr.de/nachrichten/niedersachsen/hannover_weser-leinegebiet/Nach-Tod-von-22-Jaehriger-bei-Osterfeuer-Polizei-bittet-um-Fotos,beckedorf118.html", "thumbnailUrl": "https://www.ndr.de/nachrichten/niedersachsen/notruf262_v-contentwidescreen.jpg", "date": "2024-04-03T12:38:37.611+02:00", "lat": 52.4263, "lon": 9.5857, "intensity": 0.8, "source": "NDR"}, {"title": "Kind auf Campingplatz Schillig niedergeschlagen? Mehrere Hinweise", "url": "https://www.ndr.de/nachrichten/niedersachsen/oldenburg_ostfriesland/Kind-auf-Campingplatz-Schillig-niedergeschlagen-Mehrere-Hinweise,aktuelloldenburg15284.html", "thumbnailUrl": "https://www.ndr.de/nachrichten/niedersachsen/oldenburg_ostfriesland/schillig288_v-contentwidescreen.jpg", "date": "2024-04-03T11:55:43.853+02:00", "lat": 53.692, "lon": 7.9521, "intensity": 0.7, "source": "NDR"}, {"title": "Schwesigs SPD-Ostergru\u00df an Schweriner Kita-Kinder \"unanst\u00e4ndig\"?", "url": "https://www.ndr.de/nachrichten/mecklenburg-vorpommern/Schwesigs-SPD-Ostergruss-an-Schweriner-Kita-Kinder-unanstaendig,ostergruss102.html", "thumbnailUrl": "https://www.ndr.de/nachrichten/mecklenburg-vorpommern/ostergruss104_v-contentwidescreen.jpg", "date": "2024-04-03T13:05:16.117+02:00", "lat": 53.6336, "lon": 11.4167, "intensity": 0.5, "source": "NDR"}, {"title": "Tochter Quecksilber gespritzt? Lange Haftstrafe f\u00fcr Vater gefordert", "url": "https://www.ndr.de/nachrichten/niedersachsen/hannover_weser-leinegebiet/Tochter-Quecksilber-gespritzt-Lange-Haftstrafe-fuer-Vater-gefordert,quecksilber154.html", "thumbnailUrl": "https://www.ndr.de/nachrichten/niedersachsen/hannover_weser-leinegebiet/quecksilber156_v-contentwidescreen.jpg", "date": "2024-04-03T08:30:08.486+02:00", "lat": 52.3759, "lon": 9.7376, "intensity": 0.8, "source": "NDR"}, {"title": "Karstadt-Geb\u00e4ude in Harburg ist verkauft", "url": "https://www.ndr.de/nachrichten/hamburg/Karstadt-Gebaeude-in-Harburg-ist-verkauft,galeriakarstadtkaufhof152.html", "thumbnailUrl": "https://www.ndr.de/fernsehen/screenshot1513420_v-contentwidescreen.jpg", "date": "2024-04-03T13:20:18.448+02:00", "lat": 53.4581, "lon": 9.9833, "intensity": 0.6, "source": "NDR"}, {"title": "Polizei ermittelt nach Fund von mehreren Bomben in Wolfsburg", "url": "https://www.ndr.de/nachrichten/niedersachsen/Polizei-ermittelt-nach-Fund-von-mehreren-Bomben-in-Wolfsburg,wolfsburg19602.html", "thumbnailUrl": "https://www.ndr.de/nachrichten/schleswig-holstein/polizei6418_v-contentwidescreen.jpg", "date": "2024-04-03T11:43:59.027+02:00", "lat": 52.4226, "lon": 10.7865, "intensity": 0.8, "source": "NDR"}, {"title": "Gr\u00fcnen-Politiker: Sozialleistungen zu k\u00fcrzen ist nicht wirtschaftlich", "url": "https://www.ndr.de/nachrichten/info/sendungen/interviews/Gruenen-Politiker-Sozialleistungen-zu-kuerzen-ist-nicht-wirtschaftlich,audio1606274.html", "thumbnailUrl": "https://www.ndr.de/nachrichten/niedersachsen/kindler120_v-contentwidescreen.jpg", "date": "2024-04-03T08:26:15.945+02:00", "lat": 52.3759, "lon": 9.732, "intensity": 0.6, "source": "NDR"}, {"title": "Unternehmensverband zu Kohlbrandbr\u00fccke: \"Wir h\u00e4tten Tunnel bevorzugt\"", "url": "https://www.ndr.de/nachrichten/info/sendungen/interviews/Unternehmensverband-zu-Kohlbrandbruecke-Wir-haetten-Tunnel-bevorzugt,audio1606382.html", "thumbnailUrl": "https://www.ndr.de/cornelius156_v-contentwidescreen.jpg", "date": "2024-04-03T10:40:04.938+02:00", "lat": 53.5255, "lon": 9.9393, "intensity": 0.6, "source": "NDR"}, {"title": "Prora-Zentrum auf R\u00fcgen beantragt Insolvenz", "url": "https://www.ndr.de/nachrichten/info/Prora-Zentrum-auf-Ruegen-beantragt-Insolvenz-,ndrinfo58088.html", "thumbnailUrl": "https://www.ndr.de/fernsehen/screenshot1726074_v-contentwidescreen.jpg", "date": "2024-04-03T08:22:37.120+02:00", "lat": 54.3844, "lon": 13.5789, "intensity": 0.7, "source": "NDR"}, {"title": "Niedersachsen: Seepferdchen kehren in die Nordsee zur\u00fcck", "url": "https://www.ndr.de/nachrichten/info/Niedersachsen-Seepferdchen-kehren-in-die-Nordsee-zurueck,ndrinfo58080.html", "thumbnailUrl": "https://www.ndr.de/fernsehen/screenshot1726042_v-contentwidescreen.jpg", "date": "2024-04-03T08:16:51.240+02:00", "lat": 53.0736, "lon": 8.8135, "intensity": 0.6, "source": "NDR"}, {"title": "Alkoholverbot gilt nun am Hamburger Hauptbahnhof", "url": "https://www.ndr.de/fernsehen/sendungen/hamburg_journal/Alkoholverbot-gilt-nun-am-Hamburger-Hauptbahnhof,hamj145688.html", "thumbnailUrl": "https://www.ndr.de/fernsehen/screenshot1725778_v-contentwidescreen.jpg", "date": "2024-04-02T21:30:34.892+02:00", "lat": 53.552767, "lon": 9.999464, "intensity": 0.7, "source": "NDR"}, {"title": "Cannabis-Legalisierung: Fehlt es an Pr\u00e4ventionsma\u00dfnahmen?", "url": "https://www.ndr.de/nachrichten/info/Cannabis-Legalisierung-Fehlt-es-an-Praeventionsmassnahmen,ndrinfo58048.html", "thumbnailUrl": "https://www.ndr.de/fernsehen/screenshot1725582_v-contentwidescreen.jpg", "date": "2024-04-02T15:14:27.434+02:00", "lat": 53.56, "lon": 9.986, "intensity": 0.7, "source": "NDR"}, {"title": "Zahl der Straftaten in MV 2023 steigt auf Vor-Corona-Niveau", "url": "https://www.ndr.de/fernsehen/sendungen/nordmagazin/Zahl-der-Straftaten-in-MV-2023-steigt-auf-Vor-Corona-Niveau,nordmagazin116868.html", "thumbnailUrl": "https://www.ndr.de/fernsehen/screenshot1725858_v-contentwidescreen.jpg", "date": "2024-04-03T10:20:11.356+02:00", "lat": 53.6127, "lon": 12.5927, "intensity": 0.6, "source": "NDR"}, {"title": "R\u00fcgener LNG-Terminal: Regelbetrieb soll genehmigt werden", "url": "https://www.ndr.de/nachrichten/mecklenburg-vorpommern/Ruegener-LNG-Terminal-Regelbetrieb-soll-genehmigt-werden,lng956.html", "thumbnailUrl": "https://www.ndr.de/nachrichten/schleswig-holstein/lng312_v-contentwidescreen.jpg", "date": "2024-04-03T10:33:59.987+02:00", "lat": 54.4183, "lon": 13.6646, "intensity": 0.8, "source": "NDR"}, {"title": "Industrialisierung an der Westk\u00fcste: Die gr\u00fcne Zukunft?", "url": "https://www.ndr.de/nachrichten/schleswig-holstein/Industrialisierung-an-der-Westkueste-Die-gruene-Zukunft,industrie188.html", "thumbnailUrl": "https://www.ndr.de/nachrichten/schleswig-holstein/brunsbuettel742_v-contentwidescreen.jpg", "date": "2024-04-03T07:18:31.477+02:00", "lat": 54.1961, "lon": 9.0945, "intensity": 0.5, "source": "NDR"}, {"title": "\"W\u00fcnsch Dir Deinen NDR\" - Jetzt f\u00fcr die Publikumsaktion bewerben!", "url": "https://www.ndr.de/wuensch_dir_deinen_ndr/index.html", "thumbnailUrl": "https://www.ndr.de/der_ndr/wunschprogramm131_v-contentwidescreen.jpg", "date": "2024-03-26T07:59:24.876+01:00", "lat": 53.551086, "lon": 9.993682, "intensity": 0.2, "source": "NDR"}, {"title": "Relaunch der vier NDR L\u00e4nder-Apps: Nachrichten aus Ihrer Region!", "url": "https://www.ndr.de/Relaunch-der-vier-NDR-Laender-Apps-Nachrichten-aus-Ihrer-Region,laenderapprelaunch100.html", "thumbnailUrl": "https://www.ndr.de/laenderapprelaunch102_v-contentwidescreen.jpg", "date": "2024-03-19T09:22:34.719+01:00", "lat": 53.8659, "lon": 9.8606, "intensity": 0.4, "source": "NDR"}, {"title": "Gaspreis Dashboard", "url": "https://www.ndr.de/home/gaspreis176.html", "thumbnailUrl": null, "date": "2023-04-06T14:49:06.409+02:00", "lat": 51.3426, "lon": 9.9976, "intensity": 0.7, "source": "NDR"}, {"title": "NDR Radioprogramme", "url": "https://www.ndr.de/radio/radiologobox100.html", "thumbnailUrl": null, "date": "2020-12-01T14:04:26.700+01:00", "lat": 53.5511, "lon": 9.9937, "intensity": 0.3, "source": "NDR"}, {"title": "Krieg und Terror - Die Lage im Nahen Osten und in der Ukraine", "url": "https://www.ndr.de/nachrichten/info/podcast5342.html", "thumbnailUrl": "https://www.ndr.de/nachrichten/info/podcastbild412_v-contentwidescreen.jpg", "date": "2024-04-03T07:42:21.875+02:00", "lat": 46.79651, "lon": 30.739834, "intensity": 0.8, "source": "NDR"}, {"title": "Die Ern\u00e4hrungs-Docs - Essen als Medizin", "url": "https://www.ndr.de/fernsehen/sendungen/die-ernaehrungsdocs/audio-podcast/index.html", "thumbnailUrl": "https://www.ndr.de/fernsehen/sendungen/die-ernaehrungsdocs/podcastbild338_v-contentwidescreen.jpg", "date": "2024-03-27T08:00:08.131+01:00", "lat": 53.5511, "lon": 9.9876, "intensity": 0.3, "source": "NDR"}, {"title": "Unsere Comedy \"Die Kur-Oase\"!", "url": "https://www.ndr.de/ndr2/podcasts/podcast5816.html", "thumbnailUrl": "https://www.ndr.de/ndr2/podcasts/podcast5812_v-contentwidescreen.jpg", "date": "2024-04-03T13:19:37.954+02:00", "lat": 54.9069, "lon": 8.7386, "intensity": 0.2, "source": "NDR"}, {"title": "Organisiertes Verbrechen - Recherchen im Verborgenen", "url": "https://www.ndr.de/nachrichten/info/podcast4992.html", "thumbnailUrl": "https://www.ndr.de/nachrichten/info/podcastbildov100_v-contentwidescreen.jpg", "date": "2024-03-01T06:00:27.490+01:00", "lat": 45.9432, "lon": 24.9668, "intensity": 0.8, "source": "NDR"}, {"title": "eat.READ.sleep. B\u00fccher f\u00fcr dich", "url": "https://www.ndr.de/kultur/sendungen/eat_read_sleep/index.html", "thumbnailUrl": "https://www.ndr.de/mediathek/podcastbild434_v-contentwidescreen.jpg", "date": "2024-03-29T06:00:20.892+01:00", "lat": 53.5511, "lon": 9.9937, "intensity": 0.2, "source": "NDR"}, {"title": "Killed in Action: Afghanistan - Mission ohne Ziel", "url": "https://www.ndr.de/nachrichten/info/sendungen/podcast4574.html", "thumbnailUrl": "https://www.ndr.de/nachrichten/info/podcasts/podcastbild478_v-contentwidescreen.jpg", "date": "2024-02-16T17:44:01.214+01:00", "lat": 33.9391, "lon": 66.2385, "intensity": 0.8, "source": "NDR"}, {"title": "Streitkr\u00e4fte und Strategien", "url": "https://www.ndr.de/nachrichten/info/podcast2998.html", "thumbnailUrl": "https://www.ndr.de/mediathek/mediathekbild566_v-contentwidescreen.jpg", "date": "2024-04-02T16:00:06.249+02:00", "lat": 53.5511, "lon": 9.9937, "intensity": 0.8, "source": "NDR"}, {"title": "Standpunkte", "url": "https://www.ndr.de/nachrichten/info/podcast4700.html", "thumbnailUrl": "https://www.ndr.de/mediathek/podcast5332_v-contentwidescreen.jpg", "date": "2024-04-03T00:06:40.282+02:00", "lat": 53.5511, "lon": 9.9937, "intensity": 0.5, "source": "NDR"}, {"title": "Mein Einsatz - der Feuerwehr-Podcast von NDR Niedersachsen", "url": "https://www.ndr.de/ndr1niedersachsen/podcast5774.html", "thumbnailUrl": "https://www.ndr.de/ndr1niedersachsen/podcasts/podcastbild364_v-contentwidescreen.jpg", "date": "2024-03-28T04:00:07.923+01:00", "lat": 52.3759, "lon": 9.7345, "intensity": 0.7, "source": "NDR"}, {"title": "\"Feel Hamburg\" - alle Folgen", "url": "https://www.ndr.de/903/podcasts/podcast5108.html", "thumbnailUrl": "https://www.ndr.de/mediathek/mediathekbild514_v-contentwidescreen.jpg", "date": "2024-04-03T05:00:09.975+02:00", "lat": 53.55, "lon": 10.0, "intensity": 0.4, "source": "NDR"}, {"title": "Intensiv-Station - Satire von NDR Info", "url": "https://www.ndr.de/nachrichten/info/podcast4274.html", "thumbnailUrl": "https://www.ndr.de/nachrichten/info/programm/intensivstation3272_v-contentwidescreen.jpg", "date": "2024-03-25T22:56:23.803+01:00", "lat": 54.3706, "lon": 10.5038, "intensity": 0.8, "source": "NDR"}, {"title": "Amerika, wir m\u00fcssen reden!", "url": "https://www.ndr.de/nachrichten/info/podcast4932.html", "thumbnailUrl": "https://www.ndr.de/nachrichten/info/podcastbild488_v-contentwidescreen.jpg", "date": "2024-03-15T17:30:07.058+01:00", "lat": 39.78373, "lon": -100.445882, "intensity": 0.7, "source": "NDR"}, {"title": "Inflation verliert an Tempo: Werden Lebensmittel jetzt dauerhaft billiger?", "url": "https://www1.wdr.de/nachrichten/inflation-preise-lebensmittel-billiger-100.html", "thumbnailUrl": null, "date": "2024-04-03T11:25:52Z", "lat": 53.551086, "lon": 9.993682, "intensity": 0.5, "source": "WDR"}, {"title": "NRW-Kriminalstatistik 2023: Mehr Straftaten und mehr junge Tatverd\u00e4chtige", "url": "https://www1.wdr.de/nachrichten/landespolitik/kriminalitaetsstatistik-nrw-reul-100.html", "thumbnailUrl": null, "date": "2024-04-03T11:20:01Z", "lat": 51.8133, "lon": 7.6261, "intensity": 0.8, "source": "WDR"}, {"title": "Bahnverkehr und RTL betroffen: Weltkriegsbombe in K\u00f6ln wird auf Rhein entsch\u00e4rft", "url": "https://www1.wdr.de/nachrichten/rheinland/bombe-fund-rhein-koeln-deutz-100.html", "thumbnailUrl": null, "date": "2024-04-03T11:26:48Z", "lat": 50.9361, "lon": 7.0086, "intensity": 0.8, "source": "WDR"}, {"title": "Naturschauspiel: Gipsbruchweiher im Allg\u00e4u leuchtet lila", "url": "https://www1.wdr.de/nachrichten/purpurbakterien-allgaeu-see-lila-100.html", "thumbnailUrl": null, "date": "2024-04-03T11:35:41Z", "lat": 47.5732, "lon": 10.6869, "intensity": 0.3, "source": "WDR"}, {"title": "Ministerinnen-Paar: Gr\u00fcne Ministerin Paul will Justizministerin aus Sachsen heiraten", "url": "https://www1.wdr.de/nachrichten/landespolitik/gruene-ministerin-paul-will-amtskollegin-heiraten-100.html", "thumbnailUrl": null, "date": "2024-04-03T11:07:13Z", "lat": 51.1657, "lon": 9.9286, "intensity": 0.4, "source": "WDR"}, {"title": "Zwei Verletzte bei Kleinflugzeug-Unfall am Dortmunder Flughafen", "url": "https://www1.wdr.de/nachrichten/ruhrgebiet/dortmund-flughafen-kleinflugzeug-unfall-100.html", "thumbnailUrl": null, "date": "2024-04-03T11:37:08Z", "lat": 51.5185, "lon": 7.6092, "intensity": 0.8, "source": "WDR"}, {"title": "\"Padderborn\" Schreibfehler sorgt f\u00fcr Schmunzler", "url": "https://www1.wdr.de/nachrichten/westfalen-lippe/paderborn-padderborn-schild-autobahn-100.html", "thumbnailUrl": null, "date": "2024-04-03T11:38:01Z", "lat": 51.7189, "lon": 8.7565, "intensity": 0.3, "source": "WDR"}, {"title": "Ratinger Hochhaus nach Wasserschaden ohne Strom", "url": "https://www1.wdr.de/nachrichten/rheinland/ratingen-hochhaus-wasserschaden-stromversorgung-100.html", "thumbnailUrl": null, "date": "2024-04-03T11:07:32Z", "lat": 51.297197, "lon": 6.851508, "intensity": 0.7, "source": "WDR"}, {"title": "Beleuchteter Zebrastreifen in Heiden", "url": "https://www1.wdr.de/nachrichten/westfalen-lippe/heiden-zebrastreifen-beleuchtet-100.html", "thumbnailUrl": null, "date": "2024-04-03T11:39:00Z", "lat": 47.3742, "lon": 7.1234, "intensity": 0.6, "source": "WDR"}, {"title": "Nahost-Krieg: Nahost-Liveblog: ++ Ausw\u00e4rtiges Amt bef\u00fcrchtet R\u00fcckzug von Helfern ++", "url": "https://www.tagesschau.de/newsticker/liveblog-nahost-mittwoch-118.html", "thumbnailUrl": null, "date": "2024-04-03T11:42:02Z", "lat": 31.046051, "lon": 34.851612, "intensity": 0.8, "source": "WDR"}, {"title": "Sieben Helfer get\u00f6tet: Netanyahu gesteht \"unbeabsichtigten Angriff\" auf Helfer in Gaza ein", "url": "https://www.tagesschau.de/ausland/asien/netanyahu-wck-angriff-100.html", "thumbnailUrl": null, "date": "2024-04-02T15:48:20Z", "lat": 31.5, "lon": 34.45, "intensity": 0.8, "source": "WDR"}, {"title": "Gazastreifen: Mitarbeiter von Hilfsorganisation im Gazastreifen get\u00f6tet", "url": "https://www.tagesschau.de/ausland/asien/nahost-isreal-luftangriff-hilfsorganisation-100.html", "thumbnailUrl": null, "date": "2024-04-02T06:51:01Z", "lat": 31.5107, "lon": 34.3956, "intensity": 0.8, "source": "WDR"}, {"title": "Die wichtigsten Fakten \u00fcber den Gazastreifen", "url": "https://www1.wdr.de/nachrichten/gaza-gazastreifen-israel-hintergrund-100.html", "thumbnailUrl": null, "date": "2023-10-11T15:33:25Z", "lat": 31.5107, "lon": 34.3445, "intensity": 0.8, "source": "WDR"}, {"title": "WDR aktuell Whatsapp-Kanal abonnieren - so geht's", "url": "https://www1.wdr.de/nachrichten/wdr-aktuell-whatsapp-kanal-100.html", "thumbnailUrl": null, "date": "2023-12-22T20:22:52Z", "lat": 51.4818, "lon": 7.6261, "intensity": 0.1, "source": "WDR"}, {"title": "Krieg gegen die Ukraine: Ukraine-Liveblog: ++ Stoltenberg f\u00fcr langfristige Ukraine-Hilfe ++", "url": "https://www.tagesschau.de/newsticker/liveblog-ukraine-mittwoch-350.html", "thumbnailUrl": null, "date": "2024-04-03T11:51:02Z", "lat": 50.4501, "lon": 30.5234, "intensity": 0.8, "source": "WDR"}, {"title": "Kommt Russland wegen Kriegsverbrechen vor den Internationalen Strafgerichtshof?", "url": "https://www1.wdr.de/nachrichten/kriegsverbrechen-fragen-antworten-100.html", "thumbnailUrl": null, "date": "2024-04-02T16:04:42Z", "lat": 52.0705, "lon": 4.3007, "intensity": 0.8, "source": "WDR"}, {"title": "Teilrepublik Tatarstan: Ukraine greift russische Drohnenfabrik in Tatarstan an", "url": "https://www.tagesschau.de/ausland/tatarstan-russland-drohnenangriff-100.html", "thumbnailUrl": null, "date": "2024-04-02T13:09:02Z", "lat": 55.7964, "lon": 49.1197, "intensity": 0.9, "source": "WDR"}, {"title": "Rekrutierung in der Ukraine: Rekrutierung in der Ukraine: \"Ich habe ja keine Wahl\"", "url": "https://www.tagesschau.de/ausland/europa/ukraine-rekrutierung-soldaten-100.html", "thumbnailUrl": null, "date": "2024-04-01T02:00:08Z", "lat": 50.4501, "lon": 30.5234, "intensity": 0.7, "source": "WDR"}, {"title": "Wegen Blockade von US-Hilfen: Selenskyj bef\u00fcrchtet R\u00fcckzug der Streitkr\u00e4fte wegen blockierter Hilfen", "url": "https://www.tagesschau.de/ausland/europa/ukraine-selenskyj-hilfen-usa-100.html", "thumbnailUrl": null, "date": "2024-03-30T15:06:03Z", "lat": 50.4501, "lon": 30.5234, "intensity": 0.8, "source": "WDR"}, {"title": "Ukraine gedenkt der Irpin-Opfer: Suche nach Erinnerungskultur zum Jahrestag der Irpin-Befreiung", "url": "https://www.tagesschau.de/ausland/europa/irpin-bruecke-ukraine-100.html", "thumbnailUrl": null, "date": "2024-03-29T21:36:02Z", "lat": 50.531783, "lon": 30.22409, "intensity": 0.8, "source": "WDR"}, {"title": "Ukraine: Zwischen Krieg und Normalit\u00e4t", "url": "https://www1.wdr.de/mediathek/audio/wdr5/wdr5-mittagsecho/audio-ukraine-zwischen-krieg-und-normalitaet-100.html", "thumbnailUrl": null, "date": "2024-03-27T13:17:56Z", "lat": 50.4501, "lon": 30.5234, "intensity": 0.7, "source": "WDR"}, {"title": "Brandstiftung in Solingen: Verletzte au\u00dfer Lebensgefahr", "url": "https://www1.wdr.de/nachrichten/rheinland/solingen-brand-verletzte-lebensgefahr-100.html", "thumbnailUrl": null, "date": "2024-04-02T19:14:03Z", "lat": 51.1657, "lon": 7.082, "intensity": 0.8, "source": "WDR"}, {"title": "Schlechtes Netz: So gro\u00df ist das Problem bei Handys wirklich", "url": "https://www1.wdr.de/nachrichten/nrw-funkloecher-netzabdeckung-internet-handy-empfang-100.html", "thumbnailUrl": null, "date": "2024-04-02T14:52:31Z", "lat": 51.9607, "lon": 7.6261, "intensity": 0.8, "source": "WDR"}, {"title": "Campino h\u00e4lt erste Vorlesung als Gastprofessor in D\u00fcsseldorf", "url": "https://www1.wdr.de/nachrichten/rheinland/duesseldorf-campino-gastprofessor-vorlesung-100.html", "thumbnailUrl": null, "date": "2024-04-03T11:24:55Z", "lat": 51.2277, "lon": 6.7924, "intensity": 0.5, "source": "WDR"}, {"title": "Cannabis legal - wer soll das alles kontrollieren?", "url": "https://www1.wdr.de/nachrichten/landespolitik/cannabis-gesetz-start-100.html", "thumbnailUrl": null, "date": "2024-04-03T07:13:17Z", "lat": 51.4521, "lon": 7.6261, "intensity": 0.6, "source": "WDR"}, {"title": "Antisemitische Vorf\u00e4lle in NRW nehmen zu", "url": "https://www1.wdr.de/nachrichten/landespolitik/antisemitische-vorfaelle-nrw-100.html", "thumbnailUrl": null, "date": "2024-04-03T11:39:51Z", "lat": 51.4818, "lon": 7.6261, "intensity": 0.8, "source": "WDR"}, {"title": "\"Ich musste mir einen Plan schmieden, aus der AfD rauszukommen\"", "url": "https://1.ard.de/afd-aussteiger-schild", "thumbnailUrl": null, "date": "2024-04-02T08:27:16Z", "lat": 51.959, "lon": 7.6261, "intensity": 0.3, "source": "WDR"}, {"title": "Verbote am Karfreitag: Das sind die Regeln in NRW", "url": "https://www1.wdr.de/nachrichten/landespolitik/tanzverbot-ostern-keine-aenderungen-100.html", "thumbnailUrl": null, "date": "2024-03-30T05:17:01Z", "lat": 51.9607, "lon": 7.5964, "intensity": 0.4, "source": "WDR"}, {"title": "Organspende: Laumann f\u00fcr Widerspruchsl\u00f6sung", "url": "https://www1.wdr.de/nachrichten/landespolitik/organspende-laumann-widerspruchsloesung-100.html", "thumbnailUrl": null, "date": "2024-03-28T19:23:22Z", "lat": 51.9607, "lon": 7.6261, "intensity": 0.8, "source": "WDR"}, {"title": "Warum viele Kinder in NRW nicht schwimmen k\u00f6nnen", "url": "https://www1.wdr.de/nachrichten/viele-kinder-koennen-nicht-schwimmen-100.html", "thumbnailUrl": null, "date": "2024-03-27T19:11:15Z", "lat": 51.4818, "lon": 7.6124, "intensity": 0.8, "source": "WDR"}, {"title": "Noch immer kein Strom f\u00fcr K\u00f6lner Blitzer", "url": "https://www1.wdr.de/nachrichten/rheinland/kein-strom-fuer-koelner-blitzer-100.html", "thumbnailUrl": null, "date": "2024-04-03T05:26:35Z", "lat": 50.9483, "lon": 6.991, "intensity": 0.6, "source": "WDR"}, {"title": "K\u00f6lner Wirte wollen Stilllegung ihrer Grills verhindern", "url": "https://www1.wdr.de/nachrichten/rheinland/wirte-stillegung-grills-eigensteinviertel-100.html", "thumbnailUrl": null, "date": "2024-04-03T08:00:18Z", "lat": 50.9385, "lon": 6.9583, "intensity": 0.3, "source": "WDR"}, {"title": "Neues Cannabisgesetz bewahrte ihn vor dem Gef\u00e4ngnis", "url": "https://www1.wdr.de/nachrichten/rheinland/cannabis-duesseldorf-gesetz-100.html", "thumbnailUrl": null, "date": "2024-04-02T19:17:15Z", "lat": 51.2277, "lon": 6.7735, "intensity": 0.8, "source": "WDR"}, {"title": "Kinofest L\u00fcnen k\u00e4mpft um Existenz", "url": "https://www1.wdr.de/nachrichten/rheinland/kinofest-luenen-vor-dem-aus100.html", "thumbnailUrl": null, "date": "2024-04-03T09:10:01Z", "lat": 51.6177, "lon": 7.5207, "intensity": 0.8, "source": "WDR"}, {"title": "Sexpuppe sorgt f\u00fcr Gro\u00dfeinsatz am Baldeneysee", "url": "https://www1.wdr.de/nachrichten/ruhrgebiet/sexpuppe-baldeneysee-grosseinsatz-100.html", "thumbnailUrl": null, "date": "2024-04-02T13:39:15Z", "lat": 51.4062, "lon": 7.0024, "intensity": 0.6, "source": "WDR"}, {"title": "Insolvenzverfahren f\u00fcr Galeria Karstadt Kaufhof er\u00f6ffnet", "url": "https://www1.wdr.de/nachrichten/ruhrgebiet/insolvenzverfahren-galeria-karstadt-kaufhof-100.html", "thumbnailUrl": null, "date": "2024-04-02T18:01:29Z", "lat": 51.462245, "lon": 7.014022, "intensity": 0.8, "source": "WDR"}, {"title": "Wie der Regen den Spargelbauern in der Senne zu schaffen macht", "url": "https://www1.wdr.de/nachrichten/westfalen-lippe/spargel-regen-ernte-senne-landwirte-reportage-100.html", "thumbnailUrl": null, "date": "2024-04-03T10:49:58Z", "lat": 51.9481, "lon": 8.6074, "intensity": 0.3, "source": "WDR"}, {"title": "Wei\u00dfer Ring: Ehemaliger Opferbetreuer wegen Vergewaltigung verurteilt", "url": "https://www1.wdr.de/nachrichten/westfalen-lippe/urteil-prozess-weisser-ring-100.html", "thumbnailUrl": null, "date": "2024-04-02T19:12:49Z", "lat": 51.1495, "lon": 8.6333, "intensity": 0.9, "source": "WDR"}, {"title": "\u00c4rger um Wohnungsbau-Projekt in Detmold", "url": "https://www1.wdr.de/nachrichten/westfalen-lippe/detmold-wohnraum-streit-bundesbehoerde-100.html", "thumbnailUrl": null, "date": "2024-04-03T05:43:48Z", "lat": 51.9366, "lon": 8.8783, "intensity": 0.7, "source": "WDR"}, {"title": "Die App WDR aktuell begleitet Sie durch den Tag", "url": "https://www1.wdr.de/nachrichten/wdr-aktuell-app-stores-100.html", "thumbnailUrl": null, "date": "2023-10-30T11:49:53Z", "lat": 51.4508, "lon": 7.6261, "intensity": 0.3, "source": "WDR"}, {"title": "WDR Newsroom: Informationen f\u00fcr den Westen rund um die Uhr auf allen Kan\u00e4len", "url": "https://www1.wdr.de/nachrichten/newsroom-information-nrw-westen-100.html", "thumbnailUrl": null, "date": "2021-04-14T22:00:15Z", "lat": 51.4556, "lon": 7.0116, "intensity": 0.1, "source": "WDR"}, {"title": "Das Leitungsteam des Newsrooms im WDR (Programmbereich Aktuelles)", "url": "https://www1.wdr.de/nachrichten/newsroom-leitung-team-programmbereich-aktuelles-100.html", "thumbnailUrl": null, "date": "2024-03-08T15:34:21Z", "lat": 51.460021, "lon": 7.014026, "intensity": 0.3, "source": "WDR"},