[{"title": "H\u00f6heres Selbstwertgef\u00fchl ohne Social Media", "url": "https://www.tagesschau.de/wissen/gesundheit/social-media-frauen-100.html", "thumbnailUrl": "https://images.tagesschau.de/image/4d7fd601-fee2-43da-832f-7d25e709be42/AAABjz2HQpM/AAABjwnlKNc/16x9-512.jpg", "date": "2024-05-04T02:48:44.044+02:00", "lat": 56.1304, "lon": -106.3468, "intensity": 0.7, "source": "Tagesschau"}, {"title": "++ CIA-Chef f\u00fcr Gespr\u00e4che offenbar in Kairo ++", "url": "https://www.tagesschau.de/newsticker/liveblog-nahost-freitag-132.html", "thumbnailUrl": "https://images.tagesschau.de/image/729d0c50-3d2e-4d3c-b1d8-9ec97294010f/AAABjqvuPeE/AAABjwnlKNc/16x9-512.jpg", "date": "2024-05-04T00:39:57.374+02:00", "lat": 31.7683, "lon": 35.2137, "intensity": 0.8, "source": "Tagesschau"}, {"title": "++ Zwei Tote nach Angriff in Ostukraine ++", "url": "https://www.tagesschau.de/newsticker/liveblog-ukraine-freitag-382.html", "thumbnailUrl": "https://images.tagesschau.de/image/5b073b67-29bf-4703-b6b1-71469e4c25bb/AAABjz78AfM/AAABjwnlKNc/16x9-512.jpg", "date": "2024-05-04T00:38:36.062+02:00", "lat": 48.3794, "lon": 37.6176, "intensity": 0.8, "source": "Tagesschau"}, {"title": "Goldene Lola f\u00fcr das Drama \"Sterben\"", "url": "https://www.tagesschau.de/inland/gesellschaft/deutscher-filmpreis-108.html", "thumbnailUrl": "https://images.tagesschau.de/image/17580149-2fbb-403c-91a6-aeee19632f9b/AAABj0CPJag/AAABjwnlKNc/16x9-512.jpg", "date": "2024-05-04T00:24:34.482+02:00", "lat": 51.1947, "lon": 9.9903, "intensity": 0.8, "source": "Tagesschau"}, {"title": "15.000 Bl\u00e4ser spielen gemeinsam beim Posaunentag in Hamburg", "url": "https://www.tagesschau.de/inland/regional/hamburg/ndr-15-000-blaeser-spielen-gemeinsam-beim-posaunentag-in-hamburg-100.html", "thumbnailUrl": "https://images.tagesschau.de/image/7536eb12-e4fe-49ad-a882-3e09610b602a/AAABjz8IzoU/AAABjwnlKNc/16x9-512.jpg", "date": "2024-05-04T00:00:00.000+02:00", "lat": 53.551086, "lon": 9.993682, "intensity": 0.8, "source": "Tagesschau"}, {"title": "Live-Blog 2. Liga: HSV gewinnt Stadtderby gegen St. Pauli und hofft", "url": "https://www.tagesschau.de/inland/regional/hamburg/ndr-live-blog-2-liga-hsv-oder-st-pauli-wer-gewinnt-das-stadtderby-102.html", "thumbnailUrl": "https://images.tagesschau.de/image/e69d82d2-8c31-4053-bca8-89ba2f544be9/AAABj0BDyNw/AAABjwnlKNc/16x9-512.jpg", "date": "2024-05-03T23:16:00.000+02:00", "lat": 52.2799, "lon": 10.8754, "intensity": 0.8, "source": "Tagesschau"}, {"title": "Illegales Gl\u00fccksspiel: Razzia in D\u00fcsseldorf", "url": "https://www.tagesschau.de/inland/regional/nordrheinwestfalen/wdr-illegales-gluecksspiel-razzia-in-duesseldorf-100.html", "thumbnailUrl": "https://images.tagesschau.de/image/c6fe5c37-8681-4564-b40d-cf1fd208d7c3/AAABj0BJEE8/AAABjwnlKNc/16x9-512.jpg", "date": "2024-05-03T23:04:00.000+02:00", "lat": 51.2277, "lon": 6.7735, "intensity": 0.8, "source": "Tagesschau"}, {"title": "Deutscher Filmpreis: Goldene Lola f\u00fcr Matthias Glasners Drama \"Sterben\"", "url": "https://www.tagesschau.de/inland/regional/hamburg/ndr-deutscher-filmpreis-goldene-lola-fuer-matthias-glasners-drama-sterben-100.html", "thumbnailUrl": "https://images.tagesschau.de/image/0d731b65-cc92-4d71-93cc-9deea2814d17/AAABj0BDnR4/AAABjwnlKNc/16x9-512.jpg", "date": "2024-05-03T22:26:00.000+02:00", "lat": 53.5511, "lon": 9.9937, "intensity": 0.8, "source": "Tagesschau"}, {"title": "Tag der Pressefreiheit: Gefl\u00fcchteter Journalist \u00fcber neues Leben", "url": "https://www.tagesschau.de/inland/regional/niedersachsen/ndr-wie-sich-ein-gefluechteter-journalist-fuer-pressefreiheit-einsetzt-100.html", "thumbnailUrl": "https://images.tagesschau.de/image/7a698413-7d72-460e-9adb-4a2af0cfd8ec/AAABj0Ae_sU/AAABjwnlKNc/16x9-512.jpg", "date": "2024-05-03T22:20:00.000+02:00", "lat": 52.2799, "lon": 10.4274, "intensity": 0.7, "source": "Tagesschau"}, {"title": "HSV feiert Derbysieg - und vertagt die Aufstiegsparty des FC St. Pauli", "url": "https://www.tagesschau.de/inland/regional/niedersachsen/ndr-hsv-feiert-derbysieg-und-vertagt-die-aufstiegsparty-des-fc-st-pauli-102.html", "thumbnailUrl": "https://images.tagesschau.de/image/0b53eaae-444c-4e4b-a485-a757efe0b3cc/AAABj0Ag2dU/AAABjwnlKNc/16x9-512.jpg", "date": "2024-05-03T22:15:00.000+02:00", "lat": 53.5511, "lon": 9.9937, "intensity": 0.8, "source": "Tagesschau"}, {"title": "Deutscher Filmpreis: Goldene Lola geht an Matthias Glasners Familiendrama \"Sterben\"", "url": "https://www.tagesschau.de/inland/regional/berlin/rbb-deutscher-filmpreis-goldene-lola-geht-an-matthias-glasners-familiendrama-sterben-100.html", "thumbnailUrl": "https://images.tagesschau.de/image/55e70768-556e-4124-8e4b-aa79414a9e23/AAABj0AXqHM/AAABjwnlKNc/16x9-512.jpg", "date": "2024-05-03T22:11:01.000+02:00", "lat": 52.520008, "lon": 13.404954, "intensity": 0.8, "source": "Tagesschau"}, {"title": "Frankfurt erlaubt Oben-ohne-Schwimmen ", "url": "https://www.tagesschau.de/inland/regional/hessen/hr-mehr-geschlechtergerechtigkeit-frankfurt-erlaubt-oben-ohne-schwimmen-100.html", "thumbnailUrl": "https://images.tagesschau.de/image/f0576311-7f7c-4023-9a3f-db832878be22/AAABj0AMr_U/AAABjwnlKNc/16x9-512.jpg", "date": "2024-05-03T22:00:57.748+02:00", "lat": 50.1109, "lon": 8.6821, "intensity": 0.7, "source": "Tagesschau"}, {"title": "Reparaturarbeiten: Hamburger K\u00f6hlbrandbr\u00fccke gesperrt", "url": "https://www.tagesschau.de/inland/regional/hamburg/ndr-reparaturen-koehlbrandbruecke-am-wochenende-gesperrt-100.html", "thumbnailUrl": "https://images.tagesschau.de/image/5c1ac1b8-3eb0-48eb-b8b6-29e434203ee3/AAABj0AM0LM/AAABjwnlKNc/16x9-512.jpg", "date": "2024-05-03T22:00:00.000+02:00", "lat": 53.539, "lon": 9.918, "intensity": 0.8, "source": "Tagesschau"}, {"title": "Huthi-Miliz droht mit Angriffen im Mittelmeer", "url": "https://www.tagesschau.de/ausland/asien/huthi-drohungen-mittelmeer-100.html", "thumbnailUrl": "https://images.tagesschau.de/image/9543759c-f13f-4850-802b-87d350fc9e31/AAABjz_tM98/AAABjwnlKNc/16x9-512.jpg", "date": "2024-05-03T21:57:06.437+02:00", "lat": 34.318, "lon": 15.631, "intensity": 0.7, "source": "Tagesschau"}, {"title": "Vermeintliche Hamas-Geisel tot in Israel gefunden", "url": "https://www.tagesschau.de/ausland/asien/israel-hamas-opfer-100.html", "thumbnailUrl": "https://images.tagesschau.de/image/4cbdab19-1fcb-4ea4-b9b3-51793f042b55/AAABjz-yQBc/AAABjwnlKNc/16x9-512.jpg", "date": "2024-05-03T21:39:28.185+02:00", "lat": 31.768319, "lon": 35.213711, "intensity": 0.8, "source": "Tagesschau"}, {"title": "Alt-Bundespr\u00e4sident Gauck h\u00e4lt Laudatio auf Nawalny", "url": "https://www.tagesschau.de/inland/regional/sachsen/mdr-alt-bundespraesident-gauck-haelt-laudatio-auf-nawalny-100.html", "thumbnailUrl": "https://images.tagesschau.de/image/cc4f625c-a5f2-4970-8b0b-9a5da3b49636/AAABj0CJcOo/AAABjwnlKNc/16x9-512.jpg", "date": "2024-05-03T21:30:46.000+02:00", "lat": 51.050409, "lon": 13.737262, "intensity": 0.8, "source": "Tagesschau"}, {"title": "L\u00f6scharbeiten in Berlin ziehen sich hin", "url": "https://www.tagesschau.de/inland/regional/berlin/berlin-brand-fabrikhalle-100.html", "thumbnailUrl": "https://images.tagesschau.de/image/4b4df5c0-8d3a-43ab-8604-a6d93396a7a9/AAABjz7mJ2M/AAABjwnlKNc/16x9-512.jpg", "date": "2024-05-03T21:22:19.000+02:00", "lat": 52.4426, "lon": 13.3205, "intensity": 0.8, "source": "Tagesschau"}, {"title": "Bergen-Belsen: \u00dcberlebende bleiben Gedenkveranstaltung fern", "url": "https://www.tagesschau.de/inland/regional/niedersachsen/ndr-bergen-belsen-ueberlebende-bleiben-gedenkveranstaltung-fern-100.html", "thumbnailUrl": "https://images.tagesschau.de/image/d7f7ed38-a383-4292-ba39-a7ea587c3ba8/AAABjz_mWEc/AAABjwnlKNc/16x9-512.jpg", "date": "2024-05-03T20:58:00.000+02:00", "lat": 52.7366, "lon": 9.8046, "intensity": 0.7, "source": "Tagesschau"}, {"title": "Holstein Kiel: In Wiesbaden siegen und D\u00fcsseldorf auf Distanz halten", "url": "https://www.tagesschau.de/inland/regional/schleswigholstein/ndr-holstein-kiel-in-wiesbaden-platz-zwei-festigen-104.html", "thumbnailUrl": "https://images.tagesschau.de/image/9cbc79ff-bbd8-4436-af5f-266d01d0a2a8/AAABjz_Okqc/AAABjwnlKNc/16x9-512.jpg", "date": "2024-05-03T20:45:00.000+02:00", "lat": 54.3386, "lon": 9.9976, "intensity": 0.6, "source": "Tagesschau"}, {"title": "Durchsuchung bei Polizeisch\u00fclern nach Semesterpr\u00fcfungen - Cybercrime-Ermittler pr\u00fcfen Verdacht", "url": "https://www.tagesschau.de/inland/regional/berlin/rbb-durchsuchung-bei-polizeischuelern-nach-semesterpruefungen-cybercrime-ermittler-pruefen-verdacht-100.html", "thumbnailUrl": "https://images.tagesschau.de/image/7259ea60-9098-498d-8ac3-d25f5794a168/AAABjz_HW0Y/AAABjwnlKNc/16x9-512.jpg", "date": "2024-05-03T20:43:54.000+02:00", "lat": 52.52, "lon": 13.405, "intensity": 0.7, "source": "Tagesschau"}, {"title": "Drogen, Schwarzgeld, Plagiate - Frankfurter Zoll zieht Bilanz", "url": "https://www.tagesschau.de/inland/regional/hessen/hr-drogen-schwarzgeld-plagiate-frankfurter-zoll-zieht-bilanz-100.html", "thumbnailUrl": "https://images.tagesschau.de/image/32dd5bcc-9f05-485e-ab4d-130044e8c83d/AAABjz_FWZk/AAABjwnlKNc/16x9-512.jpg", "date": "2024-05-03T20:41:58.226+02:00", "lat": 50.110922, "lon": 8.682127, "intensity": 0.9, "source": "Tagesschau"}, {"title": "Sie retten Menschen das Leben: W\u00fcst zeichnet mutige Helfer aus", "url": "https://www.tagesschau.de/inland/regional/nordrheinwestfalen/wdr-sie-retten-menschen-das-leben-wuest-zeichnet-mutige-helfer-aus-100.html", "thumbnailUrl": "https://images.tagesschau.de/image/3a2c75c3-f012-45f3-a7be-1dc425b942f7/AAABj0AHJ1Y/AAABjwnlKNc/16x9-512.jpg", "date": "2024-05-03T20:41:00.000+02:00", "lat": 51.1657, "lon": 7.6261, "intensity": 0.8, "source": "Tagesschau"}, {"title": "Erfolge f\u00fcr Saar-Uni im CHE-Ranking", "url": "https://www.tagesschau.de/inland/regional/saarland/sr-erfolge-fuer-saar-uni-im-che-ranking-100.html", "thumbnailUrl": "https://images.tagesschau.de/image/6a48361c-8cf6-4416-a4c9-0885e46ee8d6/AAABjz_OYUY/AAABjwnlKNc/16x9-512.jpg", "date": "2024-05-03T20:28:00.000+02:00", "lat": 49.2454, "lon": 6.9969, "intensity": 0.7, "source": "Tagesschau"}, {"title": "Neue Idee nach gescheitertem Verkehrsversuch am Blauen Wunder ", "url": "https://www.tagesschau.de/inland/regional/sachsen/mdr-neue-idee-nach-gescheitertem-verkehrsversuch-am-blauen-wunder-100.html", "thumbnailUrl": "https://images.tagesschau.de/image/df7ac7a2-7ff7-4b5e-84e8-fe658471e27d/AAABj0CJskg/AAABjwnlKNc/16x9-512.jpg", "date": "2024-05-03T20:25:44.000+02:00", "lat": 51.0146, "lon": 13.8092, "intensity": 0.5, "source": "Tagesschau"}, {"title": "Gr\u00fcnen-Politiker in Essen angegriffen", "url": "https://www.tagesschau.de/inland/regional/nordrheinwestfalen/wdr-zwei-gruenen-politiker-in-essen-angegriffen-100.html", "thumbnailUrl": "https://images.tagesschau.de/image/916623fe-e500-4986-8424-e83a2840c112/AAABjz_01fU/AAABjwnlKNc/16x9-512.jpg", "date": "2024-05-03T20:22:00.000+02:00", "lat": 51.4556, "lon": 7.0111, "intensity": 0.8, "source": "Tagesschau"}, {"title": "\"Islam-Fluencer\": Wie Jugendliche im Netz radikalisiert werden", "url": "https://www.tagesschau.de/inland/regional/badenwuerttemberg/swr-islam-fluencer-wie-jugendliche-im-netz-radikalisiert-werden-100.html", "thumbnailUrl": "https://images.tagesschau.de/image/39eb5707-377e-4dbc-a3a8-c75d3cafc5c0/AAABjz7yzUE/AAABjwnlKNc/16x9-512.jpg", "date": "2024-05-03T20:18:00.000+02:00", "lat": 53.5511, "lon": 9.9937, "intensity": 0.8, "source": "Tagesschau"}, {"title": "Nach Unwetter in Bisingen: Anwohner kritisieren Hochwasserschutz - mehrere H\u00e4user unbewohnbar", "url": "https://www.tagesschau.de/inland/regional/badenwuerttemberg/swr-der-tag-nach-dem-hochwasser-geschockte-anwohner-und-viel-arbeit-in-bisingen-100.html", "thumbnailUrl": "https://images.tagesschau.de/image/fa0cb1af-2eb8-4f59-9a6c-84c04f11457a/AAABjz4ybbM/AAABjwnlKNc/16x9-512.jpg", "date": "2024-05-03T20:08:00.000+02:00", "lat": 48.2515, "lon": 9.1211, "intensity": 0.8, "source": "Tagesschau"}, {"title": "Oberursel: 55-J\u00e4hriger in Fl\u00fcchtlingsunterkunft durch Stiche get\u00f6tet", "url": "https://www.tagesschau.de/inland/regional/hessen/hr-oberursel-55-jaehriger-in-fluechtlingsunterkunft-durch-stiche-getoetet-100.html", "thumbnailUrl": "https://images.tagesschau.de/image/49a09635-e50d-48c5-a1cd-cb39faab55b8/AAABjz-c-XY/AAABjwnlKNc/16x9-512.jpg", "date": "2024-05-03T19:58:21.619+02:00", "lat": 50.2014, "lon": 8.5775, "intensity": 0.8, "source": "Tagesschau"}, {"title": "Tourismusf\u00f6rderung k\u00fcnftig auch f\u00fcr Freizeiteinrichtungen m\u00f6glich", "url": "https://www.tagesschau.de/inland/regional/saarland/sr-tourismusfoerderung-kuenftig-auch-fuer-freizeiteinrichtungen-moeglich-100.html", "thumbnailUrl": "https://images.tagesschau.de/image/be072985-ddcb-4c7e-8811-8ec127e080ef/AAABjz-pwn4/AAABjwnlKNc/16x9-512.jpg", "date": "2024-05-03T19:47:00.000+02:00", "lat": 49.3964, "lon": 7.0236, "intensity": 0.8, "source": "Tagesschau"}, {"title": "Wetterlage und Temperaturen", "url": "https://www.tagesschau.de/wetter/europa-welt", "thumbnailUrl": "https://images.tagesschau.de/image/6e7d3b16-79c8-4308-822b-20c3035236b5/AAABjz-NHUc/AAABjwnlKNc/16x9-512.jpg", "date": "2024-05-03T19:43:10.361+02:00", "lat": 51.1657, "lon": 10.4515, "intensity": 0.3, "source": "Tagesschau"}, {"title": "L\u00f6schflugzeug soll gr\u00f6\u00dferen Bogen um Freizeitpark Pullman City fliegen", "url": "https://www.tagesschau.de/inland/regional/sachsenanhalt/mdr-loeschflugzeug-erschreckt-pferde-vier-verletzte-in-pullman-city-100.html", "thumbnailUrl": "https://images.tagesschau.de/image/2c031e78-59d2-4cd6-94a6-7764c55f7426/AAABjz-KvQ8/AAABjwnlKNc/16x9-512.jpg", "date": "2024-05-03T19:38:46.000+02:00", "lat": 51.6981, "lon": 11.0724, "intensity": 0.7, "source": "Tagesschau"}, {"title": "Jetzt im Live-Stream: Der Deutsche Filmpreis wird verliehen am Potsdamer Platz", "url": "https://www.tagesschau.de/inland/regional/berlin/rbb-der-deutsche-filmpreis-wird-morgen-verliehen-und-das-sollten-kino-fans-wissen-100.html", "thumbnailUrl": "https://images.tagesschau.de/image/cefba18f-4384-416d-9d4b-d8cd1c6df075/AAABjz9rjhI/AAABjwnlKNc/16x9-512.jpg", "date": "2024-05-03T19:34:54.000+02:00", "lat": 52.5145, "lon": 13.3736, "intensity": 0.8, "source": "Tagesschau"}, {"title": "Nach Messerangriff in Verden: Verd\u00e4chtiger sitzt in U-Haft", "url": "https://www.tagesschau.de/inland/regional/niedersachsen/ndr-auf-offener-strasse-mit-messer-angegriffen-frau-rettet-sich-in-auto-100.html", "thumbnailUrl": "https://images.tagesschau.de/image/970a1b2b-e442-44cb-8b39-3973fb047c17/AAABjz-HDJU/AAABjwnlKNc/16x9-512.jpg", "date": "2024-05-03T19:34:00.000+02:00", "lat": 52.9242, "lon": 9.2317, "intensity": 0.8, "source": "Tagesschau"}, {"title": "Husum: Tote Frau entdeckt - Polizei geht von T\u00f6tungsdelikt aus", "url": "https://www.tagesschau.de/inland/regional/schleswigholstein/ndr-tote-frau-in-husum-entdeckt-polizei-geht-von-toetungsdelikt-aus-100.html", "thumbnailUrl": "https://images.tagesschau.de/image/ac794c64-ea20-4021-8cd6-13363262db68/AAABjz-FMQc/AAABjwnlKNc/16x9-512.jpg", "date": "2024-05-03T19:32:00.000+02:00", "lat": 54.4853, "lon": 9.0576, "intensity": 0.5, "source": "Tagesschau"}, {"title": "Spielabsagen wegen Gro\u00dfbrand in Berlin-Lichterfelde", "url": "https://www.tagesschau.de/inland/regional/berlin/rbb-spielabsagen-wegen-grossbrand-in-berlin-lichterfelde-102.html", "thumbnailUrl": "https://images.tagesschau.de/image/e005fc54-608b-47db-8c0c-be3c9fc9253e/AAABjz_tlLs/AAABjwnlKNc/16x9-512.jpg", "date": "2024-05-03T19:28:00.000+02:00", "lat": 52.4411, "lon": 13.3102, "intensity": 0.8, "source": "Tagesschau"}, {"title": "Frankfurter Kino sagt Veranstaltung zu Golda-Meir-Film ab: \"Ernsthafte Sicherheitsbedenken\"", "url": "https://www.tagesschau.de/inland/regional/hessen/hr-frankfurter-kino-sagt-veranstaltung-zu-golda-meir-film-ab-ernsthafte-sicherheitsbedenken-100.html", "thumbnailUrl": "https://images.tagesschau.de/image/93c2815c-9edc-40a2-888d-ba8eb1eafeb3/AAABjz992Mc/AAABjwnlKNc/16x9-512.jpg", "date": "2024-05-03T19:25:53.122+02:00", "lat": 50.1109, "lon": 8.6821, "intensity": 0.6, "source": "Tagesschau"}, {"title": "T\u00f6dliche f\u00fcr Hunde und Katzen: Tierseuche bei Wildschwein im Lahn-Dill-Kreis nachgewiesen", "url": "https://www.tagesschau.de/inland/regional/hessen/hr-toedliche-fuer-hunde-und-katzen-tierseuche-bei-wildschwein-im-lahn-dill-kreis-nachgewiesen-100.html", "thumbnailUrl": "https://images.tagesschau.de/image/b7f4f05b-fd1b-4bda-9638-d6d5185984f0/AAABjz9eveU/AAABjwnlKNc/16x9-512.jpg", "date": "2024-05-03T18:51:59.884+02:00", "lat": 50.7323, "lon": 8.2979, "intensity": 0.7, "source": "Tagesschau"}, {"title": "SPD-Bundestagsabgeordneter Ahmetovic pausiert wegen Krebs", "url": "https://www.tagesschau.de/inland/regional/niedersachsen/ndr-spd-bundestagsabgeordneter-ahmetovic-pausiert-wegen-krebs-100.html", "thumbnailUrl": "https://images.tagesschau.de/image/c9203364-37ae-4d8e-ae7b-9271702ff2ab/AAABjz9Vyeo/AAABjwnlKNc/16x9-512.jpg", "date": "2024-05-03T18:39:00.000+02:00", "lat": 52.3759, "lon": 9.732, "intensity": 0.8, "source": "Tagesschau"}, {"title": "Tag der Pressefreiheit: Journalist Mascolo zu Gast an L\u00fcbecker Schule", "url": "https://www.tagesschau.de/inland/regional/schleswigholstein/ndr-tag-der-pressefreiheit-journalist-mascolo-zu-gast-an-luebecker-schule-102.html", "thumbnailUrl": "https://images.tagesschau.de/image/9fc1e41f-f178-4401-abc4-51b7287b1dcc/AAABjz9T09Q/AAABjwnlKNc/16x9-512.jpg", "date": "2024-05-03T18:37:00.000+02:00", "lat": 53.8655, "lon": 10.6849, "intensity": 0.7, "source": "Tagesschau"}, {"title": "L\u00f6schflugzeuge werden am Flughafen Braunschweig-Wolfsburg stationiert", "url": "https://www.tagesschau.de/inland/regional/niedersachsen/ndr-loeschflugzeuge-werden-am-flughafen-braunschweig-wolfsburg-stationiert-100.html", "thumbnailUrl": "https://images.tagesschau.de/image/3e8d74da-faa4-4caf-aeac-512be6b043d7/AAABjz9Vq7k/AAABjwnlKNc/16x9-512.jpg", "date": "2024-05-03T18:35:00.000+02:00", "lat": 52.266047, "lon": 10.556032, "intensity": 0.8, "source": "Tagesschau"}, {"title": "U4-Verl\u00e4ngerung in Hamburg: Meilenstein erreicht", "url": "https://www.tagesschau.de/inland/regional/hamburg/ndr-u4-verlaengerung-in-hamburg-meilenstein-erreicht-100.html", "thumbnailUrl": "https://images.tagesschau.de/image/cd402a16-bc99-4fc4-b4e2-d37286266a4b/AAABjz88CmM/AAABjwnlKNc/16x9-512.jpg", "date": "2024-05-03T18:21:00.000+02:00", "lat": 53.565, "lon": 10.084, "intensity": 0.6, "source": "Tagesschau"}, {"title": "Energie Cottbus: Claus-Dieter Wollitz h\u00f6rt 2025 als Trainer auf", "url": "https://www.tagesschau.de/inland/regional/brandenburg/rbb-energie-cottbus-claus-dieter-wollitz-hoert-2025-als-trainer-auf-100.html", "thumbnailUrl": "https://images.tagesschau.de/image/b0e7a78c-9295-44e0-bbe2-1a27f9f4d96d/AAABjz84S2g/AAABjwnlKNc/16x9-512.jpg", "date": "2024-05-03T18:08:04.000+02:00", "lat": 51.767731, "lon": 14.309252, "intensity": 0.5, "source": "Tagesschau"}, {"title": "Schock f\u00fcr HSV Hamburg: Handballer erhalten keine Bundesliga-Lizenz", "url": "https://www.tagesschau.de/inland/regional/hamburg/ndr-schock-fuer-hsv-hamburg-handballer-erhalten-keine-bundesliga-lizenz-102.html", "thumbnailUrl": "https://images.tagesschau.de/image/87a9815f-e98a-44e9-95fb-c89d39f822af/AAABjz8xIJk/AAABjwnlKNc/16x9-512.jpg", "date": "2024-05-03T18:05:00.000+02:00", "lat": 53.5511, "lon": 9.9937, "intensity": 0.8, "source": "Tagesschau"}, {"title": "Union Berlin vor Spiel gegen VfL Bochum: Klassenkampf mit Ex- und wom\u00f6glich zuk\u00fcnftigem Berliner", "url": "https://www.tagesschau.de/inland/regional/berlin/rbb-union-berlin-vor-spiel-gegen-vfl-bochum-klassenkampf-mit-ex-und-womoeglich-zukuenftigem-berliner-102.html", "thumbnailUrl": "https://images.tagesschau.de/image/2ab898cc-ae99-4607-9476-e6d986809836/AAABjz82dEk/AAABjwnlKNc/16x9-512.jpg", "date": "2024-05-03T18:03:00.000+02:00", "lat": 52.52, "lon": 13.4073, "intensity": 0.7, "source": "Tagesschau"}, {"title": "Kampf der Farben: Voller K\u00f6rpereinsatz f\u00fcr die Kunst", "url": "https://www.tagesschau.de/inland/regional/mecklenburgvorpommern/ndr-kampf-der-farben-voller-koerpereinsatz-fuer-die-kunst-100.html", "thumbnailUrl": "https://images.tagesschau.de/image/1287e793-0053-4a4b-baf7-6297ebecd1e5/AAABjz9G5mg/AAABjwnlKNc/16x9-512.jpg", "date": "2024-05-03T18:00:00.000+02:00", "lat": 53.6127, "lon": 13.2431, "intensity": 0.6, "source": "Tagesschau"}, {"title": "Kultur: +++ Maifestspiele Wiesbaden mit Anna Netrebko +++ Buchmesse verl\u00e4ngert Vertrag f\u00fcr Standort Frankfurt +++ \u00dcber 100 Veranstaltungen bei \"Ein Tag f\u00fcr die Musik\" +++ ", "url": "https://www.tagesschau.de/inland/regional/hessen/hr--schauspiel-frankfurt-bringt-putin-und-macbeth-zusammen--die-filmfestival-saison-2023-startet--lichter-filmfest-zum-thema-liebe-startet-am-dienstag-100.html", "thumbnailUrl": "https://images.tagesschau.de/image/9fe5e361-6c22-4a11-84aa-3609e5fd67f6/AAABjz9kUlE/AAABjwnlKNc/16x9-512.jpg", "date": "2024-05-03T17:54:58.937+02:00", "lat": 50.1109, "lon": 8.5683, "intensity": 0.4, "source": "Tagesschau"}, {"title": "Fuldaer Starkregen-Alarmsystem besteht H\u00e4rtetest", "url": "https://www.tagesschau.de/inland/regional/hessen/hr-fuldaer-starkregen-alarmsystem-besteht-haertetest-100.html", "thumbnailUrl": "https://images.tagesschau.de/image/854eee48-6d2f-4951-aebe-7486e017aae0/AAABjz8pnyk/AAABjwnlKNc/16x9-512.jpg", "date": "2024-05-03T17:52:14.834+02:00", "lat": 50.5525, "lon": 9.6773, "intensity": 0.6, "source": "Tagesschau"}, {"title": "Rund 300 Menschen demonstrierten f\u00fcr mehr Inklusion", "url": "https://www.tagesschau.de/inland/regional/saarland/sr-rund-300-menschen-demonstierten-fuer-mehr-inklusion-100.html", "thumbnailUrl": "https://images.tagesschau.de/image/92876bed-c287-487d-8a78-505ff8343a5b/AAABjz9QCN0/AAABjwnlKNc/16x9-512.jpg", "date": "2024-05-03T17:46:00.000+02:00", "lat": 49.3964, "lon": 6.9603, "intensity": 0.5, "source": "Tagesschau"}, {"title": "Festnahmen bei Pro-Pal\u00e4stina-Demo an Humboldt-Uni", "url": "https://www.tagesschau.de/inland/regional/berlin/humboldt-uni-gaza-protest-festnahmen-100.html", "thumbnailUrl": "https://images.tagesschau.de/image/f9d84129-b7fe-4491-b98a-2cb2bc5ac703/AAABjz8l-LM/AAABjwnlKNc/16x9-512.jpg", "date": "2024-05-03T17:45:14.000+02:00", "lat": 52.5163, "lon": 13.3946, "intensity": 0.8, "source": "Tagesschau"}, {"title": "Forschungsprojekt zum Klimawandel im Lennebergwald", "url": "https://www.tagesschau.de/inland/regional/rheinlandpfalz/swr-forschungsprojekt-zum-klimawandel-im-lennebergwald-100.html", "thumbnailUrl": "https://images.tagesschau.de/image/350b7190-516f-492b-a074-db4f250a759f/AAABjz8vKpQ/AAABjwnlKNc/16x9-512.jpg", "date": "2024-05-03T17:40:36.000+02:00", "lat": 50.3775, "lon": 7.3207, "intensity": 0.6, "source": "Tagesschau"}, {"title": "Drei Jahre nach der Flut im Ahrtal: \"Offenbar geh\u00f6rt das jetzt zu unserer Realit\u00e4t\"", "url": "https://www.tagesschau.de/inland/regional/nordrheinwestfalen/wdr-drei-jahre-nach-der-flut-offenbar-gehoert-das-jetzt-zu-unserer-realitaet-100.html", "thumbnailUrl": "https://images.tagesschau.de/image/fdd2079c-e7f4-481a-94ae-808bf619b247/AAABjz-2lDA/AAABjwnlKNc/16x9-512.jpg", "date": "2024-05-03T17:31:00.000+02:00", "lat": 50.5583, "lon": 7.1183, "intensity": 0.8, "source": "Tagesschau"}, {"title": "Fahrrad-Demo gegen Elterntaxis in K\u00f6ln", "url": "https://www.tagesschau.de/inland/regional/nordrheinwestfalen/wdr-fahrrad-demo-gegen-elterntaxis-in-koeln-100.html", "thumbnailUrl": "https://images.tagesschau.de/image/9db2d594-2327-46a2-9bcd-ef8d77c1bebf/AAABjz9DOpg/AAABjwnlKNc/16x9-512.jpg", "date": "2024-05-03T17:27:00.000+02:00", "lat": 50.9413, "lon": 7.0116, "intensity": 0.5, "source": "Tagesschau"}, {"title": "\"Katretter\" ruft Hilfe bei Notf\u00e4llen - Ersthelfer k\u00f6nnen sich registrieren", "url": "https://www.tagesschau.de/inland/regional/rheinlandpfalz/swr-katretter-ruft-hilfe-bei-notfaellen-ersthelfer-koennen-sich-registrieren-100.html", "thumbnailUrl": "https://images.tagesschau.de/image/94b40c18-09e2-4247-b60e-ebf8a1b7ecc0/AAABjz8ViBo/AAABjwnlKNc/16x9-512.jpg", "date": "2024-05-03T17:20:00.000+02:00", "lat": 49.3705, "lon": 8.2716, "intensity": 0.6, "source": "Tagesschau"}, {"title": "Drogen-Razzia in Bremerhaven: Worum ging es bei dem Gro\u00dfeinsatz?", "url": "https://www.tagesschau.de/inland/regional/bremen/rb-drogen-razzia-in-bremerhaven-worum-ging-es-bei-dem-grosseinsatz-100.html", "thumbnailUrl": "https://images.tagesschau.de/image/06809ebf-a71c-4fcf-bbfe-4824842c7a1a/AAABjz8enUc/AAABjwnlKNc/16x9-512.jpg", "date": "2024-05-03T17:15:00.000+02:00", "lat": 53.58, "lon": 8.578, "intensity": 0.8, "source": "Tagesschau"}, {"title": "55 Saar-Schulen bekommen Geld aus \"Startchancenprogramm\"", "url": "https://www.tagesschau.de/inland/regional/saarland/sr-55-saar-schulen-bekommen-geld-aus-startchancenprogramm-100.html", "thumbnailUrl": "https://images.tagesschau.de/image/aeff5d63-cda3-483a-9d22-58410be7f944/AAABjz77zj4/AAABjwnlKNc/16x9-512.jpg", "date": "2024-05-03T17:02:00.000+02:00", "lat": 49.3964, "lon": 6.9631, "intensity": 0.5, "source": "Tagesschau"}, {"title": "Rettungseinsatz am Flughafen Frankfurt: Massen-\u00dcbelkeit an Bord von Condor-Maschine", "url": "https://www.tagesschau.de/inland/regional/hessen/hr-rettungseinsatz-am-flughafen-frankfurt-massen-uebelkeit-an-bord-von-condor-maschine-100.html", "thumbnailUrl": "https://images.tagesschau.de/image/605ba1b0-e754-4dd1-80cb-86a8c97057bd/AAABjz7xDgc/AAABjwnlKNc/16x9-512.jpg", "date": "2024-05-03T16:50:30.239+02:00", "lat": 50.035845, "lon": 8.570551, "intensity": 0.8, "source": "Tagesschau"}, {"title": "Eintracht Frankfurt auf schwieriger Mission: Die Unbesiegbaren besiegen", "url": "https://www.tagesschau.de/inland/regional/hessen/hr-eintracht-frankfurt-auf-schwieriger-mission-die-unbesiegbaren-besiegen-102.html", "thumbnailUrl": "https://images.tagesschau.de/image/24278626-b220-4aa6-9b95-10bd96944cee/AAABjz7yuXY/AAABjwnlKNc/16x9-512.jpg", "date": "2024-05-03T16:39:16.457+02:00", "lat": 50.1109, "lon": 8.6821, "intensity": 0.8, "source": "Tagesschau"}, {"title": "BYD, Chery, Leapmotor: Chinas Autobauer produzieren bald in Europa", "url": "https://www.tagesschau.de/inland/regional/badenwuerttemberg/swr-byd-chery-leapmotor-chinas-autobauer-produzieren-bald-in-europa-100.html", "thumbnailUrl": "https://images.tagesschau.de/image/08706b4a-ae0b-4fae-b548-90f66e2f34bb/AAABjz775ZA/AAABjwnlKNc/16x9-512.jpg", "date": "2024-05-03T16:38:00.000+02:00", "lat": 48.7661, "lon": 9.7356, "intensity": 0.8, "source": "Tagesschau"}, {"title": "M\u00fcnster: 700.000 Euro aus Kita-Kasse veruntreut?", "url": "https://www.tagesschau.de/inland/regional/nordrheinwestfalen/wdr-muenster-700-000-euro-aus-kita-kasse-veruntreut-102.html", "thumbnailUrl": "https://images.tagesschau.de/image/5355d3c3-e1bc-4201-91cf-791a9dae9ee1/AAABjz86LHM/AAABjwnlKNc/16x9-512.jpg", "date": "2024-05-03T16:34:24.000+02:00", "lat": 51.9607, "lon": 7.6257, "intensity": 0.8, "source": "Tagesschau"}, {"title": "S3: Kommunen schreiben Minister wegen geplanter Taktverdichtung", "url": "https://www.tagesschau.de/inland/regional/schleswigholstein/ndr-s3-kommunen-schreiben-minister-wegen-geplanter-taktverdichtung-100.html", "thumbnailUrl": "https://images.tagesschau.de/image/69479ff0-4748-4bdf-b34d-6c8f30d543c4/AAABjz7cu8w/AAABjwnlKNc/16x9-512.jpg", "date": "2024-05-03T16:31:00.000+02:00", "lat": 53.66056, "lon": 9.80156, "intensity": 0.6, "source": "Tagesschau"}, {"title": "Diskussion um AfD im Landtag: Wer wusste was im Fall Krah?", "url": "https://www.tagesschau.de/inland/regional/sachsen/mdr-diskussion-um-afd-im-landtag-wer-wusste-was-im-fall-krah-100.html", "thumbnailUrl": "https://images.tagesschau.de/image/408d84fc-830d-459f-8b7c-d6221a97e99b/AAABj0CJM5M/AAABjwnlKNc/16x9-512.jpg", "date": "2024-05-03T16:24:18.000+02:00", "lat": 51.0504088, "lon": 13.7372621, "intensity": 0.7, "source": "Tagesschau"}, {"title": "Traurige Bilder beim Radklassiker: Walderneuerung in Hessen als Jahrhundertaufgabe", "url": "https://www.tagesschau.de/inland/regional/hessen/hr-traurige-bilder-beim-radklassiker-walderneuerung-in-hessen-ist-jahrhundertaufgabe-100.html", "thumbnailUrl": "https://images.tagesschau.de/image/e9522502-69b5-4f9e-91f0-a7e26b31700d/AAABj0BOkjE/AAABjwnlKNc/16x9-512.jpg", "date": "2024-05-03T16:16:16.177+02:00", "lat": 50.7374, "lon": 8.4167, "intensity": 0.8, "source": "Tagesschau"}, {"title": "Rhein in Wasser statt in Flammen", "url": "https://www.tagesschau.de/inland/regional/nordrheinwestfalen/wdr-rhein-in-wasser-statt-in-flammen-100.html", "thumbnailUrl": "https://images.tagesschau.de/image/f76ec1a8-7341-41d2-8444-f8cfc637d1ac/AAABjz86SD0/AAABjwnlKNc/16x9-512.jpg", "date": "2024-05-03T16:11:00.000+02:00", "lat": 50.7369, "lon": 7.0982, "intensity": 0.8, "source": "Tagesschau"}, {"title": "300 Bremer demonstrieren gegen Faschismus und f\u00fcr Inklusion", "url": "https://www.tagesschau.de/inland/regional/bremen/rb-demo-gegen-faschismus-und-fuer-inklusion-in-bremen-100.html", "thumbnailUrl": "https://images.tagesschau.de/image/6f51adc7-6c62-4d6c-828e-0b5720e4fc97/AAABjz7IkMI/AAABjwnlKNc/16x9-512.jpg", "date": "2024-05-03T16:06:00.000+02:00", "lat": 53.0793, "lon": 8.8017, "intensity": 0.7, "source": "Tagesschau"}, {"title": "Darum hat Starkregen wieder Gemeinden in Eifel und Hunsr\u00fcck \u00fcberschwemmt", "url": "https://www.tagesschau.de/inland/regional/rheinlandpfalz/swr-darum-hat-starkregen-wieder-gemeinden-in-eifel-und-hunsrueck-ueberschwemmt-100.html", "thumbnailUrl": "https://images.tagesschau.de/image/1da17b9a-8685-4b2e-a5b4-6b7fc16ed3ec/AAABj0CknhU/AAABjwnlKNc/16x9-512.jpg", "date": "2024-05-03T16:00:00.000+02:00", "lat": 50.0021, "lon": 7.2654, "intensity": 0.8, "source": "Tagesschau"}, {"title": "Streiks in Baubranche drohen - Arbeitgeber lehnen Schlichterspruch ab", "url": "https://www.tagesschau.de/inland/regional/berlin/rbb-streiks-in-baubranche-drohen-arbeitgeber-lehnen-schlichterspruch-ab-100.html", "thumbnailUrl": "https://images.tagesschau.de/image/2f7e4dfb-c975-4da0-93a6-be90ef5eea3f/AAABjz7BX3U/AAABjwnlKNc/16x9-512.jpg", "date": "2024-05-03T15:55:01.000+02:00", "lat": 52.520008, "lon": 13.404954, "intensity": 0.8, "source": "Tagesschau"}, {"title": "Trag\u00f6die am Kriegsende: Bomben auf die \"Cap Arcona\"", "url": "https://www.tagesschau.de/inland/regional/schleswigholstein/ndr-tragoedie-am-kriegsende-bomben-auf-die-cap-arcona-100.html", "thumbnailUrl": "https://images.tagesschau.de/image/777ebaaf-f086-47d8-8874-81895579a5cb/AAABjz1GR3c/AAABjwnlKNc/16x9-512.jpg", "date": "2024-05-03T15:55:00.000+02:00", "lat": 54.4079, "lon": 10.1302, "intensity": 0.8, "source": "Tagesschau"}, {"title": "Nach Messerangriff auf Vierj\u00e4hrige in Wangen: Kind und Familie in Therapie", "url": "https://www.tagesschau.de/inland/regional/badenwuerttemberg/swr-nach-messerangriff-auf-vierjaehrige-in-wangen-kind-und-familie-in-therapie-100.html", "thumbnailUrl": "https://images.tagesschau.de/image/865b49dc-7e9a-4093-bcc0-9b538df4791e/AAABjz7Bbts/AAABjwnlKNc/16x9-512.jpg", "date": "2024-05-03T15:52:35.000+02:00", "lat": 47.6859, "lon": 9.8366, "intensity": 0.8, "source": "Tagesschau"}, {"title": "VfL Osnabr\u00fcck gegen Schalke 04 findet ohne Zuschauer am Millerntor statt", "url": "https://www.tagesschau.de/inland/regional/niedersachsen/ndr-vfl-osnabrueck-gegen-schalke-04-findet-ohne-zuschauer-am-millerntor-statt-106.html", "thumbnailUrl": "https://images.tagesschau.de/image/2487dda6-12fc-4bdb-9715-b5847ef86341/AAABjz--ViQ/AAABjwnlKNc/16x9-512.jpg", "date": "2024-05-03T15:46:00.000+02:00", "lat": 52.2787, "lon": 9.9937, "intensity": 0.8, "source": "Tagesschau"}, {"title": "Neues ambulantes Kinder- und Jugendhospiz in Hachenburg er\u00f6ffnet", "url": "https://www.tagesschau.de/inland/regional/rheinlandpfalz/swr-neues-ambulantes-kinder-und-jugendhospiz-in-hachenburg-eroeffnet-100.html", "thumbnailUrl": "https://images.tagesschau.de/image/fd35b394-a670-4b4a-9ce6-bde4942ac58d/AAABjz8geHo/AAABjwnlKNc/16x9-512.jpg", "date": "2024-05-03T15:44:50.000+02:00", "lat": 50.6859, "lon": 7.7973, "intensity": 0.8, "source": "Tagesschau"}, {"title": "NATO-\u00dcbung in Rostock: General fordert \"wehrbereite\" Gesellschaft", "url": "https://www.tagesschau.de/inland/regional/mecklenburgvorpommern/ndr-grossuebung-im-rostocker-hafen-reservisten-und-heimatschutz-bei-panzerverlegung-102.html", "thumbnailUrl": "https://images.tagesschau.de/image/c57aa18a-102b-4161-b51b-49987a598abb/AAABjz7ZBnI/AAABjwnlKNc/16x9-512.jpg", "date": "2024-05-03T15:38:00.000+02:00", "lat": 54.0924, "lon": 12.1198, "intensity": 0.7, "source": "Tagesschau"}, {"title": "Zoll wundert sich \u00fcber Paket mit vermeintlichem Dino-Ei", "url": "https://www.tagesschau.de/inland/regional/niedersachsen/ndr-zoll-wundert-sich-ueber-paket-mit-vermeintlichem-dino-ei-100.html", "thumbnailUrl": "https://images.tagesschau.de/image/56fcc40e-edac-4fc6-bd44-7e26f45131a8/AAABjz6kAA4/AAABjwnlKNc/16x9-512.jpg", "date": "2024-05-03T15:23:00.000+02:00", "lat": 52.4226, "lon": 10.75, "intensity": 0.6, "source": "Tagesschau"}, {"title": "Tagesbesucher lassen Venedigs Einnahmen sprudeln", "url": "https://www.tagesschau.de/ausland/europa/venedig-tagestouristen-einnahmen-100.html", "thumbnailUrl": "https://images.tagesschau.de/image/ab53a621-1844-4781-afaa-a032bf3d6548/AAABjz6xYmI/AAABjwnlKNc/16x9-512.jpg", "date": "2024-05-03T15:22:55.787+02:00", "lat": 45.4408, "lon": 12.3155, "intensity": 0.7, "source": "Tagesschau"}, {"title": "Traditionsschiff \"Greif\" soll 2025 wieder in See stechen", "url": "https://www.tagesschau.de/inland/regional/mecklenburgvorpommern/ndr-traditionsschiff-greif-soll-2025-wieder-in-see-stechen-100.html", "thumbnailUrl": "https://images.tagesschau.de/image/ffea2d15-24a3-4c19-bfb6-a43ff6fe0bfe/AAABjz7R1ww/AAABjwnlKNc/16x9-512.jpg", "date": "2024-05-03T15:11:00.000+02:00", "lat": 54.3097, "lon": 13.0812, "intensity": 0.7, "source": "Tagesschau"}, {"title": "Prozess gegen Bj\u00f6rn H\u00f6cke: Urteil am 14. Mai erwartet", "url": "https://www.tagesschau.de/inland/regional/sachsenanhalt/mdr-bjoern-hoecke-in-halle-vor-gericht-keine-freiheitsstrafe-fuer-afd-politiker-zu-erwarten-100.html", "thumbnailUrl": "https://images.tagesschau.de/image/c17ae278-0ffd-4ba3-b456-27e43b27cd69/AAABjz3W5vI/AAABjwnlKNc/16x9-512.jpg", "date": "2024-05-03T15:07:25.000+02:00", "lat": 51.48184, "lon": 11.96782, "intensity": 0.6, "source": "Tagesschau"}, {"title": "Eintracht: +++ Bayer-Rotation erschwert Toppm\u00f6llers Arbeit +++ Eintracht hei\u00df auf Sieg gegen Bayer +++ Alonso gelassen trotz Gelb-Sperre +++", "url": "https://www.tagesschau.de/inland/regional/hessen/hr--eintracht-wohl-mit-chaibi-einig--glasner-fast-nur-kolo-muani-der-tore-erzielt--bericht-eintracht-sagt-aouar-ab-100.html", "thumbnailUrl": "https://images.tagesschau.de/image/75fc8bc4-4c74-4494-9914-74bc41095397/AAABjz6MnJA/AAABjwnlKNc/16x9-512.jpg", "date": "2024-05-03T15:01:02.014+02:00", "lat": 50.110922, "lon": 8.682127, "intensity": 0.6, "source": "Tagesschau"}, {"title": "Prozess gegen Homburger HNO-Chefarzt wird neu aufgerollt", "url": "https://www.tagesschau.de/inland/regional/saarland/sr-homburger-hno-chefarzt-legt-berufung-gegen-urteil-ein-100.html", "thumbnailUrl": "https://images.tagesschau.de/image/cd4f3500-a31a-4653-bc53-e8b644996dd5/AAABjz6N8ek/AAABjwnlKNc/16x9-512.jpg", "date": "2024-05-03T15:00:00.000+02:00", "lat": 49.3167, "lon": 7.3333, "intensity": 0.8, "source": "Tagesschau"}, {"title": "Charit\u00e9 Berlin: Revision im Verfahren gegen Herzmediziner", "url": "https://www.tagesschau.de/inland/regional/berlin/rbb-charit-berlin-revision-im-verfahren-gegen-herzmediziner-100.html", "thumbnailUrl": "https://images.tagesschau.de/image/5a619429-4845-4fb8-a2f0-4e76681fdef7/AAABjz6G5Yw/AAABjwnlKNc/16x9-512.jpg", "date": "2024-05-03T14:53:25.000+02:00", "lat": 52.520008, "lon": 13.38886, "intensity": 0.6, "source": "Tagesschau"}, {"title": "Meinung zum geplatzten Bildungstreffen: Nur die Kulisse hat gestimmt ", "url": "https://www.tagesschau.de/inland/regional/badenwuerttemberg/swr-meinung-zum-geplatztem-bildungstreffen-nur-die-kulisse-hat-gestimmt-100.html", "thumbnailUrl": "https://images.tagesschau.de/image/27aa7f0c-31b0-4668-80d7-5b2f9de39fa6/AAABjz6Gpq8/AAABjwnlKNc/16x9-512.jpg", "date": "2024-05-03T14:52:38.000+02:00", "lat": 48.7934, "lon": 9.1312, "intensity": 0.5, "source": "Tagesschau"}, {"title": "Brandenburger Polizei r\u00e4umt Vers\u00e4umnisse ein", "url": "https://www.tagesschau.de/inland/regional/brandenburg/polizei-blockade-goeringeckardt-100.html", "thumbnailUrl": "https://images.tagesschau.de/image/17af95ba-8332-41be-9596-f8d588b93232/AAABhnkVghI/AAABjwnlKNc/16x9-512.jpg", "date": "2024-05-03T14:30:08.717+02:00", "lat": 52.412, "lon": 13.301, "intensity": 0.6, "source": "Tagesschau"}, {"title": "Er\u00f6ffnung der K\u00f6lner Oper wieder abgesagt", "url": "https://www.tagesschau.de/inland/regional/nordrheinwestfalen/wdr-eroeffnung-der-koelner-oper-wieder-abgesagt-100.html", "thumbnailUrl": "https://images.tagesschau.de/image/50cea976-0f14-417b-a94c-8aee021aedda/AAABjz7vLHk/AAABjwnlKNc/16x9-512.jpg", "date": "2024-05-03T14:30:00.000+02:00", "lat": 50.941667, "lon": 7.013056, "intensity": 0.7, "source": "Tagesschau"}, {"title": "Bad Friedrichshall: Mann wird bei Durchsuchung von Polizei angeschossen", "url": "https://www.tagesschau.de/inland/regional/badenwuerttemberg/swr-bad-friedrichshall-mann-wird-bei-durchsuchung-von-polizei-angeschossen-100.html", "thumbnailUrl": "https://images.tagesschau.de/image/6e5c6593-8f2c-410b-a781-31bf11c52ac7/AAABjz6GxFQ/AAABjwnlKNc/16x9-512.jpg", "date": "2024-05-03T14:24:33.000+02:00", "lat": 49.2331, "lon": 9.2254, "intensity": 0.8, "source": "Tagesschau"}, {"title": "Drei Saar-Festivals von der Initiative Musik gef\u00f6rdert", "url": "https://www.tagesschau.de/inland/regional/saarland/sr-drei-saar-festivals-von-der-initiative-musik-gefoerdert-100.html", "thumbnailUrl": "https://images.tagesschau.de/image/23bf52cc-70da-41c0-8a2b-029f3c40bce4/AAABjz5rJ60/AAABjwnlKNc/16x9-512.jpg", "date": "2024-05-03T14:23:00.000+02:00", "lat": 49.3964, "lon": 7.0, "intensity": 0.8, "source": "Tagesschau"}, {"title": "Zahl der Toten in Kenia steigt auf mehr als 200", "url": "https://www.tagesschau.de/ausland/afrika/kenia-masai-mara-ueberschwemmung-100.html", "thumbnailUrl": "https://images.tagesschau.de/image/0cc46d4a-9f71-4605-bd01-fd6cc72f0b6b/AAABjz5me1g/AAABjwnlKNc/16x9-512.jpg", "date": "2024-05-03T14:20:55.030+02:00", "lat": 0.0236, "lon": 37.9062, "intensity": 0.8, "source": "Tagesschau"}, {"title": "Feuer mit Millionenschaden: War Unkrautbrenner der Ausl\u00f6ser?", "url": "https://www.tagesschau.de/inland/regional/niedersachsen/ndr-feuer-mit-millionenschaden-war-unkrautbrenner-der-ausloeser-100.html", "thumbnailUrl": "https://images.tagesschau.de/image/20fa82cb-629d-4af5-9e5f-6d2e47b631db/AAABjz47oZg/AAABjwnlKNc/16x9-512.jpg", "date": "2024-05-03T14:20:00.000+02:00", "lat": 52.3759, "lon": 9.7416, "intensity": 0.8, "source": "Tagesschau"}, {"title": "In der Wetterau ausgeb\u00fcxt: Bulle und Kuh machen Mittelhessen unsicher", "url": "https://www.tagesschau.de/inland/regional/hessen/hr-in-der-wetterau-ausgebuext-bulle-und-kuh-machen-mittelhessen-unsicher-100.html", "thumbnailUrl": "https://images.tagesschau.de/image/aae44de1-2576-455e-b20a-e79bcd9d9339/AAABjz5tLH0/AAABjwnlKNc/16x9-512.jpg", "date": "2024-05-03T14:19:25.914+02:00", "lat": 50.3503, "lon": 8.6466, "intensity": 0.4, "source": "Tagesschau"}, {"title": "Messerangriff an der Haust\u00fcr - Verd\u00e4chtiges Ehepaar in Haft", "url": "https://www.tagesschau.de/inland/regional/niedersachsen/ndr-messerangriff-an-der-haustuer-verdaechtiges-ehepaar-in-haft-100.html", "thumbnailUrl": "https://images.tagesschau.de/image/422bb8b7-dc99-42df-9de9-e5afd5fefadc/AAABjz5iGX0/AAABjwnlKNc/16x9-512.jpg", "date": "2024-05-03T14:08:00.000+02:00", "lat": 53.0421, "lon": 8.6224, "intensity": 0.8, "source": "Tagesschau"}, {"title": "LNG-Terminal-Betreiber: Binz klagt mit falschen Behauptungen", "url": "https://www.tagesschau.de/inland/regional/mecklenburgvorpommern/ndr-ostseebad-binz-geht-weiter-juristisch-gegen-lng-terminal-vor-100.html", "thumbnailUrl": "https://images.tagesschau.de/image/05d76be7-94ca-4a4c-b642-b26957a3e287/AAABjz6Pxnc/AAABjwnlKNc/16x9-512.jpg", "date": "2024-05-03T14:06:00.000+02:00", "lat": 54.3894, "lon": 13.6369, "intensity": 0.8, "source": "Tagesschau"}, {"title": "Jugendliche schlagen Gleichaltrigen in Essen zusammen und urinieren auf ihn", "url": "https://www.tagesschau.de/inland/regional/nordrheinwestfalen/wdr-jugendliche-schlagen-gleichaltrigen-in-essen-zusammen-und-urinieren-auf-ihn-100.html", "thumbnailUrl": "https://images.tagesschau.de/image/75bcd277-f40a-455c-bfcb-137a14b24a4f/AAABjz7gWRg/AAABjwnlKNc/16x9-512.jpg", "date": "2024-05-03T14:00:00.000+02:00", "lat": 51.4556, "lon": 7.0116, "intensity": 0.8, "source": "Tagesschau"}, {"title": "Nach Urteil des Oberlandesgerichts: Cottbuser Verwaltungsgericht entscheidet f\u00fcr rechtsextremen Jura-Studenten", "url": "https://www.tagesschau.de/inland/regional/brandenburg/rbb-nach-urteil-des-oberlandesgerichts-cottbuser-verwaltungsgericht-entscheidet-fuer-rechtsextremen-jura-studenten-100.html", "thumbnailUrl": "https://images.tagesschau.de/image/215af76a-b273-48bb-bdc0-ce553865094b/AAABjz5TbDE/AAABjwnlKNc/16x9-512.jpg", "date": "2024-05-03T13:56:08.000+02:00", "lat": 51.7562, "lon": 13.4334, "intensity": 0.7, "source": "Tagesschau"}, {"title": "\"Noch befriedigend\" f\u00fcr den Standort Deutschland", "url": "https://www.tagesschau.de/wirtschaft/deutschland-standort-drei-minus-100.html", "thumbnailUrl": "https://images.tagesschau.de/image/b25d2bf4-a4c3-4661-93ce-7aa80e41f4bf/AAABjzgdX9w/AAABjwnlKNc/16x9-512.jpg", "date": "2024-05-03T13:52:00.630+02:00", "lat": 51.1657, "lon": 10.4515, "intensity": 0.7, "source": "Tagesschau"}, {"title": "IdeenExpo in Hannover will junge Menschen f\u00fcrs Handwerk begeistern", "url": "https://www.tagesschau.de/inland/regional/niedersachsen/ndr-ideenexpo-in-hannover-will-junge-menschen-fuers-handwerk-begeistern-100.html", "thumbnailUrl": "https://images.tagesschau.de/image/8772b6ac-5191-4d37-bd6c-b9c7d18036f7/AAABjz5GtLc/AAABjwnlKNc/16x9-512.jpg", "date": "2024-05-03T13:43:00.000+02:00", "lat": 52.37589, "lon": 9.73322, "intensity": 0.8, "source": "Tagesschau"}, {"title": "Wildfra\u00df auf Friedhof in Fulda: Tierschutzbeauftragte h\u00e4lt Reh-Abschuss f\u00fcr angebracht", "url": "https://www.tagesschau.de/inland/regional/hessen/hr-wildfrass-auf-friedhof-in-fulda-tierschutzbeauftragte-haelt-reh-abschuss-fuer-angebracht-100.html", "thumbnailUrl": "https://images.tagesschau.de/image/14da4de3-b8a7-49d5-bbb8-f472123187f8/AAABjz4_O3o/AAABjwnlKNc/16x9-512.jpg", "date": "2024-05-03T13:37:27.338+02:00", "lat": 50.5633, "lon": 9.676, "intensity": 0.6, "source": "Tagesschau"}, {"title": "Prozess: Haftstrafe wegen schwerer Zwangsprostitution", "url": "https://www.tagesschau.de/inland/regional/hamburg/ndr-prozess-haftstrafe-wegen-schwerer-zwangsprostitution-100.html", "thumbnailUrl": "https://images.tagesschau.de/image/1e7af14f-79f7-43d7-a458-6d3d7df54043/AAABjz4_TAw/AAABjwnlKNc/16x9-512.jpg", "date": "2024-05-03T13:32:00.000+02:00", "lat": 53.5511, "lon": 9.9937, "intensity": 0.8, "source": "Tagesschau"}, {"title": "Nach Geldautomatensprengung in Ludwigshafen - Sprengstoff abtransportiert", "url": "https://www.tagesschau.de/inland/regional/rheinlandpfalz/swr-nach-geldautomatensprengung-in-ludwigshafen-sprengstoff-abtransportiert-100.html", "thumbnailUrl": "https://images.tagesschau.de/image/b331a283-4031-4d99-a147-eba896866843/AAABjz2rJjk/AAABjwnlKNc/16x9-512.jpg", "date": "2024-05-03T13:31:00.000+02:00", "lat": 49.481667, "lon": 8.43861, "intensity": 0.8, "source": "Tagesschau"}, {"title": "Nach dem Unwetter im Kreis Ahrweiler: Aufr\u00e4umarbeiten laufen", "url": "https://www.tagesschau.de/inland/regional/rheinlandpfalz/swr-nach-dem-unwetter-im-kreis-ahrweiler-aufraeumarbeiten-laufen-102.html", "thumbnailUrl": "https://images.tagesschau.de/image/25c5e419-5a25-4d22-b3ed-7b560d42a758/AAABj0DB8_4/AAABjwnlKNc/16x9-512.jpg", "date": "2024-05-03T13:25:18.000+02:00", "lat": 50.5438, "lon": 7.3124, "intensity": 0.8, "source": "Tagesschau"}, {"title": "Br\u00e4nde in Kleing\u00e4rten gelegt: Verd\u00e4chtiger mit Foto gesucht", "url": "https://www.tagesschau.de/inland/regional/niedersachsen/ndr-braende-in-kleingaerten-gelegt-verdaechtiger-mit-foto-gesucht-100.html", "thumbnailUrl": "https://images.tagesschau.de/image/f8788825-3757-449d-af6a-692296c21ab5/AAABjz5G0_8/AAABjwnlKNc/16x9-512.jpg", "date": "2024-05-03T13:21:00.000+02:00", "lat": 52.4226, "lon": 10.75, "intensity": 0.7, "source": "Tagesschau"}, {"title": "Gro\u00dfes Aufr\u00e4umen nach Unwetter im Eifel-Ort Glaadt", "url": "https://www.tagesschau.de/inland/regional/rheinlandpfalz/swr-nach-unwetter-grosses-aufraeumen-im-eifel-ort-glaadt-104.html", "thumbnailUrl": "https://images.tagesschau.de/image/2a814357-aedb-40f5-921f-7d0fb8e13631/AAABj0DB9SM/AAABjwnlKNc/16x9-512.jpg", "date": "2024-05-03T13:19:00.000+02:00", "lat": 50.1799, "lon": 6.7807, "intensity": 0.8, "source": "Tagesschau"}, {"title": "Terrorverdacht gegen Jugendliche: Anschlag mit Bomben geplant", "url": "https://www.tagesschau.de/inland/regional/nordrheinwestfalen/wdr-terrorverdacht-gegen-jugendliche-anschlag-mit-bomben-geplant-100.html", "thumbnailUrl": "https://images.tagesschau.de/image/056b0b24-a2c8-4d3f-a0ed-117193562939/AAABjz_xM54/AAABjwnlKNc/16x9-512.jpg", "date": "2024-05-03T13:18:00.000+02:00", "lat": 51.4556, "lon": 7.0117, "intensity": 0.9, "source": "Tagesschau"}, {"title": "Ein Todesfall und viele Feuerwehreins\u00e4tze", "url": "https://www.tagesschau.de/inland/unwetter-deutschland-starkregen-100.html", "thumbnailUrl": "https://images.tagesschau.de/image/f9450a5e-5479-4c64-bda0-e6d887c2c448/AAABjz4m9Wg/AAABjwnlKNc/16x9-512.jpg", "date": "2024-05-03T13:13:40.841+02:00", "lat": 51.1657, "lon": 10.4515, "intensity": 0.8, "source": "Tagesschau"}, {"title": "Festnahme in Frankfurt: Datendiebstahl per SMS - Bande erbeutete \u00fcber 100.000 Euro", "url": "https://www.tagesschau.de/inland/regional/hessen/hr-festnahme-in-frankfurt-datendiebstahl-per-sms-bande-erbeutete-ueber-100-000-euro-100.html", "thumbnailUrl": "https://images.tagesschau.de/image/c35b07f3-9b36-4d3f-b3a4-94bafcfdade3/AAABjz4lsf4/AAABjwnlKNc/16x9-512.jpg", "date": "2024-05-03T13:06:15.183+02:00", "lat": 50.1109, "lon": 8.6821, "intensity": 0.8, "source": "Tagesschau"}, {"title": "U-Ausschuss zum Fall Yeboah beginnt Mitte Juni mit Beweisaufnahme", "url": "https://www.tagesschau.de/inland/regional/saarland/sr-u-ausschuss-des-landtags-zum-fall-yeboah-beginnt-mitte-juni-mit-beweisaufnahme-100.html", "thumbnailUrl": "https://images.tagesschau.de/image/97cf9e98-be24-4bc8-b993-d88dc8ac696e/AAABjz4eP_4/AAABjwnlKNc/16x9-512.jpg", "date": "2024-05-03T13:00:00.000+02:00", "lat": 49.3964, "lon": 6.8836, "intensity": 0.8, "source": "Tagesschau"}, {"title": "Terrorverdacht: Jugendlicher soll Bombenanschlag in Stuttgart geplant haben", "url": "https://www.tagesschau.de/inland/regional/badenwuerttemberg/swr-terrorverdacht-jugendlicher-soll-bombenanschlag-in-stuttgart-geplant-haben-100.html", "thumbnailUrl": "https://images.tagesschau.de/image/1437e4d0-a58c-40c6-83c8-47ceeee71368/AAABjz45wLg/AAABjwnlKNc/16x9-512.jpg", "date": "2024-05-03T12:54:48.000+02:00", "lat": 48.7758, "lon": 9.1829, "intensity": 0.8, "source": "Tagesschau"}, {"title": "Mann entdeckt in Mainz fremdes Auto mit \"seinen\" Kennzeichen", "url": "https://www.tagesschau.de/inland/regional/rheinlandpfalz/swr-mann-entdeckt-in-mainz-fremdes-auto-mit-seinen-kennzeichen-100.html", "thumbnailUrl": "https://images.tagesschau.de/image/d89a0792-f206-4936-b001-e931bf1f059f/AAABjz50aWA/AAABjwnlKNc/16x9-512.jpg", "date": "2024-05-03T12:41:22.000+02:00", "lat": 50.00253, "lon": 8.247252, "intensity": 0.6, "source": "Tagesschau"}, {"title": "Zwei Gesch\u00e4ftsleute vor Gericht: Drohnen-Bauteile nach Russland verkauft?", "url": "https://www.tagesschau.de/inland/regional/badenwuerttemberg/swr-zwei-geschaeftsleute-vor-gericht-drohnen-bauteile-nach-russland-verkauft-100.html", "thumbnailUrl": "https://images.tagesschau.de/image/4c8ff801-58f1-489b-a7b1-3657e0a7c60a/AAABjz4Ny-g/AAABjwnlKNc/16x9-512.jpg", "date": "2024-05-03T12:39:42.000+02:00", "lat": 48.6616, "lon": 9.9912, "intensity": 0.8, "source": "Tagesschau"}, {"title": "Wie soll Klimaschutz in SH aussehen? B\u00fcrgerforum ist gestartet", "url": "https://www.tagesschau.de/inland/regional/schleswigholstein/ndr-wie-soll-klimaschutz-in-sh-aussehen-buergerforum-startet-100.html", "thumbnailUrl": "https://images.tagesschau.de/image/e44f2f52-1e88-425d-b934-d375fd99fc90/AAABjz_mRJg/AAABjwnlKNc/16x9-512.jpg", "date": "2024-05-03T12:23:00.000+02:00", "lat": 54.3233, "lon": 10.1228, "intensity": 0.6, "source": "Tagesschau"}, {"title": "Saarl\u00e4nder wegen Verkauf von Drohnenbauteilen nach Russland vor Gericht", "url": "https://www.tagesschau.de/inland/regional/saarland/sr-saarlaender-wegen-verkauf-von-drohnenbauteilen-nach-russland-vor-gericht-100.html", "thumbnailUrl": "https://images.tagesschau.de/image/9b360a53-ae0c-472e-8258-d480e0a47a77/AAABjz4A890/AAABjwnlKNc/16x9-512.jpg", "date": "2024-05-03T12:20:00.000+02:00", "lat": 49.4, "lon": 7.0, "intensity": 0.7, "source": "Tagesschau"}, {"title": "G\u00fcnther f\u00fcr offeneren Umgang mit der Linkspartei", "url": "https://www.tagesschau.de/inland/innenpolitik/guenther-linke-afd-100.html", "thumbnailUrl": "https://images.tagesschau.de/image/ee09f613-f018-41a8-a5fe-86404513d2bc/AAABjz1Q-TM/AAABjwnlKNc/16x9-512.jpg", "date": "2024-05-03T12:09:30.876+02:00", "lat": 54.323293, "lon": 9.993682, "intensity": 0.5, "source": "Tagesschau"}, {"title": "Melle: Motorradfahrer bei Kollision mit Traktor t\u00f6dlich verletzt", "url": "https://www.tagesschau.de/inland/regional/niedersachsen/ndr-melle-motorradfahrer-bei-kollision-mit-traktor-toedlich-verletzt-100.html", "thumbnailUrl": "https://images.tagesschau.de/image/a147205d-4375-4288-bd17-df2a674475fd/AAABjz3apmw/AAABjwnlKNc/16x9-512.jpg", "date": "2024-05-03T12:03:00.000+02:00", "lat": 52.1999, "lon": 8.3816, "intensity": 0.8, "source": "Tagesschau"}, {"title": "Welche Versicherung zahlt bei Wasser im Haus und Sch\u00e4den am Auto? \u00a0", "url": "https://www.tagesschau.de/inland/regional/nordrheinwestfalen/wdr-welche-versicherung-zahlt-bei-wasser-im-haus-und-schaeden-am-auto-100.html", "thumbnailUrl": "https://images.tagesschau.de/image/33e29c64-17b1-43a9-ae5d-5da19d0c7627/AAABjz8kNcw/AAABjwnlKNc/16x9-512.jpg", "date": "2024-05-03T11:58:00.000+02:00", "lat": 51.4893, "lon": 7.6261, "intensity": 0.5, "source": "Tagesschau"}, {"title": "Leiter des Polizeireviers Harz \u00fcberraschend suspendiert", "url": "https://www.tagesschau.de/inland/regional/sachsenanhalt/mdr-leiter-des-polizeireviers-harz-ueberraschend-suspendiert-100.html", "thumbnailUrl": "https://images.tagesschau.de/image/80bd0407-436f-4bd3-bce8-06fb6beff193/AAABj0CLSdk/AAABjwnlKNc/16x9-512.jpg", "date": "2024-05-03T11:56:19.000+02:00", "lat": 51.8406, "lon": 11.3297, "intensity": 0.6, "source": "Tagesschau"}, {"title": "7 Ideen f\u00fcr die Nacht der Museen in Frankfurt, Offenbach und Eschborn", "url": "https://www.tagesschau.de/inland/regional/hessen/hr-7-ideen-fuer-die-museumsnacht-in-frankfurt-offenbach-und-eschborn-100.html", "thumbnailUrl": "https://images.tagesschau.de/image/66c56f27-a0a5-4708-b185-011718b3ceef/AAABjz3h_dg/AAABjwnlKNc/16x9-512.jpg", "date": "2024-05-03T11:55:47.215+02:00", "lat": 50.1109, "lon": 8.6815, "intensity": 0.6, "source": "Tagesschau"}, {"title": "So kam das Starkregen-Unwetter in Hessen zustande", "url": "https://www.tagesschau.de/inland/regional/hessen/hr-so-kam-das-starkregen-unwetter-in-hessen-zustande-100.html", "thumbnailUrl": "https://images.tagesschau.de/image/c4c6f1cc-0312-4e79-8a9f-428805cd6753/AAABjz_T6bQ/AAABjwnlKNc/16x9-512.jpg", "date": "2024-05-03T11:53:06.468+02:00", "lat": 50.5939, "lon": 9.0215, "intensity": 0.8, "source": "Tagesschau"}, {"title": "Tourist bei Unfall mit Wattwagen vor Cuxhaven schwer verletzt", "url": "https://www.tagesschau.de/inland/regional/bremen/rb-tourist-bei-unfall-mit-wattwagen-vor-cuxhaven-schwer-verletzt-100.html", "thumbnailUrl": "https://images.tagesschau.de/image/c496a9f6-7b34-40a3-9e16-b921e5fdd833/AAABjz3gEVk/AAABjwnlKNc/16x9-512.jpg", "date": "2024-05-03T11:53:00.000+02:00", "lat": 53.8711, "lon": 8.6861, "intensity": 0.8, "source": "Tagesschau"}, {"title": "HSV gegen den FC St. Pauli: Wie sich Polizei und Fans vorbereiten", "url": "https://www.tagesschau.de/inland/regional/hamburg/ndr-hamburger-stadtderby-wie-sich-polizei-und-fans-vorbereiten-100.html", "thumbnailUrl": "https://images.tagesschau.de/image/d29df4ad-b991-4afb-8c25-a7efc8571eca/AAABjz--YTo/AAABjwnlKNc/16x9-512.jpg", "date": "2024-05-03T11:52:00.000+02:00", "lat": 53.5511, "lon": 9.9937, "intensity": 0.8, "source": "Tagesschau"}, {"title": "Evangelische Kirchen verlieren Mitglieder - auch im Norden", "url": "https://www.tagesschau.de/inland/regional/niedersachsen/ndr-evangelische-kirchen-verlieren-mitglieder-auch-im-norden-100.html", "thumbnailUrl": "https://images.tagesschau.de/image/0ae7cb60-ed1e-49ed-8ae8-99cebf6c91a0/AAABjzrDrqc/AAABjwnlKNc/16x9-512.jpg", "date": "2024-05-03T11:50:00.000+02:00", "lat": 52.52001, "lon": 9.38523, "intensity": 0.8, "source": "Tagesschau"}, {"title": "VBB-Chefin Ute Bonde soll neue Berliner Verkehrssenatorin werden", "url": "https://www.tagesschau.de/inland/regional/berlin/rbb-vbb-chefin-ute-bonde-soll-neue-berliner-verkehrssenatorin-werden-100.html", "thumbnailUrl": "https://images.tagesschau.de/image/44c9275e-e33a-407f-a373-c77e5412fd46/AAABjz4N8iM/AAABjwnlKNc/16x9-512.jpg", "date": "2024-05-03T11:32:00.000+02:00", "lat": 52.520008, "lon": 13.404954, "intensity": 0.8, "source": "Tagesschau"}, {"title": "Verdi-Mitglieder stimmen \u00fcber Postbank-Tarifeinigung ab", "url": "https://www.tagesschau.de/inland/regional/saarland/sr-verdi-mitglieder-stimmen-ueber-postbank-tarifeinigung-ab-100.html", "thumbnailUrl": "https://images.tagesschau.de/image/1bbd8af6-ddc2-47d2-a03d-2e7dc6e908af/AAABjz3TLQo/AAABjwnlKNc/16x9-512.jpg", "date": "2024-05-03T11:29:00.000+02:00", "lat": 49.3964, "lon": 6.9912, "intensity": 0.6, "source": "Tagesschau"}, {"title": "Bayer-Coach Alonso bleibt trotz Sperre gegen Eintracht Frankfurt gelassen", "url": "https://www.tagesschau.de/inland/regional/hessen/hr-xabi-alonso-bleibt-trotz-sperre-gegen-eintracht-gelassen-100.html", "thumbnailUrl": "https://images.tagesschau.de/image/09b5e662-8649-4b2a-9510-a26598bf0263/AAABjz4gNZs/AAABjwnlKNc/16x9-512.jpg", "date": "2024-05-03T11:27:01.475+02:00", "lat": 50.110924, "lon": 8.665001, "intensity": 0.3, "source": "Tagesschau"}, {"title": "Unwetter zieht \u00fcber Hessen: Frankfurt stark betroffen, Hochwasser in Bad Homburg", "url": "https://www.tagesschau.de/inland/regional/hessen/hr-unwetter-zieht-ueber-hessen-frankfurt-stark-betroffen-100.html", "thumbnailUrl": "https://images.tagesschau.de/image/80833bf0-cdbb-461a-9468-1e113eb0690e/AAABjz5_T3Q/AAABjwnlKNc/16x9-512.jpg", "date": "2024-05-03T11:25:39.731+02:00", "lat": 50.1109, "lon": 8.6821, "intensity": 0.8, "source": "Tagesschau"}, {"title": "Kurioser Irrtum in Sulz: Verletzter Storch war gar kein Storch", "url": "https://www.tagesschau.de/inland/regional/badenwuerttemberg/swr-kurioser-irrtum-in-sulz-verletzter-storch-war-gar-kein-storch-100.html", "thumbnailUrl": "https://images.tagesschau.de/image/c829ee0d-50e0-4d15-8a22-4a740ab0ec38/AAABjz57y8c/AAABjwnlKNc/16x9-512.jpg", "date": "2024-05-03T11:23:00.000+02:00", "lat": 48.3606, "lon": 8.5386, "intensity": 0.2, "source": "Tagesschau"}, {"title": "Kommentar: \"Es gibt keine Staatsb\u00fcrgerschaft zweiter Klasse\"", "url": "https://www.tagesschau.de/inland/regional/niedersachsen/ndr-kommentar-es-gibt-keine-staatsbuergerschaft-zweiter-klasse-100.html", "thumbnailUrl": "https://images.tagesschau.de/image/7c3a7a48-0d2a-4fab-97bf-2131607b74aa/AAABjz3EsRw/AAABjwnlKNc/16x9-512.jpg", "date": "2024-05-03T11:17:00.000+02:00", "lat": 52.3847, "lon": 9.077, "intensity": 0.5, "source": "Tagesschau"}, {"title": "Stromausfall in Nohfelden durch umgest\u00fcrzten Baum", "url": "https://www.tagesschau.de/inland/regional/saarland/sr-stromausfall-in-nohfelden-durch-umgestuerzten-baum-100.html", "thumbnailUrl": "https://images.tagesschau.de/image/362fb55b-52b5-472a-aeda-501a3d8d1b96/AAABjz3A3hw/AAABjwnlKNc/16x9-512.jpg", "date": "2024-05-03T11:17:00.000+02:00", "lat": 49.546, "lon": 7.122, "intensity": 0.6, "source": "Tagesschau"}, {"title": "R\u00fcckkauf des Fernw\u00e4rmenetzes: Berlin w\u00e4rmt sich wieder selbst", "url": "https://www.tagesschau.de/inland/regional/berlin/rbb-rueckkauf-des-fernwaermenetzes-berlin-waermt-sich-wieder-selbst-100.html", "thumbnailUrl": "https://images.tagesschau.de/image/e652c0c2-79f0-4fc5-954f-1f6be14532cf/AAABjz3A_M0/AAABjwnlKNc/16x9-512.jpg", "date": "2024-05-03T11:15:41.000+02:00", "lat": 52.520008, "lon": 13.404954, "intensity": 0.8, "source": "Tagesschau"}, {"title": "Inflation in der T\u00fcrkei steigt auf fast 70 Prozent", "url": "https://www.tagesschau.de/wirtschaft/weltwirtschaft/tuerkei-inflation-70-prozent-100.html", "thumbnailUrl": "https://images.tagesschau.de/image/92ab8933-d0ae-405d-979a-b6317d446ae5/AAABjz18p6o/AAABjwnlKNc/16x9-512.jpg", "date": "2024-05-03T11:12:19.507+02:00", "lat": 38.9637, "lon": 35.2433, "intensity": 0.9, "source": "Tagesschau"}, {"title": "Cybercrime: Mutma\u00dfliches Netzwerk von SMS-Betr\u00fcgern aufgedeckt", "url": "https://www.tagesschau.de/inland/regional/niedersachsen/ndr-cybercrime-mutmassliches-netzwerk-von-sms-betruegern-aufgedeckt-100.html", "thumbnailUrl": "https://images.tagesschau.de/image/371f1b8f-90e2-42e8-9762-770002f08bd8/AAABjz2TJys/AAABjwnlKNc/16x9-512.jpg", "date": "2024-05-03T11:07:00.000+02:00", "lat": 52.2799, "lon": 8.0476, "intensity": 0.8, "source": "Tagesschau"}, {"title": "Durch Wiedervern\u00e4ssung klimaneutral: \"MoorAgentur\" nimmt Arbeit auf", "url": "https://www.tagesschau.de/inland/regional/mecklenburgvorpommern/ndr-durch-wiedervernaessung-klimaneutral-mooragentur-nimmt-arbeit-auf-100.html", "thumbnailUrl": "https://images.tagesschau.de/image/2a5e28db-8b54-4a1f-8861-cda0df09522e/AAABjz6RoTI/AAABjwnlKNc/16x9-512.jpg", "date": "2024-05-03T11:00:00.000+02:00", "lat": 53.6127, "lon": 12.5475, "intensity": 0.7, "source": "Tagesschau"}, {"title": "Das Wunder von Kiel: THW feiert \"magische Nacht\" des Handballs", "url": "https://www.tagesschau.de/inland/regional/schleswigholstein/ndr-das-wunder-von-kiel-thw-feiert-magische-nacht-des-handballs-102.html", "thumbnailUrl": "https://images.tagesschau.de/image/aea1c2d1-39d3-4f10-96af-63de9c26f194/AAABjz4MBfk/AAABjwnlKNc/16x9-512.jpg", "date": "2024-05-03T10:58:00.000+02:00", "lat": 54.3233, "lon": 10.1303, "intensity": 0.8, "source": "Tagesschau"}, {"title": "Baerbock gibt Kulturg\u00fcter an Aborigines zur\u00fcck", "url": "https://www.tagesschau.de/ausland/ozeanien/baerbock-kulturgueter-aborigines-100.html", "thumbnailUrl": "https://images.tagesschau.de/image/47fa12dc-9d5f-40cf-bf39-8a52d52da175/AAABjz25bkA/AAABjwnlKNc/16x9-512.jpg", "date": "2024-05-03T10:54:34.141+02:00", "lat": -25.2744, "lon": 133.7751, "intensity": 0.8, "source": "Tagesschau"}, {"title": "Erster Gazprom-Verlust seit Jahrzehnten", "url": "https://www.tagesschau.de/wirtschaft/energie/gazprom-rekordverluste-2023-100.html", "thumbnailUrl": "https://images.tagesschau.de/image/0c8ee607-bfb4-489e-a2be-ebe6f7226e2a/AAABjz060ig/AAABjwnlKNc/16x9-512.jpg", "date": "2024-05-03T10:40:25.080+02:00", "lat": 55.7558, "lon": 37.6176, "intensity": 0.8, "source": "Tagesschau"}, {"title": "Testflug der Kerzenwachs-Rakete  ", "url": "https://www.tagesschau.de/wissen/forschung/rakete-paraffin-testflug-100.html", "thumbnailUrl": "https://images.tagesschau.de/image/00d9bd5a-7f4f-4aaa-8bbe-962f00e63b6f/AAABjz1WIZI/AAABjwnlKNc/16x9-512.jpg", "date": "2024-05-03T10:37:38.582+02:00", "lat": 51.1657, "lon": 10.4515, "intensity": 0.8, "source": "Tagesschau"}, {"title": "Darmstadt 98: +++ Honsak vor Wechsel nach Heidenheim +++ Lieberknecht erneuert Treuebekenntnis +++ Lilien wollen Saison professionell beenden +++", "url": "https://www.tagesschau.de/inland/regional/hessen/hr--tietz-vermisst-fehlende-gier--lilien-fans-liefern-sich-raststaetten-pruegelei--die-niederlage-der-lilien-in-der-video-zusammenfassung-102.html", "thumbnailUrl": "https://images.tagesschau.de/image/f0e3e73e-9aa0-47a3-b8dd-0eb858ed041c/AAABjz2Yses/AAABjwnlKNc/16x9-512.jpg", "date": "2024-05-03T10:35:23.838+02:00", "lat": 49.8717, "lon": 8.6553, "intensity": 0.5, "source": "Tagesschau"}, {"title": "Mit diesem Vornamen kommen Sie kostenlos in ein Bremer Museum", "url": "https://www.tagesschau.de/inland/regional/bremen/rb-mit-diesem-vornamen-kommen-sie-kostenlos-in-ein-bremer-museum-100.html", "thumbnailUrl": "https://images.tagesschau.de/image/9663cce2-6d99-4fe1-b839-65947b52c2dd/AAABjz2hwM8/AAABjwnlKNc/16x9-512.jpg", "date": "2024-05-03T10:35:00.000+02:00", "lat": 53.0793, "lon": 8.8006, "intensity": 0.4, "source": "Tagesschau"}, {"title": "Hessen am Morgen: +++ Erster Storch br\u00fctet wieder im Odenwald +++ Haus nach Brand in Breuberg einsturzgef\u00e4hrdet +++ Gerichtszelt f\u00fcr Terrorprozess um Prinz Reu\u00df +++", "url": "https://www.tagesschau.de/inland/regional/hessen/hr-hessen-am-morgen--bad-homburger-stadtteil-zeitweise-vom-wasser-eingeschlossen-100.html", "thumbnailUrl": "https://images.tagesschau.de/image/9fe69643-1c7a-4b17-8de2-691188427ef6/AAABjz2yPTU/AAABjwnlKNc/16x9-512.jpg", "date": "2024-05-03T10:27:04.150+02:00", "lat": 49.616748, "lon": 9.070395, "intensity": 0.5, "source": "Tagesschau"}, {"title": "Dieser Mann zieht seit Monaten Autoreifen durch Greifenstein", "url": "https://www.tagesschau.de/inland/regional/hessen/hr-training-fuer-groenland-expedition-warum-dieser-mann-seit-monaten-autoreifen-durch-greifenstein-zieht-100.html", "thumbnailUrl": "https://images.tagesschau.de/image/655334dd-20c6-4bac-9b83-cf8c661dc3b0/AAABjz7OFpg/AAABjwnlKNc/16x9-512.jpg", "date": "2024-05-03T10:26:54.825+02:00", "lat": 50.5804, "lon": 8.1467, "intensity": 0.6, "source": "Tagesschau"}, {"title": "VfL Osnabr\u00fcck - Schalke am Millerntor: VfL hadert, S04 gegen weitere Verlegung", "url": "https://www.tagesschau.de/inland/regional/hamburg/ndr-vfl-osnabrueck-schaeden-am-stadiondach-schalke-spiel-am-7-mai-am-millerntor-102.html", "thumbnailUrl": "https://images.tagesschau.de/image/eb124ca5-f17b-4cfb-90f0-293d50672eac/AAABjz3gioM/AAABjwnlKNc/16x9-512.jpg", "date": "2024-05-03T10:17:00.000+02:00", "lat": 53.5511, "lon": 9.9808, "intensity": 0.6, "source": "Tagesschau"}, {"title": "Nach Daten-Klau von Unimedizin Mainz: Betroffene sind besorgt", "url": "https://www.tagesschau.de/inland/regional/rheinlandpfalz/swr-hacker-klauen-daten-von-universitaetsmedizin-mainz-100.html", "thumbnailUrl": "https://images.tagesschau.de/image/a50a0bfb-8dc7-4217-93d1-d075bc261347/AAABjz3MAgA/AAABjwnlKNc/16x9-512.jpg", "date": "2024-05-03T10:04:00.000+02:00", "lat": 49.9929, "lon": 8.2394, "intensity": 0.8, "source": "Tagesschau"}, {"title": "NRW: Solar-Ausbau verliert 2024 etwas an Tempo", "url": "https://www.tagesschau.de/inland/regional/nordrheinwestfalen/wdr-nrw-solar-ausbau-verliert-2024-etwas-an-tempo-100.html", "thumbnailUrl": "https://images.tagesschau.de/image/efec49c7-09c6-4e12-9f57-af02253c174e/AAABjz2fRx8/AAABjwnlKNc/16x9-512.jpg", "date": "2024-05-03T10:00:00.000+02:00", "lat": 51.4818, "lon": 7.6261, "intensity": 0.4, "source": "Tagesschau"}, {"title": "BW-Newsticker am Morgen: Aufr\u00e4umarbeiten in Bisingen nach Unwetter, Kerzenwachs-Rakete gestartet, Hoffnung f\u00fcr Eissmann-Arbeitspl\u00e4tze", "url": "https://www.tagesschau.de/inland/regional/badenwuerttemberg/swr-bw-newsticker-am-morgen-land-unter-im-zollernalbkreis-bildungsallianz-geplatzt-100.html", "thumbnailUrl": "https://images.tagesschau.de/image/8b27cbbb-596c-4d07-9120-86a8098c627a/AAABjz7w6G4/AAABjwnlKNc/16x9-512.jpg", "date": "2024-05-03T10:00:00.000+02:00", "lat": 48.2931, "lon": 9.1072, "intensity": 0.7, "source": "Tagesschau"}, {"title": "Zwei Anschl\u00e4ge auf Geldautomaten, Betroffene schildert Unwetter-Nacht, Taser-Einsatz hat Nachspiel", "url": "https://www.tagesschau.de/inland/regional/rheinlandpfalz/swr-heftige-unwetter-im-land-naechster-busstreik-droht-leverkusen-schlaegt-rom-100.html", "thumbnailUrl": "https://images.tagesschau.de/image/4bab9b6b-917f-48ff-adef-29a57915512e/AAABjz05oBU/AAABjwnlKNc/16x9-512.jpg", "date": "2024-05-03T09:59:00.000+02:00", "lat": 50.3081, "lon": 7.4764, "intensity": 0.6, "source": "Tagesschau"}, {"title": "Schwere Gewitter \u00fcber BW: Hohe Sachsch\u00e4den, aber wohl keine Verletzten", "url": "https://www.tagesschau.de/inland/regional/badenwuerttemberg/swr-starkregen-und-boeen-unwettergefahr-in-teilen-von-bw-100.html", "thumbnailUrl": "https://images.tagesschau.de/image/8b27cbbb-596c-4d07-9120-86a8098c627a/AAABjz7w6G4/AAABjwnlKNc/16x9-512.jpg", "date": "2024-05-03T09:58:00.000+02:00", "lat": 48.3106, "lon": 9.0734, "intensity": 0.8, "source": "Tagesschau"}, {"title": "Nach heftigen Unwettern: Welche Versicherung zahlt was?", "url": "https://www.tagesschau.de/inland/regional/badenwuerttemberg/swr-nach-heftigen-unwettern-welche-versicherung-zahlt-was-100.html", "thumbnailUrl": "https://images.tagesschau.de/image/71a05f6e-205c-4f14-b1a4-23e4dae64931/AAABjz2joCs/AAABjwnlKNc/16x9-512.jpg", "date": "2024-05-03T09:56:00.000+02:00", "lat": 48.7904, "lon": 9.0238, "intensity": 0.8, "source": "Tagesschau"}, {"title": "ZDF-Morgenmagazin zu Besuch auf dem St. Johanner Markt in Saarbr\u00fccken", "url": "https://www.tagesschau.de/inland/regional/saarland/sr-zdf-morgenmagazin-sendet-live-vom-st-johanner-markt-100.html", "thumbnailUrl": "https://images.tagesschau.de/image/7f901073-4f94-42dc-81b5-48b730e59a8d/AAABjz1o-Z4/AAABjwnlKNc/16x9-512.jpg", "date": "2024-05-03T09:54:00.000+02:00", "lat": 49.2331, "lon": 6.9644, "intensity": 0.5, "source": "Tagesschau"}, {"title": "Bezirkswahlen 2024: Das sind die Themen in Altona", "url": "https://www.tagesschau.de/inland/regional/hamburg/ndr-bezirkswahlen-2024-das-sind-die-themen-in-altona-100.html", "thumbnailUrl": "https://images.tagesschau.de/image/223a32d7-925d-4927-98d6-42cf3183ed84/AAABjze-5Nc/AAABjwnlKNc/16x9-512.jpg", "date": "2024-05-03T09:51:00.000+02:00", "lat": 53.5511, "lon": 9.9239, "intensity": 0.5, "source": "Tagesschau"}, {"title": "Als Neonazi bekannter  Kandidat von Kommunalwahl ausgeschlossen", "url": "https://www.tagesschau.de/inland/regional/mecklenburgvorpommern/ndr-kommunalwahl-als-neonazi-bekannter-kandidat-darf-nicht-antreten-100.html", "thumbnailUrl": "https://images.tagesschau.de/image/b94a1795-bcf2-4045-adc0-cf115f1a0be2/AAABjz1wVP8/AAABjwnlKNc/16x9-512.jpg", "date": "2024-05-03T09:49:00.000+02:00", "lat": 54.1243, "lon": 13.3935, "intensity": 0.6, "source": "Tagesschau"}, {"title": "Vor Frau entbl\u00f6\u00dft und Kind angesprochen: Suche nach Mann bei Rostock", "url": "https://www.tagesschau.de/inland/regional/mecklenburgvorpommern/ndr-vor-frau-entbloesst-und-kind-angesprochen-suche-nach-mann-bei-rostock-100.html", "thumbnailUrl": "https://images.tagesschau.de/image/6c15f17a-7860-4ef1-bc17-27f04a8a558b/AAABjz4pQA4/AAABjwnlKNc/16x9-512.jpg", "date": "2024-05-03T09:40:00.000+02:00", "lat": 54.0834, "lon": 12.1355, "intensity": 0.7, "source": "Tagesschau"}, {"title": "Wattwagen st\u00fcrzt um: Zwei Insassen und Kutscherin verletzt", "url": "https://www.tagesschau.de/inland/regional/niedersachsen/ndr-wattwagen-stuerzt-um-zwei-insassen-und-kutscherin-verletzt-100.html", "thumbnailUrl": "https://images.tagesschau.de/image/a8b760c7-f98b-4be0-ba69-d87bc1263f87/AAABjz2Eqc8/AAABjwnlKNc/16x9-512.jpg", "date": "2024-05-03T09:33:00.000+02:00", "lat": 53.8625, "lon": 8.6875, "intensity": 0.8, "source": "Tagesschau"}, {"title": "Sexueller Kindesmissbrauch? Kirche stellt Mitarbeiter frei", "url": "https://www.tagesschau.de/inland/regional/niedersachsen/ndr-sexualisierte-gewalt-kirchenkreis-stellt-mitarbeiter-frei-100.html", "thumbnailUrl": "https://images.tagesschau.de/image/7a2dfc7a-fba7-44cf-8c13-61c6d7b02115/AAABjz19LqI/AAABjwnlKNc/16x9-512.jpg", "date": "2024-05-03T09:33:00.000+02:00", "lat": 51.8286, "lon": 9.9512, "intensity": 0.7, "source": "Tagesschau"}, {"title": "Weniger Briefe, h\u00f6heres Porto", "url": "https://www.tagesschau.de/wirtschaft/verbraucher/post-porto-briefe-hauptversammlung-100.html", "thumbnailUrl": "https://images.tagesschau.de/image/ff3b5ae5-db30-4e2a-bb42-e10350acbe41/AAABjz01A1I/AAABjwnlKNc/16x9-512.jpg", "date": "2024-05-03T09:25:16.694+02:00", "lat": 51.5142, "lon": 7.0451, "intensity": 0.7, "source": "Tagesschau"}, {"title": "S-Bahn Berlin: Ringbahn am Wochenende zwischen Halensee und Beusselstra\u00dfe unterbrochen", "url": "https://www.tagesschau.de/inland/regional/berlin/rbb-s-bahn-berlin-ringbahn-am-wochenende-zwischen-halensee-und-beusselstrasse-unterbrochen-100.html", "thumbnailUrl": "https://images.tagesschau.de/image/348001e2-43aa-4621-bc09-f4b53574c3bc/AAABjz1NnAQ/AAABjwnlKNc/16x9-512.jpg", "date": "2024-05-03T09:11:54.000+02:00", "lat": 52.508, "lon": 13.318, "intensity": 0.3, "source": "Tagesschau"}, {"title": "Unwetter-Ticker live: Aufr\u00e4umarbeiten angelaufen, Wohl keine Verletzten in RLP, Betroffene \u00e4u\u00dfern Kritik", "url": "https://www.tagesschau.de/inland/regional/rheinlandpfalz/swr-live-ticker-unwetter-ziehen-ueber-rlp-hinweg-100.html", "thumbnailUrl": "https://images.tagesschau.de/image/bbbcc878-a38f-400c-a4ed-518cbc16500a/AAABjz2Yme8/AAABjwnlKNc/16x9-512.jpg", "date": "2024-05-03T09:08:00.000+02:00", "lat": 50.2111, "lon": 7.2661, "intensity": 0.7, "source": "Tagesschau"}, {"title": "Transporter durchbricht Hauswand - Fahrer verletzt", "url": "https://www.tagesschau.de/inland/regional/niedersachsen/ndr-transporter-durchbricht-hauswand-fahrer-schwer-verletzt-100.html", "thumbnailUrl": "https://images.tagesschau.de/image/6a504322-b9f1-4776-953b-0a6d570daa87/AAABjz1Pbb4/AAABjwnlKNc/16x9-512.jpg", "date": "2024-05-03T09:04:00.000+02:00", "lat": 52.4215, "lon": 7.9935, "intensity": 0.8, "source": "Tagesschau"}, {"title": "Betrugsverdacht in jedem zehnten Corona-Testzentrum im Saarland", "url": "https://www.tagesschau.de/inland/regional/saarland/sr-betrugsverdacht-in-jedem-zehnten-corona-testzentrum-im-saarland-100.html", "thumbnailUrl": "https://images.tagesschau.de/image/d7638011-ad4f-47b3-9941-e8727c0cbcea/AAABjz1GL1E/AAABjwnlKNc/16x9-512.jpg", "date": "2024-05-03T09:03:00.000+02:00", "lat": 49.3964, "lon": 6.9686, "intensity": 0.8, "source": "Tagesschau"}, {"title": "Auch wegen Klimawandel: Mehr Asthma-Erkrankungen in Baden-W\u00fcrttemberg", "url": "https://www.tagesschau.de/inland/regional/badenwuerttemberg/swr-auch-wegen-klimawandel-mehr-asthma-erkrankungen-in-baden-wuerttemberg-100.html", "thumbnailUrl": "https://images.tagesschau.de/image/dee72cef-135f-4834-87f3-547bc6c94245/AAABjz1hq3g/AAABjwnlKNc/16x9-512.jpg", "date": "2024-05-03T08:59:50.000+02:00", "lat": 48.7904, "lon": 9.0237, "intensity": 0.8, "source": "Tagesschau"}, {"title": "Hofreiter sieht EU-Beitritt Georgiens gef\u00e4hrdet", "url": "https://www.tagesschau.de/ausland/georgien-proteste-ngogesetz-100.html", "thumbnailUrl": "https://images.tagesschau.de/image/200301b3-9ef9-49a9-b9b2-fa2b2afb4421/AAABjz0_7g4/AAABjwnlKNc/16x9-512.jpg", "date": "2024-05-03T08:59:11.596+02:00", "lat": 41.7178, "lon": 44.793, "intensity": 0.8, "source": "Tagesschau"}, {"title": "Vom Smartphone abgelenkt - Frau st\u00fcrzt ins S-Bahngleis und verletzt sich", "url": "https://www.tagesschau.de/inland/regional/berlin/rbb-vom-smartphone-abgelenkt-frau-stuerzt-ins-s-bahngleis-und-verletzt-sich-100.html", "thumbnailUrl": "https://images.tagesschau.de/image/b0472a14-e5a8-4dd2-adc3-40c98bcdb7b6/AAABjz07SkY/AAABjwnlKNc/16x9-512.jpg", "date": "2024-05-03T08:50:58.000+02:00", "lat": 52.52, "lon": 13.4069, "intensity": 0.7, "source": "Tagesschau"}, {"title": "Sechsj\u00e4hriger Junge f\u00e4llt von Dach und wird schwer verletzt", "url": "https://www.tagesschau.de/inland/regional/niedersachsen/ndr-sechsjaehriger-junge-faellt-von-dach-und-wird-schwer-verletzt-100.html", "thumbnailUrl": "https://images.tagesschau.de/image/13a507a3-d6e1-4864-8e42-4b1f66100ee0/AAABjz5l4Ro/AAABjwnlKNc/16x9-512.jpg", "date": "2024-05-03T08:16:00.000+02:00", "lat": 52.1514, "lon": 9.9512, "intensity": 0.8, "source": "Tagesschau"}, {"title": "Theatertreffen-Er\u00f6ffnung: \"Nathan der Weise\" mit gigantischer B\u00fchnenmaschine", "url": "https://www.tagesschau.de/inland/regional/berlin/rbb-theatertreffen-eroeffnung--nathan-der-weise-die-aufklaerung-der-untoten-100.html", "thumbnailUrl": "https://images.tagesschau.de/image/bd1be677-047a-470a-8e77-7ae9138c5e14/AAABjz0J0rw/AAABjwnlKNc/16x9-512.jpg", "date": "2024-05-03T08:08:05.000+02:00", "lat": 52.520008, "lon": 13.404954, "intensity": 0.8, "source": "Tagesschau"}, {"title": "Mit Kerzenwachs ins Weltall: HyImpulse-Rakete erfolgreich gestartet", "url": "https://www.tagesschau.de/inland/regional/badenwuerttemberg/swr-mit-kerzenwachs-ins-weltall-hyimpulse-rakete-erfolgreich-gestartet-102.html", "thumbnailUrl": "https://images.tagesschau.de/image/79822a11-8ffe-4a82-bbbd-db94b249a08c/AAABjz30I7Q/AAABjwnlKNc/16x9-512.jpg", "date": "2024-05-03T08:08:00.000+02:00", "lat": 49.3804, "lon": 9.4536, "intensity": 0.8, "source": "Tagesschau"}, {"title": "M\u00fcsli-Hersteller gibt Ex-Junkies einen Job in L\u00fcneburg", "url": "https://www.tagesschau.de/inland/regional/niedersachsen/ndr-muesli-hersteller-gibt-ex-junkies-einen-job-in-lueneburg-100.html", "thumbnailUrl": "https://images.tagesschau.de/image/09e26905-5195-46cc-8493-103d2d640826/AAABjz0VBO4/AAABjwnlKNc/16x9-512.jpg", "date": "2024-05-03T08:04:00.000+02:00", "lat": 53.240959, "lon": 10.407898, "intensity": 0.6, "source": "Tagesschau"}, {"title": "2. Liga: FC St. Pauli und Holstein Kiel steigen in die Bundesliga auf, wenn ...", "url": "https://www.tagesschau.de/inland/regional/hamburg/ndr-2-liga-fc-st-pauli-und-holstein-kiel-steigen-in-die-bundesliga-auf-wenn-102.html", "thumbnailUrl": "https://images.tagesschau.de/image/131e78c7-69c6-4a88-8e59-bcb22d3f6b06/AAABjz--ZIg/AAABjwnlKNc/16x9-512.jpg", "date": "2024-05-03T08:03:00.000+02:00", "lat": 53.551086, "lon": 9.993682, "intensity": 0.8, "source": "Tagesschau"}, {"title": "Rettungswagen im Einsatz kollidiert mit Auto: Drei Verletzte", "url": "https://www.tagesschau.de/inland/regional/niedersachsen/ndr-rettungswagen-im-einsatz-kollidiert-mit-auto-drei-verletzte-100.html", "thumbnailUrl": "https://images.tagesschau.de/image/355c0948-6b17-4704-a46e-ff2375082363/AAABjz17ZHw/AAABjwnlKNc/16x9-512.jpg", "date": "2024-05-03T07:59:00.000+02:00", "lat": 52.268874, "lon": 10.52677, "intensity": 0.8, "source": "Tagesschau"}, {"title": "Schl\u00e4gerei: Erst gebissen, dann Beil und Messer geschwungen", "url": "https://www.tagesschau.de/inland/regional/niedersachsen/ndr-schlaegerei-erst-gebissen-dann-beil-und-messer-geschwungen-100.html", "thumbnailUrl": "https://images.tagesschau.de/image/eb246ecf-9400-4a1f-bf2c-b744e569871b/AAABjzz7KZY/AAABjwnlKNc/16x9-512.jpg", "date": "2024-05-03T07:38:00.000+02:00", "lat": 52.4511, "lon": 7.7846, "intensity": 0.8, "source": "Tagesschau"}, {"title": "Rechtstreit um Gartenreich Dessau-W\u00f6rlitz geht weiter", "url": "https://www.tagesschau.de/inland/regional/sachsenanhalt/mdr-rechtstreit-um-gartenreich-dessau-woerlitz-geht-weiter-100.html", "thumbnailUrl": "https://images.tagesschau.de/image/d4c67cbc-7620-4bf8-b4a9-5096ee9460ce/AAABj0CLDuM/AAABjwnlKNc/16x9-512.jpg", "date": "2024-05-03T07:36:57.000+02:00", "lat": 51.8397, "lon": 12.2428, "intensity": 0.7, "source": "Tagesschau"}, {"title": "Ortsbeirat in Ludwigshafen hat entschieden: Bild von \"Sarotti-Mohr\" bleibt ", "url": "https://www.tagesschau.de/inland/regional/rheinlandpfalz/swr-kommt-sarotti-mohr-auf-bunker-in-ludwigshafen-weg-ortsbeirat-entscheidet-102.html", "thumbnailUrl": "https://images.tagesschau.de/image/40a30d9d-f5cf-4b27-9b1d-cca4c8a1bb4a/AAABjz2rETE/AAABjwnlKNc/16x9-512.jpg", "date": "2024-05-03T07:35:00.000+02:00", "lat": 49.4775, "lon": 8.4344, "intensity": 0.6, "source": "Tagesschau"}, {"title": "Baumbl\u00fctenfest in Werder (Havel) geht in die n\u00e4chste Runde: das Volksfest beginnt", "url": "https://www.tagesschau.de/inland/regional/brandenburg/rbb-baumbluetenfest-in-werder-havel-geht-in-die-naechste-runde-das-volksfest-beginnt-100.html", "thumbnailUrl": "https://images.tagesschau.de/image/00a2d6f4-e376-426d-a933-714e0424b2ee/AAABjzzwOGY/AAABjwnlKNc/16x9-512.jpg", "date": "2024-05-03T07:28:13.000+02:00", "lat": 52.3953, "lon": 12.9273, "intensity": 0.6, "source": "Tagesschau"}, {"title": "Nicht alle folgen Lindners Sparplan", "url": "https://www.tagesschau.de/inland/innenpolitik/bundeshaushalt-2025-100.html", "thumbnailUrl": "https://images.tagesschau.de/image/5d7fb000-3eb2-4fe0-8f05-b27ef2c730ee/AAABjzzmU0M/AAABjwnlKNc/16x9-512.jpg", "date": "2024-05-03T07:21:18.962+02:00", "lat": 52.52, "lon": 13.405, "intensity": 0.7, "source": "Tagesschau"}, {"title": "Eintracht Frankfurt Frauen vor Europa-Endspiel bei TSG Hoffenheim", "url": "https://www.tagesschau.de/inland/regional/hessen/hr-eintracht-frankfurt-frauen-vor-europa-endspiel-bei-tsg-hoffenheim-102.html", "thumbnailUrl": "https://images.tagesschau.de/image/b257b656-1148-47ac-b474-88368227fad3/AAABjz25nKE/AAABjwnlKNc/16x9-512.jpg", "date": "2024-05-03T07:14:51.925+02:00", "lat": 49.2345, "lon": 8.8754, "intensity": 0.7, "source": "Tagesschau"}, {"title": "Bremerhavener Polizei will Sch\u00fcler mit Praktika f\u00fcr sich gewinnen", "url": "https://www.tagesschau.de/inland/regional/bremen/rb-bremerhavener-polizei-bietet-cuxhavener-schuelern-praktika-an-100.html", "thumbnailUrl": "https://images.tagesschau.de/image/9056676f-54ff-4a4b-922e-bde8781c59b3/AAABjzzaMwU/AAABjwnlKNc/16x9-512.jpg", "date": "2024-05-03T07:04:00.000+02:00", "lat": 53.5405, "lon": 8.8017, "intensity": 0.6, "source": "Tagesschau"}, {"title": "Tag der Pressefreiheit 2024: Deutschland zur\u00fcck in den Top 10", "url": "https://www.tagesschau.de/inland/regional/mecklenburgvorpommern/ndr-tag-der-pressefreiheit-2024-100.html", "thumbnailUrl": "https://images.tagesschau.de/image/40936573-838b-41b0-b95a-caca80dd4b57/AAABjz1eGk0/AAABjwnlKNc/16x9-512.jpg", "date": "2024-05-03T06:53:00.000+02:00", "lat": 53.6127, "lon": 13.0752, "intensity": 0.7, "source": "Tagesschau"}, {"title": "Wie China Journalisten \u00fcberwacht \u00a0", "url": "https://www.tagesschau.de/multimedia/podcast/11km/11km-feed-100.html", "thumbnailUrl": "https://images.tagesschau.de/image/872fec47-14fb-4476-9ecf-18bdabe542aa/AAABjzl3pr8/AAABjwnlKNc/16x9-512.jpg", "date": "2024-05-03T06:52:13.103+02:00", "lat": 39.9042, "lon": 116.4074, "intensity": 0.8, "source": "Tagesschau"}, {"title": "\"Angesichts der Lage gar nicht so schlecht\"", "url": "https://www.tagesschau.de/ausland/europa/ukraine-pressefreiheit-100.html", "thumbnailUrl": "https://images.tagesschau.de/image/ce8cdd5e-c198-444c-8ac9-54656da7c072/AAABhnRH6_g/AAABjwnlKNc/16x9-512.jpg", "date": "2024-05-03T06:49:45.225+02:00", "lat": 50.4501, "lon": 30.5234, "intensity": 0.4, "source": "Tagesschau"}, {"title": "E-Scooter-Batterie explodiert in Wohnung - Familie gerettet", "url": "https://www.tagesschau.de/inland/regional/niedersachsen/ndr-e-scooter-batterie-explodiert-in-wohnung-familie-gerettet-100.html", "thumbnailUrl": "https://images.tagesschau.de/image/91633003-c00c-4222-80db-e793451a615c/AAABjzzH96Y/AAABjwnlKNc/16x9-512.jpg", "date": "2024-05-03T06:42:00.000+02:00", "lat": 53.2539, "lon": 7.9218, "intensity": 0.7, "source": "Tagesschau"}, {"title": "Guten Morgen, NRW!", "url": "https://www.tagesschau.de/inland/regional/nordrheinwestfalen/wdr-guten-morgen-nrw-464.html", "thumbnailUrl": "https://images.tagesschau.de/image/d468b28d-bcb8-4f48-918a-974adf724569/AAABjz0d5c8/AAABjwnlKNc/16x9-512.jpg", "date": "2024-05-03T06:42:00.000+02:00", "lat": 51.4875, "lon": 7.4669, "intensity": 0.8, "source": "Tagesschau"}, {"title": "Mehr verbale Angriffe gegen Journalisten im Saarland", "url": "https://www.tagesschau.de/inland/regional/saarland/sr-mehr-verbale-angriffe-gegen-journalisten-im-saarland-100.html", "thumbnailUrl": "https://images.tagesschau.de/image/533d162d-e724-4a52-b6a6-317d04764dd1/AAABjzzGAcs/AAABjwnlKNc/16x9-512.jpg", "date": "2024-05-03T06:31:00.000+02:00", "lat": 49.3964, "lon": 6.9538, "intensity": 0.7, "source": "Tagesschau"}, {"title": "Weltweit schlechter, in Deutschland besser", "url": "https://www.tagesschau.de/ausland/pressefreiheit-weltweit-102.html", "thumbnailUrl": "https://images.tagesschau.de/image/948ecd93-3eb2-47c7-891c-a4ea2e6fc81c/AAABhnSDpbc/AAABjwnlKNc/16x9-512.jpg", "date": "2024-05-03T06:27:57.939+02:00", "lat": 51.163, "lon": 9.998, "intensity": 0.7, "source": "Tagesschau"}, {"title": "Crailsheimer Gemeinderat will keine Landeserstaufnahmeeinrichtung f\u00fcr Gefl\u00fcchtete", "url": "https://www.tagesschau.de/inland/regional/badenwuerttemberg/swr-crailsheimer-gemeinderat-will-keine-landeserstaufnahmeeinrichtung-102.html", "thumbnailUrl": "https://images.tagesschau.de/image/f65da17c-0c18-4841-8ab2-d8da550ba628/AAABjz1Yk6g/AAABjwnlKNc/16x9-512.jpg", "date": "2024-05-03T06:24:24.000+02:00", "lat": 49.126999, "lon": 10.078999, "intensity": 0.7, "source": "Tagesschau"}, {"title": "Bremerhavener Gr\u00fcne fordern Ende der Autotransporte in der Stadt", "url": "https://www.tagesschau.de/inland/regional/bremen/rb-bremerhavener-gruene-fordern-ende-der-autotransporte-in-der-stadt-102.html", "thumbnailUrl": "https://images.tagesschau.de/image/cd39575f-201a-42ef-82cd-c5eceffcd666/AAABjzyyDbY/AAABjwnlKNc/16x9-512.jpg", "date": "2024-05-03T06:20:00.000+02:00", "lat": 53.5396, "lon": 8.5744, "intensity": 0.7, "source": "Tagesschau"}, {"title": "St. Arnualer Skelett deutlich \u00e4lter als vermutet", "url": "https://www.tagesschau.de/inland/regional/saarland/sr-st-arnualer-skelett-deutlich-aelter-als-vermutet-100.html", "thumbnailUrl": "https://images.tagesschau.de/image/d23a7e61-f4ae-4919-bd23-f4884f4e5847/AAABjzywCIE/AAABjwnlKNc/16x9-512.jpg", "date": "2024-05-03T06:16:00.000+02:00", "lat": 49.2398, "lon": 6.9892, "intensity": 0.7, "source": "Tagesschau"}, {"title": "Potsdam steuert bei Kita-Pl\u00e4tzen in ein \u00dcberangebot", "url": "https://www.tagesschau.de/inland/regional/brandenburg/rbb-potsdam-steuert-bei-kita-plaetzen-in-ein-ueberangebot-102.html", "thumbnailUrl": "https://images.tagesschau.de/image/3855dc0b-ee74-4d17-a331-9fb3a9fc84e0/AAABjzylIHk/AAABjwnlKNc/16x9-512.jpg", "date": "2024-05-03T06:07:38.000+02:00", "lat": 52.3958, "lon": 13.0645, "intensity": 0.7, "source": "Tagesschau"}, {"title": "Interview | Musical \"Irena\": Kann man \u00fcber den Holocaust singen und tanzen? ", "url": "https://www.tagesschau.de/inland/regional/berlin/rbb-interview--musical-irena-kann-man-ueber-den-holocaust-singen-und-tanzen-100.html", "thumbnailUrl": "https://images.tagesschau.de/image/dfb1f411-83cd-467e-9311-b3c7c900e2ce/AAABjzylUns/AAABjwnlKNc/16x9-512.jpg", "date": "2024-05-03T06:06:26.000+02:00", "lat": 52.52, "lon": 13.405, "intensity": 0.8, "source": "Tagesschau"}, {"title": "Br\u00fccken-Abriss: A42 am Kreuz Herne gesperrt", "url": "https://www.tagesschau.de/inland/regional/nordrheinwestfalen/wdr-bruecken-abriss-a42-am-kreuz-herne-gesperrt-100.html", "thumbnailUrl": "https://images.tagesschau.de/image/84cfb189-77d1-4d9c-9c47-548917e7907a/AAABjzzx9T8/AAABjwnlKNc/16x9-512.jpg", "date": "2024-05-03T06:03:00.000+02:00", "lat": 51.5413, "lon": 7.2167, "intensity": 0.8, "source": "Tagesschau"}, {"title": "Null Bock auf Schule? Bremen will Schulvermeidern besser helfen", "url": "https://www.tagesschau.de/inland/regional/bremen/rb-null-bock-auf-schule-bremen-will-schulvermeidern-besser-helfen-100.html", "thumbnailUrl": "https://images.tagesschau.de/image/ae4f6c8c-4bb6-4ee5-8c12-71f614eb2da8/AAABjzyjUl0/AAABjwnlKNc/16x9-512.jpg", "date": "2024-05-03T06:00:00.000+02:00", "lat": 53.079296, "lon": 8.801694, "intensity": 0.5, "source": "Tagesschau"}, {"title": "\"Einfach erb\u00e4rmlich\": Fliegenplage in Hamm nervt Anwohner", "url": "https://www.tagesschau.de/inland/regional/nordrheinwestfalen/wdr-einfach-erbaermlich-fliegenplage-in-hamm-nervt-anwohner-104.html", "thumbnailUrl": "https://images.tagesschau.de/image/d3288efc-f8f4-4b4b-a4e1-9abd4cdc2c49/AAABjzzRKj4/AAABjwnlKNc/16x9-512.jpg", "date": "2024-05-03T06:00:00.000+02:00", "lat": 51.6739, "lon": 7.6087, "intensity": 0.6, "source": "Tagesschau"}, {"title": "Neue Eurowings-Basis am Flughafen Hannover er\u00f6ffnet", "url": "https://www.tagesschau.de/inland/regional/niedersachsen/ndr-neue-eurowings-basis-am-flughafen-hannover-eroeffnet-100.html", "thumbnailUrl": "https://images.tagesschau.de/image/f77905cc-3f64-4b02-aae6-cc297eec2313/AAABjz4Rldc/AAABjwnlKNc/16x9-512.jpg", "date": "2024-05-03T05:50:00.000+02:00", "lat": 52.461, "lon": 9.685, "intensity": 0.8, "source": "Tagesschau"}, {"title": "Passee: Dokumentation \u00fcber Dorf feiert Premiere im Capitol Schwerin", "url": "https://www.tagesschau.de/inland/regional/mecklenburgvorpommern/ndr-passee-dokumentation-ueber-dorf-feiert-premiere-im-capitol-schwerin-100.html", "thumbnailUrl": "https://images.tagesschau.de/image/a24261b0-4945-41c0-8694-19b6214f312f/AAABjzpSB_E/AAABjwnlKNc/16x9-512.jpg", "date": "2024-05-03T05:30:00.000+02:00", "lat": 53.6336, "lon": 11.4024, "intensity": 0.3, "source": "Tagesschau"}, {"title": "Neustart in D\u00e4nemark: Die f\u00fcnf gr\u00f6\u00dften Irrt\u00fcmer beim Auswandern", "url": "https://www.tagesschau.de/inland/regional/schleswigholstein/ndr-neustart-in-daenemark-die-fuenf-groessten-irrtuemer-beim-auswandern-100.html", "thumbnailUrl": "https://images.tagesschau.de/image/f9e44d4e-a975-488d-9384-ca94720c7748/AAABjzxlCmM/AAABjwnlKNc/16x9-512.jpg", "date": "2024-05-03T05:00:00.000+02:00", "lat": 54.4608, "lon": 9.5569, "intensity": 0.7, "source": "Tagesschau"}, {"title": "Russland steckt \"eindeutig\" hinter Cyberangriff auf SPD", "url": "https://www.tagesschau.de/inland/spd-cyberangriff-russland-100.html", "thumbnailUrl": "https://images.tagesschau.de/image/9fd01488-f33b-4d00-9a14-5a61d0a6645a/AAABjz0b-GU/AAABjwnlKNc/16x9-512.jpg", "date": "2024-05-03T04:57:08.770+02:00", "lat": 55.7558, "lon": 37.6176, "intensity": 0.8, "source": "Tagesschau"}, {"title": "Israel rechnet offenbar mit Ablehnung von Vorschlag", "url": "https://www.tagesschau.de/ausland/asien/israel-hamas-geisel-deal-verhandlungen-feuerpause-100.html", "thumbnailUrl": "https://images.tagesschau.de/image/892ea0e9-6d25-4ef0-b9f2-cd910a282446/AAABjy7Mdfw/AAABjwnlKNc/16x9-512.jpg", "date": "2024-05-03T03:35:18.208+02:00", "lat": 31.7683, "lon": 35.2137, "intensity": 0.7, "source": "Tagesschau"}, {"title": "T\u00fcrkei setzt Handel mit Israel aus", "url": "https://www.tagesschau.de/ausland/asien/turkei-israel-handel-100.html", "thumbnailUrl": "https://images.tagesschau.de/image/087ac6d8-9a1d-4f52-8812-a28ead7515af/AAABjzsRxwk/AAABjwnlKNc/16x9-512.jpg", "date": "2024-05-03T01:36:33.147+02:00", "lat": 31.9522, "lon": 35.2433, "intensity": 0.8, "source": "Tagesschau"}, {"title": "Koalitionsstreit \u00fcber Einsparungen im Haushalt 2025 versch\u00e4rft sich", "url": "https://www.br.de/nachrichten/meldungen/index.html#n1", "thumbnailUrl": null, "date": "2024-05-04T01:29:34+02:00", "lat": 30.0444, "lon": 31.2357, "intensity": 0.8, "source": "Bayrischer Rundfunk"}, {"title": "Cybersicherheitsbeh\u00f6rde warnt vor weiteren russischen Hackerattacken", "url": "https://www.br.de/nachrichten/meldungen/index.html#n2", "thumbnailUrl": null, "date": "2024-05-04T01:29:34+02:00", "lat": 33.5138, "lon": 36.2021, "intensity": 0.8, "source": "Bayrischer Rundfunk"}, {"title": "Europas Embargo gegen Russlands Luftfahrt scheitert", "url": "https://www.br.de/nachrichten/meldungen/index.html#n3", "thumbnailUrl": null, "date": "2024-05-04T01:29:34+02:00", "lat": 39.9334, "lon": 32.8597, "intensity": 0.8, "source": "Bayrischer Rundfunk"}, {"title": "Tausende protestieren wieder in Georgien gegen Regierung", "url": "https://www.br.de/nachrichten/meldungen/index.html#n4", "thumbnailUrl": null, "date": "2024-05-04T01:29:34+02:00", "lat": 52.520008, "lon": 13.404954, "intensity": 0.7, "source": "Bayrischer Rundfunk"}, {"title": "Streiks am Bau kommen - Arbeitgeber lehnen Schlichterspruch ab", "url": "https://www.br.de/nachrichten/meldungen/index.html#n5", "thumbnailUrl": null, "date": "2024-05-04T01:29:34+02:00", "lat": 52.520008, "lon": 13.404954, "intensity": 0.6, "source": "Bayrischer Rundfunk"}, {"title": "Ausl\u00e4nderfeindlicher Vorfall beim bayerischen FDP-Nachwuchs", "url": "https://www.br.de/nachrichten/meldungen/index.html#n6", "thumbnailUrl": null, "date": "2024-05-04T01:29:34+02:00", "lat": 48.135125, "lon": 11.581981, "intensity": 0.6, "source": "Bayrischer Rundfunk"}, {"title": "Rauchwolke durch Gro\u00dfbrand \u00fcber Berlin", "url": "https://www.br.de/nachrichten/meldungen/index.html#n7", "thumbnailUrl": null, "date": "2024-05-04T01:29:34+02:00", "lat": 50.110922, "lon": 8.682127, "intensity": 0.8, "source": "Bayrischer Rundfunk"}, {"title": "\"Sterben\" mit Deutschem Filmpreis ausgezeichnet", "url": "https://www.br.de/nachrichten/meldungen/index.html#n8", "thumbnailUrl": null, "date": "2024-05-04T01:29:34+02:00", "lat": 47.8684, "lon": 12.6394, "intensity": 0.8, "source": "Bayrischer Rundfunk"}, {"title": "Hoffenheim und Leipzig trennen sich 1:1", "url": "https://www.br.de/nachrichten/meldungen/index.html#n9", "thumbnailUrl": null, "date": "2024-05-04T01:29:34+02:00", "lat": 48.5844, "lon": 13.6722, "intensity": 0.8, "source": "Bayrischer Rundfunk"}, {"title": "Das Wetter in Bayern: Gebietsweise Regen", "url": "https://www.br.de/nachrichten/meldungen/index.html#n10", "thumbnailUrl": null, "date": "2024-05-04T01:29:34+02:00", "lat": 53.5396, "lon": 8.5761, "intensity": 0.4, "source": "Bayrischer Rundfunk"}, {"title": "So war die Lola-Gala: Preistr\u00e4ger und Highlights des Deutschen Filmpreises", "url": "https://www.rbb24.de/kultur/beitrag/2024/05/bildergalerie-gewinner-lola-deutscher-filmpreis-20240.html", "thumbnailUrl": null, "date": "Fri, 03 May 2024 23:01:00 +0200", "lat": 52.520008, "lon": 13.4, "intensity": 0.7, "source": "RBB"}, {"title": "Deutscher Filmpreis: Goldene Lola geht an Matthias Glasners Familiendrama \"Sterben\"", "url": "https://www.rbb24.de/kultur/beitrag/2024/05/74-deutscher-filmpreis-verleihung-lola-2024-berlin-potsdamer-platz.html", "thumbnailUrl": null, "date": "Fri, 03 May 2024 22:11:00 +0200", "lat": 53.5511, "lon": 9.9876, "intensity": 0.7, "source": "RBB"}, {"title": "Video | Berlin und Brandenburg: Wie Pressefreiheit behindert wird", "url": "https://www.rbb24.de/politik/beitrag/av7/video-berlin-brandenburg-pressefreiheit-behindert.html", "thumbnailUrl": null, "date": "Fri, 03 May 2024 21:33:04 +0200", "lat": 52.52, "lon": 13.405, "intensity": 0.8, "source": "RBB"}, {"title": "Fu\u00dfball-Regionalliga Nordost: Hertha II siegt sp\u00e4t, Abstieg des Berliner AK steht fest", "url": "https://www.rbb24.de/sport/beitrag/2024/05/fussball-regionalliga-nordost-babelsberg-03-berliner-ak-hertha-bsc-ii-rot-weiss-erfurt.html", "thumbnailUrl": null, "date": "Fri, 03 May 2024 21:29:00 +0200", "lat": 52.5075, "lon": 13.4723, "intensity": 0.8, "source": "RBB"}, {"title": "L\u00f6scharbeiten bei Gro\u00dfbrand in Lichterfelde ziehen sich wohl bis Samstag hin - Warnung gilt weiterhin", "url": "https://www.rbb24.de/panorama/beitrag/2024/05/berlin-lichterfelde-brand-rauchentwicklung.html", "thumbnailUrl": null, "date": "Fri, 03 May 2024 21:22:00 +0200", "lat": 52.4308, "lon": 13.2956, "intensity": 0.8, "source": "RBB"}, {"title": "Video | Zehdenick: Mit B\u00fcchern gegen den Leerstand", "url": "https://www.rbb24.de/panorama/beitrag/av7/video-zehdenick-temporaerer-buchladen-brandenburg.html", "thumbnailUrl": null, "date": "Fri, 03 May 2024 21:19:34 +0200", "lat": 52.9603, "lon": 13.1547, "intensity": 0.7, "source": "RBB"}, {"title": "Video | Landkreis Oberhavel: Etliche zerst\u00f6rte Wahlplakate in Oranienburg", "url": "https://www.rbb24.de/politik/beitrag/av7/video-brandenburg-oranienburg-zerstoerte-wahlplakate.html", "thumbnailUrl": null, "date": "Fri, 03 May 2024 21:17:32 +0200", "lat": 52.7555, "lon": 13.245, "intensity": 0.6, "source": "RBB"}, {"title": "Durchsuchung bei Polizeisch\u00fclern nach Semesterpr\u00fcfungen - Cybercrime-Ermittler gehen Verdacht nach", "url": "https://www.rbb24.de/panorama/beitrag/2024/05/durchsuchungen-polizeischueler-verdacht-betrug-bei-pruefung-berlin.html", "thumbnailUrl": null, "date": "Fri, 03 May 2024 20:43:00 +0200", "lat": 53.551086, "lon": 9.993682, "intensity": 0.8, "source": "RBB"}, {"title": "Spielabsagen wegen Gro\u00dfbrand in Berlin-Lichterfelde", "url": "https://www.rbb24.de/sport/beitrag/2024/05/fussball-spielabsagen-grossbrand-lagerhalle-berlin-lichterfelde.html", "thumbnailUrl": null, "date": "Fri, 03 May 2024 19:28:00 +0200", "lat": 52.4254, "lon": 13.3158, "intensity": 0.8, "source": "RBB"}, {"title": "Energie Cottbus: Claus-Dieter Wollitz h\u00f6rt 2025 als Trainer auf", "url": "https://www.rbb24.de/sport/beitrag/2024/05/fussball-regionalliga-nordost-energie-cottbus-pele-wollitz-hoert-als-trainer-auf.html", "thumbnailUrl": null, "date": "Fri, 03 May 2024 18:08:00 +0200", "lat": 51.761, "lon": 14.326, "intensity": 0.4, "source": "RBB"}, {"title": "Pro-pal\u00e4stinensischer Protest vor der Humboldt-Uni Berlin", "url": "https://www.rbb24.de/politik/beitrag/2024/05/pro-palaestinensischer-protest-humboldt-uni-berlin.html", "thumbnailUrl": null, "date": "Fri, 03 May 2024 17:45:14 +0200", "lat": 52.5186, "lon": 13.3903, "intensity": 0.7, "source": "RBB"}, {"title": "Ausw\u00e4rtsspiel in Elversberg: Hertha-Trainer Dardai verspricht Gulasch bei Torfestival", "url": "https://www.rbb24.de/sport/beitrag/2024/05/fussball-2-liga-hertha-bsc-elversberg-vorbericht.html", "thumbnailUrl": null, "date": "Fri, 03 May 2024 16:33:00 +0200", "lat": 49.3375, "lon": 7.1611, "intensity": 0.3, "source": "RBB"}, {"title": "Streiks in Baubranche drohen - Arbeitgeber lehnen Schlichterspruch ab", "url": "https://www.rbb24.de/wirtschaft/beitrag/2024/05/bau-arbeitgeber-lehnen-schlichterspruch-ab-streiks-drohen.html", "thumbnailUrl": null, "date": "Fri, 03 May 2024 15:55:00 +0200", "lat": 51.1657, "lon": 10.4515, "intensity": 0.7, "source": "RBB"}, {"title": "Basketball-Bundesliga: Alba Berlin im Saisonendspurt mit Hindernissen", "url": "https://www.rbb24.de/sport/beitrag/2024/05/basketball-bundesliga-alba-berlin-hauptrunde-saison-endspurt-spitzenposition-playoffs-heimvorteil-bayern-muenchen-verletzungen.html", "thumbnailUrl": null, "date": "Fri, 03 May 2024 15:09:47 +0200", "lat": 52.520008, "lon": 13.41053, "intensity": 0.7, "source": "RBB"}, {"title": "Charit\u00e9 Berlin: Revision im Verfahren gegen Herzmediziner", "url": "https://www.rbb24.de/panorama/beitrag/2024/05/berlin-justiz-charite-herzmediziner-revision.html", "thumbnailUrl": null, "date": "Fri, 03 May 2024 14:53:25 +0200", "lat": 52.520008, "lon": 13.38886, "intensity": 0.6, "source": "RBB"}, {"title": "Bildergalerie: Gro\u00dfbrand einer Fabrik in Berlin-Lichterfelde", "url": "https://www.rbb24.de/panorama/beitrag/2024/05/berlin-lichterfelde-brand-giftige-wolke-rauch-bilder.html", "thumbnailUrl": null, "date": "Fri, 03 May 2024 14:19:16 +0200", "lat": 52.438, "lon": 13.312, "intensity": 0.8, "source": "RBB"}, {"title": "Laufender Befangenheitsantrag: N\u00e4chster Gerichtstermin zwischen Fredi Bobic und Hertha BSC geplatzt", "url": "https://www.rbb24.de/sport/beitrag/2024/05/fussball-hertha-bsc-fredi-bobic-gerichtstermin-rechtsstreit-geplatzt.html", "thumbnailUrl": null, "date": "Fri, 03 May 2024 13:35:58 +0200", "lat": 52.52, "lon": 13.3777, "intensity": 0.6, "source": "RBB"}, {"title": "VBB-Chefin Ute Bonde soll neue Berliner Verkehrssenatorin werden", "url": "https://www.rbb24.de/politik/beitrag/2024/05/berlin-verkehr-senatorin-ute-bonde-schreiner-nachfolge.html", "thumbnailUrl": null, "date": "Fri, 03 May 2024 12:42:00 +0200", "lat": 52.52, "lon": 13.3903, "intensity": 0.7, "source": "RBB"}, {"title": "R\u00fcckkauf des Fernw\u00e4rmenetzes: Berlin w\u00e4rmt sich wieder selbst", "url": "https://www.rbb24.de/panorama/beitrag/2024/05/berlin-fernwaerme-wieder-in-landeshand-rueckkauf-fernwaermenetz.html", "thumbnailUrl": null, "date": "Fri, 03 May 2024 11:15:00 +0200", "lat": 52.52, "lon": 13.405, "intensity": 0.8, "source": "RBB"}, {"title": "S-Bahn Berlin: Ringbahn am Wochenende zwischen Halensee und Beusselstra\u00dfe unterbrochen", "url": "https://www.rbb24.de/panorama/beitrag/2024/05/s-bahn-berlin-ringbahn-unterbrochen-ersatzverkehr-bauaerbeiten-halensee-beusselstrasse.html", "thumbnailUrl": null, "date": "Fri, 03 May 2024 09:11:00 +0200", "lat": 52.5166, "lon": 13.2984, "intensity": 0.7, "source": "RBB"}, {"title": "Vom Smartphone abgelenkt - Frau st\u00fcrzt ins S-Bahngleis und verletzt sich", "url": "https://www.rbb24.de/panorama/beitrag/2024/05/berlin-friedrichshain-ostkreuz-frau-stuerzt-wegen-smartphone-ablenkung-in-gleis-ueberlebt.html", "thumbnailUrl": null, "date": "Fri, 03 May 2024 08:50:58 +0200", "lat": 48.1371, "lon": 11.5761, "intensity": 0.8, "source": "RBB"}, {"title": "Theatertreffen-Er\u00f6ffnung: \"Nathan der Weise\" mit gigantischer B\u00fchnenmaschine", "url": "https://www.rbb24.de/kultur/beitrag/2024/05/theatertreffen-berlin-eroeffnung-rasche-nathan-der-weise-kritik.html", "thumbnailUrl": null, "date": "Fri, 03 May 2024 08:08:05 +0200", "lat": 52.51704, "lon": 13.38886, "intensity": 0.7, "source": "RBB"}, {"title": "Baumbl\u00fctenfest in Werder (Havel) geht in die n\u00e4chste Runde: das Volksfest beginnt", "url": "https://www.rbb24.de/panorama/beitrag/2024/05/baumbluetenfest-volksfest-jahrmarkt-beginnt-werder-havel-.html", "thumbnailUrl": null, "date": "Fri, 03 May 2024 07:28:13 +0200", "lat": 52.3917, "lon": 12.9375, "intensity": 0.5, "source": "RBB"}, {"title": "Veranstaltung im Barnim: Brandenburger Polizei r\u00e4umt Vers\u00e4umnisse wegen Blockade von G\u00f6ring-Eckardts Wagen ein", "url": "https://www.rbb24.de/politik/beitrag/2024/05/brandenburg-gruene-goering-eckardt-auto-blockade-faeser-staatsanwaltschaft-ermittlungen.html", "thumbnailUrl": null, "date": "Fri, 03 May 2024 06:41:40 +0200", "lat": 52.8747, "lon": 13.7833, "intensity": 0.6, "source": "RBB"}, {"title": "Interview | Musical \"Irena\": Kann man \u00fcber den Holocaust singen und tanzen?", "url": "https://www.rbb24.de/kultur/beitrag/2024/05/interview-elzbieta-ficowska-irena-sendler-retterin-juedische-kinder-warschauer-ghetto.html", "thumbnailUrl": null, "date": "Fri, 03 May 2024 06:06:26 +0200", "lat": 52.5235, "lon": 13.3886, "intensity": 0.8, "source": "RBB"}, {"title": "Ver\u00e4nderungen bei Volleyball-Meister: BR Volleys verk\u00fcnden drei Zug\u00e4nge", "url": "https://www.rbb24.de/sport/beitrag/2024/05/volleyball-br-volleys-niroomand-zugaenge-abgaenge-kader.html", "thumbnailUrl": null, "date": "Thu, 02 May 2024 22:39:00 +0200", "lat": 52.520008, "lon": 13.37041, "intensity": 0.3, "source": "RBB"}, {"title": "Video: Fischsterben an der Wasserkraftanlage in M\u00e4rkisch Buchholz", "url": "https://www.rbb24.de/politik/beitrag/av7/video-fisch-sterben-maerkisch-buchholz-treppen-wehr.html", "thumbnailUrl": null, "date": "Thu, 02 May 2024 20:59:10 +0200", "lat": 52.2167, "lon": 13.7333, "intensity": 0.7, "source": "RBB"}, {"title": "Video | Projekttag gegen Mobbing: \"Pink Shirt Day\" an Schule in Barnim", "url": "https://www.rbb24.de/politik/beitrag/av7/video-projekt-tage-gegen-mobbing-schuele-kinder-schule.html", "thumbnailUrl": null, "date": "Thu, 02 May 2024 20:45:26 +0200", "lat": 52.8036, "lon": 13.7442, "intensity": 0.5, "source": "RBB"},