[{"title": "EU schmiedet Fl\u00fcchtlingsdeal mit Libanon", "url": "https://www.tagesschau.de/ausland/europa/eu-libanon-fluechtlingsdeal-100.html", "thumbnailUrl": "https://images.tagesschau.de/image/b16baef2-7b48-4bfe-8f6c-990b0d908fc8/AAABjzbb-sA/AAABjwnlKNc/16x9-512.jpg", "date": "2024-05-02T03:18:43.299+02:00", "lat": 33.8547, "lon": 35.8623, "intensity": 0.7, "source": "Tagesschau"}, {"title": "Proteste in Georgien weiten sich aus", "url": "https://www.tagesschau.de/ausland/europa/georgien-proteste-126.html", "thumbnailUrl": "https://images.tagesschau.de/image/9c0943a0-3d93-4540-a39e-bcadce2807f9/AAABjzaqdo4/AAABjwnlKNc/16x9-512.jpg", "date": "2024-05-02T02:28:47.930+02:00", "lat": 41.7151, "lon": 44.793, "intensity": 0.8, "source": "Tagesschau"}, {"title": "++ Selenskyj k\u00fcndigt weitere Sicherheitsabkommen an ++", "url": "https://www.tagesschau.de/newsticker/liveblog-ukraine-donnerstag-338.html", "thumbnailUrl": "https://images.tagesschau.de/image/8defcda2-48aa-435e-a762-e5a7e7752a43/AAABjzaUTRE/AAABjwnlKNc/16x9-512.jpg", "date": "2024-05-02T01:54:43.316+02:00", "lat": 50.4501, "lon": 30.5234, "intensity": 0.8, "source": "Tagesschau"}, {"title": "++ 30 Lkw mit Hilfsg\u00fctern passieren \u00dcbergang Erez ++", "url": "https://www.tagesschau.de/newsticker/liveblog-nahost-mittwoch-126.html", "thumbnailUrl": "https://images.tagesschau.de/image/c0130de7-a8cf-4d07-bdc8-baf6fd09c061/AAABjzWEBko/AAABjwnlKNc/16x9-512.jpg", "date": "2024-05-01T23:37:08.184+02:00", "lat": 31.729, "lon": 34.4319, "intensity": 0.6, "source": "Tagesschau"}, {"title": "Tag der Arbeit: Lieferando-Mitarbeitende schlie\u00dfen sich Gewerkschaftsprotesten an", "url": "https://www.tagesschau.de/inland/regional/hessen/hr-tag-der-arbeit-lieferando-mitarbeitende-schliessen-sich-gewerkschaftsprotesten-an-100.html", "thumbnailUrl": "https://images.tagesschau.de/image/57c4786d-97c5-4596-8201-f7a4408651c5/AAABjzYUKoc/AAABjwnlKNc/16x9-512.jpg", "date": "2024-05-01T23:33:25.035+02:00", "lat": 50.1109, "lon": 8.6821, "intensity": 0.8, "source": "Tagesschau"}, {"title": "Einschr\u00e4nkungen auf Bahnstrecken von Berlin nach M\u00fcnchen und Frankfurt ab Donnerstag", "url": "https://www.tagesschau.de/inland/regional/brandenburg/rbb-einschraenkungen-auf-bahnstrecken-von-berlin-nach-muenchen-und-frankfurt-ab-donnerstag-100.html", "thumbnailUrl": "https://images.tagesschau.de/image/75b16490-f210-4641-9dbe-689b4cc709a7/AAABjzYB4pI/AAABjwnlKNc/16x9-512.jpg", "date": "2024-05-01T23:10:53.000+02:00", "lat": 52.520008, "lon": 13.404954, "intensity": 0.8, "source": "Tagesschau"}, {"title": "1. Mai-Demos meist friedlich verlaufen", "url": "https://www.tagesschau.de/inland/gesellschaft/demonstrationen-mai-100.html", "thumbnailUrl": "https://images.tagesschau.de/image/d7929c92-cc38-4339-bde7-6317f84412e9/AAABjzWrjZs/AAABjwnlKNc/16x9-512.jpg", "date": "2024-05-01T22:51:36.851+02:00", "lat": 48.7758, "lon": 9.1829, "intensity": 0.7, "source": "Tagesschau"}, {"title": "Oderbruch: Demonstranten bedr\u00e4ngen Bundestagsvizepr\u00e4sidentin G\u00f6ring-Eckardt", "url": "https://www.tagesschau.de/inland/regional/brandenburg/rbb-oderbruch-demonstranten-bedraengen-bundestagsvizepraesidentin-goering-eckardt-100.html", "thumbnailUrl": "https://images.tagesschau.de/image/647780e5-6ffd-406c-bb16-32efe9bc52ad/AAABjzXg6Po/AAABjwnlKNc/16x9-512.jpg", "date": "2024-05-01T22:34:53.000+02:00", "lat": 52.5689, "lon": 14.3167, "intensity": 0.7, "source": "Tagesschau"}, {"title": "Hamburger Polizei im Gro\u00dfeinsatz", "url": "https://www.tagesschau.de/inland/regional/hamburg/demonstration-hamburg-106.html", "thumbnailUrl": "https://images.tagesschau.de/image/0ec56ad9-0585-4889-aaa2-ecdec8dda397/AAABjzMyVIY/AAABjwnlKNc/16x9-512.jpg", "date": "2024-05-01T22:28:00.000+02:00", "lat": 53.5511, "lon": 9.9937, "intensity": 0.8, "source": "Tagesschau"}, {"title": "++ USA: Russland setzt chemische Kampfstoffe ein ++", "url": "https://www.tagesschau.de/newsticker/liveblog-ukraine-mittwoch-358.html", "thumbnailUrl": "https://images.tagesschau.de/image/8e0e2d4f-e9a5-4020-8fe6-ce62250ff6e5/AAABhnPy3sU/AAABjwnlKNc/16x9-512.jpg", "date": "2024-05-01T21:55:29.182+02:00", "lat": 46.482526, "lon": 30.723308, "intensity": 0.8, "source": "Tagesschau"}, {"title": "Umstrittenes NGO-Gesetz nimmt zweite H\u00fcrde ", "url": "https://www.tagesschau.de/ausland/europa/georgien-gesetz-auslaendische-einflussnahme-100.html", "thumbnailUrl": "https://images.tagesschau.de/image/4d716676-7eb3-4443-9b3f-2e2a138a1ec2/AAABjzWo6Sk/AAABjwnlKNc/16x9-512.jpg", "date": "2024-05-01T21:42:45.951+02:00", "lat": 41.7168, "lon": 44.793, "intensity": 0.8, "source": "Tagesschau"}, {"title": "\u00d6PNV: Deutschlandticket hebt hessische Fahrgastzahlen auf Vor-Corona-Niveau ", "url": "https://www.tagesschau.de/inland/regional/hessen/hr-oepnv-deutschlandticket-hebt-hessische-fahrgastzahlen-auf-vor-corona-niveau-100.html", "thumbnailUrl": "https://images.tagesschau.de/image/6d7f83d8-15e3-40dd-b927-31b68b48a113/AAABjzWbY9s/AAABjwnlKNc/16x9-512.jpg", "date": "2024-05-01T21:20:28.080+02:00", "lat": 50.6521, "lon": 9.1934, "intensity": 0.7, "source": "Tagesschau"}, {"title": "7 Ideen f\u00fcr die Museumsnacht in Frankfurt, Offenbach und Eschborn", "url": "https://www.tagesschau.de/inland/regional/hessen/hr-7-ideen-fuer-die-museumsnacht-in-frankfurt-offenbach-und-eschborn-100.html", "thumbnailUrl": "https://images.tagesschau.de/image/66c56f27-a0a5-4708-b185-011718b3ceef/AAABjzWZl3Q/AAABjwnlKNc/16x9-512.jpg", "date": "2024-05-01T21:19:02.795+02:00", "lat": 50.1109, "lon": 8.6815, "intensity": 0.6, "source": "Tagesschau"}, {"title": "Mit 91 Jahren an der Uni: G\u00fcnter Blum ist einer der \u00e4ltesten Studenten Deutschlands", "url": "https://www.tagesschau.de/inland/regional/hessen/hr-mit-91-jahren-an-der-uni-guenter-blum-ist-einer-der-aeltesten-studenten-deutschlands-100.html", "thumbnailUrl": "https://images.tagesschau.de/image/0144e89c-9889-4424-939d-64404131deb3/AAABjzWZfwY/AAABjwnlKNc/16x9-512.jpg", "date": "2024-05-01T21:18:57.701+02:00", "lat": 50.1155, "lon": 8.6833, "intensity": 0.4, "source": "Tagesschau"}, {"title": "Tausende Menschen bei Mai-Kundgebungen in Th\u00fcringen", "url": "https://www.tagesschau.de/inland/regional/thueringen/mdr-tausende-menschen-bei-mai-kundgebungen-in-thueringen-100.html", "thumbnailUrl": "https://images.tagesschau.de/image/5dab7ba5-6467-4d90-946b-f1139da96e97/AAABjzYPN_Q/AAABjwnlKNc/16x9-512.jpg", "date": "2024-05-01T20:56:36.000+02:00", "lat": 50.9795, "lon": 11.582, "intensity": 0.8, "source": "Tagesschau"}, {"title": "Eishockey-WM in Tschechien: Bundestrainer Kreis setzt auf f\u00fcnf Eisb\u00e4ren-Spieler - und Coach Aubin", "url": "https://www.tagesschau.de/inland/regional/berlin/rbb-eishockey-wm-in-tschechien-bundestrainer-kreis-setzt-auf-fuenf-eisbaeren-spieler-und-coach-aubin-102.html", "thumbnailUrl": "https://images.tagesschau.de/image/f7aed4f3-66b1-4565-8ee7-92a9d0279332/AAABjzWJBXw/AAABjwnlKNc/16x9-512.jpg", "date": "2024-05-01T20:56:18.000+02:00", "lat": 52.520008, "lon": 13.404954, "intensity": 0.7, "source": "Tagesschau"}, {"title": "30 Verletzte bei Unfall mit Maiwagen in S\u00fcdbaden", "url": "https://www.tagesschau.de/inland/gesellschaft/unfall-maiwagen-100.html", "thumbnailUrl": "https://images.tagesschau.de/image/4c366d13-50e8-429a-88e2-f0c3aa50fcd6/AAABjzR34_U/AAABjwnlKNc/16x9-512.jpg", "date": "2024-05-01T20:36:00.000+02:00", "lat": 47.5596, "lon": 7.5886, "intensity": 0.8, "source": "Tagesschau"}, {"title": "Live: Dortmund gegen Paris Saint-Germain", "url": "https://www.sportschau.de/live-und-ergebnisse/fussball/uefa-champions-league/ma9671786/borussia-dortmund_paris-saint-germain/liveticker/", "thumbnailUrl": "https://images.tagesschau.de/image/5e211391-faaa-4bb9-8a92-cfd2c053b5f8/AAABjhR4xlg/AAABjwnlKNc/16x9-512.jpg", "date": "2024-05-01T20:33:57.084+02:00", "lat": 51.5177, "lon": 7.4546, "intensity": 0.8, "source": "Tagesschau"}, {"title": "Albas Basketballerinnen gewinnen erste deutsche Meisterschaft - im zweiten Bundesliga-Jahr", "url": "https://www.tagesschau.de/inland/regional/berlin/rbb-albas-basketballerinnen-gewinnen-erste-deutsche-meisterschaft-im-zweiten-bundesliga-jahr-100.html", "thumbnailUrl": "https://images.tagesschau.de/image/fc1f7372-2bc4-4fa8-ae0a-7d271968293d/AAABjzVp5AI/AAABjwnlKNc/16x9-512.jpg", "date": "2024-05-01T20:24:57.000+02:00", "lat": 52.52, "lon": 13.405, "intensity": 0.9, "source": "Tagesschau"}, {"title": "Walpurgisnacht in Berlin: Demos am Vorabend des 1. Mai verlaufen ohne Zwischenf\u00e4lle", "url": "https://www.tagesschau.de/inland/regional/berlin/rbb-tag-vor-1-mai-demonstrationen-und-feste-zur-walpurgisnacht-in-berlin-erwartet-100.html", "thumbnailUrl": "https://images.tagesschau.de/image/818a5dfe-7ee6-43d4-b2b6-d1365d8197a8/AAABjzY-avM/AAABjwnlKNc/16x9-512.jpg", "date": "2024-05-01T20:22:18.000+02:00", "lat": 52.520008, "lon": 13.404954, "intensity": 0.5, "source": "Tagesschau"}, {"title": "Der 1. Mai in Berlin-Kreuzberg und -Neuk\u00f6lln", "url": "https://www.tagesschau.de/inland/regional/berlin/rbb-der-1-mai-in-berlin-kreuzberg-und-neukoelln-100.html", "thumbnailUrl": "https://images.tagesschau.de/image/bba5d1d4-cf5b-4fb3-a293-1b9192aba75d/AAABjzVdHXY/AAABjwnlKNc/16x9-512.jpg", "date": "2024-05-01T20:12:29.000+02:00", "lat": 52.52, "lon": 13.403, "intensity": 0.8, "source": "Tagesschau"}, {"title": "Berlin-Grunewald: 4.000 Menschen folgen satirischem Aufruf zu \"Razzia im Villenviertel\"", "url": "https://www.tagesschau.de/inland/regional/berlin/rbb-berlin-grunewald-4-000-menschen-folgen-satirischem-aufruf-zu-razzia-im-villenviertel-100.html", "thumbnailUrl": "https://images.tagesschau.de/image/26ae5ff8-0122-4c16-91f1-c9e3f94467ae/AAABjzY-aNk/AAABjwnlKNc/16x9-512.jpg", "date": "2024-05-01T20:05:28.000+02:00", "lat": 52.4874, "lon": 13.266, "intensity": 0.7, "source": "Tagesschau"}, {"title": "Trecker f\u00e4ngt bei Feldarbeiten Feuer und brennt aus", "url": "https://www.tagesschau.de/inland/regional/niedersachsen/ndr-trecker-faengt-bei-feldarbeiten-feuer-und-brennt-aus-100.html", "thumbnailUrl": "https://images.tagesschau.de/image/5afe99fe-1e4b-4121-b936-b6ccdf91d39c/AAABjzU2qaA/AAABjwnlKNc/16x9-512.jpg", "date": "2024-05-01T19:50:00.000+02:00", "lat": 52.9783, "lon": 8.4844, "intensity": 0.8, "source": "Tagesschau"}, {"title": "Demo zum 1. Mai in Stuttgart: Polizisten angegriffen", "url": "https://www.tagesschau.de/inland/regional/badenwuerttemberg/swr-demo-zum-1-mai-in-stuttgart-polizisten-angegriffen-102.html", "thumbnailUrl": "https://images.tagesschau.de/image/f6395486-7d2a-4708-bc68-b95e6b112f7f/AAABjzVI5eU/AAABjwnlKNc/16x9-512.jpg", "date": "2024-05-01T19:49:00.000+02:00", "lat": 48.7758, "lon": 9.1829, "intensity": 0.8, "source": "Tagesschau"}, {"title": "Wetterlage und Temperaturen", "url": "https://www.tagesschau.de/wetter/europa-welt", "thumbnailUrl": "https://images.tagesschau.de/image/6e7d3b16-79c8-4308-822b-20c3035236b5/AAABjzUyNrg/AAABjwnlKNc/16x9-512.jpg", "date": "2024-05-01T19:28:59.658+02:00", "lat": 51.1657, "lon": 10.4515, "intensity": 0.3, "source": "Tagesschau"}, {"title": "Dahme-Spreewald: 8.000 Quadratmeter Wald brannten bei Briesen", "url": "https://www.tagesschau.de/inland/regional/brandenburg/rbb-8-000-quadratmeter-wald-brennen-bei-briesen-102.html", "thumbnailUrl": "https://images.tagesschau.de/image/4d2f5853-44ae-45d2-bb20-048f06fe9e32/AAABjzS_ldA/AAABjwnlKNc/16x9-512.jpg", "date": "2024-05-01T19:25:01.000+02:00", "lat": 52.1644, "lon": 13.6703, "intensity": 0.8, "source": "Tagesschau"}, {"title": "Deutschlandticket: Teurer Flop oder Erfolg?  ", "url": "https://www.tagesschau.de/inland/regional/badenwuerttemberg/swr-deutschlandticket-teurer-flop-oder-erfolg-100.html", "thumbnailUrl": "https://images.tagesschau.de/image/a44b8e5a-1080-4366-8a46-28f0584bbfed/AAABjy6ebdU/AAABjwnlKNc/16x9-512.jpg", "date": "2024-05-01T19:18:00.000+02:00", "lat": 49.3988, "lon": 9.6812, "intensity": 0.4, "source": "Tagesschau"}, {"title": "Waldbrand im Harz unterhalb des Brockens ist gel\u00f6scht", "url": "https://www.tagesschau.de/inland/regional/niedersachsen/ndr-wieder-waldbrand-im-harz-loeschflugzeug-im-einsatz-100.html", "thumbnailUrl": "https://images.tagesschau.de/image/2f2921a2-f3c0-46cd-9bec-c66a4e94d748/AAABjzUdLC4/AAABjwnlKNc/16x9-512.jpg", "date": "2024-05-01T19:00:00.000+02:00", "lat": 51.7976, "lon": 10.6122, "intensity": 0.6, "source": "Tagesschau"}, {"title": "Wenn niemand etwas von der Schwangerschaft wissen darf", "url": "https://www.tagesschau.de/inland/regional/saarland/sr-wenn-niemand-etwas-von-der-schwangerschaft-wissen-darf-100.html", "thumbnailUrl": "https://images.tagesschau.de/image/74117394-2dcc-4857-853c-a22db2803e3b/AAABjzUc8_g/AAABjwnlKNc/16x9-512.jpg", "date": "2024-05-01T18:59:00.000+02:00", "lat": 49.3964, "lon": 7.0, "intensity": 0.6, "source": "Tagesschau"}, {"title": "Mehr als 5.500 Polizisten begleiten Demos", "url": "https://www.tagesschau.de/inland/regional/brandenburg/demonstrationen-berlin-100.html", "thumbnailUrl": "https://images.tagesschau.de/image/cedb949d-1661-47bf-a627-7b8a703b9911/AAABjzL0FZ0/AAABjwnlKNc/16x9-512.jpg", "date": "2024-05-01T18:57:01.000+02:00", "lat": 52.52, "lon": 13.4431, "intensity": 0.8, "source": "Tagesschau"}, {"title": "Britische Polizei beginnt mit Festnahmen von Migranten", "url": "https://www.tagesschau.de/ausland/europa/grossbritannien-festnahmen-ruanda-100.html", "thumbnailUrl": "https://images.tagesschau.de/image/8410d0ef-fe94-4e63-a412-7d45e5894078/AAABjzTTHvc/AAABjwnlKNc/16x9-512.jpg", "date": "2024-05-01T18:55:03.037+02:00", "lat": 51.5074, "lon": -0.1276, "intensity": 0.8, "source": "Tagesschau"}, {"title": "Ph\u00e4nomen \"Underachievement\": Warum Hochbegabte in der Schule scheitern k\u00f6nnen ", "url": "https://www.tagesschau.de/inland/regional/hessen/hr-phaenomen-underachievement-warum-hochbegabte-in-der-schule-scheitern-koennen-100.html", "thumbnailUrl": "https://images.tagesschau.de/image/aa16e24a-8d09-448c-8e21-8a2ddea625f8/AAABjzUBo44/AAABjwnlKNc/16x9-512.jpg", "date": "2024-05-01T18:33:59.155+02:00", "lat": 50.5866, "lon": 9.6921, "intensity": 0.7, "source": "Tagesschau"}, {"title": "16 Amazon-Transporter in Berlin-Wittenau in Flammen - Bekennerschreiben aufgetaucht", "url": "https://www.tagesschau.de/inland/regional/berlin/rbb-berlin-wittenau-16-transporter-in-flammen-brandstiftung-moeglich-100.html", "thumbnailUrl": "https://images.tagesschau.de/image/deea5c4a-3e52-43a0-85dd-9a412d503154/AAABjzT94jU/AAABjwnlKNc/16x9-512.jpg", "date": "2024-05-01T18:27:00.000+02:00", "lat": 52.5981, "lon": 13.3223, "intensity": 0.8, "source": "Tagesschau"}, {"title": "Berliner Landespokal: TuS Makkabi und Viktoria Berlin ziehen ins Finale ein", "url": "https://www.tagesschau.de/inland/regional/berlin/rbb-berliner-landespokal-tus-makkabi-und-viktoria-berlin-ziehen-ins-finale-ein-102.html", "thumbnailUrl": "https://images.tagesschau.de/image/41809655-b07d-4269-869e-dd888c2f7fe4/AAABjzTxDNo/AAABjwnlKNc/16x9-512.jpg", "date": "2024-05-01T18:09:16.000+02:00", "lat": 52.520008, "lon": 13.404954, "intensity": 0.7, "source": "Tagesschau"}, {"title": "Neues Parksystem: Bald kein \u00c4rger mehr am Baggersee in Kirchentellinsfurt?", "url": "https://www.tagesschau.de/inland/regional/badenwuerttemberg/swr-neues-parksystem-bald-kein-aerger-mehr-am-baggersee-in-kirchentellinsfurt-100.html", "thumbnailUrl": "https://images.tagesschau.de/image/925d85f0-a5e3-433b-97fa-8307f75ddc42/AAABjzT4YZo/AAABjwnlKNc/16x9-512.jpg", "date": "2024-05-01T17:59:27.000+02:00", "lat": 48.5133, "lon": 9.0783, "intensity": 0.6, "source": "Tagesschau"}, {"title": "Chinesischer Corona-Forscher darf zur\u00fcck ins Labor", "url": "https://www.tagesschau.de/ausland/asien/corona-forscher-china-100.html", "thumbnailUrl": "https://images.tagesschau.de/image/7d984e0e-4553-4ccd-ac77-d0bc30d4e6ab/AAABjzTX8xg/AAABjwnlKNc/16x9-512.jpg", "date": "2024-05-01T17:48:39.065+02:00", "lat": 39.9042, "lon": 116.4074, "intensity": 0.8, "source": "Tagesschau"}, {"title": "Barnim: Mutma\u00dflicher Brandstifter entwischt Polizei trotz Hubschraubersuche", "url": "https://www.tagesschau.de/inland/regional/brandenburg/rbb-barnim-mutmasslicher-brandstifter-entwischt-polizei-trotz-hubschraubersuche-100.html", "thumbnailUrl": "https://images.tagesschau.de/image/1ea45289-6f33-42aa-b024-5f43133c4587/AAABjzTVkwM/AAABjwnlKNc/16x9-512.jpg", "date": "2024-05-01T17:42:41.000+02:00", "lat": 52.6947, "lon": 13.5881, "intensity": 0.8, "source": "Tagesschau"}, {"title": "Interview | Keven Schlotterbeck: \"Vor allem im Defensivspiel habe ich viel von Urs Fischer gelernt\"", "url": "https://www.tagesschau.de/inland/regional/berlin/rbb-interview--keven-schlotterbeck-vor-allem-im-defensivspiel-habe-ich-viel-von-urs-fischer-gelernt-102.html", "thumbnailUrl": "https://images.tagesschau.de/image/22884bae-0ce7-4159-bae0-f575fc585680/AAABjzTVwio/AAABjwnlKNc/16x9-512.jpg", "date": "2024-05-01T17:42:40.000+02:00", "lat": 52.520008, "lon": 13.404954, "intensity": 0.6, "source": "Tagesschau"}, {"title": "Gewerkschaftskundgebung: Tausende Menschen bei DGB-Demonstration zum 1. Mai in Berlin", "url": "https://www.tagesschau.de/inland/regional/berlin/rbb-gewerkschaftskundgebung-tausende-menschen-bei-dgb-demonstration-zum-1-mai-in-berlin-100.html", "thumbnailUrl": "https://images.tagesschau.de/image/503963e5-4c8e-4b38-8d7d-e6274596f1e2/AAABjzY-Va0/AAABjwnlKNc/16x9-512.jpg", "date": "2024-05-01T17:41:59.000+02:00", "lat": 52.520008, "lon": 13.404954, "intensity": 0.8, "source": "Tagesschau"}, {"title": "Tausende demonstrieren am 1. Mai in Schleswig-Holstein", "url": "https://www.tagesschau.de/inland/regional/schleswigholstein/ndr-tausende-demonstrieren-am-1-mai-in-schleswig-holstein-100.html", "thumbnailUrl": "https://images.tagesschau.de/image/930146e0-9df0-4e22-bbc6-8dfb60afcda5/AAABjzP56m4/AAABjwnlKNc/16x9-512.jpg", "date": "2024-05-01T17:37:00.000+02:00", "lat": 54.3326, "lon": 9.6961, "intensity": 0.8, "source": "Tagesschau"}, {"title": "Nach Degenkolb-Show: Van Gils gewinnt Radrennen Eschborn-Frankfurt ", "url": "https://www.tagesschau.de/inland/regional/hessen/hr-nach-degenkolb-show-van-gils-gewinnt-radrennen-eschborn-frankfurt-102.html", "thumbnailUrl": "https://images.tagesschau.de/image/db802bca-b963-4b72-8160-a4c263719ea4/AAABjzTiafc/AAABjwnlKNc/16x9-512.jpg", "date": "2024-05-01T17:33:32.689+02:00", "lat": 50.1167, "lon": 8.5667, "intensity": 0.7, "source": "Tagesschau"}, {"title": "Radrennen Eschborn-Frankfurt 2024: Ticker zum Nachlesen: +++ Van Gils siegt im Sprint +++ Aranburu Zweiter, Sheehan Dritter +++ Degenkolb gewinnt Bergwertung +++", "url": "https://www.tagesschau.de/inland/regional/hessen/hr-radrennen-eschborn-frankfurt-2024--countdown-zu-eschborn-frankfurt-2024-laeuft--amateure-schon-unterwegs-100.html", "thumbnailUrl": "https://images.tagesschau.de/image/12893e6b-e4e5-48ff-bd3e-48ad13c92bb8/AAABjzTOQWk/AAABjwnlKNc/16x9-512.jpg", "date": "2024-05-01T17:31:53.754+02:00", "lat": 50.1155, "lon": 8.5648, "intensity": 0.7, "source": "Tagesschau"}, {"title": "\"Hamas blockiert Weg zu Feuerpause\"", "url": "https://www.tagesschau.de/ausland/asien/nahost-israel-gaza-hamas-100.html", "thumbnailUrl": "https://images.tagesschau.de/image/6b39dbc6-1d1b-4f85-bdaa-d7f2a30ea7f8/AAABjzSuM4Y/AAABjwnlKNc/16x9-512.jpg", "date": "2024-05-01T17:25:58.180+02:00", "lat": 31.53452, "lon": 34.35467, "intensity": 0.8, "source": "Tagesschau"}, {"title": "VfL Osnabr\u00fcck: Sch\u00e4den am Stadiondach - Schalke-Spiel gef\u00e4hrdet", "url": "https://www.tagesschau.de/inland/regional/niedersachsen/ndr-vfl-osnabrueck-nutzungsunterlassung-fuer-bremer-bruecke-102.html", "thumbnailUrl": "https://images.tagesschau.de/image/0fabfb61-5914-42cc-a4e7-5b0ba1b1d841/AAABjzMj1yw/AAABjwnlKNc/16x9-512.jpg", "date": "2024-05-01T17:03:00.000+02:00", "lat": 52.275604, "lon": 8.03741, "intensity": 0.7, "source": "Tagesschau"}, {"title": "Badeseen in NRW: Tipps f\u00fcr sicheren Schwimmspa\u00df", "url": "https://www.tagesschau.de/inland/regional/nordrheinwestfalen/wdr-badeseen-in-nrw-tipps-fuer-sicheren-schwimmspass-100.html", "thumbnailUrl": "https://images.tagesschau.de/image/8dc0481b-137d-4dc1-bd87-57f15d6c2805/AAABjzTbEdo/AAABjwnlKNc/16x9-512.jpg", "date": "2024-05-01T16:52:00.000+02:00", "lat": 51.9607, "lon": 7.6261, "intensity": 0.3, "source": "Tagesschau"}, {"title": "Tiernotruf testet neue Rettungsleitstelle im Saarland", "url": "https://www.tagesschau.de/inland/regional/saarland/sr-tiernotruf-testet-neue-rettungsleitstelle-im-saarland-100.html", "thumbnailUrl": "https://images.tagesschau.de/image/ad48f60a-544f-45c9-a60e-07b7e77daead/AAABjzSnw-c/AAABjwnlKNc/16x9-512.jpg", "date": "2024-05-01T16:51:00.000+02:00", "lat": 49.3964, "lon": 6.9969, "intensity": 0.6, "source": "Tagesschau"}, {"title": "T\u00f6dlicher Unfall am Bahnhof: Zug \u00fcberrollt Mann", "url": "https://www.tagesschau.de/inland/regional/niedersachsen/ndr-toedlicher-unfall-am-bahnhof-zug-ueberrollt-mann-100.html", "thumbnailUrl": "https://images.tagesschau.de/image/9cb03588-7b85-4ca0-a37f-9f56bbd4c147/AAABjzSp4wM/AAABjwnlKNc/16x9-512.jpg", "date": "2024-05-01T16:44:00.000+02:00", "lat": 52.3167, "lon": 10.2333, "intensity": 0.8, "source": "Tagesschau"}, {"title": "1. Mai in MV: Mehrere tausend Menschen bei Kundgebungen ", "url": "https://www.tagesschau.de/inland/regional/mecklenburgvorpommern/ndr-1-mai-in-mv-zahlreiche-aktionen-zum-tag-der-arbeit-100.html", "thumbnailUrl": "https://images.tagesschau.de/image/5262abb1-35e6-46ff-83a2-e971402baa40/AAABjzUMeb8/AAABjwnlKNc/16x9-512.jpg", "date": "2024-05-01T16:32:00.000+02:00", "lat": 53.6127, "lon": 13.4284, "intensity": 0.7, "source": "Tagesschau"}, {"title": "Polizei verhaftet Demonstrierende bei Mai-Marsch", "url": "https://www.tagesschau.de/ausland/europa/istanbul-proteste-tag-der-arbeit-100.html", "thumbnailUrl": "https://images.tagesschau.de/image/fb4bb242-066b-4427-8f0d-385667b82989/AAABjzQsHnY/AAABjwnlKNc/16x9-512.jpg", "date": "2024-05-01T16:31:28.102+02:00", "lat": 41.008237, "lon": 28.965164, "intensity": 0.8, "source": "Tagesschau"}, {"title": "Zehn Jahre Mike M\u00f6wenherz: Hilfe f\u00fcr unheilbar kranke Kinder", "url": "https://www.tagesschau.de/inland/regional/mecklenburgvorpommern/ndr-zehn-jahre-mike-moewenherz-hilfe-fuer-unheilbar-kranke-kinder-100.html", "thumbnailUrl": "https://images.tagesschau.de/image/4b790440-f156-4bff-b8c6-4d6d171a05be/AAABjzSKgJE/AAABjwnlKNc/16x9-512.jpg", "date": "2024-05-01T16:14:00.000+02:00", "lat": 53.90454, "lon": 12.38333, "intensity": 0.7, "source": "Tagesschau"}, {"title": "Maik\u00e4fertreffen: Autoklassiker rollen durch Hannover", "url": "https://www.tagesschau.de/inland/regional/niedersachsen/ndr-maikaefertreffen-autoklassiker-rollen-durch-hannover-100.html", "thumbnailUrl": "https://images.tagesschau.de/image/57929210-4be6-4273-a50d-03cbfe0977c3/AAABjzSFC3w/AAABjwnlKNc/16x9-512.jpg", "date": "2024-05-01T16:07:00.000+02:00", "lat": 52.3759, "lon": 9.7332, "intensity": 0.8, "source": "Tagesschau"}, {"title": "Theater Altenburg: Baufortschritte, aber kein Sanierungsende", "url": "https://www.tagesschau.de/inland/regional/thueringen/mdr-theater-altenburg-baufortschritte-aber-kein-sanierungsende-100.html", "thumbnailUrl": "https://images.tagesschau.de/image/c703f211-07c4-418f-8508-61619634f66c/AAABjzYO8KY/AAABjwnlKNc/16x9-512.jpg", "date": "2024-05-01T16:06:20.000+02:00", "lat": 50.985507, "lon": 12.434519, "intensity": 0.5, "source": "Tagesschau"}, {"title": "Tag der Arbeit: 80.000 Menschen bei 1. Mai-Demos in NRW \u2013 W\u00fcst in Aachen", "url": "https://www.tagesschau.de/inland/regional/nordrheinwestfalen/wdr-tag-der-arbeit-viele-demos-am-1-mai-in-nrw-100.html", "thumbnailUrl": "https://images.tagesschau.de/image/46b05e04-657c-4e0c-8b2f-89fd9c3c6a04/AAABjzVdCoA/AAABjwnlKNc/16x9-512.jpg", "date": "2024-05-01T16:06:00.000+02:00", "lat": 50.77535, "lon": 6.08342, "intensity": 0.8, "source": "Tagesschau"}, {"title": "\"Alle ins Boot!\" \u2013 Raft-Guide-Ausbildung im Kanupark Markkleeberg ", "url": "https://www.tagesschau.de/inland/regional/sachsen/mdr-alle-ins-boot--raft-guide-ausbildung-im-kanupark-markkleeberg-100.html", "thumbnailUrl": "https://images.tagesschau.de/image/c421a08d-48b0-4d47-a30d-61474bb73985/AAABjzYb1J8/AAABjwnlKNc/16x9-512.jpg", "date": "2024-05-01T16:00:00.000+02:00", "lat": 51.2912, "lon": 12.3687, "intensity": 0.6, "source": "Tagesschau"}, {"title": "Filmstart von \"Max und die Wilde 7 - Die Geister-Oma\" mit Uschi Glas", "url": "https://www.tagesschau.de/inland/regional/hessen/hr-filmstart-von-max-und-die-wilde-7-die-geister-oma-mit-uschi-glas-100.html", "thumbnailUrl": "https://images.tagesschau.de/image/a3ec3838-0a9d-4c15-b25d-c253911e1355/AAABjzRw9Ws/AAABjwnlKNc/16x9-512.jpg", "date": "2024-05-01T15:55:03.691+02:00", "lat": 50.5904, "lon": 9.1625, "intensity": 0.8, "source": "Tagesschau"}, {"title": "Eishockey: Heinrizi wird Sportdirektor bei den L\u00f6wen Frankfurt", "url": "https://www.tagesschau.de/inland/regional/hessen/hr-eishockey-heinrizi-wird-sportdirektor-bei-den-loewen-frankfurt-100.html", "thumbnailUrl": "https://images.tagesschau.de/image/72aec15d-36f5-43de-a364-6bdf6c0c7b2c/AAABjzRtQVE/AAABjwnlKNc/16x9-512.jpg", "date": "2024-05-01T15:47:08.151+02:00", "lat": 50.1109, "lon": 8.6821, "intensity": 0.7, "source": "Tagesschau"}, {"title": "Neue Satzung in Arbeit: Landessportbund geht auf Distanz zu AfD und Junger Alternative", "url": "https://www.tagesschau.de/inland/regional/hessen/hr-neue-satzung-in-arbeit-landessportbund-geht-auf-distanz-zu-afd-und-junger-alternative-100.html", "thumbnailUrl": "https://images.tagesschau.de/image/449d59d4-ccd7-4560-a102-a30d2a55c007/AAABjzRphs8/AAABjwnlKNc/16x9-512.jpg", "date": "2024-05-01T15:46:22.502+02:00", "lat": 51.0602, "lon": 9.7347, "intensity": 0.7, "source": "Tagesschau"}, {"title": "Dank Beharrlichkeit zum literarischen Weltstar", "url": "https://www.tagesschau.de/ausland/amerika/nachruf-paul-auster-100.html", "thumbnailUrl": "https://images.tagesschau.de/image/a5d8b6b7-1bb1-432c-b407-52d13296540d/AAABjzREZH0/AAABjwnlKNc/16x9-512.jpg", "date": "2024-05-01T15:37:51.612+02:00", "lat": 40.7128, "lon": -74.006, "intensity": 0.8, "source": "Tagesschau"}, {"title": "Hamburger Stadtderby: St. Pauli will, der HSV muss gewinnen ", "url": "https://www.tagesschau.de/inland/regional/hamburg/ndr-hamburger-stadtderby-st-pauli-will-der-hsv-muss-gewinnen-102.html", "thumbnailUrl": "https://images.tagesschau.de/image/a437fb34-ad9e-4f26-a691-fa485bee0fcd/AAABjzR6DkE/AAABjwnlKNc/16x9-512.jpg", "date": "2024-05-01T15:36:00.000+02:00", "lat": 53.5511, "lon": 10.0153, "intensity": 0.8, "source": "Tagesschau"}, {"title": "Countdown in der Nordsee", "url": "https://www.tagesschau.de/wissen/technologie/raketenstart-nordsee-100.html", "thumbnailUrl": "https://images.tagesschau.de/image/5a56bc2f-ee61-4f4f-a005-774510f7018e/AAABjzSKPkA/AAABjwnlKNc/16x9-512.jpg", "date": "2024-05-01T15:35:20.622+02:00", "lat": 54.156, "lon": 8.5586, "intensity": 0.8, "source": "Tagesschau"}, {"title": "38-J\u00e4hriger stirbt nach Polizeieinsatz mit Elektroschocker - Staatsanwaltschaft ermittelt ", "url": "https://www.tagesschau.de/inland/regional/rheinlandpfalz/swr-38-jaehriger-stirbt-nach-polizeieinsatz-mit-elektroschocker-staatsanwaltschaft-ermittelt-100.html", "thumbnailUrl": "https://images.tagesschau.de/image/ba021b1c-21dc-4164-830b-62d7fe22db09/AAABjzQGqBA/AAABjwnlKNc/16x9-512.jpg", "date": "2024-05-01T15:30:00.000+02:00", "lat": 49.4131, "lon": 7.5714, "intensity": 0.8, "source": "Tagesschau"}, {"title": "\"Braune Hetzer in Schranken verweisen\"", "url": "https://www.tagesschau.de/inland/gesellschaft/dgb-fahimi-100.html", "thumbnailUrl": "https://images.tagesschau.de/image/5cb09a6e-2803-47e2-8029-dacd79b88948/AAABjzO0H1A/AAABjwnlKNc/16x9-512.jpg", "date": "2024-05-01T15:28:36.386+02:00", "lat": 53.5511, "lon": 9.9937, "intensity": 0.8, "source": "Tagesschau"}, {"title": "Eskalation an US-Unis", "url": "https://www.tagesschau.de/ausland/amerika/us-unis-proteste-100.html", "thumbnailUrl": "https://images.tagesschau.de/image/200750ab-ca77-4845-aa27-e1d402e98453/AAABjzPNiV8/AAABjwnlKNc/16x9-512.jpg", "date": "2024-05-01T15:23:38.826+02:00", "lat": 34.0689, "lon": -118.4452, "intensity": 0.8, "source": "Tagesschau"}, {"title": "\"F\u00fcr uns ein Gl\u00fccksfall\"", "url": "https://www.tagesschau.de/wirtschaft/weltwirtschaft/eu-osterweiterung-konjunktur-100.html", "thumbnailUrl": "https://images.tagesschau.de/image/03f09207-6a4f-4272-8d7e-488e90016378/AAABjy461ME/AAABjwnlKNc/16x9-512.jpg", "date": "2024-05-01T15:18:31.727+02:00", "lat": 51.5413, "lon": 9.9937, "intensity": 0.7, "source": "Tagesschau"}, {"title": "20 Jahre EU-Osterweiterung: \"Die polnischen Sch\u00fcler sichern unsere Klassen\"", "url": "https://www.tagesschau.de/inland/regional/brandenburg/rbb-20-jahre-eu-osterweiterung-die-polnischen-schueler-sichern-unsere-klassen-100.html", "thumbnailUrl": "https://images.tagesschau.de/image/7a53e2de-0d73-46e2-ab70-206cee49c272/AAABjzRTkIQ/AAABjwnlKNc/16x9-512.jpg", "date": "2024-05-01T15:18:16.000+02:00", "lat": 52.9039, "lon": 14.2641, "intensity": 0.6, "source": "Tagesschau"}, {"title": "Bundesliga-Historie: Diese Duelle im Abstiegskampf waren besonders denkw\u00fcrdig", "url": "https://www.tagesschau.de/inland/regional/brandenburg/rbb-bundesliga-historie-diese-duelle-im-abstiegskampf-waren-besonders-denkwuerdig-102.html", "thumbnailUrl": "https://images.tagesschau.de/image/4ed19e1e-9990-4a81-980d-5552234350c0/AAABjzTVxmw/AAABjwnlKNc/16x9-512.jpg", "date": "2024-05-01T15:12:45.000+02:00", "lat": 52.5109, "lon": 13.4724, "intensity": 0.6, "source": "Tagesschau"}, {"title": "Rund 3000 Menschen bei Demonstration zum Tag der Arbeit in Saarbr\u00fccken", "url": "https://www.tagesschau.de/inland/regional/saarland/sr-rund-3000-menschen-bei-demonstration-zum-tag-der-arbeit-in-saarbruecken-100.html", "thumbnailUrl": "https://images.tagesschau.de/image/997d6bb3-ea91-4675-a262-f6860a7af159/AAABjzQgRFw/AAABjwnlKNc/16x9-512.jpg", "date": "2024-05-01T15:11:00.000+02:00", "lat": 49.2402, "lon": 6.9934, "intensity": 0.6, "source": "Tagesschau"}, {"title": "Frankfurt (Oder) - Slubice: Doppelstadt feiert 20. Jahrestag der EU-Osterweiterung", "url": "https://www.tagesschau.de/inland/regional/brandenburg/rbb-frankfurt-oder-slubice-doppelstadt-feiert-20-jahrestag-der-eu-osterweiterung-100.html", "thumbnailUrl": "https://images.tagesschau.de/image/5590a4c2-48f4-461f-8ebe-1c7f70a2c888/AAABjzRTmHo/AAABjwnlKNc/16x9-512.jpg", "date": "2024-05-01T15:06:27.000+02:00", "lat": 52.3413, "lon": 14.5602, "intensity": 0.6, "source": "Tagesschau"}, {"title": "Tag der Arbeit: Mannheimer Kaufhof-Mitarbeiter protestieren auf DGB-Kundgebung ", "url": "https://www.tagesschau.de/inland/regional/badenwuerttemberg/swr-tag-der-arbeit-mannheimer-kaufhof-mitarbeiter-protestieren-auf-dgb-kundgebung-100.html", "thumbnailUrl": "https://images.tagesschau.de/image/93820f69-e1c9-418a-9ee6-a01498a963e3/AAABjzUBj-g/AAABjwnlKNc/16x9-512.jpg", "date": "2024-05-01T15:05:08.000+02:00", "lat": 49.4875, "lon": 8.4636, "intensity": 0.6, "source": "Tagesschau"}, {"title": "Hunderte bei Demonstration in Karlsruhe zum Tag der Arbeit am 1. Mai", "url": "https://www.tagesschau.de/inland/regional/badenwuerttemberg/swr-tag-der-arbeit-am-1-mai-deutscher-gewerkschaftsbund-ruft-zu-demonstrationen-auf-100.html", "thumbnailUrl": "https://images.tagesschau.de/image/f4e33568-ea07-49b9-98e6-c3fda3929d15/AAABjzVI6KQ/AAABjwnlKNc/16x9-512.jpg", "date": "2024-05-01T15:05:00.000+02:00", "lat": 49.0069, "lon": 8.4037, "intensity": 0.7, "source": "Tagesschau"}, {"title": "Eintracht: +++ Chaibi, Nacho und Ekitik\u00e9 im Training +++ Eintracht-Abwehr sucht Stabilit\u00e4t +++ Teamarzt wechselt nach England +++", "url": "https://www.tagesschau.de/inland/regional/hessen/hr--eintracht-wohl-mit-chaibi-einig--glasner-fast-nur-kolo-muani-der-tore-erzielt--bericht-eintracht-sagt-aouar-ab-100.html", "thumbnailUrl": "https://images.tagesschau.de/image/e619d7f4-b590-411b-a27b-ac0000b7b68b/AAABjzQ6AM4/AAABjwnlKNc/16x9-512.jpg", "date": "2024-05-01T14:55:02.774+02:00", "lat": 50.110922, "lon": 8.682127, "intensity": 0.6, "source": "Tagesschau"}, {"title": "Gro\u00dfbritannien verbietet 12345-Passw\u00f6rter \u2013 bald auch die EU?", "url": "https://www.tagesschau.de/inland/regional/nordrheinwestfalen/wdr-grossbritannien-verbietet-12345-passwoerter--bald-auch-die-eu-100.html", "thumbnailUrl": "https://images.tagesschau.de/image/b829a253-038c-4eee-8bee-6b584faaa426/AAABjzVklEc/AAABjwnlKNc/16x9-512.jpg", "date": "2024-05-01T14:51:00.000+02:00", "lat": 51.3, "lon": 7.4, "intensity": 0.8, "source": "Tagesschau"}, {"title": "200 Schweine in Mastanlage in L\u00fcbars bei Brand verendet", "url": "https://www.tagesschau.de/inland/regional/sachsenanhalt/mdr-200-schweine-in-mastanlage-in-luebars-bei-brand-verendet-102.html", "thumbnailUrl": "https://images.tagesschau.de/image/3b1fd875-b0d9-4f4f-8af4-1b5f6298f189/AAABjzYqgVg/AAABjwnlKNc/16x9-512.jpg", "date": "2024-05-01T14:50:24.000+02:00", "lat": 52.3272, "lon": 11.9962, "intensity": 0.8, "source": "Tagesschau"}, {"title": "Berlin-Lichtenberg: Fu\u00dfg\u00e4ngerin wird von Auto erfasst und stirbt ", "url": "https://www.tagesschau.de/inland/regional/berlin/rbb-berlin-lichtenberg-fussgaengerin-wird-von-auto-erfasst-und-stirbt-100.html", "thumbnailUrl": "https://images.tagesschau.de/image/43263a82-ec5c-4bb7-bcb9-f3a6f61aa0fb/AAABjzQvLLI/AAABjwnlKNc/16x9-512.jpg", "date": "2024-05-01T14:38:43.000+02:00", "lat": 52.5225, "lon": 13.5039, "intensity": 0.8, "source": "Tagesschau"}, {"title": "Unternehmen testet Viertagewoche: Kompliziert, aber ein Erfolg", "url": "https://www.tagesschau.de/inland/regional/niedersachsen/ndr-unternehmen-testet-viertagewoche-kompliziert-aber-ein-erfolg-100.html", "thumbnailUrl": "https://images.tagesschau.de/image/2882e2ad-d105-47e8-90fb-5a959d63a349/AAABjzQno_4/AAABjwnlKNc/16x9-512.jpg", "date": "2024-05-01T14:33:00.000+02:00", "lat": 52.1525, "lon": 8.2821, "intensity": 0.6, "source": "Tagesschau"}, {"title": "Segelflugzeug abgest\u00fcrzt - zwei Menschen verletzt", "url": "https://www.tagesschau.de/inland/regional/niedersachsen/ndr-segelflugzeug-abgestuerzt-zwei-menschen-verletzt-100.html", "thumbnailUrl": "https://images.tagesschau.de/image/9399bbf7-8c25-4a92-9511-224e40a38b4d/AAABjzQgXiQ/AAABjwnlKNc/16x9-512.jpg", "date": "2024-05-01T14:24:00.000+02:00", "lat": 52.8229, "lon": 6.6354, "intensity": 0.8, "source": "Tagesschau"}, {"title": "63-J\u00e4hriger schwebt nach schwerem Unfall in Lebensgefahr", "url": "https://www.tagesschau.de/inland/regional/niedersachsen/ndr-63-jaehriger-schwebt-nach-schwerem-unfall-in-lebensgefahr-100.html", "thumbnailUrl": "https://images.tagesschau.de/image/8ffc5c5d-94d8-4fb7-8d01-5f972ae52787/AAABjzRE85Q/AAABjwnlKNc/16x9-512.jpg", "date": "2024-05-01T14:08:00.000+02:00", "lat": 52.3351, "lon": 7.3509, "intensity": 0.8, "source": "Tagesschau"}, {"title": "Heute bis zu 28 Grad - erst Sonne, dann Gewitter m\u00f6glich", "url": "https://www.tagesschau.de/inland/regional/nordrheinwestfalen/wdr-wetter-in-nrw-am-wochenende-wird-es-deutlich-waermer-100.html", "thumbnailUrl": "https://images.tagesschau.de/image/fc7e4170-a9e2-4145-ac7f-c8a79e882e25/AAABjzQOGmo/AAABjwnlKNc/16x9-512.jpg", "date": "2024-05-01T14:01:00.000+02:00", "lat": 51.0504, "lon": 7.335, "intensity": 0.7, "source": "Tagesschau"}, {"title": "Zum 1. Mai: Gro\u00dfe DGB-Demo in Hamburg", "url": "https://www.tagesschau.de/inland/regional/hamburg/ndr-zum-1-mai-grosse-dgb-demo-in-hamburg-100.html", "thumbnailUrl": "https://images.tagesschau.de/image/290c7ec8-d829-4dc3-9b5e-ae3c4ad0a5c4/AAABjzWV2a0/AAABjwnlKNc/16x9-512.jpg", "date": "2024-05-01T13:50:00.000+02:00", "lat": 53.5511, "lon": 9.9357, "intensity": 0.8, "source": "Tagesschau"}, {"title": "Ein Jahr Deutschlandticket: Hat es wirklich eine Zukunft?", "url": "https://www.tagesschau.de/inland/regional/nordrheinwestfalen/wdr-ein-jahr-deutschlandticket-hat-es-wirklich-eine-zukunft-100.html", "thumbnailUrl": "https://images.tagesschau.de/image/39baaae6-ea28-46b8-82f5-03ac020a90ca/AAABjzVkYnU/AAABjwnlKNc/16x9-512.jpg", "date": "2024-05-01T13:48:00.000+02:00", "lat": 51.8133, "lon": 7.6261, "intensity": 0.6, "source": "Tagesschau"}, {"title": "Ein Toter nach Ungl\u00fcck auf dem Mittellandkanal in Minden", "url": "https://www.tagesschau.de/inland/regional/nordrheinwestfalen/wdr-ein-toter-nach-unglueck-auf-dem-mittellandkanal-in-minden-100.html", "thumbnailUrl": "https://images.tagesschau.de/image/e40c3d9a-706c-48d9-baed-20dc11aeb74d/AAABjzVSDbY/AAABjwnlKNc/16x9-512.jpg", "date": "2024-05-01T13:46:00.000+02:00", "lat": 52.2892, "lon": 8.9125, "intensity": 0.8, "source": "Tagesschau"}, {"title": "Interview | Zehn Jahre vertrauliche Geburt: \"Es sind in der Regel M\u00fctter, die aus prek\u00e4ren Lebensverh\u00e4ltnissen stammen\"", "url": "https://www.tagesschau.de/inland/regional/brandenburg/rbb-interview--zehn-jahre-vertrauliche-geburt-es-sind-in-der-regel-muetter-die-aus-prekaeren-lebensverhaeltnissen-stammen-100.html", "thumbnailUrl": "https://images.tagesschau.de/image/133487a7-17d6-48bc-9ff5-591f8b168a10/AAABjzNRblo/AAABjwnlKNc/16x9-512.jpg", "date": "2024-05-01T13:43:24.000+02:00", "lat": 52.52001, "lon": 13.40495, "intensity": 0.7, "source": "Tagesschau"}, {"title": "Wismar: Maritimes Erbe mit drei Traditionsschiffen", "url": "https://www.tagesschau.de/inland/regional/mecklenburgvorpommern/ndr-wismar-maritimes-erbe-mit-drei-traditionsschiffen-100.html", "thumbnailUrl": "https://images.tagesschau.de/image/dc7827a9-1fb4-4a9b-a7e7-5e51b5ee68cb/AAABjzQIf1o/AAABjwnlKNc/16x9-512.jpg", "date": "2024-05-01T13:42:00.000+02:00", "lat": 53.893, "lon": 11.462, "intensity": 0.7, "source": "Tagesschau"}, {"title": "Biberbahn hat neuen Haltepunkt in M\u00fchlingen-Zoznegg ", "url": "https://www.tagesschau.de/inland/regional/badenwuerttemberg/swr-biberbahn-hat-neuen-haltepunkt-in-muehlingen-zoznegg-100.html", "thumbnailUrl": "https://images.tagesschau.de/image/5e6c15cc-3062-45bd-955b-8c87294fb916/AAABjzQu9Io/AAABjwnlKNc/16x9-512.jpg", "date": "2024-05-01T13:32:22.000+02:00", "lat": 47.9289, "lon": 9.0905, "intensity": 0.3, "source": "Tagesschau"}, {"title": "Unfall mit Pferdeanh\u00e4nger auf A7: Islandpferd verletzt", "url": "https://www.tagesschau.de/inland/regional/niedersachsen/ndr-unfall-mit-pferdeanhaenger-auf-a7-islandpferd-verletzt-100.html", "thumbnailUrl": "https://images.tagesschau.de/image/723afdee-9a1f-4786-a0e9-457db092879c/AAABjzPni4s/AAABjwnlKNc/16x9-512.jpg", "date": "2024-05-01T13:21:00.000+02:00", "lat": 51.8868, "lon": 10.1619, "intensity": 0.7, "source": "Tagesschau"}, {"title": "Warntag in D\u00e4nemark: Handy-Testalarm auch im Grenzgebiet", "url": "https://www.tagesschau.de/inland/regional/schleswigholstein/ndr-warntag-in-daenemark-handy-testalarm-auch-im-grenzgebiet-moeglich-100.html", "thumbnailUrl": "https://images.tagesschau.de/image/dc068420-8467-42c3-9cb3-0e259d329cae/AAABjzPrO-U/AAABjwnlKNc/16x9-512.jpg", "date": "2024-05-01T13:20:00.000+02:00", "lat": 54.793, "lon": 9.4306, "intensity": 0.5, "source": "Tagesschau"}, {"title": "Privatleute in BW zeigen tausende m\u00f6gliche Falschparker an", "url": "https://www.tagesschau.de/inland/regional/badenwuerttemberg/swr-privatleute-in-bw-zeigen-tausende-moegliche-falschparker-an-100.html", "thumbnailUrl": "https://images.tagesschau.de/image/96d022e5-854a-4a2d-b9bc-e0f6b6914eda/AAABjzS9w1E/AAABjwnlKNc/16x9-512.jpg", "date": "2024-05-01T13:14:19.000+02:00", "lat": 48.6617, "lon": 9.7371, "intensity": 0.6, "source": "Tagesschau"}, {"title": "Dreiviertel der Punktesammler sind M\u00e4nner", "url": "https://www.tagesschau.de/inland/gesellschaft/punkte-flensburg-102.html", "thumbnailUrl": "https://images.tagesschau.de/image/9a854efd-512e-498a-ac8f-343304e1d78a/AAABjzPZ-4k/AAABjwnlKNc/16x9-512.jpg", "date": "2024-05-01T13:11:15.140+02:00", "lat": 54.7933, "lon": 9.4325, "intensity": 0.8, "source": "Tagesschau"}, {"title": "Hochstra\u00dfe im S\u00fcden Chinas eingest\u00fcrzt", "url": "https://www.tagesschau.de/ausland/hochstrasse-china-100.html", "thumbnailUrl": "https://images.tagesschau.de/image/d529ca92-a70b-4384-92ef-988e608a2fcf/AAABjzMunOg/AAABjwnlKNc/16x9-512.jpg", "date": "2024-05-01T13:09:36.644+02:00", "lat": 23.1351, "lon": 113.2684, "intensity": 0.8, "source": "Tagesschau"}, {"title": "Fu\u00dfball-EM in Stuttgart: Teils \u00fcber 2.000 Euro f\u00fcr eine \u00dcbernachtung", "url": "https://www.tagesschau.de/inland/regional/badenwuerttemberg/swr-fussball-em-in-stuttgart-ueber-2-000-euro-fuer-eine-nacht-im-hotel-100.html", "thumbnailUrl": "https://images.tagesschau.de/image/ab55b931-8bdd-471c-b6da-2e19bbaa86d0/AAABjzPasX0/AAABjwnlKNc/16x9-512.jpg", "date": "2024-05-01T13:04:00.000+02:00", "lat": 48.7758, "lon": 9.1829, "intensity": 0.8, "source": "Tagesschau"}, {"title": "23-J\u00e4hriger stirbt bei Me\u00dfstetten nach t\u00f6dlichem \u00dcberholman\u00f6ver", "url": "https://www.tagesschau.de/inland/regional/badenwuerttemberg/swr-23-jaehriger-stirbt-bei-messstetten-nach-toedlichem-ueberholmanoever-100.html", "thumbnailUrl": "https://images.tagesschau.de/image/29dbd0e0-c129-4a06-b4a9-f9e79488d470/AAABjzTgkYo/AAABjwnlKNc/16x9-512.jpg", "date": "2024-05-01T12:54:00.000+02:00", "lat": 48.1469, "lon": 9.0125, "intensity": 0.8, "source": "Tagesschau"}, {"title": "Zeltlager mit Hunderten Asylsuchenden wird ger\u00e4umt", "url": "https://www.tagesschau.de/ausland/europa/dublin-raeumung-asylsuchende-100.html", "thumbnailUrl": "https://images.tagesschau.de/image/e7916827-8f4f-4815-90c0-cbe233bb3e23/AAABjzOqvAU/AAABjwnlKNc/16x9-512.jpg", "date": "2024-05-01T12:37:23.853+02:00", "lat": 53.3498, "lon": -6.2603, "intensity": 0.8, "source": "Tagesschau"}, {"title": "Erneut Geldautomat nahe saarl\u00e4ndischer Grenze gesprengt ", "url": "https://www.tagesschau.de/inland/regional/saarland/sr-erneut-geldautomat-nahe-saarlaendischer-grenze-gesprengt-100.html", "thumbnailUrl": "https://images.tagesschau.de/image/3c86f680-f6c6-4bdd-9bb1-0d6b678afe39/AAABjzO0O8g/AAABjwnlKNc/16x9-512.jpg", "date": "2024-05-01T12:26:00.000+02:00", "lat": 49.507, "lon": 7.0986, "intensity": 0.8, "source": "Tagesschau"}, {"title": "Das arme Bad Schmiedeberg", "url": "https://www.tagesschau.de/inland/regional/sachsenanhalt/mdr-das-arme-bad-schmiedeberg-102.html", "thumbnailUrl": "https://images.tagesschau.de/image/23f51597-eeae-4462-a2c2-5b17a37ad966/AAABjzOrJpM/AAABjwnlKNc/16x9-512.jpg", "date": "2024-05-01T12:18:05.000+02:00", "lat": 51.6996, "lon": 12.7583, "intensity": 0.8, "source": "Tagesschau"}, {"title": "Erneut Gast in einem Wormser Caf\u00e9 mit Cuttermesser angegriffen", "url": "https://www.tagesschau.de/inland/regional/rheinlandpfalz/swr-erneut-gast-in-einem-wormser-caf-mit-cuttermesser-angegriffen-100.html", "thumbnailUrl": "https://images.tagesschau.de/image/8c6089fd-46c1-499c-a473-cdf7ee1a44ad/AAABjzPEzM8/AAABjwnlKNc/16x9-512.jpg", "date": "2024-05-01T12:17:20.000+02:00", "lat": 49.6333, "lon": 8.3592, "intensity": 0.7, "source": "Tagesschau"}, {"title": "Wie ein Heteborner in Prag zum erfolgreichen Gesch\u00e4ftsmann wurde", "url": "https://www.tagesschau.de/inland/regional/sachsenanhalt/mdr-wie-ein-heteborner-in-prag-zum-erfolgreichen-geschaeftsmann-wurde-100.html", "thumbnailUrl": "https://images.tagesschau.de/image/e53b0545-ac34-44c9-9abd-7df150ae7dc2/AAABjzYqLvg/AAABjwnlKNc/16x9-512.jpg", "date": "2024-05-01T12:05:25.000+02:00", "lat": 50.08804, "lon": 14.42076, "intensity": 0.6, "source": "Tagesschau"}, {"title": "Wie KI-Experte Richard Socher bis heute sein Gymnasium in Dresden-Plauen unterst\u00fctzt", "url": "https://www.tagesschau.de/inland/regional/sachsen/mdr-wie-ki-experte-richard-socher-bis-heute-sein-gymnasium-in-dresden-plauen-unterstuetzt-100.html", "thumbnailUrl": "https://images.tagesschau.de/image/035e38a7-7df2-4109-a0f4-ae8925be454c/AAABjzYbgqQ/AAABjwnlKNc/16x9-512.jpg", "date": "2024-05-01T12:05:00.000+02:00", "lat": 51.0493, "lon": 13.7362, "intensity": 0.8, "source": "Tagesschau"}, {"title": "1. Mai in Hannover: Tausende bei zentraler Kundgebung ", "url": "https://www.tagesschau.de/inland/regional/niedersachsen/ndr-dgb-warnt-zum-1-mai-vor-der-afd-demos-in-niedersachsen-102.html", "thumbnailUrl": "https://images.tagesschau.de/image/a55bbde5-1226-44c2-a255-8a11d81c48b7/AAABjzOiB1A/AAABjwnlKNc/16x9-512.jpg", "date": "2024-05-01T12:02:00.000+02:00", "lat": 52.3759, "lon": 9.4306, "intensity": 0.7, "source": "Tagesschau"}, {"title": "Kevelaer er\u00f6ffnet Wallfahrtssaison", "url": "https://www.tagesschau.de/inland/regional/nordrheinwestfalen/wdr-kevelaer-eroeffnet-wallfahrtssaison-100.html", "thumbnailUrl": "https://images.tagesschau.de/image/ccebb703-6667-4da2-9106-bf840ecfb223/AAABjzP2UEs/AAABjwnlKNc/16x9-512.jpg", "date": "2024-05-01T12:00:00.000+02:00", "lat": 51.5833, "lon": 6.2456, "intensity": 0.8, "source": "Tagesschau"}, {"title": "Rocker-Boss aus NRW wohl im Iran erschossen", "url": "https://www.tagesschau.de/inland/regional/nordrheinwestfalen/wdr-rocker-boss-aus-nrw-im-iran-erschossen-100.html", "thumbnailUrl": "https://images.tagesschau.de/image/5174ad12-9693-412d-960f-16da1d408300/AAABjzPpVlk/AAABjwnlKNc/16x9-512.jpg", "date": "2024-05-01T11:50:00.000+02:00", "lat": 25.089, "lon": 53.688, "intensity": 0.8, "source": "Tagesschau"}, {"title": "Streckensperrung bei der Bahn: Ausf\u00e4lle zwischen Hamburg und Schwerin", "url": "https://www.tagesschau.de/inland/regional/mecklenburgvorpommern/ndr-streckensperrung-bei-der-bahn-ausfaelle-zwischen-hamburg-und-schwerin-100.html", "thumbnailUrl": "https://images.tagesschau.de/image/85adb2e0-5002-47ad-a3e9-175025250ead/AAABjy0PMR8/AAABjwnlKNc/16x9-512.jpg", "date": "2024-05-01T11:34:00.000+02:00", "lat": 53.5477, "lon": 10.6866, "intensity": 0.8, "source": "Tagesschau"}, {"title": "Panzerverlegung mit Gro\u00df\u00fcbung im Rostocker Seehafen", "url": "https://www.tagesschau.de/inland/regional/mecklenburgvorpommern/ndr-grossuebung-im-rostocker-hafen-reservisten-und-heimatschutz-bei-panzerverlegung-102.html", "thumbnailUrl": "https://images.tagesschau.de/image/48c9f556-1942-479e-aa10-b8e11908665a/AAABjy_Mhp8/AAABjwnlKNc/16x9-512.jpg", "date": "2024-05-01T11:31:00.000+02:00", "lat": 54.146, "lon": 12.099, "intensity": 0.8, "source": "Tagesschau"}, {"title": "\"M\u00e4hfreier Mai\": F\u00fcr viele Saarl\u00e4nder nicht immer einfach", "url": "https://www.tagesschau.de/inland/regional/saarland/sr-maehfreier-mai-fuer-viele-saarlaender-nicht-immer-einfach-100.html", "thumbnailUrl": "https://images.tagesschau.de/image/f589ce35-eb7c-4f1f-b84e-9939ec55f3a4/AAABjzN_IgU/AAABjwnlKNc/16x9-512.jpg", "date": "2024-05-01T11:25:00.000+02:00", "lat": 49.3964, "lon": 6.9969, "intensity": 0.4, "source": "Tagesschau"}, {"title": "A1: Unfall auf der \u00dcberholspur - vier Fahrzeuge beteiligt", "url": "https://www.tagesschau.de/inland/regional/niedersachsen/ndr-a1-unfall-auf-der-ueberholspur-vier-fahrzeuge-beteiligt-100.html", "thumbnailUrl": "https://images.tagesschau.de/image/355c0948-6b17-4704-a46e-ff2375082363/AAABjzN_Njs/AAABjwnlKNc/16x9-512.jpg", "date": "2024-05-01T11:18:00.000+02:00", "lat": 52.9815, "lon": 8.2028, "intensity": 0.7, "source": "Tagesschau"}, {"title": "1. FC Saarbr\u00fccken will Rasen im Ludwigspark anderweitig nutzen ", "url": "https://www.tagesschau.de/inland/regional/saarland/sr-1-fc-saarbruecken-will-rasen-im-ludwigspark-anderweitig-nutzen-100.html", "thumbnailUrl": "https://images.tagesschau.de/image/71f0ce3a-062a-4868-be5f-d2f4bf9923fb/AAABjzNwfBY/AAABjwnlKNc/16x9-512.jpg", "date": "2024-05-01T11:13:00.000+02:00", "lat": 49.2407, "lon": 6.9853, "intensity": 0.6, "source": "Tagesschau"}, {"title": "Sport auf Spitzenniveau: Karlsruhe darf die World Games 2029 austragen", "url": "https://www.tagesschau.de/inland/regional/badenwuerttemberg/swr-sport-auf-spitzenniveau-karlsruhe-darf-die-world-games-2029-austragen-102.html", "thumbnailUrl": "https://images.tagesschau.de/image/22516106-77c2-4400-b52b-3df862ce5af5/AAABjzN31OY/AAABjwnlKNc/16x9-512.jpg", "date": "2024-05-01T11:03:00.000+02:00", "lat": 49.0069, "lon": 8.4037, "intensity": 0.9, "source": "Tagesschau"}, {"title": "Ein Toter und sechs Verletzte bei Wohnungsbrand in Darmstadt", "url": "https://www.tagesschau.de/inland/regional/hessen/hr-ein-toter-und-sechs-verletzte-bei-wohnungsbrand-in-darmstadt-100.html", "thumbnailUrl": "https://images.tagesschau.de/image/4aa519fd-70f7-4fd2-ac72-d3ffe0acdba9/AAABjzNjsS0/AAABjwnlKNc/16x9-512.jpg", "date": "2024-05-01T10:59:54.277+02:00", "lat": 49.8728, "lon": 8.65, "intensity": 0.8, "source": "Tagesschau"}, {"title": "Geldautomat in Hoppst\u00e4dten-Weiersbach gesprengt", "url": "https://www.tagesschau.de/inland/regional/rheinlandpfalz/swr-geldautomat-in-hoppstaedten-weiersbach-gesprengt-100.html", "thumbnailUrl": "https://images.tagesschau.de/image/2be77bff-ef18-4645-8645-c9d8614cf6ff/AAABjzPcqOI/AAABjwnlKNc/16x9-512.jpg", "date": "2024-05-01T10:52:14.000+02:00", "lat": 49.51333, "lon": 7.36389, "intensity": 0.8, "source": "Tagesschau"}, {"title": "Stadtradeln 2024: Bundesweiter Startschuss in Trier gefallen", "url": "https://www.tagesschau.de/inland/regional/rheinlandpfalz/swr-stadtradeln-2024-bundesweiter-startschuss-in-trier-gefallen-100.html", "thumbnailUrl": "https://images.tagesschau.de/image/a293b15d-a7c9-4c77-af54-e891a56fd82d/AAABjzPcuQs/AAABjwnlKNc/16x9-512.jpg", "date": "2024-05-01T10:46:00.000+02:00", "lat": 49.7556, "lon": 6.6417, "intensity": 0.8, "source": "Tagesschau"}, {"title": "Wie Allergiker sich vor Insektengift sch\u00fctzen k\u00f6nnen", "url": "https://www.tagesschau.de/wissen/gesundheit/hyposensibilisierung-allergien-100.html", "thumbnailUrl": "https://images.tagesschau.de/image/fb336dd6-b52e-45fe-a136-69461deced6f/AAABjyoPo9w/AAABjwnlKNc/16x9-512.jpg", "date": "2024-05-01T10:30:00.050+02:00", "lat": 53.551086, "lon": 9.993682, "intensity": 0.7, "source": "Tagesschau"}, {"title": "Ein EU-Mustersch\u00fcler und ein schwarzes Schaf?", "url": "https://www.tagesschau.de/ausland/europa/ungarn-slowenien-eu-osterweiterung-100.html", "thumbnailUrl": "https://images.tagesschau.de/image/4e84cc48-0e6b-4ceb-959d-685bd64fe332/AAABjzNESvI/AAABjwnlKNc/16x9-512.jpg", "date": "2024-05-01T10:27:45.074+02:00", "lat": 47.4979, "lon": 19.0402, "intensity": 0.7, "source": "Tagesschau"}, {"title": "Letzte Infos zum Radrennen Eschborn-Frankfurt: Degenkolb und Sonne strahlen um die Wette", "url": "https://www.tagesschau.de/inland/regional/hessen/hr-letzte-infos-zum-radrennen-eschborn-frankfurt-degenkolb-und-sonne-strahlen-um-die-wette-102.html", "thumbnailUrl": "https://images.tagesschau.de/image/306e3f7d-e6cf-43c4-a41c-dd09094532de/AAABjzM3xPA/AAABjwnlKNc/16x9-512.jpg", "date": "2024-05-01T10:13:39.343+02:00", "lat": 50.1123516, "lon": 8.5318252, "intensity": 0.8, "source": "Tagesschau"}, {"title": "Sportschie\u00dfen in Brandenburg: Zwischen Popularit\u00e4t und Vorurteilen", "url": "https://www.tagesschau.de/inland/regional/brandenburg/rbb-schusswaffen-schuetzenfeste-und-olympioniken-sportschiessen-in-brandenburg-im-spagat-zwischen-popularitaet-und-vorurteilen-102.html", "thumbnailUrl": "https://images.tagesschau.de/image/77344e40-24d8-48d7-b694-48cb27725756/AAABjzM17M0/AAABjwnlKNc/16x9-512.jpg", "date": "2024-05-01T10:08:15.000+02:00", "lat": 52.355, "lon": 13.056, "intensity": 0.6, "source": "Tagesschau"}, {"title": "Metallindustrie: Laut Umfrage will jeder f\u00fcnfte Betrieb Produktion verlagern", "url": "https://www.tagesschau.de/inland/regional/hamburg/ndr-metallindustrie-laut-umfrage-will-jeder-fuenfte-betrieb-produktion-verlagern-100.html", "thumbnailUrl": "https://images.tagesschau.de/image/e308915d-c798-424c-8250-84027ad97687/AAABjzMeIVs/AAABjwnlKNc/16x9-512.jpg", "date": "2024-05-01T09:44:00.000+02:00", "lat": 53.551086, "lon": 9.993682, "intensity": 0.7, "source": "Tagesschau"}, {"title": "Nordsee: Suche nach Schlauchbootfahrer und Segler eingestellt", "url": "https://www.tagesschau.de/inland/regional/niedersachsen/ndr-schlauchbootfahrer-in-der-deutschen-bucht-vermisst-100.html", "thumbnailUrl": "https://images.tagesschau.de/image/ebd32764-e7ee-446f-9d7d-717da7208a79/AAABjy-R73M/AAABjwnlKNc/16x9-512.jpg", "date": "2024-05-01T09:29:00.000+02:00", "lat": 53.8691, "lon": 8.6861, "intensity": 0.8, "source": "Tagesschau"}, {"title": "Polizei geht in Tiflis gegen Demonstranten vor", "url": "https://www.tagesschau.de/ausland/europa/georgien-proteste-122.html", "thumbnailUrl": "https://images.tagesschau.de/image/ab75ccf9-014b-4077-b2db-f52e3551f27b/AAABjzDfKnk/AAABjwnlKNc/16x9-512.jpg", "date": "2024-05-01T09:21:04.056+02:00", "lat": 41.7167, "lon": 44.793, "intensity": 0.7, "source": "Tagesschau"}, {"title": "Motorisierte Schmuckst\u00fccke: Oldtimer-Treffen am 1. Mai in Braunschweig", "url": "https://www.tagesschau.de/inland/regional/niedersachsen/ndr-motorisierte-schmuckstuecke-oldtimer-treffen-am-1-mai-in-braunschweig-100.html", "thumbnailUrl": "https://images.tagesschau.de/image/1749ff1c-2304-4ae7-b2e8-000de4b1f841/AAABjzLPdNY/AAABjwnlKNc/16x9-512.jpg", "date": "2024-05-01T09:13:00.000+02:00", "lat": 52.268911, "lon": 10.52677, "intensity": 0.4, "source": "Tagesschau"}, {"title": "Wo Wissenschaftler den Sternen n\u00e4her kommen", "url": "https://www.tagesschau.de/wissen/forschung/observatorium-chile-102.html", "thumbnailUrl": "https://images.tagesschau.de/image/e2559d92-77bf-4a1f-bfef-a0488e80390c/AAABjzLiWo8/AAABjwnlKNc/16x9-512.jpg", "date": "2024-05-01T08:40:30.762+02:00", "lat": -24.627638, "lon": -70.318905, "intensity": 0.8, "source": "Tagesschau"}, {"title": "Perfekte Voraussetzungen f\u00fcr Mai-Touren: Viel Sonnenschein am Feiertag", "url": "https://www.tagesschau.de/inland/regional/saarland/sr-spielt-das-wetter-bei-den-mai-touren-im-saarland-mit-100.html", "thumbnailUrl": "https://images.tagesschau.de/image/74274c0a-ec10-4d57-a16d-ecbf98986186/AAABjy_Ty7c/AAABjwnlKNc/16x9-512.jpg", "date": "2024-05-01T08:39:00.000+02:00", "lat": 49.3964, "lon": 6.9538, "intensity": 0.3, "source": "Tagesschau"}, {"title": "Bis zu 10.000 Saarl\u00e4nder ben\u00f6tigt: Wie wird man Wahlhelfer?", "url": "https://www.tagesschau.de/inland/regional/saarland/sr-bis-zu-10-000-saarlaender-benoetigt-wie-wird-man-wahlhelfer-100.html", "thumbnailUrl": "https://images.tagesschau.de/image/70d44c2a-8c26-4bff-ba4e-b0feafb43b5f/AAABjzLd__4/AAABjwnlKNc/16x9-512.jpg", "date": "2024-05-01T08:33:00.000+02:00", "lat": 49.3964, "lon": 6.9667, "intensity": 0.8, "source": "Tagesschau"}, {"title": "Reparaturen: K\u00f6hlbrandbr\u00fccke am Wochenende gesperrt", "url": "https://www.tagesschau.de/inland/regional/hamburg/ndr-reparaturen-koehlbrandbruecke-am-wochenende-gesperrt-100.html", "thumbnailUrl": "https://images.tagesschau.de/image/5c1ac1b8-3eb0-48eb-b8b6-29e434203ee3/AAABjzLRQ_g/AAABjwnlKNc/16x9-512.jpg", "date": "2024-05-01T08:19:00.000+02:00", "lat": 53.5256, "lon": 9.9207, "intensity": 0.8, "source": "Tagesschau"}, {"title": "Polizei r\u00fcckt gegen Uni-Besetzer auf US-Campus vor", "url": "https://www.tagesschau.de/ausland/amerika/us-uni-proteste-gaza-rauswurf-studenten-102.html", "thumbnailUrl": "https://images.tagesschau.de/image/7d021dae-0494-4e28-9956-7f87be79c5db/AAABjzIivAw/AAABjwnlKNc/16x9-512.jpg", "date": "2024-05-01T08:17:22.777+02:00", "lat": 40.8075, "lon": -73.9613, "intensity": 0.8, "source": "Tagesschau"}, {"title": "European League: SG Flensburg-Handewitt zieht ins Final Four ein", "url": "https://www.tagesschau.de/inland/regional/schleswigholstein/ndr-european-league-sg-flensburg-handewitt-zieht-ins-final-four-ein-102.html", "thumbnailUrl": "https://images.tagesschau.de/image/a29d0223-330a-4112-839d-751047666ad8/AAABjzBFXnw/AAABjwnlKNc/16x9-512.jpg", "date": "2024-05-01T08:06:00.000+02:00", "lat": 54.7811, "lon": 9.4319, "intensity": 0.7, "source": "Tagesschau"}, {"title": "Ist Deutschland flei\u00dfig - oder nicht? ", "url": "https://www.tagesschau.de/wirtschaft/arbeitsmarkt/arbeitszeit-erwerbstaetige-100.html", "thumbnailUrl": "https://images.tagesschau.de/image/d4dffa60-534a-4c4a-9dd4-53e4cf2c412a/AAABjwUwxdE/AAABjwnlKNc/16x9-512.jpg", "date": "2024-05-01T07:48:25.604+02:00", "lat": 51.0, "lon": 9.5, "intensity": 0.7, "source": "Tagesschau"}, {"title": "Ein Jahr Deutschlandticket: In Hamburg ein Erfolg", "url": "https://www.tagesschau.de/inland/regional/hamburg/ndr-ein-jahr-deutschlandticket-in-hamburg-ein-erfolg-100.html", "thumbnailUrl": "https://images.tagesschau.de/image/7fb1d692-6a9c-4d80-9e00-1dffdb393d99/AAABjzNwtjY/AAABjwnlKNc/16x9-512.jpg", "date": "2024-05-01T07:27:00.000+02:00", "lat": 53.551086, "lon": 9.993682, "intensity": 0.8, "source": "Tagesschau"}, {"title": "Wie das soziale Europa Gestalt annimmt", "url": "https://www.tagesschau.de/wirtschaft/arbeitsmarkt/erster-mai-gewerkschaften-bruessel-100.html", "thumbnailUrl": "https://images.tagesschau.de/image/0c506b1e-d0a6-48b6-9779-5a0088f75858/AAABjqPTq-E/AAABjwnlKNc/16x9-512.jpg", "date": "2024-05-01T06:42:10.427+02:00", "lat": 50.8503, "lon": 4.3517, "intensity": 0.7, "source": "Tagesschau"}, {"title": "Fernw\u00e4rmenetz: Berlin \u00fcbernimmt Kraftwerke und Leitungen von Vattenfall", "url": "https://www.tagesschau.de/inland/regional/berlin/rbb-fernwaermenetz-berlin-uebernimmt-kraftwerke-und-leitungen-von-vattenfall-100.html", "thumbnailUrl": "https://images.tagesschau.de/image/90c0b20a-c16a-4b54-93b4-20351eec8208/AAABjzJf9Co/AAABjwnlKNc/16x9-512.jpg", "date": "2024-05-01T06:13:37.000+02:00", "lat": 52.52, "lon": 13.405, "intensity": 0.8, "source": "Tagesschau"}, {"title": "So viel arbeiten die Deutschen: Ein Vergleich in Grafiken", "url": "https://www.tagesschau.de/inland/regional/nordrheinwestfalen/wdr-so-viel-arbeiten-die-deutschen-ein-vergleich-in-grafiken-100.html", "thumbnailUrl": "https://images.tagesschau.de/image/267d467a-2f4b-433d-98ec-c21355b2a247/AAABjzJpAsk/AAABjwnlKNc/16x9-512.jpg", "date": "2024-05-01T06:00:00.000+02:00", "lat": 51.441642, "lon": 7.588576, "intensity": 0.4, "source": "Tagesschau"}, {"title": "Kulturvolksfest zum Auftakt der Ruhrfestspiele in Recklinghausen", "url": "https://www.tagesschau.de/inland/regional/nordrheinwestfalen/wdr-kulturvolksfest-zum-auftakt-der-ruhrfestspiele-in-recklinghausen-100.html", "thumbnailUrl": "https://images.tagesschau.de/image/5b064d59-6869-4ef2-aef2-ce9f7c20ef8c/AAABjzOCzH0/AAABjwnlKNc/16x9-512.jpg", "date": "2024-05-01T06:00:00.000+02:00", "lat": 51.61464, "lon": 7.19798, "intensity": 0.4, "source": "Tagesschau"}, {"title": "Kragenb\u00e4rin \"Malvina\" trifft in Kappeln auf Artgenossen", "url": "https://www.tagesschau.de/inland/regional/schleswigholstein/ndr-kragenbaerin-malvina-trifft-in-kappeln-auf-artgenossen-100.html", "thumbnailUrl": "https://images.tagesschau.de/image/66b2f2ed-5adb-4372-91e9-eb85ee79bcef/AAABjzOGl_I/AAABjwnlKNc/16x9-512.jpg", "date": "2024-05-01T06:00:00.000+02:00", "lat": 54.64794, "lon": 10.04602, "intensity": 0.4, "source": "Tagesschau"}, {"title": "Wetter am 1. Mai in BW: Es ist fr\u00fchlingshaft bis sommerlich ", "url": "https://www.tagesschau.de/inland/regional/badenwuerttemberg/swr-wetter-am-1-mai-in-bw-es-wird-fruehlingshaft-bis-sommerlich-100.html", "thumbnailUrl": "https://images.tagesschau.de/image/fcab6356-0127-4762-a844-c190ad7a708d/AAABjzICRuc/AAABjwnlKNc/16x9-512.jpg", "date": "2024-05-01T05:34:00.000+02:00", "lat": 48.7904, "lon": 9.0238, "intensity": 0.6, "source": "Tagesschau"}, {"title": "Der Traum vom \"Sonnenaufgang\" in Russland", "url": "https://www.tagesschau.de/ausland/europa/dunzowa-100.html", "thumbnailUrl": "https://images.tagesschau.de/image/6076c258-4e3b-458a-9228-b6d2c3d57be2/AAABjzIy6oU/AAABjwnlKNc/16x9-512.jpg", "date": "2024-05-01T05:29:09.071+02:00", "lat": 55.7558, "lon": 37.6176, "intensity": 0.8, "source": "Tagesschau"}, {"title": "Podcast \"Feel Hamburg\" mit Dayan Kodua - Schauspielerin und Verlegerin", "url": "https://www.tagesschau.de/inland/regional/hamburg/ndr-podcast-feel-hamburg-mit-dayan-kodua-schauspielerin--verlegerin-100.html", "thumbnailUrl": "https://images.tagesschau.de/image/cf86e4c7-7301-4ccb-806c-7c4d49e889a9/AAABjzJ3gRQ/AAABjwnlKNc/16x9-512.jpg", "date": "2024-05-01T05:00:00.000+02:00", "lat": 53.55, "lon": 10.0, "intensity": 0.8, "source": "Tagesschau"}, {"title": "Israel offenbar zu gro\u00dfen Zugest\u00e4ndnissen bereit", "url": "https://www.tagesschau.de/ausland/israel-hamas-deal-details-verhandlungen-100.html", "thumbnailUrl": "https://images.tagesschau.de/image/dacae15e-59cc-43ca-81e6-e8931359b7ad/AAABjzHZhpA/AAABjwnlKNc/16x9-512.jpg", "date": "2024-05-01T03:52:24.698+02:00", "lat": 31.8996, "lon": 34.2946, "intensity": 0.8, "source": "Tagesschau"}, {"title": "US-Uni droht Studenten mit Rausschmiss", "url": "https://www.tagesschau.de/ausland/amerika/us-uni-proteste-gaza-rauswurf-studenten-100.html", "thumbnailUrl": "https://images.tagesschau.de/image/4ab40546-9314-43c0-94f4-b6ba09a16d32/AAABjzG7f6g/AAABjwnlKNc/16x9-512.jpg", "date": "2024-05-01T03:26:44.986+02:00", "lat": 37.0902, "lon": -95.7129, "intensity": 0.8, "source": "Tagesschau"}, {"title": "Polen will mehr", "url": "https://www.tagesschau.de/ausland/europa/polen-eu-osterweiterung-100.html", "thumbnailUrl": "https://images.tagesschau.de/image/de4b5822-c3dd-415d-b7e6-91bec59d61b2/AAABjzLPpug/AAABjwnlKNc/16x9-512.jpg", "date": "2024-05-01T02:39:56.043+02:00", "lat": 51.9194, "lon": 19.1451, "intensity": 0.7, "source": "Tagesschau"}, {"title": "Kraftfahrt-Bundesamt: 50 Jahre Flensburger Punkte-Sammler", "url": "https://www.tagesschau.de/inland/regional/schleswigholstein/ndr-kraftfahrt-bundesamt-50-jahre-flensburger-punkte-sammler-100.html", "thumbnailUrl": "https://images.tagesschau.de/image/618d11b5-3e76-4453-b017-e845ede4b2bd/AAABjzN0MtA/AAABjwnlKNc/16x9-512.jpg", "date": "2024-05-01T00:00:00.000+02:00", "lat": 54.781, "lon": 9.4293, "intensity": 0.3, "source": "Tagesschau"}, {"title": "Mehr als 20 000 bei linken Demos zum Tag der Arbeit", "url": "https://www.br.de/nachrichten/meldungen/index.html#n1", "thumbnailUrl": null, "date": "2024-05-02T03:15:23+02:00", "lat": 30.0444, "lon": 31.2357, "intensity": 0.8, "source": "Bayrischer Rundfunk"}, {"title": "Proteste in Georgien gehen weiter", "url": "https://www.br.de/nachrichten/meldungen/index.html#n2", "thumbnailUrl": null, "date": "2024-05-02T03:15:23+02:00", "lat": 33.5138, "lon": 36.2021, "intensity": 0.8, "source": "Bayrischer Rundfunk"}, {"title": "Israel \u00f6ffnet Grenz\u00fcbergang Erez f\u00fcr Hilfslieferungen", "url": "https://www.br.de/nachrichten/meldungen/index.html#n3", "thumbnailUrl": null, "date": "2024-05-02T03:15:23+02:00", "lat": 39.9334, "lon": 32.8597, "intensity": 0.8, "source": "Bayrischer Rundfunk"}, {"title": "Parlament im US-Bundesstaat Arizona stimmt gegen Abtreibungsverbot", "url": "https://www.br.de/nachrichten/meldungen/index.html#n4", "thumbnailUrl": null, "date": "2024-05-02T03:15:23+02:00", "lat": 52.520008, "lon": 13.404954, "intensity": 0.7, "source": "Bayrischer Rundfunk"}, {"title": "New Yorker Polizei nimmt 300 Menschen bei Campus-Proteste fest", "url": "https://www.br.de/nachrichten/meldungen/index.html#n5", "thumbnailUrl": null, "date": "2024-05-02T03:15:23+02:00", "lat": 52.520008, "lon": 13.404954, "intensity": 0.6, "source": "Bayrischer Rundfunk"}, {"title": "Baerbock fordert anl\u00e4sslich 20 Jahre EU-Osterweiterung sicherheitspolitische Reform", "url": "https://www.br.de/nachrichten/meldungen/index.html#n6", "thumbnailUrl": null, "date": "2024-05-02T03:15:23+02:00", "lat": 48.135125, "lon": 11.581981, "intensity": 0.6, "source": "Bayrischer Rundfunk"}, {"title": "Britische Polizei nimmt erste Migranten zur Abschiebung nach Ruanda fest", "url": "https://www.br.de/nachrichten/meldungen/index.html#n7", "thumbnailUrl": null, "date": "2024-05-02T03:15:23+02:00", "lat": 50.110922, "lon": 8.682127, "intensity": 0.8, "source": "Bayrischer Rundfunk"}, {"title": "Demonstranten schlagen auf Auto von Bundestags-Vizepr\u00e4sidentin ein", "url": "https://www.br.de/nachrichten/meldungen/index.html#n8", "thumbnailUrl": null, "date": "2024-05-02T03:15:23+02:00", "lat": 47.8684, "lon": 12.6394, "intensity": 0.8, "source": "Bayrischer Rundfunk"}, {"title": "Dortmund schl\u00e4gt in der Champions League Paris Saint-Germain", "url": "https://www.br.de/nachrichten/meldungen/index.html#n9", "thumbnailUrl": null, "date": "2024-05-02T03:15:23+02:00", "lat": 48.5844, "lon": 13.6722, "intensity": 0.8, "source": "Bayrischer Rundfunk"}, {"title": "Das Wetter in Bayern: In der Nacht meist klar, 14 bis 9 Grad", "url": "https://www.br.de/nachrichten/meldungen/index.html#n10", "thumbnailUrl": null, "date": "2024-05-02T03:15:23+02:00", "lat": 53.5396, "lon": 8.5761, "intensity": 0.4, "source": "Bayrischer Rundfunk"}, {"title": "Gaza-Krieg pr\u00e4gte Demonstrationen am 1. Mai in Berlin", "url": "https://www.rbb24.de/panorama/beitrag/2024/05/berlin-1-mai-demonstrationen-polizei-einsatz.html", "thumbnailUrl": null, "date": "Thu, 02 May 2024 00:16:00 +0200", "lat": 52.52001, "lon": 13.38886, "intensity": 0.3, "source": "RBB"}, {"title": "Einschr\u00e4nkungen auf Bahnstrecken von Berlin nach M\u00fcnchen und Frankfurt ab Donnerstag", "url": "https://www.rbb24.de/panorama/beitrag/2024/05/berlin-brandenburg-bahn-verkehr-muenchen-frankfurt-leipzig-eingeschraenkt.html", "thumbnailUrl": null, "date": "Wed, 01 May 2024 23:10:53 +0200", "lat": 52.520008, "lon": 13.404954, "intensity": 0.7, "source": "RBB"}, {"title": "Oderbruch: Demonstranten bedr\u00e4ngen Bundestagsvizepr\u00e4sidentin G\u00f6ring-Eckardt", "url": "https://www.rbb24.de/politik/beitrag/2024/05/brandenburg-oderbruch-gruene-goering-eckardt-auto-blockade-demo.html", "thumbnailUrl": null, "date": "Wed, 01 May 2024 22:34:53 +0200", "lat": 52.5264, "lon": 14.4025, "intensity": 0.6, "source": "RBB"}, {"title": "Eishockey-WM in Tschechien: Bundestrainer Kreis setzt auf f\u00fcnf Eisb\u00e4ren-Spieler - und Coach Aubin", "url": "https://www.rbb24.de/sport/beitrag/2024/05/eishockey-wm-tschechien-deutscher-kader-eisbaeren-berlin-aubin.html", "thumbnailUrl": null, "date": "Wed, 01 May 2024 20:56:18 +0200", "lat": 49.817492, "lon": 15.472962, "intensity": 0.6, "source": "RBB"}, {"title": "Albas Basketballerinnen gewinnen erste deutsche Meisterschaft - im zweiten Bundesliga-Jahr", "url": "https://www.rbb24.de/sport/beitrag/2024/05/basketball-frauen-playoffs-finale-alba-berlin-keltern-spiel-5.html", "thumbnailUrl": null, "date": "Wed, 01 May 2024 20:24:57 +0200", "lat": 52.52, "lon": 13.4206, "intensity": 0.8, "source": "RBB"}, {"title": "Berlin-Grunewald: 4.000 Menschen folgen satirischem Aufruf zu \"Razzia im Villenviertel\"", "url": "https://www.rbb24.de/panorama/beitrag/2024/05/berlin-grunewald-1-mai-mygruni-demo-satire-villen-viertel.html", "thumbnailUrl": null, "date": "Wed, 01 May 2024 20:05:00 +0200", "lat": 52.4834, "lon": 13.2545, "intensity": 0.7, "source": "RBB"}, {"title": "Dahme-Spreewald: 8.000 Quadratmeter Wald brannten bei Briesen", "url": "https://www.rbb24.de/panorama/beitrag/2024/05/brandenburg-briesen-waldbrand-feuerwehreinsatz.html", "thumbnailUrl": null, "date": "Wed, 01 May 2024 19:25:00 +0200", "lat": 52.0031, "lon": 13.8481, "intensity": 0.7, "source": "RBB"}, {"title": "16 Amazon-Transporter in Berlin-Wittenau in Flammen - Bekennerschreiben aufgetaucht", "url": "https://www.rbb24.de/panorama/beitrag/2024/04/berlin-wittenau-feuerwehr-flammen-thyssenstrasse-transporter.html", "thumbnailUrl": null, "date": "Wed, 01 May 2024 18:27:00 +0200", "lat": 52.5796, "lon": 13.3394, "intensity": 0.7, "source": "RBB"}, {"title": "Berliner Landespokal: TuS Makkabi und Viktoria Berlin ziehen ins Finale ein", "url": "https://www.rbb24.de/sport/beitrag/2024/05/landespokal-halbfinale-viktoria-lichtenberg-sparta-makkabi-.html", "thumbnailUrl": null, "date": "Wed, 01 May 2024 18:09:16 +0200", "lat": 52.5192, "lon": 13.4062, "intensity": 0.6, "source": "RBB"}, {"title": "Barnim: Mutma\u00dflicher Brandstifter entwischt Polizei trotz Hubschraubersuche", "url": "https://www.rbb24.de/panorama/beitrag/2024/05/brandenburg-barnim-brandstifter-entwischt-polizei-hubschrauber.html", "thumbnailUrl": null, "date": "Wed, 01 May 2024 17:42:41 +0200", "lat": 52.6732, "lon": 13.5821, "intensity": 0.6, "source": "RBB"}, {"title": "Interview | Keven Schlotterbeck: \"Vor allem im Defensivspiel habe ich viel von Urs Fischer gelernt\"", "url": "https://www.rbb24.de/sport/beitrag/2024/05/bundesliga-bochum-union-berlin-keven-schlotterbeck-interview.html", "thumbnailUrl": null, "date": "Wed, 01 May 2024 17:42:40 +0200", "lat": 51.4818, "lon": 7.2165, "intensity": 0.3, "source": "RBB"}, {"title": "Gewerkschaftskundgebung: Tausende Menschen bei DGB-Demonstration zum 1. Mai in Berlin", "url": "https://www.rbb24.de/politik/beitrag/2024/05/berlin-dgb-demonstration-erster-mai.html", "thumbnailUrl": null, "date": "Wed, 01 May 2024 17:41:00 +0200", "lat": 52.5186, "lon": 13.3903, "intensity": 0.8, "source": "RBB"}, {"title": "20 Jahre EU-Osterweiterung: \"Die polnischen Sch\u00fcler sichern unsere Klassen\"", "url": "https://www.rbb24.de/panorama/beitrag/2024/05/brandenburg-gartz-grundschule-polnische-schueler-eu-osterweiterung.html", "thumbnailUrl": null, "date": "Wed, 01 May 2024 15:18:00 +0200", "lat": 52.833, "lon": 14.085, "intensity": 0.6, "source": "RBB"}, {"title": "Bundesliga-Historie: Diese Duelle im Abstiegskampf waren besonders denkw\u00fcrdig", "url": "https://www.rbb24.de/sport/beitrag/2024/05/fussball-bundesliga-historie-abstiegskampf-klassenerhalt-hertha-bsc-union-berlin-energie-cottbus.html", "thumbnailUrl": null, "date": "Wed, 01 May 2024 15:12:45 +0200", "lat": 52.4721, "lon": 13.4869, "intensity": 0.7, "source": "RBB"}, {"title": "Frankfurt (Oder) - Slubice: Doppelstadt feiert 20. Jahrestag der EU-Osterweiterung", "url": "https://www.rbb24.de/panorama/beitrag/2024/04/europafest-ffo-slubice-osterweiterung.html", "thumbnailUrl": null, "date": "Wed, 01 May 2024 15:06:00 +0200", "lat": 52.3478, "lon": 14.5529, "intensity": 0.5, "source": "RBB"}, {"title": "Berlin-Lichtenberg: Fu\u00dfg\u00e4ngerin wird von Auto erfasst und stirbt", "url": "https://www.rbb24.de/panorama/beitrag/2024/05/berlin-lichtenberg-unfall-frau-tot.html", "thumbnailUrl": null, "date": "Wed, 01 May 2024 14:38:00 +0200", "lat": 52.5108, "lon": 13.4892, "intensity": 0.8, "source": "RBB"}, {"title": "Interview | Zehn Jahre vertrauliche Geburt: \"Es sind in der Regel M\u00fctter, die aus prek\u00e4ren Lebensverh\u00e4ltnissen stammen\"", "url": "https://www.rbb24.de/panorama/beitrag/2024/05/vertrauliche-geburt-berlin-haus-waldfriede-interview.html", "thumbnailUrl": null, "date": "Wed, 01 May 2024 13:43:00 +0200", "lat": 52.520008, "lon": 13.404954, "intensity": 0.7, "source": "RBB"}, {"title": "Sportschie\u00dfen in Brandenburg: Zwischen Popularit\u00e4t und Vorurteilen", "url": "https://www.rbb24.de/sport/beitrag/2024/05/sportschiessen-pistole-flinte-schuetzenverein-schiesssportzentrum-frankfurt-oder.html", "thumbnailUrl": null, "date": "Wed, 01 May 2024 10:08:15 +0200", "lat": 52.3789, "lon": 13.2069, "intensity": 0.6, "source": "RBB"}, {"title": "Fernw\u00e4rmenetz: Berlin \u00fcbernimmt Kraftwerke und Leitungen von Vattenfall", "url": "https://www.rbb24.de/wirtschaft/beitrag/2024/05/berlin-fernwaerme-netz-kraftwerke-vattenfall-rueckkauf.html", "thumbnailUrl": null, "date": "Wed, 01 May 2024 06:13:37 +0200", "lat": 52.52, "lon": 13.405, "intensity": 0.8, "source": "RBB"}, {"title": "Video | Kindersprechstunde in Spandau: Wie Kinder f\u00fcr ihr Recht auf gewaltfreie Erziehung sensibilisiert werden", "url": "https://www.rbb24.de/panorama/beitrag/av7/video-berlin-schule-sensibilisierung-kinder-recht-auf-gewaltfreie-erziehung.html", "thumbnailUrl": null, "date": "Tue, 30 Apr 2024 21:48:23 +0200", "lat": 52.5357, "lon": 13.2026, "intensity": 0.7, "source": "RBB"}, {"title": "Basketball-Bundesliga: Alba Berlin ringt Heidelberg nieder und gewinnt mit 96:89", "url": "https://www.rbb24.de/sport/beitrag/2024/04/basketball-bundesliga-alba-berlin-heidelberg-spielbericht.html", "thumbnailUrl": null, "date": "Tue, 30 Apr 2024 20:50:00 +0200", "lat": 52.519171, "lon": 13.413215, "intensity": 0.7, "source": "RBB"}, {"title": "Hitze und Trockenheit: Weniger Erdbeeren in Brandenburg angebaut", "url": "https://www.rbb24.de/wirtschaft/beitrag/2024/04/erdbeeren-brandenburg-weniger-anbau.html", "thumbnailUrl": null, "date": "Tue, 30 Apr 2024 17:46:00 +0200", "lat": 52.3989, "lon": 13.0846, "intensity": 0.6, "source": "RBB"}, {"title": "20 Jahre EU-Erweiterung: Brandenburger Tor leuchtet in Europa-Farben", "url": "https://www.rbb24.de/politik/beitrag/2024/04/20-jahre-eu-erweiterung-berlin-brandenburger-tor-europafarben-1-mai.html", "thumbnailUrl": null, "date": "Tue, 30 Apr 2024 16:56:00 +0200", "lat": 52.5163, "lon": 13.3777, "intensity": 0.7, "source": "RBB"}, {"title": "Berlin-Reinickendorf: Mann mit Stichverletzungen gefunden - Mordkommission ermittelt", "url": "https://www.rbb24.de/panorama/beitrag/2024/04/berlin-reinickendorf-schwerverletzter-gehweg-ermittlungen.html", "thumbnailUrl": null, "date": "Tue, 30 Apr 2024 16:54:22 +0200", "lat": 52.5942, "lon": 13.3298, "intensity": 0.8, "source": "RBB"}, {"title": "Jagdhund in Potsdam-Mittelmark wurde wahrscheinlich von Wolf angegriffen", "url": "https://www.rbb24.de/panorama/beitrag/2024/04/potsdam-mittelmark-wolf-hat-jagdhund-angegriffen-brandenburg.html", "thumbnailUrl": null, "date": "Tue, 30 Apr 2024 16:27:00 +0200", "lat": 52.3154, "lon": 13.0645, "intensity": 0.7, "source": "RBB"}, {"title": "1. Mai in Berlin: Ein Protesttag im Lauf der Zeit", "url": "https://www.rbb24.de/panorama/beitrag/av24/video-erster-mai-demo-geschichte-bilder-revolutionaer-myfest.html", "thumbnailUrl": null, "date": "Tue, 30 Apr 2024 15:49:43 +0200", "lat": 52.520008, "lon": 13.404954, "intensity": 0.7, "source": "RBB"}, {"title": "Fu\u00dfball-Regionalliga: BFC Dynamo geht ohne Trainer Dirk Kunert in die neue Saison", "url": "https://www.rbb24.de/sport/beitrag/2024/04/regionalliga-nordost-bfc-dynamo-trennung-trainer-dirk-kunert-saisonende.html", "thumbnailUrl": null, "date": "Tue, 30 Apr 2024 15:38:26 +0200", "lat": 52.478, "lon": 13.439, "intensity": 0.2, "source": "RBB"}, {"title": "Fr\u00fchsommer in Brandenburg - Der Mai beginnt mit viel Sonnenschein und hoher Waldbrandgefahr", "url": "https://www.rbb24.de/panorama/beitrag/2024/04/waldbrandgefahr-brandenburg-wetter-waerme-trockenheit-erster-mai-warnung.html", "thumbnailUrl": null, "date": "Tue, 30 Apr 2024 15:33:00 +0200", "lat": 52.3007, "lon": 13.1602, "intensity": 0.8, "source": "RBB"}, {"title": "Bildungsoffensive: Berliner Schulen erhalten 460 Millionen Euro aus Startchancen-Programm", "url": "https://www.rbb24.de/panorama/beitrag/2024/04/berliner-schulen-erhalten-460-millionen-foerderung-startchancen-programm.html", "thumbnailUrl": null, "date": "Tue, 30 Apr 2024 15:27:28 +0200", "lat": 52.520008, "lon": 13.404954, "intensity": 0.8, "source": "RBB"}, {"title": "Berliner Verkehrssenatorin Manja Schreiner tritt zur\u00fcck - Uni entzieht Doktortitel", "url": "https://www.rbb24.de/politik/beitrag/2024/04/ruecktritt-berlin-schreiner-cdu-verkehrssenatorin-statement-doktorarbeit-uni-rostock-plagiatsvorwuerfe.html", "thumbnailUrl": null, "date": "Tue, 30 Apr 2024 14:41:00 +0200", "lat": 54.0887, "lon": 12.1406, "intensity": 0.8, "source": "RBB"}, {"title": "Wahlkampf in Brandenburg: Innenminister verurteilt Angriff auf Wahlk\u00e4mpfer", "url": "https://www.rbb24.de/politik/wahl/kommunalwahlen/2024/schoeneiche-wahlkampf-linke-plakate-innenminister-rechte-gewalt.html", "thumbnailUrl": null, "date": "Tue, 30 Apr 2024 11:45:00 +0200", "lat": 52.3021, "lon": 13.0645, "intensity": 0.7, "source": "RBB"}, {"title": "Etwas mehr Arbeitslose in Berlin, weniger in Brandenburg", "url": "https://www.rbb24.de/wirtschaft/beitrag/2024/04/berlin-brandenburg-zahl-arbeitslosen-april-2024-bleiben-stabil.html", "thumbnailUrl": null, "date": "Tue, 30 Apr 2024 10:28:00 +0200", "lat": 52.520008, "lon": 13.404954, "intensity": 0.6, "source": "RBB"}, {"title": "M\u00e4rkisch-Oderland: Hoppegartens B\u00fcrgermeister Siebert beurlaubt", "url": "https://www.rbb24.de/politik/beitrag/2024/04/brandenburg-maerkisch-oderland-hoppegarten-buergermeister-siebert-beurlaubt.html", "thumbnailUrl": null, "date": "Tue, 30 Apr 2024 08:31:00 +0200", "lat": 52.5213, "lon": 13.6506, "intensity": 0.5, "source": "RBB"}, {"title": "Sch\u00f6neiche: F\u00fcnf Menschen bei Zusammensto\u00df von Betonmischer und Tram verletzt", "url": "https://www.rbb24.de/panorama/beitrag/2024/04/brandenburg-schoeneiche-betonmischer-kollidiert-mit-strassenbahn-fuenf-menschen-verletzt.html", "thumbnailUrl": null, "date": "Tue, 30 Apr 2024 08:06:00 +0200", "lat": 52.4522, "lon": 13.6725, "intensity": 0.8, "source": "RBB"}, {"title": "Video | Traditionskaufhaus im Kiez: Was das Karstadt-Aus f\u00fcr Tempelhof bedeutet", "url": "https://www.rbb24.de/panorama/beitrag/av7/video-berlin-karstadt-filiale-schliessung-tempelhof-kiez-auswirkungen.html", "thumbnailUrl": null, "date": "Mon, 29 Apr 2024 21:24:10 +0200", "lat": 52.4831, "lon": 13.3859, "intensity": 0.7, "source": "RBB"}, {"title": "Pflegenotstand: Verdi fordert detaillierte Personalvorgaben", "url": "https://www.rbb24.de/panorama/beitrag/2024/04/pflege-verdi-fordert-bedarfsgerechte-personalregelungen.html", "thumbnailUrl": null, "date": "Mon, 29 Apr 2024 20:52:12 +0200", "lat": 53.5511, "lon": 9.9937, "intensity": 0.7, "source": "RBB"}, {"title": "US-Popstar Billie Eilish kommt f\u00fcr ein Konzert nach Berlin", "url": "https://www.rbb24.de/kultur/beitrag/2024/04/berlin-billie-eilish-konzerte-2025-deutschland-tournee.html", "thumbnailUrl": null, "date": "Mon, 29 Apr 2024 19:25:00 +0200", "lat": 52.520008, "lon": 13.404954, "intensity": 0.7, "source": "RBB"}, {"title": "Angriff in Berliner S-Bahnhof: Zwei M\u00e4nner bei Streit \u00fcber laute Musik verletzt", "url": "https://www.rbb24.de/panorama/beitrag/2024/04/streit-um-laute-musik-zwei-maenner-verletzt-berlin-s-bahn.html", "thumbnailUrl": null, "date": "Mon, 29 Apr 2024 17:39:31 +0200", "lat": 52.52, "lon": 13.405, "intensity": 0.6, "source": "RBB"}, {"title": "Video | Fu\u00dfball-Bundesliga: Union Berlin hat in Gladbach Aluminium-Pech", "url": "https://www.rbb24.de/sport/beitrag/av7/video-fussball-bundesliga-union-berlin-borussia-moenchengladbach.html", "thumbnailUrl": null, "date": "Mon, 29 Apr 2024 12:32:58 +0200", "lat": 51.166213, "lon": 6.436692, "intensity": 0.6, "source": "RBB"}, {"title": "Video | Zweite Fu\u00dfball-Bundesliga: Hertha und die vielen \u00c4rgernisse gegen Hannover", "url": "https://www.rbb24.de/sport/beitrag/av7/video-fussball-zweite-bundesliga-spielbericht-hertha-bsc-hannover-96.html", "thumbnailUrl": null, "date": "Mon, 29 Apr 2024 00:00:00 +0200", "lat": 52.523496, "lon": 13.361389, "intensity": 0.6, "source": "RBB"}, {"title": "Video | Parteitag: Linke meldet mehr als 1.000 neue Mitglieder", "url": "https://www.rbb24.de/politik/beitrag/av7/video-berlin-parteitag-die-linke.html", "thumbnailUrl": null, "date": "Sat, 27 Apr 2024 21:33:09 +0200", "lat": 52.520008, "lon": 13.38886, "intensity": 0.6, "source": "RBB"}, {"title": "Video | Babelsberger Sehs\u00fcchte Festival wieder mit interessantem Programm", "url": "https://www.rbb24.de/panorama/beitrag/av7/video-filmfestival-sehsuechte-babelsberg.html", "thumbnailUrl": null, "date": "Sat, 27 Apr 2024 21:31:02 +0200", "lat": 52.3906, "lon": 13.0592, "intensity": 0.6, "source": "RBB"}, {"title": "Video |\u00a0Polnisch und deutsche Sch\u00fcler Schule in Gartz wiederbelebt", "url": "https://www.rbb24.de/panorama/beitrag/av7/video-brandenburg-polen-gartz.html", "thumbnailUrl": null, "date": "Sat, 27 Apr 2024 21:09:37 +0200", "lat": 53.0214, "lon": 14.2908, "intensity": 0.8, "source": "RBB"}, {"title": "Tausende bei linken Mai-Demos in Hamburg - Gro\u00dfeinsatz f\u00fcr Polizei", "url": "https://www.ndr.de/nachrichten/hamburg/Tausende-bei-linken-Mai-Demos-in-Hamburg-Grosseinsatz-fuer-Polizei,maidemos140.html", "thumbnailUrl": "https://www.ndr.de/nachrichten/hamburg/demo4306_v-contentwidescreen.jpg", "date": "2024-05-01T22:28:45.173+02:00", "lat": 53.551086, "lon": 9.96768, "intensity": 0.8, "source": "NDR"}, {"title": "Mehr Geld, Freizeit, Demokratie: Forderungen am 1. Mai in Hannover", "url": "https://www.ndr.de/nachrichten/niedersachsen/Mehr-Geld-Freizeit-Demokratie-Forderungen-am-1-Mai-in-Hannover,mai214.html", "thumbnailUrl": "https://www.ndr.de/nachrichten/niedersachsen/hannover_weser-leinegebiet/mai220_v-contentwidescreen.jpg", "date": "2024-05-01T14:30:12.373+02:00", "lat": 52.37589, "lon": 9.73322, "intensity": 0.8, "source": "NDR"}, {"title": "Metallindustrie: Laut Umfrage will jeder f\u00fcnfte Betrieb Produktion verlagern", "url": "https://www.ndr.de/nachrichten/hamburg/Metallindustrie-Laut-Umfrage-will-jeder-fuenfte-Betrieb-Produktion-verlagern,metallindustrie132.html", "thumbnailUrl": "https://www.ndr.de/nachrichten/hamburg/friedrich548_v-contentwidescreen.jpg", "date": "2024-05-01T12:25:29.466+02:00", "lat": 51.1657, "lon": 10.4515, "intensity": 0.7, "source": "NDR"}, {"title": "Fu\u00dfball-EM: Mehr als 100.000 Tickets ab Donnerstag im Verkauf", "url": "https://www.ndr.de/sport/fussball/Fussball-EM-2024-Alle-Informationen-zum-Ticket-Verkauf,euro566.html", "thumbnailUrl": "https://www.ndr.de/sport/fussball/volksparkstadion136_v-contentwidescreen.jpg", "date": "2024-05-01T14:18:57.205+02:00", "lat": 53.5511, "lon": 9.9937, "intensity": 0.6, "source": "NDR"}, {"title": "Kragenb\u00e4rin \"Malvina\" trifft in Kappeln auf Artgenossen", "url": "https://www.ndr.de/nachrichten/schleswig-holstein/Kragenbaerin-Malvina-trifft-in-Kappeln-auf-Artgenossen,malvina100.html", "thumbnailUrl": "https://www.ndr.de/nachrichten/schleswig-holstein/baer388_v-contentwidescreen.jpg", "date": "2024-05-01T21:39:27.431+02:00", "lat": 54.6472, "lon": 9.9311, "intensity": 0.5, "source": "NDR"}, {"title": "Ein Jahr Deutschlandticket - eine Erfolgsgeschichte?", "url": "https://www.ndr.de/nachrichten/info/Ein-Jahr-Deutschlandticket-eine-Erfolgsgeschichte,deutschlandticket270.html", "thumbnailUrl": "https://www.ndr.de/nachrichten/info/reiserer102_v-contentwidescreen.jpg", "date": "2024-05-01T08:36:05.986+02:00", "lat": 51.544227, "lon": 9.993682, "intensity": 0.6, "source": "NDR"}, {"title": "Zum 1. Mai: Gro\u00dfe DGB-Demo in Hamburg", "url": "https://www.ndr.de/nachrichten/hamburg/Zum-1-Mai-Grosse-DGB-Demo-in-Hamburg,maidemo400.html", "thumbnailUrl": "https://www.ndr.de/nachrichten/hamburg/dgbdemo142_v-contentwidescreen.jpg", "date": "2024-05-01T19:51:48.804+02:00", "lat": 53.5511, "lon": 9.9425, "intensity": 0.8, "source": "NDR"}, {"title": "Mehr als 8.000 Menschen demonstrieren am 1. Mai in SH", "url": "https://www.ndr.de/nachrichten/schleswig-holstein/Tausende-demonstrieren-am-1-Mai-in-Schleswig-Holstein,maidemos142.html", "thumbnailUrl": "https://www.ndr.de/nachrichten/schleswig-holstein/demo4312_v-contentwidescreen.jpg", "date": "2024-05-01T17:44:29.576+02:00", "lat": 54.3233, "lon": 10.4234, "intensity": 0.8, "source": "NDR"}, {"title": "Waldbrand im Harz unterhalb des Brockens ist gel\u00f6scht", "url": "https://www.ndr.de/nachrichten/niedersachsen/braunschweig_harz_goettingen/Waldbrand-im-Harz-unterhalb-des-Brockens-ist-geloescht,waldbrand1012.html", "thumbnailUrl": "https://www.ndr.de/nachrichten/niedersachsen/braunschweig_harz_goettingen/waldbrand1014_v-contentwidescreen.jpg", "date": "2024-05-01T19:01:00.340+02:00", "lat": 51.8133, "lon": 10.6217, "intensity": 0.8, "source": "NDR"}, {"title": "Vermisster Arian aus Bremerv\u00f6rde: Wo k\u00f6nnte der Junge sein?", "url": "https://www.ndr.de/nachrichten/niedersachsen/lueneburg_heide_unterelbe/Vermisster-Arian-aus-Bremervoerde-Wo-koennte-der-Junge-sein,vermisster554.html", "thumbnailUrl": "https://www.ndr.de/nachrichten/niedersachsen/lueneburg_heide_unterelbe/vermisster588_v-contentwidescreen.jpg", "date": "2024-04-30T22:10:38.181+02:00", "lat": 53.4833, "lon": 9.1507, "intensity": 0.8, "source": "NDR"}, {"title": "Segelflugzeug abgest\u00fcrzt - zwei Menschen verletzt", "url": "https://www.ndr.de/nachrichten/niedersachsen/osnabrueck_emsland/Segelflugzeug-abgestuerzt-zwei-Menschen-verletzt,aktuellosnabrueck11346.html", "thumbnailUrl": "https://www.ndr.de/nachrichten/niedersachsen/osnabrueck_emsland/rhede166_v-contentwidescreen.jpg", "date": "2024-05-01T15:26:24.936+02:00", "lat": 52.8434, "lon": 6.9431, "intensity": 0.7, "source": "NDR"}, {"title": "Brandanschlag? Feuer zerst\u00f6rt Kampfsportschule in Prinzh\u00f6fte", "url": "https://www.ndr.de/nachrichten/niedersachsen/oldenburg_ostfriesland/Brandanschlag-Feuer-zerstoert-Kampfsportschule-in-Prinzhoefte,aktuelloldenburg15568.html", "thumbnailUrl": "https://www.ndr.de/nachrichten/schleswig-holstein/feuerwehr4032_v-contentwidescreen.jpg", "date": "2024-04-30T23:06:59.157+02:00", "lat": 52.8502, "lon": 8.6253, "intensity": 0.8, "source": "NDR"}, {"title": "Tausende bei linken Mai-Demos in Hamburg - Gro\u00dfeinsatz f\u00fcr Polizei", "url": "https://www.ndr.de/nachrichten/hamburg/Tausende-bei-linken-Mai-Demos-in-Hamburg-Grosseinsatz-fuer-Polizei,maidemos140.html", "thumbnailUrl": "https://www.ndr.de/nachrichten/hamburg/demo4306_v-contentwidescreen.jpg", "date": "2024-05-01T22:28:45.173+02:00", "lat": 53.5511, "lon": 9.9792, "intensity": 0.8, "source": "NDR"}, {"title": "Sommerlicher Start in den Mai", "url": "https://www.ndr.de/nachrichten/info/Sommerlicher-Start-in-den-Mai,ndrinfo59250.html", "thumbnailUrl": "https://www.ndr.de/fernsehen/screenshot1742100_v-contentwidescreen.jpg", "date": "2024-05-01T22:04:12.082+02:00", "lat": 53.6297, "lon": 11.4013, "intensity": 0.3, "source": "NDR"}, {"title": "Erste Freib\u00e4der starten in die Saison", "url": "https://www.ndr.de/fernsehen/sendungen/hallo_niedersachsen/Erste-Freibaeder-starten-in-die-Saison,hallonds87282.html", "thumbnailUrl": "https://www.ndr.de/fernsehen/screenshot1741850_v-contentwidescreen.jpg", "date": "2024-05-01T20:25:20.730+02:00", "lat": 52.1163, "lon": 8.1762, "intensity": 0.6, "source": "NDR"}, {"title": "Neuer Radschnellweg f\u00fcr L\u00fcbeck in Planung", "url": "https://www.ndr.de/fernsehen/sendungen/schleswig-holstein_magazin/Neuer-Radschnellweg-fuer-Luebeck-in-Planung,shmag115916.html", "thumbnailUrl": "https://www.ndr.de/nachrichten/schleswig-holstein/schleswig-holstein_magazin/shmag115914_v-contentwidescreen.jpg", "date": "2024-05-01T22:11:36.338+02:00", "lat": 53.865467, "lon": 10.686559, "intensity": 0.7, "source": "NDR"}, {"title": "Medienkompetenz: Schulen in Salzgitter gehen neuen Weg", "url": "https://www.ndr.de/fernsehen/sendungen/hallo_niedersachsen/Medienkompetenz-Schulen-in-Salzgitter-gehen-neuen-Weg,hallonds87290.html", "thumbnailUrl": "https://www.ndr.de/fernsehen/screenshot1741944_v-contentwidescreen.jpg", "date": "2024-05-01T20:25:50.246+02:00", "lat": 52.1525, "lon": 10.3316, "intensity": 0.8, "source": "NDR"}, {"title": "Unimedizin Rostock: Recruiting von Pflegekr\u00e4ften im Jobcaf\u00e9", "url": "https://www.ndr.de/fernsehen/sendungen/nordmagazin/Unimedizin-Rostock-Recruiting-von-Pflegekraeften-im-Jobcafe,nordmagazin117792.html", "thumbnailUrl": "https://www.ndr.de/fernsehen/screenshot1742056_v-contentwidescreen.jpg", "date": "2024-05-01T20:54:55.113+02:00", "lat": 54.082053, "lon": 12.099147, "intensity": 0.3, "source": "NDR"}, {"title": "IG Metall zum 1. Mai: \"Die Menschen wollen sichere Arbeitspl\u00e4tze\"", "url": "https://www.ndr.de/nachrichten/info/IG-Metall-zum-1-Mai-Die-Menschen-wollen-sichere-Arbeitsplaetze,audio1626018.html", "thumbnailUrl": "https://www.ndr.de/friedrich674_v-contentwidescreen.jpg", "date": "2024-05-01T13:52:18.201+02:00", "lat": 53.5511, "lon": 9.9937, "intensity": 0.8, "source": "NDR"}, {"title": "Heute live: Wie wollen wir k\u00fcnftig arbeiten?", "url": "https://www.ndr.de/nachrichten/info/epg/Fachkraeftemangel-und-Work-Life-Balance-Wie-wollen-wir-kuenftig-arbeiten,sendung1440414.html", "thumbnailUrl": "https://www.ndr.de/nachrichten/info/mitreden112_v-contentwidescreen.jpg", "date": "2024-05-02T00:01:00.057+02:00", "lat": 51.163, "lon": 9.998, "intensity": 0.3, "source": "NDR"}, {"title": "NDR Info live: Generation Z - jung, fordernd, missverstanden?", "url": "https://www.ndr.de/nachrichten/info/NDR-Info-live-Generation-Z-jung-fordernd-missverstanden,ndrinfolive176.html", "thumbnailUrl": "https://www.ndr.de/nachrichten/info/generationz102_v-contentwidescreen.jpg", "date": "2024-04-30T18:36:41.008+02:00", "lat": 52.37052, "lon": 9.73322, "intensity": 0.2, "source": "NDR"}, {"title": "Umfrage: Demokratie unter Druck?", "url": "https://www.ndr.de/ndrfragt/Umfrage-Demokratie-unter-Druck,umfragedemokratie102.html", "thumbnailUrl": "https://www.ndr.de/ndrfragt/umfragedemokratie100_v-contentwidescreen.jpg", "date": "2024-04-29T05:00:03.376+02:00", "lat": 53.5511, "lon": 9.9937, "intensity": 0.3, "source": "NDR"}, {"title": "Gaspreis Dashboard", "url": "https://www.ndr.de/home/gaspreis176.html", "thumbnailUrl": null, "date": "2023-04-06T14:49:06.409+02:00", "lat": 51.3426, "lon": 9.9976, "intensity": 0.7, "source": "NDR"}, {"title": "NDR Radioprogramme", "url": "https://www.ndr.de/radio/radiologobox100.html", "thumbnailUrl": null, "date": "2020-12-01T14:04:26.700+01:00", "lat": 53.5511, "lon": 9.9937, "intensity": 0.3, "source": "NDR"}, {"title": "Raus aus der Depression", "url": "https://www.ndr.de/nachrichten/info/podcast5110.html", "thumbnailUrl": "https://www.ndr.de/mediathek/podcast5112_v-contentwidescreen.jpg", "date": "2024-04-29T05:00:10.810+02:00", "lat": 53.5511, "lon": 9.9937, "intensity": 0.8, "source": "NDR"}, {"title": "Streitkr\u00e4fte und Strategien", "url": "https://www.ndr.de/nachrichten/info/podcast2998.html", "thumbnailUrl": "https://www.ndr.de/mediathek/mediathekbild652_v-contentwidescreen.jpg", "date": "2024-04-30T14:00:30.328+02:00", "lat": 53.5511, "lon": 9.9937, "intensity": 0.8, "source": "NDR"}, {"title": "Podcast: \"Gerichtssaal 237. True Crime aus dem Strafgericht\"", "url": "https://www.ndr.de/podcast/Podcast-Gerichtssaal-237-True-Crime-aus-dem-Strafgericht,gerichtssaalzweidreisieben104.html", "thumbnailUrl": "https://www.ndr.de/podcast/gerichtssaalzweidreisieben100_v-contentwidescreen.jpg", "date": "2024-04-24T18:38:08.865+02:00", "lat": 53.550341, "lon": 10.000348, "intensity": 0.3, "source": "NDR"}, {"title": "Krieg und Terror - Die Lage im Nahen Osten und in der Ukraine", "url": "https://www.ndr.de/nachrichten/info/podcast5342.html", "thumbnailUrl": "https://www.ndr.de/nachrichten/info/podcastbild412_v-contentwidescreen.jpg", "date": "2024-05-01T07:41:17.431+02:00", "lat": 46.79651, "lon": 30.739834, "intensity": 0.8, "source": "NDR"}, {"title": "Unsere Comedy \"Die Kur-Oase\"!", "url": "https://www.ndr.de/ndr2/podcasts/podcast5816.html", "thumbnailUrl": "https://www.ndr.de/ndr2/podcasts/podcast5812_v-contentwidescreen.jpg", "date": "2024-04-30T14:36:32.596+02:00", "lat": 54.9069, "lon": 8.7386, "intensity": 0.2, "source": "NDR"}, {"title": "Standpunkte", "url": "https://www.ndr.de/nachrichten/info/podcast4700.html", "thumbnailUrl": "https://www.ndr.de/mediathek/podcast5332_v-contentwidescreen.jpg", "date": "2024-05-02T00:05:19.503+02:00", "lat": 53.5511, "lon": 9.9937, "intensity": 0.5, "source": "NDR"}, {"title": "eat.READ.sleep. B\u00fccher f\u00fcr dich", "url": "https://www.ndr.de/kultur/sendungen/eat_read_sleep/index.html", "thumbnailUrl": "https://www.ndr.de/mediathek/podcastbild434_v-contentwidescreen.jpg", "date": "2024-04-26T06:00:24.550+02:00", "lat": 53.5511, "lon": 9.9937, "intensity": 0.2, "source": "NDR"}, {"title": "Die Ern\u00e4hrungs-Docs - Essen als Medizin", "url": "https://www.ndr.de/fernsehen/sendungen/die-ernaehrungsdocs/audio-podcast/index.html", "thumbnailUrl": "https://www.ndr.de/fernsehen/sendungen/die-ernaehrungsdocs/podcastbild338_v-contentwidescreen.jpg", "date": "2024-04-30T13:18:24.548+02:00", "lat": 53.5511, "lon": 9.9876, "intensity": 0.3, "source": "NDR"}, {"title": "Mein Einsatz - der Feuerwehr-Podcast von NDR Niedersachsen", "url": "https://www.ndr.de/ndr1niedersachsen/podcast5774.html", "thumbnailUrl": "https://www.ndr.de/ndr1niedersachsen/podcasts/podcastbild364_v-contentwidescreen.jpg", "date": "2024-04-25T04:00:08.575+02:00", "lat": 52.3759, "lon": 9.7345, "intensity": 0.7, "source": "NDR"}, {"title": "\"Feel Hamburg\" - alle Folgen", "url": "https://www.ndr.de/903/podcasts/podcast5108.html", "thumbnailUrl": "https://www.ndr.de/mediathek/mediathekbild514_v-contentwidescreen.jpg", "date": "2024-04-23T16:10:34.282+02:00", "lat": 53.55, "lon": 10.0, "intensity": 0.4, "source": "NDR"}, {"title": "Intensiv-Station - Satire von NDR Info", "url": "https://www.ndr.de/nachrichten/info/podcast4274.html", "thumbnailUrl": "https://www.ndr.de/nachrichten/info/programm/intensivstation3272_v-contentwidescreen.jpg", "date": "2024-04-29T21:03:04.134+02:00", "lat": 54.3706, "lon": 10.5038, "intensity": 0.8, "source": "NDR"}, {"title": "Amerika, wir m\u00fcssen reden!", "url": "https://www.ndr.de/nachrichten/info/podcast4932.html", "thumbnailUrl": "https://www.ndr.de/nachrichten/info/podcastbild488_v-contentwidescreen.jpg", "date": "2024-04-29T20:25:57.775+02:00", "lat": 39.78373, "lon": -100.445882, "intensity": 0.7, "source": "NDR"}, {"title": "Ein Toter nach Ungl\u00fcck auf dem Mittellandkanal in Minden", "url": "https://www1.wdr.de/nachrichten/schiffsunfall-minden-102.html", "thumbnailUrl": null, "date": "2024-05-01T17:59:49Z", "lat": 52.2843, "lon": 8.9236, "intensity": 0.8, "source": "WDR"}, {"title": "Tag der Arbeit: Demos am 1. Mai in NRW \u2013 W\u00fcst in Aachen", "url": "https://www1.wdr.de/nachrichten/1-mai-tag-arbeit-demos-nrw-100.html", "thumbnailUrl": null, "date": "2024-05-01T18:22:13Z", "lat": 50.7754, "lon": 6.0836, "intensity": 0.8, "source": "WDR"}, {"title": "Ein Jahr Deutschlandticket: Hat es wirklich eine Zukunft?", "url": "https://www1.wdr.de/nachrichten/bilanz-ein-jahr-deutschlandticket-nrw-100.html", "thumbnailUrl": null, "date": "2024-05-01T18:20:49Z", "lat": 51.50953, "lon": 7.58857, "intensity": 0.5, "source": "WDR"}, {"title": "Pro-pal\u00e4stinensische Proteste an der Columbia University: Eindr\u00fccke von der R\u00e4umung", "url": "https://www1.wdr.de/nachrichten/columbia-university-proteste-gaza-100.html", "thumbnailUrl": null, "date": "2024-05-01T18:21:19Z", "lat": 40.8075, "lon": -73.9626, "intensity": 0.8, "source": "WDR"}, {"title": "Gro\u00dfbritannien verbietet 12345-Passw\u00f6rter \u2013 bald auch die EU?", "url": "https://www1.wdr.de/nachrichten/uk-standardpasswoerter-verboten-100.html", "thumbnailUrl": null, "date": "2024-05-01T18:20:14Z", "lat": 51.5073219, "lon": -0.1276474, "intensity": 0.8, "source": "WDR"}, {"title": "So viel arbeiten die Deutschen: Ein Vergleich in Grafiken", "url": "https://www1.wdr.de/nachrichten/wirtschaft/arbeit-arbeitszeit-deutschland-europa-vergleich-100.html", "thumbnailUrl": null, "date": "2024-05-01T17:26:32Z", "lat": 51.3186, "lon": 9.9976, "intensity": 0.5, "source": "WDR"}, {"title": "B\u00e4ume, T\u00e4nze, Feuer: Die wichtigsten Br\u00e4uche zum 1. Mai und woher sie kommen", "url": "https://www1.wdr.de/nachrichten/erster-mai-brauch-bedeutung-tanz-maibaum-100.html", "thumbnailUrl": null, "date": "2024-04-30T19:02:06Z", "lat": 51.1657, "lon": 7.5906, "intensity": 0.4, "source": "WDR"}, {"title": "Maibaum als Zeichen der Liebe - Was erlaubt ist und was nicht", "url": "https://www1.wdr.de/nachrichten/maibaum-regeln-verkauf-100.html", "thumbnailUrl": null, "date": "2024-04-29T13:27:25Z", "lat": 50.3569, "lon": 7.0227, "intensity": 0.7, "source": "WDR"}, {"title": "Badeseen in NRW: Tipps f\u00fcr sicheren Schwimmspa\u00df", "url": "https://www1.wdr.de/nachrichten/badeseen-nrw-108.html", "thumbnailUrl": null, "date": "2024-05-01T15:51:56Z", "lat": 51.4332, "lon": 7.2921, "intensity": 0.4, "source": "WDR"}, {"title": "Rocker-Boss aus NRW wohl im Iran erschossen", "url": "https://www1.wdr.de/nachrichten/ramin-y-iran-erschossen-100.html", "thumbnailUrl": null, "date": "2024-05-01T13:25:08Z", "lat": 32.4279, "lon": 54.3667, "intensity": 0.8, "source": "WDR"}, {"title": "Kevelaer er\u00f6ffnet Wallfahrtssaison", "url": "https://www1.wdr.de/nachrichten/rheinland/wallfahrt-eroeffnung-kevelaer-100.html", "thumbnailUrl": null, "date": "2024-05-01T19:14:23Z", "lat": 51.5825, "lon": 6.2433, "intensity": 0.7, "source": "WDR"}, {"title": "Kulturvolksfest zum Auftakt der Ruhrfestspiele in Recklinghausen", "url": "https://www1.wdr.de/nachrichten/ruhrgebiet/kulturvolksfest-ruhrfestspiele-zwanzigvierundzwanzig-100.html", "thumbnailUrl": null, "date": "2024-05-01T16:04:18Z", "lat": 51.6142, "lon": 7.1964, "intensity": 0.6, "source": "WDR"}, {"title": "Nahost-Krieg: Nahost-Liveblog: ++ 30 Lkw mit Hilfsg\u00fctern passieren \u00dcbergang Erez ++", "url": "https://www.tagesschau.de/newsticker/liveblog-nahost-mittwoch-126.html", "thumbnailUrl": null, "date": "2024-05-01T21:39:02Z", "lat": 31.768319, "lon": 35.210629, "intensity": 0.8, "source": "WDR"}, {"title": "Nahost-Gespr\u00e4che in Riad und Kairo: Neue Bem\u00fchungen um Waffenruhe im Gaza-Krieg", "url": "https://www.tagesschau.de/ausland/asien/nahost-geiseln-verhandlungen-100.html", "thumbnailUrl": null, "date": "2024-04-29T18:45:02Z", "lat": 30.0444, "lon": 31.2357, "intensity": 0.8, "source": "WDR"}, {"title": "Beratungen in Kairo und Riad: Beratungen \u00fcber Feuerpause und Geiselfreilassung in Kairo und Riad", "url": "https://www.tagesschau.de/ausland/asien/gespraeche-feuerpause-kairo-100.html", "thumbnailUrl": null, "date": "2024-04-29T04:02:37Z", "lat": 30.0444, "lon": 31.2357, "intensity": 0.8, "source": "WDR"}, {"title": "Iran und Israel: Droht ein neuer Krieg im Nahen Osten?", "url": "https://www1.wdr.de/nachrichten/iran-israel-angriff-faq-102.html", "thumbnailUrl": null, "date": "2024-04-19T13:29:16Z", "lat": 32.6546, "lon": 51.6736, "intensity": 0.8, "source": "WDR"}, {"title": "Aachen: Nahostkonflikt im Klassenzimmer", "url": "https://www1.wdr.de/nachrichten/rheinland/nahostkonflikt-im-klassenzimmer-102.html", "thumbnailUrl": null, "date": "2024-04-19T12:03:07Z", "lat": 31.526, "lon": 34.4506, "intensity": 0.8, "source": "WDR"}, {"title": "Krieg gegen die Ukraine: Ukraine-Liveblog: ++ USA: Russland setzt chemische Kampfstoffe ein ++", "url": "https://www.tagesschau.de/newsticker/liveblog-ukraine-mittwoch-358.html", "thumbnailUrl": null, "date": "2024-05-01T19:57:02Z", "lat": 50.4501, "lon": 30.5234, "intensity": 0.8, "source": "WDR"}, {"title": "Stoltenberg in der Ukraine: Stoltenberg fordert NATO zu schnelleren Waffenlieferungen an Ukraine auf", "url": "https://www.tagesschau.de/ausland/europa/stoltenberg-ukraine-nato-100.html", "thumbnailUrl": null, "date": "2024-04-29T16:15:02Z", "lat": 50.4501, "lon": 30.5234, "intensity": 0.8, "source": "WDR"}, {"title": "Tat im bayerischen Murnau: Bayern: Zwei get\u00f6tete Ukrainer waren wohl Soldaten", "url": "https://www.tagesschau.de/inland/murnau-ukrainer-getoetet-soldaten-russe-100.html", "thumbnailUrl": null, "date": "2024-04-29T06:47:03Z", "lat": 47.648, "lon": 11.286, "intensity": 0.8, "source": "WDR"}, {"title": "Tausende ukrainische Sch\u00fcler kommen bald in regul\u00e4re Klassen", "url": "https://www1.wdr.de/nachrichten/landespolitik/zuwanderung-kinder-regelklassen-100.html", "thumbnailUrl": null, "date": "2024-04-22T16:52:49Z", "lat": 51.9607, "lon": 7.6261, "intensity": 0.7, "source": "WDR"}, {"title": "Wetter in NRW: Nach der Sonne kommen Regen und Gewitter", "url": "https://www1.wdr.de/nachrichten/nrw-wetter-vorschau-100.html", "thumbnailUrl": null, "date": "2024-05-01T18:52:14Z", "lat": 51.4893, "lon": 7.589, "intensity": 0.3, "source": "WDR"}, {"title": "Vor Spiel in Dortmund: Polizei kontrolliert 800 Pariser Fu\u00dfballfans an A44 bei Aachen", "url": "https://www1.wdr.de/nachrichten/rheinland/polizei-champions-league-dortmund-paris-fans-100.html", "thumbnailUrl": null, "date": "2024-05-01T19:16:50Z", "lat": 50.775, "lon": 6.073, "intensity": 0.7, "source": "WDR"},