[{"title": "Israel k\u00fcndigt \"sofortige\" Aufstockung von Hilfen an", "url": "https://www.tagesschau.de/ausland/asien/biden-netanyahu-zivilisten-104.html", "thumbnailUrl": "https://images.tagesschau.de/image/96f169b0-65d8-4a54-97d4-deff6a47116c/AAABjq2PZNw/AAABjcWesUg/16x9-512.jpg", "date": "2024-04-05T11:57:00.924+02:00", "lat": 31.9522, "lon": 34.9513, "intensity": 0.7, "source": "Tagesschau"}, {"title": "Mann aus Barsinghausen soll Kriegswaffen an Mafia verkauft haben", "url": "https://www.tagesschau.de/inland/regional/niedersachsen/ndr-mann-aus-barsinghausen-soll-maschinengewehre-an-mafia-verkauft-haben-100.html", "thumbnailUrl": "https://images.tagesschau.de/image/90924687-d8f0-483a-8a06-cdc1fc1cdd9b/AAABjq2yARI/AAABjcWesUg/16x9-512.jpg", "date": "2024-04-05T11:56:00.000+02:00", "lat": 52.3072, "lon": 9.4475, "intensity": 0.8, "source": "Tagesschau"}, {"title": "Wo die Arbeitslosigkeit am st\u00e4rksten steigt ", "url": "https://www.tagesschau.de/wirtschaft/arbeitsmarkt/arbeitslosigkeit-110.html", "thumbnailUrl": "https://images.tagesschau.de/image/fe07b647-8fbf-48f3-b1d5-d52ecf842f0f/AAABjq14G2M/AAABjcWesUg/16x9-512.jpg", "date": "2024-04-05T11:49:51.857+02:00", "lat": 51.2093, "lon": 9.9937, "intensity": 0.7, "source": "Tagesschau"}, {"title": "Hessen stellt bei Verkehrz\u00e4hlung auf K\u00fcnstliche Intelligenz um", "url": "https://www.tagesschau.de/inland/regional/hessen/hr-hessen-stellt-bei-verkehrzaehlung-auf-kuenstliche-intelligenz-um-100.html", "thumbnailUrl": "https://images.tagesschau.de/image/83f36f9f-5ca9-4839-b8a8-435934af85e1/AAABjq2otW4/AAABjcWesUg/16x9-512.jpg", "date": "2024-04-05T11:47:43.483+02:00", "lat": 50.585, "lon": 9.692, "intensity": 0.6, "source": "Tagesschau"}, {"title": "Zu fr\u00fch plakatiert: Erfurter OB Bausewein verst\u00f6\u00dft gegen Wahlkampf-Regeln", "url": "https://www.tagesschau.de/inland/regional/thueringen/mdr-zu-frueh-plakatiert-erfurter-ob-bausewein-verstoesst-gegen-wahlkampf-regeln-100.html", "thumbnailUrl": "https://images.tagesschau.de/image/107ea0e7-4222-45f6-94c7-2997cafe1546/AAABjqvBhRs/AAABjcWesUg/16x9-512.jpg", "date": "2024-04-05T11:47:25.000+02:00", "lat": 50.9787, "lon": 11.0328, "intensity": 0.6, "source": "Tagesschau"}, {"title": "A7-Sperrungen in Hamburg am Wochenende: Elbtunnel betroffen", "url": "https://www.tagesschau.de/inland/regional/hamburg/ndr-a7-in-hamburg-vollsperrung-des-elbtunnels-am-wochenende-100.html", "thumbnailUrl": "https://images.tagesschau.de/image/da172dbc-31d7-48ae-b1dd-aa2899a7f638/AAABjq2fpHs/AAABjcWesUg/16x9-512.jpg", "date": "2024-04-05T11:46:00.000+02:00", "lat": 53.5511, "lon": 9.9526, "intensity": 0.7, "source": "Tagesschau"}, {"title": "Plant die AfD ein Schulungszentrum bei F\u00fcrth? Gegner alarmiert", "url": "https://www.tagesschau.de/inland/regional/bayern/br-plant-die-afd-ein-schulungszentrum-bei-fuerth-gegner-alarmiert-102.html", "thumbnailUrl": "https://images.tagesschau.de/image/f5a5753c-cb0a-401e-872f-e729092d1849/AAABjq2fk9Y/AAABjcWesUg/16x9-512.jpg", "date": "2024-04-05T11:37:29.155+02:00", "lat": 49.4774, "lon": 10.9935, "intensity": 0.6, "source": "Tagesschau"}, {"title": "+ UN-Menschenrechtsrat fordert Stopp von Waffenverk\u00e4ufen +", "url": "https://www.tagesschau.de/newsticker/liveblog-nahost-freitag-124.html", "thumbnailUrl": "https://images.tagesschau.de/image/8ec79526-c300-43dc-9dfe-31c816ae864f/AAABi7Q2vSw/AAABjcWesUg/16x9-512.jpg", "date": "2024-04-05T11:36:49.888+02:00", "lat": 30.0444, "lon": 31.2357, "intensity": 0.8, "source": "Tagesschau"}, {"title": "Wie eine Seniorenresidenz gegen Lebensmittelverschwendung k\u00e4mpft", "url": "https://www.tagesschau.de/inland/regional/bayern/br-wie-eine-seniorenresidenz-gegen-lebensmittelverschwendung-kaempft-100.html", "thumbnailUrl": "https://images.tagesschau.de/image/d339b931-9b7b-43a3-8a12-8a3516bd1b8d/AAABjq2dzY8/AAABjcWesUg/16x9-512.jpg", "date": "2024-04-05T11:35:47.515+02:00", "lat": 51.1657, "lon": 10.4515, "intensity": 0.6, "source": "Tagesschau"}, {"title": "Feuer in Asylbewerberunterkunft in Forchtenberg gel\u00f6scht", "url": "https://www.tagesschau.de/inland/regional/badenwuerttemberg/swr-feuer-in-asylbewerberunterkunft-in-forchtenberg-ausgebrochen-102.html", "thumbnailUrl": "https://images.tagesschau.de/image/44bf779d-e1ba-49c0-9a97-e62928f54139/AAABjq2dfv8/AAABjcWesUg/16x9-512.jpg", "date": "2024-04-05T11:31:00.000+02:00", "lat": 49.2925, "lon": 9.5188, "intensity": 0.8, "source": "Tagesschau"}, {"title": "Berlin-Tiergarten: Stra\u00dfensperrungen durch Berliner Halbmarathon", "url": "https://www.tagesschau.de/inland/regional/berlin/rbb-berlin-tiergarten-alle-strassensperrungen-durch-berliner-halbmarathon-100.html", "thumbnailUrl": "https://images.tagesschau.de/image/01571134-07b8-4cd1-bd93-8048faa04385/AAABjqzSnPQ/AAABjcWesUg/16x9-512.jpg", "date": "2024-04-05T11:28:46.000+02:00", "lat": 52.5145, "lon": 13.3655, "intensity": 0.7, "source": "Tagesschau"}, {"title": "\"Weniger, daf\u00fcr bewusster\"", "url": "https://www.tagesschau.de/inland/gesellschaft/sinkender-fleischkonsum-deutschland-100.html", "thumbnailUrl": "https://images.tagesschau.de/image/7a414591-816c-4eb2-8c03-f31bb099804a/AAABjqj6byY/AAABjcWesUg/16x9-512.jpg", "date": "2024-04-05T11:18:24.365+02:00", "lat": 51.1657, "lon": 10.4515, "intensity": 0.7, "source": "Tagesschau"}, {"title": "Tornado-Verdacht in Korschenbroich - 20 H\u00e4user besch\u00e4digt", "url": "https://www.tagesschau.de/inland/regional/nordrheinwestfalen/wdr-tornado-verdacht-in-korschenbroich-20-haeuser-beschaedigt-100.html", "thumbnailUrl": "https://images.tagesschau.de/image/c1646936-f82d-4f46-afcf-93197a66bf5f/AAABjq2odG8/AAABjcWesUg/16x9-512.jpg", "date": "2024-04-05T11:16:00.000+02:00", "lat": 51.1996, "lon": 6.5264, "intensity": 0.8, "source": "Tagesschau"}, {"title": "Berlin-K\u00f6penick: Polizei stellt Chemikalien in Bohnsdorf sicher", "url": "https://www.tagesschau.de/inland/regional/berlin/rbb-berlin-koepenick-polizei-stellt-chemikalien-in-bohnsdorf-sicher-100.html", "thumbnailUrl": "https://images.tagesschau.de/image/390e07ad-ceed-49eb-9f70-f1a49acd9f08/AAABjq2JsNs/AAABjcWesUg/16x9-512.jpg", "date": "2024-04-05T11:11:27.000+02:00", "lat": 52.409, "lon": 13.606, "intensity": 0.6, "source": "Tagesschau"}, {"title": "\"Schwammdach\" aus Oberfranken st\u00f6\u00dft weltweit auf Interesse", "url": "https://www.tagesschau.de/inland/regional/bayern/br-schwammdach-aus-oberfranken-stoesst-weltweit-auf-interesse-102.html", "thumbnailUrl": "https://images.tagesschau.de/image/81c2bfe4-9bc9-4e8e-9eb8-4c5f8f1eb695/AAABjq2F-0U/AAABjcWesUg/16x9-512.jpg", "date": "2024-04-05T11:09:06.581+02:00", "lat": 50.2179, "lon": 11.7627, "intensity": 0.7, "source": "Tagesschau"}, {"title": "T\u00f6dliche Sch\u00fcsse in Nienburg: Zweifel an Angaben der Polizei", "url": "https://www.tagesschau.de/inland/regional/niedersachsen/ndr-toedliche-polizeischuesse-in-nienburg-staatsanwaltschaft-aeussert-sich-100.html", "thumbnailUrl": "https://images.tagesschau.de/image/d77a60ef-5556-4f32-830a-fbef2d1de585/AAABjq2EVI8/AAABjcWesUg/16x9-512.jpg", "date": "2024-04-05T11:07:00.000+02:00", "lat": 52.633, "lon": 9.157, "intensity": 0.7, "source": "Tagesschau"}, {"title": "Sommerwetter am Wochenende: Bis zu 30 Grad in BW m\u00f6glich", "url": "https://www.tagesschau.de/inland/regional/badenwuerttemberg/swr-sommerwetter-am-wochenende-bis-zu-30-grad-in-bw-moeglich-100.html", "thumbnailUrl": "https://images.tagesschau.de/image/b1916522-2aa3-4025-b901-5abc89659a35/AAABjq2LR0E/AAABjcWesUg/16x9-512.jpg", "date": "2024-04-05T11:06:00.000+02:00", "lat": 48.771508, "lon": 9.005963, "intensity": 0.8, "source": "Tagesschau"}, {"title": "Streik am Flughafen Frankfurt? Entscheidende Gespr\u00e4che bei Lufthansa und Sicherheitspersonal", "url": "https://www.tagesschau.de/inland/regional/hessen/hr-streik-am-flughafen-frankfurt-tarifgespraeche-bei-lufthansa-kabinenpersonal-gehen-weiter-100.html", "thumbnailUrl": "https://images.tagesschau.de/image/3285bada-d10a-4c42-8495-bc4c9b0da26e/AAABjq2CL-c/AAABjcWesUg/16x9-512.jpg", "date": "2024-04-05T11:05:06.276+02:00", "lat": 50.033056, "lon": 8.570833, "intensity": 0.7, "source": "Tagesschau"}, {"title": "++ Kiew meldet Zerst\u00f6rung von russischen Flugzeugen ++", "url": "https://www.tagesschau.de/newsticker/liveblog-ukraine-freitag-374.html", "thumbnailUrl": "https://images.tagesschau.de/image/5b073b67-29bf-4703-b6b1-71469e4c25bb/AAABizMn-kk/AAABjcWesUg/16x9-512.jpg", "date": "2024-04-05T11:05:01.732+02:00", "lat": 47.235713, "lon": 39.701505, "intensity": 0.8, "source": "Tagesschau"}, {"title": "Weniger Stimmung? Toppm\u00f6ller appelliert an Fans von Eintracht Frankfurt", "url": "https://www.tagesschau.de/inland/regional/hessen/hr-weniger-stimmung-toppmoeller-appelliert-an-fans-von-eintracht-frankfurt-102.html", "thumbnailUrl": "https://images.tagesschau.de/image/7f8897a9-df3a-4e5c-8fd1-fb84786d5190/AAABjq2Ud5s/AAABjcWesUg/16x9-512.jpg", "date": "2024-04-05T11:01:09.697+02:00", "lat": 50.1109, "lon": 8.6626, "intensity": 0.6, "source": "Tagesschau"}, {"title": "Ulm: Zwei Schwerverletzte nach Unfall mit Stra\u00dfenbahn in B\u00f6fingen", "url": "https://www.tagesschau.de/inland/regional/badenwuerttemberg/swr-ulm-zwei-schwerverletzte-nach-unfall-mit-strassenbahn-in-boefingen-100.html", "thumbnailUrl": "https://images.tagesschau.de/image/6dcac3d2-c8ad-4021-b537-3af55dbb784a/AAABjq2dkYs/AAABjcWesUg/16x9-512.jpg", "date": "2024-04-05T11:01:00.000+02:00", "lat": 48.3984, "lon": 9.9707, "intensity": 0.8, "source": "Tagesschau"}, {"title": "Erste personelle Konsequenzen nach Korruptionsvorw\u00fcrfen in Namborn? ", "url": "https://www.tagesschau.de/inland/regional/saarland/sr-erste-personelle-konsequenzen-nach-korruptionsvorwuerfen-in-namborn-100.html", "thumbnailUrl": "https://images.tagesschau.de/image/b6f06b13-85fc-47a4-80f2-80b580929819/AAABjq2D1MQ/AAABjcWesUg/16x9-512.jpg", "date": "2024-04-05T11:00:00.000+02:00", "lat": 49.5139, "lon": 7.0394, "intensity": 0.8, "source": "Tagesschau"}, {"title": "B\u00fcrgerinitiative k\u00e4mpft f\u00fcr mehr \u00c4rzte im Adenauer Land", "url": "https://www.tagesschau.de/inland/regional/rheinlandpfalz/swr-buergerinitiative-kaempft-fuer-mehr-aerzte-im-adenauer-land-100.html", "thumbnailUrl": "https://images.tagesschau.de/image/004271b7-8523-4019-a6c7-21308f7cbdaf/AAABjq2D9vo/AAABjcWesUg/16x9-512.jpg", "date": "2024-04-05T10:47:50.000+02:00", "lat": 50.5445, "lon": 7.1532, "intensity": 0.8, "source": "Tagesschau"}, {"title": "Wilhelmshaven: Versorger \"Bonn\" aus NATO-Einsatz zur\u00fcckgekehrt", "url": "https://www.tagesschau.de/inland/regional/niedersachsen/ndr-wilhelmshaven-versorger-bonn-kehrt-aus-nordatlantik-zurueck-100.html", "thumbnailUrl": "https://images.tagesschau.de/image/3ea7b207-020d-4a2e-a54e-776fd1f7468a/AAABjq1-u0A/AAABjcWesUg/16x9-512.jpg", "date": "2024-04-05T10:47:00.000+02:00", "lat": 53.5185, "lon": 8.1486, "intensity": 0.8, "source": "Tagesschau"}, {"title": "Klimaschutz und Weidehaltung vereinbaren: Ein Versuch", "url": "https://www.tagesschau.de/inland/regional/niedersachsen/ndr-klimaschutz-und-weidehaltung-vereinbaren-ein-versuch-100.html", "thumbnailUrl": "https://images.tagesschau.de/image/027d53df-bf6b-4c4b-bb62-24ea7cbcac62/AAABjqyLRKU/AAABjcWesUg/16x9-512.jpg", "date": "2024-04-05T10:38:00.000+02:00", "lat": 53.3007, "lon": 8.4596, "intensity": 0.7, "source": "Tagesschau"}, {"title": "Mutma\u00dfliche T\u00f6tung im Dortmunder Hafen", "url": "https://www.tagesschau.de/inland/regional/nordrheinwestfalen/wdr-mutmassliche-toetung-im-dortmunder-hafen-100.html", "thumbnailUrl": "https://images.tagesschau.de/image/2e979a1e-d4ba-4eda-a46d-2169c7e6d911/AAABjq2B-4Y/AAABjcWesUg/16x9-512.jpg", "date": "2024-04-05T10:35:00.000+02:00", "lat": 51.5092, "lon": 7.4689, "intensity": 0.8, "source": "Tagesschau"}, {"title": "Rekordverd\u00e4chtig: Fr\u00fche Obstbaum-Bl\u00fcte im Alten Land", "url": "https://www.tagesschau.de/inland/regional/niedersachsen/ndr-rekordverdaechtig-fruehe-obstbaum-bluete-im-alten-land-100.html", "thumbnailUrl": "https://images.tagesschau.de/image/b3a8aea3-0724-4660-a2b0-2dbc7db9bfbc/AAABjqzZ9Ek/AAABjcWesUg/16x9-512.jpg", "date": "2024-04-05T10:35:00.000+02:00", "lat": 53.529, "lon": 9.643, "intensity": 0.7, "source": "Tagesschau"}, {"title": "Hamburger Verfassungsschutz warnt vor Propaganda von Islamisten", "url": "https://www.tagesschau.de/inland/regional/hamburg/ndr-hamburger-verfassungsschutz-warnt-vor-propaganda-von-islamisten-100.html", "thumbnailUrl": "https://images.tagesschau.de/image/0c02729d-020f-41a9-80a5-30aaeda9769c/AAABjqzFuVk/AAABjcWesUg/16x9-512.jpg", "date": "2024-04-05T10:33:00.000+02:00", "lat": 53.5511, "lon": 9.9937, "intensity": 0.8, "source": "Tagesschau"}, {"title": "Verkehrschaos durch Extremregen in Sydney", "url": "https://www.tagesschau.de/ausland/ozeanien/sydney-regen-102.html", "thumbnailUrl": "https://images.tagesschau.de/image/7302ecaa-e859-4868-a757-f79330d05492/AAABjq1Dk7I/AAABjcWesUg/16x9-512.jpg", "date": "2024-04-05T10:32:51.460+02:00", "lat": -33.8688, "lon": 151.2093, "intensity": 0.8, "source": "Tagesschau"}, {"title": "Kaufhaus Galeries Lafayette in der Friedrichstra\u00dfe schlie\u00dft bereits Ende Juli", "url": "https://www.tagesschau.de/inland/regional/berlin/rbb-kaufhaus-galeries-lafayette-schliesst-bereits-ende-juli-filiale-in-der-berliner-friedrichstrasse-100.html", "thumbnailUrl": "https://images.tagesschau.de/image/c29f79ca-5aba-4d87-803c-815c8312e182/AAABjq1YRQg/AAABjcWesUg/16x9-512.jpg", "date": "2024-04-05T10:21:50.000+02:00", "lat": 52.51627, "lon": 13.38722, "intensity": 0.8, "source": "Tagesschau"}, {"title": "Fliegerhorst: Korruption in Oldenburger Stadtverwaltung?", "url": "https://www.tagesschau.de/inland/regional/niedersachsen/ndr-fliegerhorst-korruption-in-oldenburger-stadtverwaltung-100.html", "thumbnailUrl": "https://images.tagesschau.de/image/de41e6be-1775-4cc0-9cc7-0b376377eb10/AAABjq1b_Ac/AAABjcWesUg/16x9-512.jpg", "date": "2024-04-05T10:21:00.000+02:00", "lat": 53.1435, "lon": 8.2107, "intensity": 0.8, "source": "Tagesschau"}, {"title": "Liam Gallagher und John Squire in der Columbiahalle: Eine Stunde professionelle Nostalgie ", "url": "https://www.tagesschau.de/inland/regional/berlin/rbb-liam-gallagher-und-john-squire-in-der-columbiahalle-eine-stunde-professionelle-nostalgie-100.html", "thumbnailUrl": "https://images.tagesschau.de/image/db01fcfc-bc68-4a82-89cf-8725d33e4770/AAABjq1b578/AAABjcWesUg/16x9-512.jpg", "date": "2024-04-05T10:20:51.000+02:00", "lat": 52.4966, "lon": 13.3913, "intensity": 0.6, "source": "Tagesschau"}, {"title": "30 Jahre Haft f\u00fcr Terror-Helfer vom Stra\u00dfburger Weihnachtsmarkt", "url": "https://www.tagesschau.de/inland/regional/saarland/sr-30-jahre-haft-fuer-terror-helfer-vom-strassburger-weihnachtsmarkt-100.html", "thumbnailUrl": "https://images.tagesschau.de/image/caa5e62c-9294-45c0-bb68-9ddc1209bdd2/AAABjq1ktLo/AAABjcWesUg/16x9-512.jpg", "date": "2024-04-05T10:20:00.000+02:00", "lat": 49.0259, "lon": 7.401, "intensity": 0.8, "source": "Tagesschau"}, {"title": "Neue Rader Hochbr\u00fccke: Auf der Gro\u00dfbaustelle geht es voran", "url": "https://www.tagesschau.de/inland/regional/schleswigholstein/ndr-neue-rader-hochbruecke-auf-der-grossbaustelle-geht-es-voran-100.html", "thumbnailUrl": "https://images.tagesschau.de/image/97a758cd-32f1-4940-880d-d853708dbb20/AAABjq2nCWQ/AAABjcWesUg/16x9-512.jpg", "date": "2024-04-05T10:10:00.000+02:00", "lat": 54.322, "lon": 9.836, "intensity": 0.5, "source": "Tagesschau"}, {"title": "Dabel: Gemeindevertreter lehnen geplante Fl\u00fcchtlingsunterkunft ab", "url": "https://www.tagesschau.de/inland/regional/mecklenburgvorpommern/ndr-dabel-gemeindevertreter-lehnen-geplante-fluechtlingsunterkunft-ab-100.html", "thumbnailUrl": "https://images.tagesschau.de/image/60f0cfd5-070a-470a-9c6c-3eda23d51ed9/AAABjq2UVIU/AAABjcWesUg/16x9-512.jpg", "date": "2024-04-05T10:09:00.000+02:00", "lat": 53.4955, "lon": 13.4262, "intensity": 0.7, "source": "Tagesschau"}, {"title": "Frankfurt hat so viele Einwohner wie noch nie", "url": "https://www.tagesschau.de/inland/regional/hessen/hr-frankfurt-hat-so-viele-einwohner-wie-noch-nie-100.html", "thumbnailUrl": "https://images.tagesschau.de/image/b2887721-81e3-4132-a07a-41108539fea4/AAABjq1Jgz8/AAABjcWesUg/16x9-512.jpg", "date": "2024-04-05T10:03:51.621+02:00", "lat": 50.1109, "lon": 8.6821, "intensity": 0.8, "source": "Tagesschau"}, {"title": "Sommerliche Temperaturen von bis zu 27 Grad am Wochenende vorhergesagt", "url": "https://www.tagesschau.de/inland/regional/brandenburg/rbb-sommerliche-temperaturen-von-bis-zu-27-grad-am-wochenende-vorhergesagt-100.html", "thumbnailUrl": "https://images.tagesschau.de/image/3a952e6d-a75e-4aed-821f-60ed8ec936ec/AAABjq1LPLQ/AAABjcWesUg/16x9-512.jpg", "date": "2024-04-05T10:03:12.000+02:00", "lat": 52.520008, "lon": 13.404954, "intensity": 0.6, "source": "Tagesschau"}, {"title": "Mutma\u00dflicher Messer-Angreifer von Wangen in U-Haft, Neue Regeln f\u00fcr Motorradfahrer im Schwarzwald", "url": "https://www.tagesschau.de/inland/regional/badenwuerttemberg/swr-bw-newsticker-am-morgen-ermittlungen-nach-messerangriff-auf-vierjaehrige-bw-landwirtschaftsminister-will-problemwoelfe-schneller-abschiessen-lassen-100.html", "thumbnailUrl": "https://images.tagesschau.de/image/ab29b9d5-dce4-4dab-b01f-7787eef79575/AAABjq0oS0U/AAABjcWesUg/16x9-512.jpg", "date": "2024-04-05T10:03:00.000+02:00", "lat": 49.2976, "lon": 9.4948, "intensity": 0.8, "source": "Tagesschau"}, {"title": "Hessen am Morgen: +++ Vater schl\u00e4gt Kind beim Fu\u00dfballspielen +++ Frankfurt: So viele Einwohner wie noch nie +++ Meterhohe Nirvana-Skulptur auf Kreisel in Hanau +++", "url": "https://www.tagesschau.de/inland/regional/hessen/hr-hessen-am-morgen--vater-schlaegt-kind-beim-fussballspielen--polizei-warnt-motorradfahrer-zum-saisonstart-100.html", "thumbnailUrl": "https://images.tagesschau.de/image/b16b3028-681c-4e78-9585-1e544b98194b/AAABjq1jGqE/AAABjcWesUg/16x9-512.jpg", "date": "2024-04-05T10:02:01.887+02:00", "lat": 50.110922, "lon": 8.682127, "intensity": 0.7, "source": "Tagesschau"}, {"title": "Problem mit Bremsen bei Boeing-Maschine", "url": "https://www.tagesschau.de/wirtschaft/unternehmen/boeing-panne-kosten-spirit-100.html", "thumbnailUrl": "https://images.tagesschau.de/image/d650f0d2-1f8b-4c76-a489-700fe0f7bd0d/AAABjq2cUYo/AAABjcWesUg/16x9-512.jpg", "date": "2024-04-05T10:01:55.197+02:00", "lat": 47.6417, "lon": -122.3095, "intensity": 0.8, "source": "Tagesschau"}, {"title": "Fed-Banker schockt Anleger", "url": "https://www.tagesschau.de/wirtschaft/finanzen/marktberichte/marktbericht-dax-kursrutsch-gold-oel-aktien-dow-kurssturz-boerse-100.html", "thumbnailUrl": "https://images.tagesschau.de/image/d7667e73-1a00-424e-8648-eda7c9564865/AAABhnP_QqE/AAABjcWesUg/16x9-512.jpg", "date": "2024-04-05T09:51:56.933+02:00", "lat": 51.9607, "lon": 7.5986, "intensity": 0.8, "source": "Tagesschau"}, {"title": "Bodycams f\u00fcr Zugbegleiter: S-Bahn Hannover testet Einsatz", "url": "https://www.tagesschau.de/inland/regional/niedersachsen/ndr-bodycams-fuer-zugbegleiter-s-bahn-hannover-testet-einsatz-100.html", "thumbnailUrl": "https://images.tagesschau.de/image/a9417adb-015a-4997-bcd6-331c66b25fc6/AAABjq1CVEk/AAABjcWesUg/16x9-512.jpg", "date": "2024-04-05T09:51:00.000+02:00", "lat": 52.3759, "lon": 9.7332, "intensity": 0.7, "source": "Tagesschau"}, {"title": "Einsatz in Berliner Rhinstra\u00dfe: M\u00e4nner werfen in Lichtenberg Fahrrad und Fernseher aus achtem Stock", "url": "https://www.tagesschau.de/inland/regional/berlin/rbb-einsatz-in-berliner-rhinstrasse-maenner-werfen-in-lichtenberg-fahrrad-und-fernseher-aus-achtem-stock-100.html", "thumbnailUrl": "https://images.tagesschau.de/image/f768b076-8766-4053-bb69-46e26052020c/AAABjq0-jvk/AAABjcWesUg/16x9-512.jpg", "date": "2024-04-05T09:50:56.000+02:00", "lat": 52.4957, "lon": 13.5004, "intensity": 0.8, "source": "Tagesschau"}, {"title": "Handball-Bundesliga: F\u00fcchse Berlin nach Sieg in G\u00f6ppingen weiter Tabellenf\u00fchrer", "url": "https://www.tagesschau.de/inland/regional/berlin/rbb-handball-bundesliga-fuechse-berlin-nach-sieg-in-goeppingen-weiter-tabellenfuehrer-102.html", "thumbnailUrl": "https://images.tagesschau.de/image/c6478a91-f519-4009-a7b9-dd711ad3e2ac/AAABjqp5_O4/AAABjcWesUg/16x9-512.jpg", "date": "2024-04-05T09:38:02.000+02:00", "lat": 48.702, "lon": 9.6576, "intensity": 0.7, "source": "Tagesschau"}, {"title": "Mehrere Gro\u00dfprojekte: Was die Hamburger Hochbahn plant", "url": "https://www.tagesschau.de/inland/regional/hamburg/ndr-mehrere-grossprojekte-was-die-hamburger-hochbahn-plant-100.html", "thumbnailUrl": "https://images.tagesschau.de/image/4c9f56d9-3091-449c-8c73-bdd298a9f44f/AAABjq0v8jA/AAABjcWesUg/16x9-512.jpg", "date": "2024-04-05T09:29:00.000+02:00", "lat": 53.551086, "lon": 9.993682, "intensity": 0.8, "source": "Tagesschau"}, {"title": "Landesgartenschau Bad Gandersheim: Gesellschaft ist insolvent", "url": "https://www.tagesschau.de/inland/regional/niedersachsen/ndr-landesgartenschau-bad-gandersheim-gesellschaft-insolvent-100.html", "thumbnailUrl": "https://images.tagesschau.de/image/1a555128-5291-43c5-aa39-7dc8f0db2fc5/AAABjq0oyRY/AAABjcWesUg/16x9-512.jpg", "date": "2024-04-05T09:27:00.000+02:00", "lat": 51.8667, "lon": 10.0333, "intensity": 0.7, "source": "Tagesschau"}, {"title": "Geliebt, gew\u00e4hlt, gescholten - Altkanzler Gerhard Schr\u00f6der wird 80", "url": "https://www.tagesschau.de/inland/regional/niedersachsen/ndr-geliebt-100.html", "thumbnailUrl": "https://images.tagesschau.de/image/2d7b47bd-d2e4-4845-9820-be6836057270/AAABjq07Crc/AAABjcWesUg/16x9-512.jpg", "date": "2024-04-05T09:24:00.000+02:00", "lat": 52.3759, "lon": 9.7416, "intensity": 0.7, "source": "Tagesschau"}, {"title": "Meppen: Seniorin liegt wochenlang tot in ihrer Wohnung", "url": "https://www.tagesschau.de/inland/regional/niedersachsen/ndr-meppen-seniorin-liegt-wochenlang-tot-in-ihrer-wohnung-100.html", "thumbnailUrl": "https://images.tagesschau.de/image/97c72692-65b2-4228-816e-b2f9d56a4a57/AAABjq0m6RQ/AAABjcWesUg/16x9-512.jpg", "date": "2024-04-05T09:24:00.000+02:00", "lat": 52.6932, "lon": 7.2894, "intensity": 0.8, "source": "Tagesschau"}, {"title": "Vorfreude in Heidenheim: Wenn der gro\u00dfe FC Bayern auf die Ostalb reist", "url": "https://www.tagesschau.de/inland/regional/badenwuerttemberg/swr-vorfreude-in-heidenheim-wenn-der-grosse-fc-bayern-auf-die-ostalb-reist-100.html", "thumbnailUrl": "https://images.tagesschau.de/image/d2c78376-d771-4424-b1db-79f0c487dc76/AAABjqxtzCk/AAABjcWesUg/16x9-512.jpg", "date": "2024-04-05T09:16:00.000+02:00", "lat": 48.6766, "lon": 10.1521, "intensity": 0.8, "source": "Tagesschau"}, {"title": "Biden versch\u00e4rft Ton gegen\u00fcber Israel", "url": "https://www.tagesschau.de/ausland/amerika/biden-unter-druck-100.html", "thumbnailUrl": "https://images.tagesschau.de/image/e409908f-9e00-43fc-9c8c-d0ceb245cba8/AAABjq1qx6E/AAABjcWesUg/16x9-512.jpg", "date": "2024-04-05T09:15:23.590+02:00", "lat": 31.7683, "lon": 35.2137, "intensity": 0.7, "source": "Tagesschau"}, {"title": "B\u00fcrgerinitiative erwartet Verkehrschaos in Saarlouis-Fraulautern", "url": "https://www.tagesschau.de/inland/regional/saarland/sr-buergerinitiative-erwartet-verkehrschaos-in-saarlouis-fraulautern-100.html", "thumbnailUrl": "https://images.tagesschau.de/image/77f4cd99-bef0-4d0d-88f1-f81171f32dd7/AAABjq0Zohc/AAABjcWesUg/16x9-512.jpg", "date": "2024-04-05T09:09:00.000+02:00", "lat": 49.316, "lon": 6.801, "intensity": 0.8, "source": "Tagesschau"}, {"title": "52-J\u00e4hrige in Irish Pub mit Messer lebensgef\u00e4hrlich verletzt", "url": "https://www.tagesschau.de/inland/regional/niedersachsen/ndr-53-jaehrige-mit-messer-lebensgefaehrlich-verletzt-100.html", "thumbnailUrl": "https://images.tagesschau.de/image/092a9ed7-a606-4d26-9c37-ff72b02086ae/AAABjq0YRA4/AAABjcWesUg/16x9-512.jpg", "date": "2024-04-05T09:07:00.000+02:00", "lat": 52.9548, "lon": 9.4113, "intensity": 0.8, "source": "Tagesschau"}, {"title": "\"Lebenswelten Wesermarsch\" zeigt Geschichten von Zugewanderten", "url": "https://www.tagesschau.de/inland/regional/niedersachsen/ndr-lebenswelten-wesermarsch-zeigt-geschichten-von-zugewanderten-100.html", "thumbnailUrl": "https://images.tagesschau.de/image/ee8a1ada-3e36-4134-8401-28a98b2b10b1/AAABjq0Q6-k/AAABjcWesUg/16x9-512.jpg", "date": "2024-04-05T08:56:00.000+02:00", "lat": 53.2023, "lon": 8.3913, "intensity": 0.5, "source": "Tagesschau"}, {"title": "Nach Schlie\u00dfung von Notfallpraxen: Mehr Patienten wegen Bagatellen in der Notaufnahme", "url": "https://www.tagesschau.de/inland/regional/badenwuerttemberg/swr-nach-schliessung-von-notfallpraxen-mehr-patienten-wegen-bagatellen-in-der-notaufnahme-100.html", "thumbnailUrl": "https://images.tagesschau.de/image/d2a1b224-a2ba-4b96-acc2-e59375506068/AAABjq0HbnA/AAABjcWesUg/16x9-512.jpg", "date": "2024-04-05T08:38:00.000+02:00", "lat": 48.6616, "lon": 9.7356, "intensity": 0.7, "source": "Tagesschau"}, {"title": "Hansa Rostock gegen Wehen Wiesbaden: Wer entfacht den Sturm?", "url": "https://www.tagesschau.de/inland/regional/mecklenburgvorpommern/ndr-hansa-rostock-gegen-wehen-wiesbaden-wer-entfacht-den-sturm-102.html", "thumbnailUrl": "https://images.tagesschau.de/image/9cbcfcce-324c-4039-b4bc-a8c0e5fc271d/AAABjqlsn7g/AAABjcWesUg/16x9-512.jpg", "date": "2024-04-05T08:34:00.000+02:00", "lat": 54.0834, "lon": 12.1141, "intensity": 0.7, "source": "Tagesschau"}, {"title": "Weniger Motorradl\u00e4rm im Schwarzwald? Zwei Gemeinden setzen auf neue Regeln", "url": "https://www.tagesschau.de/inland/regional/badenwuerttemberg/swr-weniger-motorradlaerm-im-schwarzwald-zwei-gemeinden-setzen-auf-neue-regeln-100.html", "thumbnailUrl": "https://images.tagesschau.de/image/affad5a3-8343-4fee-9400-4d88fcc910c1/AAABjqz4yGI/AAABjcWesUg/16x9-512.jpg", "date": "2024-04-05T08:30:00.000+02:00", "lat": 48.3953, "lon": 8.2319, "intensity": 0.6, "source": "Tagesschau"}, {"title": "Luxemburg-Pendler m\u00fcssen \u00dcberstunden nun doch in Deutschland versteuern", "url": "https://www.tagesschau.de/inland/regional/saarland/sr-luxemburg-pendler-muessen-ueberstunden-nun-doch-doppelt-versteuern-100.html", "thumbnailUrl": "https://images.tagesschau.de/image/681b7f70-511d-4338-80c0-ab3d6c8c8a06/AAABjqzxWIY/AAABjcWesUg/16x9-512.jpg", "date": "2024-04-05T08:25:00.000+02:00", "lat": 49.2323, "lon": 6.9969, "intensity": 0.7, "source": "Tagesschau"}, {"title": "\"Reichsb\u00fcrger\" besa\u00dfen illegale Waffen", "url": "https://www.tagesschau.de/inland/reichsbuerger-razzia-illegale-schusswaffen-101.html", "thumbnailUrl": "https://images.tagesschau.de/image/b6fcfbea-0a87-4dc9-933d-495af4962409/AAABhnSJB10/AAABjcWesUg/16x9-512.jpg", "date": "2024-04-05T08:17:52.520+02:00", "lat": 51.4, "lon": 9.9937, "intensity": 0.8, "source": "Tagesschau"}, {"title": "Nach Messerangriff in Wangen im Allg\u00e4u: 34-J\u00e4hriger wegen versuchten Mordes in U-Haft", "url": "https://www.tagesschau.de/inland/regional/badenwuerttemberg/swr-wangen-im-allgaeu-mann-verletzt-kind-in-supermarkt-mit-messer-100.html", "thumbnailUrl": "https://images.tagesschau.de/image/865b49dc-7e9a-4093-bcc0-9b538df4791e/AAABjqzmgMs/AAABjcWesUg/16x9-512.jpg", "date": "2024-04-05T08:03:00.000+02:00", "lat": 47.6866, "lon": 9.8373, "intensity": 0.8, "source": "Tagesschau"}, {"title": "Feuer in Klein Bennebek: Ein Toter und drei Verletzte", "url": "https://www.tagesschau.de/inland/regional/schleswigholstein/ndr-feuer-in-klein-bennebek-ein-toter-und-drei-verletzte-100.html", "thumbnailUrl": "https://images.tagesschau.de/image/91e2b79b-48aa-4163-9ce6-fd7d4b65eaf9/AAABjq11nmc/AAABjcWesUg/16x9-512.jpg", "date": "2024-04-05T07:53:00.000+02:00", "lat": 54.6586, "lon": 9.4644, "intensity": 0.8, "source": "Tagesschau"}, {"title": "BW-St\u00e4dtetag: Ohne Ticket fahren sollte Straftatbestand bleiben", "url": "https://www.tagesschau.de/inland/regional/badenwuerttemberg/swr-ohne-ticket-bus-und-bahn-fahren-sollte-straftat-bleiben-100.html", "thumbnailUrl": "https://images.tagesschau.de/image/84ac892c-8419-4141-8792-2b9e848b4370/AAABjq0kqaQ/AAABjcWesUg/16x9-512.jpg", "date": "2024-04-05T07:37:58.000+02:00", "lat": 48.6616, "lon": 9.6605, "intensity": 0.5, "source": "Tagesschau"}, {"title": "Darmstadt 98: +++ Mainz-Trainer sieht \"ein Finale\" +++ Lilien haben nichts mehr zu verlieren +++ Skarke \"will unbedingt spielen\" +++", "url": "https://www.tagesschau.de/inland/regional/hessen/hr--tietz-vermisst-fehlende-gier--lilien-fans-liefern-sich-raststaetten-pruegelei--die-niederlage-der-lilien-in-der-video-zusammenfassung-102.html", "thumbnailUrl": "https://images.tagesschau.de/image/712abeb3-31bb-4ac0-b7bd-1b475ff2760c/AAABjqk-5Qg/AAABjcWesUg/16x9-512.jpg", "date": "2024-04-05T07:36:47.257+02:00", "lat": 49.8717, "lon": 8.65, "intensity": 0.5, "source": "Tagesschau"}, {"title": "Neues Buch: Was Nirvana-S\u00e4nger Kurt Cobain unsterblich macht ", "url": "https://www.tagesschau.de/inland/regional/hessen/hr-neues-buch-was-nirvana-saenger-kurt-cobain-unsterblich-macht-100.html", "thumbnailUrl": "https://images.tagesschau.de/image/6add6aae-32e4-4205-86c8-b0e8824a1fa6/AAABjq2Hv5c/AAABjcWesUg/16x9-512.jpg", "date": "2024-04-05T07:34:22.757+02:00", "lat": 50.1167, "lon": 8.6833, "intensity": 0.6, "source": "Tagesschau"}, {"title": "Eintracht: +++ Erschreckende Standard-Statistik +++ Bremen Lieblingsgegner von G\u00f6tze +++ Eintracht-Schutzdeckel gegen K.o.-Tropfen +++ ", "url": "https://www.tagesschau.de/inland/regional/hessen/hr--eintracht-wohl-mit-chaibi-einig--glasner-fast-nur-kolo-muani-der-tore-erzielt--bericht-eintracht-sagt-aouar-ab-100.html", "thumbnailUrl": "https://images.tagesschau.de/image/7131e813-89d5-4b7f-ba2a-5d27fd19094c/AAABjq18p48/AAABjcWesUg/16x9-512.jpg", "date": "2024-04-05T07:30:27.663+02:00", "lat": 50.1109, "lon": 8.6821, "intensity": 0.7, "source": "Tagesschau"}, {"title": "Dem Pf\u00e4lzerwald geht es so gut wie lange nicht", "url": "https://www.tagesschau.de/inland/regional/rheinlandpfalz/swr-dem-pfaelzerwald-geht-es-so-gut-wie-lange-nicht-100.html", "thumbnailUrl": "https://images.tagesschau.de/image/e4994e5c-2b28-46f1-88dc-6fc9a196c1ea/AAABjqy4nds/AAABjcWesUg/16x9-512.jpg", "date": "2024-04-05T07:20:24.000+02:00", "lat": 49.2621, "lon": 7.9838, "intensity": 0.5, "source": "Tagesschau"}, {"title": "Das Wichtigste zu Eintracht Frankfurt gegen Werder Bremen", "url": "https://www.tagesschau.de/inland/regional/hessen/hr-das-wichtigste-zu-eintracht-frankfurt-gegen-werder-bremen-102.html", "thumbnailUrl": "https://images.tagesschau.de/image/22d0c061-5ca0-4fa1-9a85-42215f8df2a5/AAABjq0ogQY/AAABjcWesUg/16x9-512.jpg", "date": "2024-04-05T07:06:01.204+02:00", "lat": 50.1109, "lon": 8.7036, "intensity": 0.7, "source": "Tagesschau"}, {"title": "Russischer Gouverneur bei Messerattacke verletzt", "url": "https://www.tagesschau.de/ausland/europa/russischer-gouverneur-messerattacke-102.html", "thumbnailUrl": "https://images.tagesschau.de/image/d4d8bc1a-633c-4934-9fa9-efc27009dd6b/AAABjqyU5IE/AAABjcWesUg/16x9-512.jpg", "date": "2024-04-05T06:52:40.841+02:00", "lat": 55.7512, "lon": 38.0364, "intensity": 0.8, "source": "Tagesschau"}, {"title": "A1: Lkw mit Bierkisten kippt um - Autobahn bei Stuhr wieder frei", "url": "https://www.tagesschau.de/inland/regional/niedersachsen/ndr-a1-lkw-mit-bierkisten-kippt-um-autobahn-bei-stuhr-gesperrt-100.html", "thumbnailUrl": "https://images.tagesschau.de/image/bbd36dfe-1ac8-46c8-897c-b12498bdf800/AAABjqyWLaA/AAABjcWesUg/16x9-512.jpg", "date": "2024-04-05T06:47:00.000+02:00", "lat": 53.0426, "lon": 8.7863, "intensity": 0.8, "source": "Tagesschau"}, {"title": "Auf der Saarbr\u00fccker Metzer Stra\u00dfe drohen ab heute Staus", "url": "https://www.tagesschau.de/inland/regional/saarland/sr-auf-der-saarbruecker-metzer-strasse-drohen-am-wochenende-staus-100.html", "thumbnailUrl": "https://images.tagesschau.de/image/99abfc86-af9a-4c6f-af24-4cada2d3debe/AAABjq1sBWU/AAABjcWesUg/16x9-512.jpg", "date": "2024-04-05T06:43:00.000+02:00", "lat": 49.2401, "lon": 6.9911, "intensity": 0.6, "source": "Tagesschau"}, {"title": "Ausbau von S\u00fcdschnellweg: B3 ab heute Abend l\u00e4nger dicht", "url": "https://www.tagesschau.de/inland/regional/niedersachsen/ndr-ausbau-von-suedschnellweg-b3-in-hannover-heute-abend-gesperrt-100.html", "thumbnailUrl": "https://images.tagesschau.de/image/e5008b51-bcb4-430d-9aea-17af970de027/AAABjqySjmw/AAABjcWesUg/16x9-512.jpg", "date": "2024-04-05T06:34:00.000+02:00", "lat": 52.3759, "lon": 9.7332, "intensity": 0.6, "source": "Tagesschau"}, {"title": "Deutlich mehr E-Lades\u00e4ulen im Saarland als vor einem Jahr", "url": "https://www.tagesschau.de/inland/regional/saarland/sr-deutlich-mehr-e-ladesaeulen-im-saarland-als-vor-einem-jahr-100.html", "thumbnailUrl": "https://images.tagesschau.de/image/8af08229-7ba7-4ce9-b6c4-7a46d085d6c9/AAABjq0Zpmk/AAABjcWesUg/16x9-512.jpg", "date": "2024-04-05T06:32:00.000+02:00", "lat": 49.3964, "lon": 6.9102, "intensity": 0.7, "source": "Tagesschau"}, {"title": "Fu\u00dfball-Bundesliga: Union Berlin muss gegen Tabellenf\u00fchrer Leverkusen \"Au\u00dferirdisches\" leisten", "url": "https://www.tagesschau.de/inland/regional/berlin/rbb-fussball-bundesliga-union-berlin-muss-gegen-tabellenfuehrer-leverkusen-ausserirdisches-leisten-102.html", "thumbnailUrl": "https://images.tagesschau.de/image/1cd665ff-daff-4944-a516-0d5ec6a22a8d/AAABjqyM9CQ/AAABjcWesUg/16x9-512.jpg", "date": "2024-04-05T06:31:06.000+02:00", "lat": 52.4724, "lon": 13.4894, "intensity": 0.8, "source": "Tagesschau"}, {"title": "A8 bei Neunkirchen Richtung Pirmasens bis Montag voll gesperrt", "url": "https://www.tagesschau.de/inland/regional/saarland/sr-a8-bei-neunkirchen-richtung-pirmasens-bis-montag-voll-gesperrt-100.html", "thumbnailUrl": "https://images.tagesschau.de/image/0ccda861-3c7e-43e7-ba5f-61559e6a4a16/AAABjq1sEWQ/AAABjcWesUg/16x9-512.jpg", "date": "2024-04-05T06:31:00.000+02:00", "lat": 49.3436, "lon": 7.1814, "intensity": 0.8, "source": "Tagesschau"}, {"title": "Karlsberg-Mitarbeitende heute zum Streik aufgerufen", "url": "https://www.tagesschau.de/inland/regional/saarland/sr-karlsberg-mitarbeitende-zum-streik-aufgerufen-100.html", "thumbnailUrl": "https://images.tagesschau.de/image/f71ff4fb-6ad6-48c2-b11e-ff8f23ae2970/AAABjqjsSpo/AAABjcWesUg/16x9-512.jpg", "date": "2024-04-05T06:28:00.000+02:00", "lat": 49.3123, "lon": 7.3403, "intensity": 0.8, "source": "Tagesschau"}, {"title": "Poppenb\u00fcttel: Starker Rauch nach Brand in Tiefgarage", "url": "https://www.tagesschau.de/inland/regional/hamburg/ndr-poppenbuettel-starker-rauch-nach-brand-in-tiefgarage-100.html", "thumbnailUrl": "https://images.tagesschau.de/image/e228c4fd-a911-4c0b-bc5a-6d8013af4bf9/AAABjqmh5Cs/AAABjcWesUg/16x9-512.jpg", "date": "2024-04-05T06:23:00.000+02:00", "lat": 53.6467, "lon": 10.0903, "intensity": 0.8, "source": "Tagesschau"}, {"title": "Schwertransport im Emsland: Bahnhof Leschede gesperrt", "url": "https://www.tagesschau.de/inland/regional/niedersachsen/ndr-schwertransport-im-emsland-bahnhof-leschede-gesperrt-100.html", "thumbnailUrl": "https://images.tagesschau.de/image/53600d54-d610-444e-b338-ab5cf1975524/AAABjqyD2eE/AAABjcWesUg/16x9-512.jpg", "date": "2024-04-05T06:18:00.000+02:00", "lat": 52.2811, "lon": 7.3296, "intensity": 0.7, "source": "Tagesschau"}, {"title": "Ph\u00e4nomen der Feenkreise in Namibia entschl\u00fcsselt?", "url": "https://www.tagesschau.de/wissen/forschung/feenkreise-namibia-100.html", "thumbnailUrl": "https://images.tagesschau.de/image/55de1e36-10b6-4d83-865d-38c91f8c4e0f/AAABjqPIZjc/AAABjcWesUg/16x9-512.jpg", "date": "2024-04-05T06:13:25.533+02:00", "lat": -23.4213564, "lon": 15.9783487, "intensity": 0.8, "source": "Tagesschau"}, {"title": "Traditionssport Kegelbillard fehlt der Nachwuchs", "url": "https://www.tagesschau.de/inland/regional/brandenburg/rbb-traditionssport-kegelbillard-fehlt-der-nachwuchs-100.html", "thumbnailUrl": "https://images.tagesschau.de/image/095524f3-50e0-484a-80e5-01e6048bb041/AAABjqx4sdg/AAABjcWesUg/16x9-512.jpg", "date": "2024-04-05T06:09:22.000+02:00", "lat": 52.3007, "lon": 13.1619, "intensity": 0.6, "source": "Tagesschau"}, {"title": "A42: Vollsperrung bei Herne wegen Br\u00fcckenbauarbeiten", "url": "https://www.tagesschau.de/inland/regional/nordrheinwestfalen/wdr-a42-vollsperrung-bei-herne-wegen-brueckenbauarbeiten-102.html", "thumbnailUrl": "https://images.tagesschau.de/image/34e99850-d2ef-4ea0-aac5-3633a79dd91e/AAABjqzdL8I/AAABjcWesUg/16x9-512.jpg", "date": "2024-04-05T06:00:00.000+02:00", "lat": 51.5366, "lon": 7.2286, "intensity": 0.5, "source": "Tagesschau"}, {"title": "Wetter am Wochenende: Temperatursprung auf \u00fcber 20 Grad im Norden", "url": "https://www.tagesschau.de/inland/regional/hamburg/ndr-wetter-am-wochenende-temperatursprung-auf-ueber-20-grad-im-norden-100.html", "thumbnailUrl": "https://images.tagesschau.de/image/b0583702-374e-475f-8e2f-51bf574cf4ce/AAABjq2S1l0/AAABjcWesUg/16x9-512.jpg", "date": "2024-04-05T06:00:00.000+02:00", "lat": 53.5511, "lon": 9.9937, "intensity": 0.8, "source": "Tagesschau"}, {"title": "GEW verurteilt Schwesigs Schoko-Werbeaktion an Schweriner Kitas", "url": "https://www.tagesschau.de/inland/regional/mecklenburgvorpommern/ndr-gew-verurteilt-schwesigs-schoko-werbeaktion-an-schweriner-kitas-100.html", "thumbnailUrl": "https://images.tagesschau.de/image/ccb31d2d-8404-4e91-a40d-e8ca3339e8af/AAABjqxtvA8/AAABjcWesUg/16x9-512.jpg", "date": "2024-04-05T05:25:00.000+02:00", "lat": 53.6297, "lon": 11.4036, "intensity": 0.7, "source": "Tagesschau"}, {"title": "Redderstorf: Vermutlich 19 Schafe von Wolf gerissen", "url": "https://www.tagesschau.de/inland/regional/mecklenburgvorpommern/ndr-redderstorf-vermutlich-19-schafe-von-wolf-gerissen-100.html", "thumbnailUrl": "https://images.tagesschau.de/image/8a993395-e9c0-4c83-9c9d-500378a73246/AAABjq18h80/AAABjcWesUg/16x9-512.jpg", "date": "2024-04-05T05:22:00.000+02:00", "lat": 53.8385, "lon": 11.1769, "intensity": 0.8, "source": "Tagesschau"}, {"title": "Auftrag Naturschutz: Ranger an Schleswig-Holsteins Ostseek\u00fcste", "url": "https://www.tagesschau.de/inland/regional/schleswigholstein/ndr-auftrag-naturschutz-ranger-an-schleswig-holsteins-ostseekueste-100.html", "thumbnailUrl": "https://images.tagesschau.de/image/85c083e5-b511-45cc-b37c-4a2a63fa351e/AAABjqw1GgM/AAABjcWesUg/16x9-512.jpg", "date": "2024-04-05T05:00:00.000+02:00", "lat": 54.4701, "lon": 9.5491, "intensity": 0.5, "source": "Tagesschau"}, {"title": "Ein Zauberwort im Kampf gegen die Inflation", "url": "https://www.tagesschau.de/ausland/europa/inflation-tuerkei-urlaubssaison-100.html", "thumbnailUrl": "https://images.tagesschau.de/image/e6d31ce9-4441-4eb5-8389-b5957820b10d/AAABjquQ59U/AAABjcWesUg/16x9-512.jpg", "date": "2024-04-05T02:08:04.240+02:00", "lat": 38.9637, "lon": 35.2433, "intensity": 0.8, "source": "Tagesschau"}, {"title": "UN-Menschenrechtsrat fordert Stopp von Waffenverk\u00e4ufen an Israel", "url": "https://www.br.de/nachrichten/meldungen/index.html#n1", "thumbnailUrl": null, "date": "2024-04-05T11:40:36+02:00", "lat": 30.0444, "lon": 31.2357, "intensity": 0.8, "source": "Bayrischer Rundfunk"}, {"title": "USA begr\u00fc\u00dfen Erlaubnis f\u00fcr verst\u00e4rkte Hilfslieferungen in den Gazastreifen", "url": "https://www.br.de/nachrichten/meldungen/index.html#n2", "thumbnailUrl": null, "date": "2024-04-05T11:40:36+02:00", "lat": 33.5138, "lon": 36.2021, "intensity": 0.8, "source": "Bayrischer Rundfunk"}, {"title": "Ukraine meldet Zerst\u00f6rung von sechs russischen Flugzeugen", "url": "https://www.br.de/nachrichten/meldungen/index.html#n3", "thumbnailUrl": null, "date": "2024-04-05T11:40:36+02:00", "lat": 39.9334, "lon": 32.8597, "intensity": 0.8, "source": "Bayrischer Rundfunk"}, {"title": "Mehr als 1.000 Rechtsextremisten haben offenbar Waffenerlaubnis", "url": "https://www.br.de/nachrichten/meldungen/index.html#n4", "thumbnailUrl": null, "date": "2024-04-05T11:40:36+02:00", "lat": 52.520008, "lon": 13.404954, "intensity": 0.7, "source": "Bayrischer Rundfunk"}, {"title": "AfD betreibt Gr\u00f6tsch zufolge Radikalisierung von Polizei", "url": "https://www.br.de/nachrichten/meldungen/index.html#n5", "thumbnailUrl": null, "date": "2024-04-05T11:40:36+02:00", "lat": 52.520008, "lon": 13.404954, "intensity": 0.6, "source": "Bayrischer Rundfunk"}, {"title": "Rettungskr\u00e4fte entdecken weitere Tote nach Erdbeben in Taiwan", "url": "https://www.br.de/nachrichten/meldungen/index.html#n6", "thumbnailUrl": null, "date": "2024-04-05T11:40:36+02:00", "lat": 48.135125, "lon": 11.581981, "intensity": 0.6, "source": "Bayrischer Rundfunk"}, {"title": "Schlichtung f\u00fcr Luftsicherheitskr\u00e4fte beginnt", "url": "https://www.br.de/nachrichten/meldungen/index.html#n7", "thumbnailUrl": null, "date": "2024-04-05T11:40:36+02:00", "lat": 50.110922, "lon": 8.682127, "intensity": 0.8, "source": "Bayrischer Rundfunk"}, {"title": "Sturm sorgt f\u00fcr Sch\u00e4den in der Oberpfalz", "url": "https://www.br.de/nachrichten/meldungen/index.html#n8", "thumbnailUrl": null, "date": "2024-04-05T11:40:36+02:00", "lat": 47.8684, "lon": 12.6394, "intensity": 0.8, "source": "Bayrischer Rundfunk"}, {"title": "Experten warnen am Wochenende vor Bergtouren in Bayern", "url": "https://www.br.de/nachrichten/meldungen/index.html#n9", "thumbnailUrl": null, "date": "2024-04-05T11:40:36+02:00", "lat": 48.5844, "lon": 13.6722, "intensity": 0.8, "source": "Bayrischer Rundfunk"}, {"title": "Das Wetter: Viel Sonne, bis 24 Grad", "url": "https://www.br.de/nachrichten/meldungen/index.html#n10", "thumbnailUrl": null, "date": "2024-04-05T11:40:36+02:00", "lat": 53.5396, "lon": 8.5761, "intensity": 0.4, "source": "Bayrischer Rundfunk"}, {"title": "Ex-Unioner Robert Andrich im Interview: \"Union Berlin geh\u00f6rt in die Bundesliga\"", "url": "https://www.rbb24.de/sport/beitrag/2024/04/berlin-sport-fussball-interview-union-berlin-robert-andrich-leverkusen-xabi-alonso-toni-kroos.html", "thumbnailUrl": null, "date": "Fri, 05 Apr 2024 12:01:01 +0200", "lat": 52.5277, "lon": 13.6148, "intensity": 0.6, "source": "RBB"}, {"title": "Berlin-Tiergarten: Stra\u00dfensperrungen durch Berliner Halbmarathon", "url": "https://www.rbb24.de/panorama/beitrag/2024/04/berlin-halbmarathon-strassensperrung-tiergarten-grosser-stern.html", "thumbnailUrl": null, "date": "Fri, 05 Apr 2024 11:28:46 +0200", "lat": 52.5166, "lon": 13.3789, "intensity": 0.6, "source": "RBB"}, {"title": "Wiener Modell: Berliner Mieterverein sieht kommunalen Wohnbau in Wien als Vorbild", "url": "https://www.rbb24.de/panorama/beitrag/2024/04/berlin-mieterverein-sieht-kommunalen-wohnbau-in-wien-als-vorbild.html", "thumbnailUrl": null, "date": "Fri, 05 Apr 2024 11:15:07 +0200", "lat": 48.208354, "lon": 16.373064, "intensity": 0.7, "source": "RBB"}, {"title": "Berlin-K\u00f6penick: Polizei stellt Chemikalien in Bohnsdorf sicher", "url": "https://www.rbb24.de/panorama/beitrag/2024/04/berlin-koepenick-bohnsdorf-polizei-chemikalien-ammoniak.html", "thumbnailUrl": null, "date": "Fri, 05 Apr 2024 11:11:27 +0200", "lat": 52.4044, "lon": 13.6131, "intensity": 0.7, "source": "RBB"}, {"title": "Kaufhaus Galeries Lafayette in der Friedrichstra\u00dfe schlie\u00dft bereits Ende Juli", "url": "https://www.rbb24.de/wirtschaft/beitrag/2024/04/berlin-kaufhaus-galeries-lafayette-schliesst-bereits-ende-juli.html", "thumbnailUrl": null, "date": "Fri, 05 Apr 2024 10:21:00 +0200", "lat": 52.51454, "lon": 13.38856, "intensity": 0.8, "source": "RBB"}, {"title": "Liam Gallagher und John Squire in der Columbiahalle: Eine Stunde professionelle Nostalgie", "url": "https://www.rbb24.de/kultur/beitrag/2024/04/liam-gallagher-john-squire-konzert-berlin-columbiahalle-professionelle-nostalgie.html", "thumbnailUrl": null, "date": "Fri, 05 Apr 2024 10:20:51 +0200", "lat": 52.497852, "lon": 13.396236, "intensity": 0.7, "source": "RBB"}, {"title": "Sommerliche Temperaturen von bis zu 27 Grad am Wochenende vorhergesagt", "url": "https://www.rbb24.de/panorama/beitrag/2024/04/wetter-aussichten-wochenende-berlin-brandenburg.html", "thumbnailUrl": null, "date": "Fri, 05 Apr 2024 10:03:12 +0200", "lat": 52.52, "lon": 13.405, "intensity": 0.7, "source": "RBB"}, {"title": "Einsatz in Berliner Rhinstra\u00dfe: M\u00e4nner werfen in Lichtenberg Fahrrad und Fernseher aus achtem Stock", "url": "https://www.rbb24.de/panorama/beitrag/2024/04/berlin-lichtenberg-rhinstrasse-fernseher-fahrrad-aus-achtem-stock-geworfen.html", "thumbnailUrl": null, "date": "Fri, 05 Apr 2024 09:50:00 +0200", "lat": 52.5256, "lon": 13.5034, "intensity": 0.7, "source": "RBB"}, {"title": "Handball-Bundesliga: F\u00fcchse Berlin nach Sieg in G\u00f6ppingen weiter Tabellenf\u00fchrer", "url": "https://www.rbb24.de/sport/beitrag/2024/04/berlin-sport-handball-bundesliga-goeppingen-fuechse-spielbericht.html", "thumbnailUrl": null, "date": "Fri, 05 Apr 2024 09:38:02 +0200", "lat": 48.7031, "lon": 9.6592, "intensity": 0.6, "source": "RBB"}, {"title": "Fu\u00dfball-Bundesliga: Union Berlin muss gegen Tabellenf\u00fchrer Leverkusen \"Au\u00dferirdisches\" leisten", "url": "https://www.rbb24.de/sport/beitrag/2024/04/berlin-sport-fussball-bundesliga-union-bayer-leverkusen-vorbericht.html", "thumbnailUrl": null, "date": "Fri, 05 Apr 2024 06:31:00 +0200", "lat": 52.472567, "lon": 13.494044, "intensity": 0.6, "source": "RBB"}, {"title": "Traditionssport Kegelbillard fehlt der Nachwuchs", "url": "https://www.rbb24.de/panorama/beitrag/2024/04/brandenburg-kegelbillard-zukunft.html", "thumbnailUrl": null, "date": "Fri, 05 Apr 2024 06:09:22 +0200", "lat": 52.421607, "lon": 13.737262, "intensity": 0.5, "source": "RBB"}, {"title": "Basketball-EuroLeague: Alba verliert letztes internationales Heimspiel gegen Partizan Belgrad", "url": "https://www.rbb24.de/sport/beitrag/2024/04/berlin-sport-basketball-euroleague-alba-partizan-belgrad-spielbericht.html", "thumbnailUrl": null, "date": "Thu, 04 Apr 2024 22:36:40 +0200", "lat": 52.52, "lon": 13.3833, "intensity": 0.7, "source": "RBB"}, {"title": "Video | Inka Gossmann-Reetz: Ein Jahr Polizeibeauftragte in Brandenburg", "url": "https://www.rbb24.de/panorama/beitrag/av7/video-brandenburg-ein-jahr-polizeibeauftragte-inka-gossmann-reetz.html", "thumbnailUrl": null, "date": "Thu, 04 Apr 2024 21:36:29 +0200", "lat": 52.5186, "lon": 13.3294, "intensity": 0.5, "source": "RBB"}, {"title": "Video | Alte Schule Karlshorst: Wohnen im Mehrgenerationenhaus", "url": "https://www.rbb24.de/panorama/beitrag/av7/video-berlin-besonderes-wohnen-alte-schule-karlshorst-mehrgenerationenhaus.html", "thumbnailUrl": null, "date": "Thu, 04 Apr 2024 21:19:14 +0200", "lat": 52.487586, "lon": 13.517769, "intensity": 0.5, "source": "RBB"}, {"title": "Was Sie schon immer \u00fcber Spargel wissen wollten", "url": "https://www.rbb24.de/panorama/beitrag/2024/04/spargel-saison-fragen-antworten-beelitz.html", "thumbnailUrl": null, "date": "Thu, 04 Apr 2024 20:38:00 +0200", "lat": 52.337249, "lon": 13.01217, "intensity": 0.2, "source": "RBB"}, {"title": "Politisch motivierte Dienstvergehen: Bei Berliner Polizei laufen 96 Disziplinarverfahren gegen Beamte", "url": "https://www.rbb24.de/panorama/beitrag/2024/04/disziplinarverfahren-berlin-polizei-beamte-dienstvergehen.html", "thumbnailUrl": null, "date": "Thu, 04 Apr 2024 19:32:59 +0200", "lat": 52.520008, "lon": 13.404954, "intensity": 0.8, "source": "RBB"}, {"title": "Berliner Polizei durchsucht in Gropiusstadt Wohnungen von mutma\u00dflichen Silvester-Randalierern", "url": "https://www.rbb24.de/panorama/beitrag/2024/04/berlin-gropiusstadt-durchsuchungen-ausschreitungen-silvesternach.html", "thumbnailUrl": null, "date": "Thu, 04 Apr 2024 19:27:25 +0200", "lat": 52.4363, "lon": 13.4764, "intensity": 0.7, "source": "RBB"}, {"title": "Auslosung Berliner Landespokal: Makkabi im Pokal-Halbfinale gegen Sparta Lichtenberg, Viktoria gegen Lichtenberg 47", "url": "https://www.rbb24.de/sport/beitrag/2024/04/sport-fussball-landespokal-berlin-viktoria-lichtenberg-makkabi-halbfinale-auslosung.html", "thumbnailUrl": null, "date": "Thu, 04 Apr 2024 19:02:00 +0200", "lat": 52.52, "lon": 13.4359, "intensity": 0.4, "source": "RBB"}, {"title": "Justiz muss deutlich mehr Cannabis-Verfahren \u00fcberpr\u00fcfen als zun\u00e4chst erwartet", "url": "https://www.rbb24.de/politik/beitrag/2024/04/berlin-brandenburg-justiz-deutlich-mehr-cannabis-verfahren-aufgerollt-amnestie-legalisierung.html", "thumbnailUrl": null, "date": "Thu, 04 Apr 2024 18:43:10 +0200", "lat": 53.5511, "lon": 9.9937, "intensity": 0.7, "source": "RBB"}, {"title": "Berliner Wasserbetriebe erneuern bis 2029 Rohre in Landsberger Allee", "url": "https://www.rbb24.de/panorama/beitrag/2024/04/berlin-landsberger-allee-bauarbeiten-wasserrohre-wasserbetriebe.html", "thumbnailUrl": null, "date": "Thu, 04 Apr 2024 17:47:00 +0200", "lat": 52.52, "lon": 13.4689, "intensity": 0.6, "source": "RBB"}, {"title": "Umweltsenatorin Schreiner: Berliner Forsten sollen Mischwald-Programm nicht fortsetzen", "url": "https://www.rbb24.de/politik/beitrag/2024/04/umweltsenatorin-schreiner-waldumbau-pruefung-mischwald-programm.html", "thumbnailUrl": null, "date": "Thu, 04 Apr 2024 17:28:38 +0200", "lat": 52.52, "lon": 13.405, "intensity": 0.6, "source": "RBB"}, {"title": "R\u00e4tselhafte Holzkonstruktion aus dem 13. Jahrhundert in Prenzlau gefunden", "url": "https://www.rbb24.de/panorama/beitrag/2024/04/holz-balken-prenzlau-700-jahre-archaeologie.html", "thumbnailUrl": null, "date": "Thu, 04 Apr 2024 16:48:10 +0200", "lat": 53.3247, "lon": 13.8657, "intensity": 0.6, "source": "RBB"}, {"title": "Brandenburg: Spargelsaison ist offiziell er\u00f6ffnet", "url": "https://www.rbb24.de/wirtschaft/beitrag/2024/04/spargel-beelitz-hollondaise-brandenburg-saisonarbeiter-landwirtschaft-essen.html", "thumbnailUrl": null, "date": "Thu, 04 Apr 2024 16:47:00 +0200", "lat": 52.4125, "lon": 13.8005, "intensity": 0.3, "source": "RBB"}, {"title": "Legalisierung von Cannabis: Kiffen bleibt in Berliner Freib\u00e4dern verboten", "url": "https://www.rbb24.de/panorama/beitrag/2024/04/kein-cannabis-konsum-berliner-freibaeder-kiffen.html", "thumbnailUrl": null, "date": "Thu, 04 Apr 2024 15:45:59 +0200", "lat": 52.52, "lon": 13.403, "intensity": 0.4, "source": "RBB"}, {"title": "Bundeswehr strukturiert an Standorten in Berlin und Brandenburg um - ein operatives F\u00fchrungskommando statt zwei", "url": "https://www.rbb24.de/politik/beitrag/2024/04/berlin-brandenburg-geltow-bundeswehr-einheitliches-fuehrung-kommando.html", "thumbnailUrl": null, "date": "Thu, 04 Apr 2024 15:24:00 +0200", "lat": 52.3759, "lon": 9.7031, "intensity": 0.5, "source": "RBB"}, {"title": "Berlin: Bundeskartellamt erlaubt Senat Kauf von Vattenfall-Fernw\u00e4rmenetz", "url": "https://www.rbb24.de/wirtschaft/beitrag/2024/04/berlin-fernwaerme-vattenfall-bundeskartellamt-.html", "thumbnailUrl": null, "date": "Thu, 04 Apr 2024 15:20:53 +0200", "lat": 52.520008, "lon": 13.404954, "intensity": 0.6, "source": "RBB"}, {"title": "Neugew\u00e4hlter Tesla-Betriebsrat in Gr\u00fcnheide best\u00e4tigt Michaela Schmitz als Vorsitzende", "url": "https://www.rbb24.de/wirtschaft/beitrag/2024/04/brandenburg-gruenheide-tesla-betriebsrat-konstituierende-sitzung-schmitz-vorsitzende.html", "thumbnailUrl": null, "date": "Thu, 04 Apr 2024 14:50:00 +0200", "lat": 52.4711, "lon": 13.8863, "intensity": 0.5, "source": "RBB"}, {"title": "Lkw-Fahrer nach Unfall auf dem s\u00fcdlichen Berliner Ring gestorben", "url": "https://www.rbb24.de/panorama/beitrag/2024/04/brandenburg-a10-berliner-ring-schwerer-verkehrsunfall-niederlehme.html", "thumbnailUrl": null, "date": "Thu, 04 Apr 2024 14:19:51 +0200", "lat": 52.4392, "lon": 13.5566, "intensity": 0.8, "source": "RBB"}, {"title": "Historische Krimis: Die l\u00e4ngste Eishockey-Partie endete erst um 02:33 Uhr in der Nacht", "url": "https://www.rbb24.de/sport/beitrag/2024/04/eishockey-del-playoffs-eisbaeren-berlin-straubing-spielzeit-laengste-partien-verlaengerung.html", "thumbnailUrl": null, "date": "Thu, 04 Apr 2024 14:16:00 +0200", "lat": 48.88112, "lon": 12.57308, "intensity": 0.8, "source": "RBB"}, {"title": "Taxis halten wieder am Europaplatz vor Berliner Hauptbahnhof", "url": "https://www.rbb24.de/politik/beitrag/2024/04/taxi-streit-beendet-europaplatz-hauptbahnhof-berlin.html", "thumbnailUrl": null, "date": "Thu, 04 Apr 2024 13:43:00 +0200", "lat": 52.5251, "lon": 13.3694, "intensity": 0.4, "source": "RBB"}, {"title": "Berliner Hedwigs-Kathedrale wird im November er\u00f6ffnet - nach sechs Jahren Umbauarbeiten", "url": "https://www.rbb24.de/panorama/beitrag/2024/04/berlin-hedwigs-kathedrale-wird-im-november-eroeffnet.html", "thumbnailUrl": null, "date": "Thu, 04 Apr 2024 12:42:00 +0200", "lat": 52.517257, "lon": 13.388794, "intensity": 0.7, "source": "RBB"}, {"title": "Berlin-Reinickendorf: 31 Katzen aus Wohnung im M\u00e4rkischen Viertel gerettet", "url": "https://www.rbb24.de/panorama/beitrag/2024/04/berlin-maerkisches-viertel-31-katzen-wohnung-gerettet.html", "thumbnailUrl": null, "date": "Thu, 04 Apr 2024 12:18:10 +0200", "lat": 52.5933, "lon": 13.3304, "intensity": 0.8, "source": "RBB"}, {"title": "Anklage gegen Berliner Rentner nach mutma\u00dflichem Mord an pflegebed\u00fcrftiger Ehefrau erhoben", "url": "https://www.rbb24.de/panorama/beitrag/2024/04/berlin-hellersdorf-mann-toetet-ehefrau-anklage-mord-pflege.html", "thumbnailUrl": null, "date": "Thu, 04 Apr 2024 10:44:08 +0200", "lat": 52.52, "lon": 13.4049, "intensity": 0.8, "source": "RBB"}, {"title": "Oberspreewald-Lausitz: Post kommt im Spreewald ab sofort wieder per Kahn", "url": "https://www.rbb24.de/panorama/beitrag/2024/04/brandenburg-spreewald-lehde-post-kahn-wasser-weg.html", "thumbnailUrl": null, "date": "Thu, 04 Apr 2024 10:32:00 +0200", "lat": 51.5267, "lon": 13.9417, "intensity": 0.5, "source": "RBB"}, {"title": "Mann stirbt nach Wohnungsbrand in Berlin-Hellersdorf", "url": "https://www.rbb24.de/panorama/beitrag/2024/04/berlin-hellersdorf-wohnung-brand-toter-mann.html", "thumbnailUrl": null, "date": "Thu, 04 Apr 2024 08:22:00 +0200", "lat": 52.5263, "lon": 13.5688, "intensity": 0.7, "source": "RBB"}, {"title": "Playoff-Halbfinale: Eisb\u00e4ren schlagen Straubing in drittl\u00e4ngstem Spiel der DEL-Geschichte", "url": "https://www.rbb24.de/sport/beitrag/2024/04/berlin-sport-eishockey-del-halbfinale-straubing-tigers-eisbaeren-spiel-zwei.html", "thumbnailUrl": null, "date": "Thu, 04 Apr 2024 07:08:00 +0200", "lat": 51.511213, "lon": 12.47794, "intensity": 0.7, "source": "RBB"}, {"title": "Auslegungsfrist endet: Erweiterungsplan des Tesla-Werks liegt noch am Donnerstag aus", "url": "https://www.rbb24.de/wirtschaft/beitrag/2024/04/brandenburg-gruenheide-tesla-auslegungsfrist-endet-gueterbahnhof.html", "thumbnailUrl": null, "date": "Thu, 04 Apr 2024 06:35:00 +0200", "lat": 52.517, "lon": 13.3996, "intensity": 0.7, "source": "RBB"}, {"title": "Sieg gegen L\u00fcneburg: BR Volleys stehen im Volleyball-Finale", "url": "https://www.rbb24.de/sport/beitrag/2024/04/berlin-sport-Volleyball-bundesliga-Halbfinale-BR-Volleys-Lueneburg-spiel-drei.html", "thumbnailUrl": null, "date": "Wed, 03 Apr 2024 22:05:00 +0200", "lat": 52.52, "lon": 13.4393, "intensity": 0.7, "source": "RBB"}, {"title": "Volleyball-Bundesliga: SC Potsdam verliert erstes Halbfinale gegen Schwerin", "url": "https://www.rbb24.de/sport/beitrag/2024/04/brandenburg-sport-Volleyball-Bundesliga-Halbfinale-Schwerin-SC-Potsdam.html", "thumbnailUrl": null, "date": "Wed, 03 Apr 2024 21:29:00 +0200", "lat": 52.3906, "lon": 12.7854, "intensity": 0.6, "source": "RBB"}, {"title": "Video | Freier Eintritt: J\u00fcdisches Kulturschiff \"MS Goldberg\" ist auf Brandenburg-Tour", "url": "https://www.rbb24.de/kultur/beitrag/av7/video-brandenburg-ms-goldberg-juedisches-kulturschiff.html", "thumbnailUrl": null, "date": "Wed, 03 Apr 2024 21:13:34 +0200", "lat": 52.4125, "lon": 13.9536, "intensity": 0.7, "source": "RBB"}, {"title": "Video | Neues Format: Aus rbbKultur wird radio3", "url": "https://www.rbb24.de/panorama/beitrag/av7/video-berlin-brandenburg-rbbkultur-wird-zu-radio3-umbenennung-programmaenderung-rbb.html", "thumbnailUrl": null, "date": "Tue, 02 Apr 2024 21:33:14 +0200", "lat": 52.520008, "lon": 13.404954, "intensity": 0.5, "source": "RBB"}, {"title": "Video: Union Berlin entf\u00fchrt einen Punkt aus Frankfurt", "url": "https://www.rbb24.de/sport/beitrag/av7/video-fussball-berlin-1-fc-union-bundesliga-eintracht-frankfurt.html", "thumbnailUrl": null, "date": "Mon, 01 Apr 2024 00:00:00 +0200", "lat": 52.457778, "lon": 13.494167, "intensity": 0.7, "source": "RBB"}, {"title": "Video: Hertha und N\u00fcrnberg trennen sich nach furiosem Spiel mit 3:3", "url": "https://www.rbb24.de/sport/beitrag/av7/video-fussball-berlin-hertha-bsc-zweite-bundesliga-1-fc-nuernberg.html", "thumbnailUrl": null, "date": "Mon, 01 Apr 2024 00:00:00 +0200", "lat": 52.52, "lon": 13.5007, "intensity": 0.8, "source": "RBB"}, {"title": "Video | Spreewald: Sorbische Ostern", "url": "https://www.rbb24.de/panorama/beitrag/av7/video-sorbisch-ostern-ostersingen-tradition.html", "thumbnailUrl": null, "date": "Sun, 31 Mar 2024 21:40:56 +0200", "lat": 51.8667, "lon": 14.0833, "intensity": 0.2, "source": "RBB"}, {"title": "Video | Baustopp: Wie es um das Bauprojekt \"Upside Berlin\" steht", "url": "https://www.rbb24.de/panorama/beitrag/av7/video-baustopp-hochhaeuser-friedrichshain-berlin.html", "thumbnailUrl": null, "date": "Fri, 29 Mar 2024 21:13:11 +0100", "lat": 52.466, "lon": 13.739, "intensity": 0.8, "source": "RBB"}, {"title": "A7-Sperrungen in Hamburg am Wochenende: Elbtunnel betroffen", "url": "https://www.ndr.de/nachrichten/hamburg/A7-Sperrungen-in-Hamburg-am-Wochenende-Elbtunnel-betroffen,asieben594.html", "thumbnailUrl": "https://www.ndr.de/nachrichten/hamburg/asieben596_v-contentwidescreen.jpg", "date": "2024-04-05T11:59:27.620+02:00", "lat": 53.5511, "lon": 9.9946, "intensity": 0.6, "source": "NDR"}, {"title": "Wetter am Wochenende: Temperatursprung auf \u00fcber 20 Grad im Norden", "url": "https://www.ndr.de/nachrichten/info/Wetter-am-Wochenende-Temperatursprung-auf-ueber-20-Grad-im-Norden,wetter8754.html", "thumbnailUrl": "https://www.ndr.de/nachrichten/info/wetter8756_v-contentwidescreen.jpg", "date": "2024-04-05T11:23:51.866+02:00", "lat": 53.5511, "lon": 9.9937, "intensity": 0.6, "source": "NDR"}, {"title": "T\u00f6dliche Sch\u00fcsse in Nienburg: Zweifel an Angaben der Polizei", "url": "https://www.ndr.de/nachrichten/niedersachsen/hannover_weser-leinegebiet/Toedliche-Schuesse-in-Nienburg-Zweifel-an-Angaben-der-Polizei,nienburg404.html", "thumbnailUrl": "https://www.ndr.de/nachrichten/niedersachsen/nienburg390_v-contentwidescreen.jpg", "date": "2024-04-05T11:34:54.976+02:00", "lat": 52.6371, "lon": 9.1602, "intensity": 0.8, "source": "NDR"}, {"title": "Sicherheit auf Busreisen: \"Am stressigsten sind die Baustellen\"", "url": "https://www.ndr.de/nachrichten/info/Sicherheit-auf-Busreisen-Am-stressigsten-sind-die-Baustellen,ndrinfolive160.html", "thumbnailUrl": "https://www.ndr.de/nachrichten/hamburg/busreise102_v-contentwidescreen.jpg", "date": "2024-04-04T21:59:41.226+02:00", "lat": 51.1657, "lon": 10.4235, "intensity": 0.6, "source": "NDR"}, {"title": "Klimaschutz und Weidehaltung vereinbaren: Ein Versuch", "url": "https://www.ndr.de/nachrichten/niedersachsen/oldenburg_ostfriesland/Klimaschutz-und-Weidehaltung-vereinbaren-Ein-Versuch,moor608.html", "thumbnailUrl": "https://www.ndr.de/nachrichten/niedersachsen/moor612_v-contentwidescreen.jpg", "date": "2024-04-05T10:38:19.988+02:00", "lat": 53.2303, "lon": 8.4594, "intensity": 0.6, "source": "NDR"}, {"title": "NDR Info Redezeit: Was bringen die \u00c4nderungen beim Elterngeld?", "url": "https://www.ndr.de/nachrichten/info/NDR-Info-Redezeit-Was-bringen-die-Aenderungen-beim-Elterngeld,ndrinforedezeit452.html", "thumbnailUrl": "https://www.ndr.de/kultur/radiokunst/alleinerziehend120_v-contentwidescreen.jpg", "date": "2024-04-04T22:07:18.679+02:00", "lat": 53.5511, "lon": 9.9937, "intensity": 0.2, "source": "NDR"}, {"title": "Dabel: Gemeindevertreter lehnen geplante Fl\u00fcchtlingsunterkunft ab", "url": "https://www.ndr.de/nachrichten/mecklenburg-vorpommern/Dabel-Gemeindevertreter-lehnen-geplante-Fluechtlingsunterkunft-ab,dabel120.html", "thumbnailUrl": "https://www.ndr.de/fernsehen/screenshot1716504_v-contentwidescreen.jpg", "date": "2024-04-05T11:42:40.182+02:00", "lat": 53.5541, "lon": 12.0509, "intensity": 0.6, "source": "NDR"}, {"title": "Bodycams f\u00fcr Zugbegleiter: S-Bahn Hannover testet Einsatz", "url": "https://www.ndr.de/nachrichten/niedersachsen/hannover_weser-leinegebiet/Bodycams-fuer-Zugbegleiter-S-Bahn-Hannover-testet-Einsatz,bodycam204.html", "thumbnailUrl": "https://www.ndr.de/nachrichten/niedersachsen/hannover_weser-leinegebiet/bodycam202_v-contentwidescreen.jpg", "date": "2024-04-05T09:55:38.954+02:00", "lat": 52.3759, "lon": 9.7332, "intensity": 0.7, "source": "NDR"}, {"title": "Redderstorf: Vermutlich 19 Schafe von Wolf gerissen", "url": "https://www.ndr.de/nachrichten/mecklenburg-vorpommern/Redderstorf-Vermutlich-19-Schafe-von-Wolf-gerissen,kurzmeldungmv14832.html", "thumbnailUrl": "https://www.ndr.de/nachrichten/mecklenburg-vorpommern/schafwolf100_v-contentwidescreen.jpg", "date": "2024-04-05T11:15:10.709+02:00", "lat": 54.1203, "lon": 12.7167, "intensity": 0.7, "source": "NDR"}, {"title": "52-J\u00e4hrige in Irish Pub mit Messer lebensgef\u00e4hrlich verletzt", "url": "https://www.ndr.de/nachrichten/niedersachsen/hannover_weser-leinegebiet/52-Jaehrige-in-Irish-Pub-mit-Messer-lebensgefaehrlich-verletzt,neustadt452.html", "thumbnailUrl": "https://www.ndr.de/nachrichten/niedersachsen/hannover_weser-leinegebiet/neustadt450_v-contentwidescreen.jpg", "date": "2024-04-05T09:08:18.746+02:00", "lat": 52.6122, "lon": 9.4213, "intensity": 0.8, "source": "NDR"}, {"title": "Rechtsextremismus: Auch Ermittlungen gegen Polizisten im Norden", "url": "https://www.ndr.de/nachrichten/niedersachsen/Rechtsextremismus-Auch-Ermittlungen-gegen-Polizisten-im-Norden,extremismusverdacht100.html", "thumbnailUrl": "https://www.ndr.de/nachrichten/niedersachsen/polizei7042_v-contentwidescreen.jpg", "date": "2024-04-04T20:46:25.300+02:00", "lat": 53.4336, "lon": 10.4515, "intensity": 0.8, "source": "NDR"}, {"title": "Feuer in Klein Bennebek: Ein Toter und drei Verletzte", "url": "https://www.ndr.de/nachrichten/schleswig-holstein/Feuer-in-Klein-Bennebek-Ein-Toter-und-drei-Verletzte,feuer5936.html", "thumbnailUrl": "https://www.ndr.de/nachrichten/schleswig-holstein/feuer5938_v-contentwidescreen.jpg", "date": "2024-04-05T11:08:25.703+02:00", "lat": 54.2845, "lon": 9.4696, "intensity": 0.8, "source": "NDR"}, {"title": "Israelis und J\u00fcdinnen w\u00fcnschen sich mehr Solidarit\u00e4t", "url": "https://www.ndr.de/nachrichten/info/Israelis-und-Juedinnen-wuenschen-sich-mehr-Solidaritaet,audio1607894.html", "thumbnailUrl": "https://www.ndr.de/nachrichten/info/hirsch390_v-contentwidescreen.jpg", "date": "2024-04-05T09:38:09.435+02:00", "lat": 53.5511, "lon": 9.9977, "intensity": 0.6, "source": "NDR"}, {"title": "Neues Bundeswehr-Ausbildungszentrum in Jagel/Kropp", "url": "https://www.ndr.de/nachrichten/info/Neues-Bundewehrausbildungszentrum-in-Jagel-Kropp,ndrinfo58192.html", "thumbnailUrl": "https://www.ndr.de/fernsehen/screenshot1727066_v-contentwidescreen.jpg", "date": "2024-04-04T22:43:29.094+02:00", "lat": 54.4314, "lon": 9.5307, "intensity": 0.7, "source": "NDR"}, {"title": "Nutzen Extremisten Ramadan f\u00fcr ihre Ideologien?", "url": "https://www.ndr.de/fernsehen/sendungen/hamburg_journal/Nutzen-Extremisten-Ramadan-fuer-ihre-Ideologien,hamj145758.html", "thumbnailUrl": "https://www.ndr.de/fernsehen/screenshot1726848_v-contentwidescreen.jpg", "date": "2024-04-04T20:20:35.181+02:00", "lat": 53.4884, "lon": 10.2055, "intensity": 0.7, "source": "NDR"}, {"title": "Studie aus Niedersachsen zum Fischsterben ver\u00f6ffentlicht", "url": "https://www.ndr.de/nachrichten/info/Studie-aus-Niedersachsen-zum-Fischsterben-veroeffentlicht,audio1607866.html", "thumbnailUrl": "https://www.ndr.de/nachrichten/niedersachsen/lueneburg_heide_unterelbe/fischsterben500_v-contentwidescreen.jpg", "date": "2024-04-05T06:58:21.662+02:00", "lat": 52.3847, "lon": 10.4234, "intensity": 0.8, "source": "NDR"}, {"title": "Lubmin: Natursch\u00fctzer gegen geplante Wasserstofffabrik", "url": "https://www.ndr.de/nachrichten/info/Lubmin-Naturschuetzer-gegen-geplante-Wasserstofffabrik,ndrinfo58198.html", "thumbnailUrl": "https://www.ndr.de/fernsehen/screenshot1727092_v-contentwidescreen.jpg", "date": "2024-04-04T22:25:07.195+02:00", "lat": 54.1014, "lon": 13.9691, "intensity": 0.8, "source": "NDR"}, {"title": "Bremerin arbeitet an m\u00f6glicher Mars-Mission mit", "url": "https://www.ndr.de/nachrichten/info/Bremerin-arbeitet-an-moeglicher-Mars-Mission-mit,ndrinfo58202.html", "thumbnailUrl": "https://www.ndr.de/fernsehen/screenshot1727110_v-contentwidescreen.jpg", "date": "2024-04-04T22:37:53.671+02:00", "lat": 45.0382, "lon": 40.0691, "intensity": 0.8, "source": "NDR"}, {"title": "\"W\u00fcnsch Dir Deinen NDR\" - Jetzt f\u00fcr die Publikumsaktion bewerben!", "url": "https://www.ndr.de/wuensch_dir_deinen_ndr/index.html", "thumbnailUrl": "https://www.ndr.de/der_ndr/wunschprogramm131_v-contentwidescreen.jpg", "date": "2024-03-26T07:59:24.876+01:00", "lat": 53.551086, "lon": 9.993682, "intensity": 0.2, "source": "NDR"}, {"title": "Relaunch der vier NDR L\u00e4nder-Apps: Nachrichten aus Ihrer Region!", "url": "https://www.ndr.de/Relaunch-der-vier-NDR-Laender-Apps-Nachrichten-aus-Ihrer-Region,laenderapprelaunch100.html", "thumbnailUrl": "https://www.ndr.de/laenderapprelaunch102_v-contentwidescreen.jpg", "date": "2024-03-19T09:22:34.719+01:00", "lat": 53.8659, "lon": 9.8606, "intensity": 0.4, "source": "NDR"}, {"title": "Gaspreis Dashboard", "url": "https://www.ndr.de/home/gaspreis176.html", "thumbnailUrl": null, "date": "2023-04-06T14:49:06.409+02:00", "lat": 51.3426, "lon": 9.9976, "intensity": 0.7, "source": "NDR"}, {"title": "NDR Radioprogramme", "url": "https://www.ndr.de/radio/radiologobox100.html", "thumbnailUrl": null, "date": "2020-12-01T14:04:26.700+01:00", "lat": 53.5511, "lon": 9.9937, "intensity": 0.3, "source": "NDR"}, {"title": "Krieg und Terror - Die Lage im Nahen Osten und in der Ukraine", "url": "https://www.ndr.de/nachrichten/info/podcast5342.html", "thumbnailUrl": "https://www.ndr.de/nachrichten/info/podcastbild412_v-contentwidescreen.jpg", "date": "2024-04-05T07:54:17.426+02:00", "lat": 46.79651, "lon": 30.739834, "intensity": 0.8, "source": "NDR"}, {"title": "Die Ern\u00e4hrungs-Docs - Essen als Medizin", "url": "https://www.ndr.de/fernsehen/sendungen/die-ernaehrungsdocs/audio-podcast/index.html", "thumbnailUrl": "https://www.ndr.de/fernsehen/sendungen/die-ernaehrungsdocs/podcastbild338_v-contentwidescreen.jpg", "date": "2024-04-04T13:51:10.657+02:00", "lat": 53.5511, "lon": 9.9876, "intensity": 0.3, "source": "NDR"}, {"title": "Unsere Comedy \"Die Kur-Oase\"!", "url": "https://www.ndr.de/ndr2/podcasts/podcast5816.html", "thumbnailUrl": "https://www.ndr.de/ndr2/podcasts/podcast5812_v-contentwidescreen.jpg", "date": "2024-04-05T07:15:05.477+02:00", "lat": 54.9069, "lon": 8.7386, "intensity": 0.2, "source": "NDR"}, {"title": "Organisiertes Verbrechen - Recherchen im Verborgenen", "url": "https://www.ndr.de/nachrichten/info/podcast4992.html", "thumbnailUrl": "https://www.ndr.de/nachrichten/info/podcastbildov100_v-contentwidescreen.jpg", "date": "2024-03-01T06:00:27.490+01:00", "lat": 45.9432, "lon": 24.9668, "intensity": 0.8, "source": "NDR"}, {"title": "eat.READ.sleep. B\u00fccher f\u00fcr dich", "url": "https://www.ndr.de/kultur/sendungen/eat_read_sleep/index.html", "thumbnailUrl": "https://www.ndr.de/mediathek/podcastbild434_v-contentwidescreen.jpg", "date": "2024-03-29T06:00:20.892+01:00", "lat": 53.5511, "lon": 9.9937, "intensity": 0.2, "source": "NDR"}, {"title": "Killed in Action: Afghanistan - Mission ohne Ziel", "url": "https://www.ndr.de/nachrichten/info/sendungen/podcast4574.html", "thumbnailUrl": "https://www.ndr.de/nachrichten/info/podcasts/podcastbild478_v-contentwidescreen.jpg", "date": "2024-02-16T17:44:01.214+01:00", "lat": 33.9391, "lon": 66.2385, "intensity": 0.8, "source": "NDR"}, {"title": "Streitkr\u00e4fte und Strategien", "url": "https://www.ndr.de/nachrichten/info/podcast2998.html", "thumbnailUrl": "https://www.ndr.de/mediathek/mediathekbild566_v-contentwidescreen.jpg", "date": "2024-04-02T16:00:06.249+02:00", "lat": 53.5511, "lon": 9.9937, "intensity": 0.8, "source": "NDR"}, {"title": "Standpunkte", "url": "https://www.ndr.de/nachrichten/info/podcast4700.html", "thumbnailUrl": "https://www.ndr.de/mediathek/podcast5332_v-contentwidescreen.jpg", "date": "2024-04-04T00:01:07.808+02:00", "lat": 53.5511, "lon": 9.9937, "intensity": 0.5, "source": "NDR"}, {"title": "Mein Einsatz - der Feuerwehr-Podcast von NDR Niedersachsen", "url": "https://www.ndr.de/ndr1niedersachsen/podcast5774.html", "thumbnailUrl": "https://www.ndr.de/ndr1niedersachsen/podcasts/podcastbild364_v-contentwidescreen.jpg", "date": "2024-03-28T04:00:07.923+01:00", "lat": 52.3759, "lon": 9.7345, "intensity": 0.7, "source": "NDR"}, {"title": "\"Feel Hamburg\" - alle Folgen", "url": "https://www.ndr.de/903/podcasts/podcast5108.html", "thumbnailUrl": "https://www.ndr.de/mediathek/mediathekbild514_v-contentwidescreen.jpg", "date": "2024-04-03T05:00:09.975+02:00", "lat": 53.55, "lon": 10.0, "intensity": 0.4, "source": "NDR"}, {"title": "Intensiv-Station - Satire von NDR Info", "url": "https://www.ndr.de/nachrichten/info/podcast4274.html", "thumbnailUrl": "https://www.ndr.de/nachrichten/info/programm/intensivstation3272_v-contentwidescreen.jpg", "date": "2024-03-25T22:56:23.803+01:00", "lat": 54.3706, "lon": 10.5038, "intensity": 0.8, "source": "NDR"}, {"title": "Amerika, wir m\u00fcssen reden!", "url": "https://www.ndr.de/nachrichten/info/podcast4932.html", "thumbnailUrl": "https://www.ndr.de/nachrichten/info/podcastbild488_v-contentwidescreen.jpg", "date": "2024-04-03T18:15:10.308+02:00", "lat": 39.78373, "lon": -100.445882, "intensity": 0.7, "source": "NDR"}, {"title": "Tornado-Verdacht in Korschenbroich - 20 H\u00e4user besch\u00e4digt", "url": "https://www1.wdr.de/nachrichten/korschenbroich-moenchengladbach-verdacht-tornado-100.html", "thumbnailUrl": null, "date": "2024-04-05T09:44:02Z", "lat": 51.1947, "lon": 6.5188, "intensity": 0.8, "source": "WDR"}, {"title": "NRW-Karte zu Wohnungseinbr\u00fcchen: Wo wird viel, wo wenig eingebrochen?", "url": "https://www1.wdr.de/nachrichten/wohnungseinbruch-nrw-kriminalstatistik-102.html", "thumbnailUrl": null, "date": "2024-04-05T04:39:54Z", "lat": 51.9607, "lon": 7.6246, "intensity": 0.8, "source": "WDR"}, {"title": "Vier Minderj\u00e4hrige nach Todesopfer im Dortmunder Hafen festgenommen", "url": "https://www1.wdr.de/nachrichten/dortmund-toetungsdelikt-hafen-100.html", "thumbnailUrl": null, "date": "2024-04-05T10:00:54Z", "lat": 51.5136, "lon": 7.459, "intensity": 0.8, "source": "WDR"}, {"title": "Wo NRW noch Handlungsspielraum im Haushalt hat", "url": "https://www1.wdr.de/nachrichten/landespolitik/landeshaushalt-spielraeume-finanzen-100.html", "thumbnailUrl": null, "date": "2024-04-05T09:21:21Z", "lat": 51.9607, "lon": 7.6261, "intensity": 0.7, "source": "WDR"}, {"title": "Rekord-W\u00e4rme am Wochenende m\u00f6glich - Saharastaub erwartet", "url": "https://www1.wdr.de/nachrichten/wetter-nrw-gewitter-sonne-waerme-saharastaub-100.html", "thumbnailUrl": null, "date": "2024-04-05T06:42:17Z", "lat": 51.8133, "lon": 7.6261, "intensity": 0.8, "source": "WDR"}, {"title": "Super-Teleskop aus NRW soll Entstehung des Universums zeigen", "url": "https://www1.wdr.de/nachrichten/rheinland/praesentation-des-neuen-fyst-teleskops-100.html", "thumbnailUrl": null, "date": "2024-04-04T19:10:37Z", "lat": 51.6614, "lon": 6.4542, "intensity": 0.6, "source": "WDR"}, {"title": "A42: Vollsperrung bei Herne wegen Br\u00fcckenbauarbeiten", "url": "https://www1.wdr.de/nachrichten/ruhrgebiet/autobahn-zweiundvierzig-voll-gesperrt-bei-herne-100.html", "thumbnailUrl": null, "date": "2024-04-05T06:02:23Z", "lat": 51.5272, "lon": 7.2146, "intensity": 0.8, "source": "WDR"}, {"title": "Kanaldeckel f\u00fcr 380 Euro: Ungew\u00f6hnlicher Verkaufsschlager in Wipperf\u00fcrth", "url": "https://www1.wdr.de/nachrichten/rheinland/kanaldeckel-verkauf-wipperfuerth-100.html", "thumbnailUrl": null, "date": "2024-04-05T09:03:56Z", "lat": 51.1072, "lon": 7.3891, "intensity": 0.6, "source": "WDR"}, {"title": "Pokal der Fu\u00dfball-EM 2024 mit Lahm in K\u00f6ln", "url": "https://www1.wdr.de/nachrichten/rheinland/trophy-tour-in-koeln-em-pokal-praesentiert-von-philipp-lahm-am-bahnhof-102.html", "thumbnailUrl": null, "date": "2024-04-05T09:29:12Z", "lat": 50.9413, "lon": 7.0069, "intensity": 0.7, "source": "WDR"}, {"title": "Nahost-Krieg: Nahost-Liveblog: + UN-Menschenrechtsrat fordert Stopp von Waffenverk\u00e4ufen +", "url": "https://www.tagesschau.de/newsticker/liveblog-nahost-freitag-124.html", "thumbnailUrl": null, "date": "2024-04-05T09:39:01Z", "lat": 31.7683, "lon": 35.214, "intensity": 0.8, "source": "WDR"}, {"title": "Nach Angriff auf Hilfsorganisation: Israel k\u00fcndigt \"sofortige\" Aufstockung von Gaza-Hilfen an", "url": "https://www.tagesschau.de/ausland/asien/biden-netanyahu-zivilisten-104.html", "thumbnailUrl": null, "date": "2024-04-05T09:21:02Z", "lat": 31.9466, "lon": 34.4538, "intensity": 0.8, "source": "WDR"}, {"title": "Nach Angriff auf Hilfsorganisation: Biden bekr\u00e4ftigt Israel-Kritik nach Angriff auf Hilfsorganisation", "url": "https://www.tagesschau.de/ausland/amerika/biden-unter-druck-100.html", "thumbnailUrl": null, "date": "2024-04-05T08:42:01Z", "lat": 31.7683, "lon": 35.2134, "intensity": 0.8, "source": "WDR"}, {"title": "Get\u00f6tete Helfer im Gazastreifen: Hilfsorganisationen \u00fcben massive Kritik an Israels Kriegsf\u00fchrung", "url": "https://www.tagesschau.de/ausland/israel-angriffe-hilfsorganisationen-100.html", "thumbnailUrl": null, "date": "2024-04-04T19:18:02Z", "lat": 31.522833, "lon": 35.303017, "intensity": 0.7, "source": "WDR"}, {"title": "Die wichtigsten Fakten \u00fcber den Gazastreifen", "url": "https://www1.wdr.de/nachrichten/gaza-gazastreifen-israel-hintergrund-100.html", "thumbnailUrl": null, "date": "2023-10-11T15:33:25Z", "lat": 31.5107, "lon": 34.3445, "intensity": 0.8, "source": "WDR"}, {"title": "WDR aktuell Whatsapp-Kanal abonnieren - so geht's", "url": "https://www1.wdr.de/nachrichten/wdr-aktuell-whatsapp-kanal-100.html", "thumbnailUrl": null, "date": "2023-12-22T20:22:52Z", "lat": 51.4818, "lon": 7.6261, "intensity": 0.1, "source": "WDR"}, {"title": "Krieg gegen die Ukraine: Ukraine-Liveblog: ++ Kiew meldet Zerst\u00f6rung von russischen Flugzeugen ++", "url": "https://www.tagesschau.de/newsticker/liveblog-ukraine-freitag-374.html", "thumbnailUrl": null, "date": "2024-04-05T09:06:01Z", "lat": 47.2333, "lon": 39.7126, "intensity": 0.8, "source": "WDR"}, {"title": "Deutsche Firmen in Mariupol: Deutsche Firmen am russischen Wiederaufbau von Mariupol beteiligt", "url": "https://www.tagesschau.de/investigativ/monitor/ukraine-mariupol-wiederaufbau-russland-100.html", "thumbnailUrl": null, "date": "2024-04-03T16:54:02Z", "lat": 47.0971, "lon": 37.5553, "intensity": 0.8, "source": "WDR"}, {"title": "Kommt Russland wegen Kriegsverbrechen vor den Internationalen Strafgerichtshof?", "url": "https://www1.wdr.de/nachrichten/kriegsverbrechen-fragen-antworten-100.html", "thumbnailUrl": null, "date": "2024-04-02T16:04:42Z", "lat": 52.0705, "lon": 4.3007, "intensity": 0.8, "source": "WDR"}, {"title": "Ukraine: Zwischen Krieg und Normalit\u00e4t", "url": "https://www1.wdr.de/mediathek/audio/wdr5/wdr5-mittagsecho/audio-ukraine-zwischen-krieg-und-normalitaet-100.html", "thumbnailUrl": null, "date": "2024-03-27T13:17:56Z", "lat": 50.4501, "lon": 30.5234, "intensity": 0.7, "source": "WDR"}, {"title": "Zwei W\u00f6lfe in zwei Monaten bei Verkehrsunf\u00e4llen get\u00f6tet", "url": "https://www1.wdr.de/nachrichten/westfalen-lippe/wolf-verkehrsunfall-tot-ostwestfalen-100.html", "thumbnailUrl": null, "date": "2024-04-05T09:05:57Z", "lat": 51.8756, "lon": 8.5216, "intensity": 0.8, "source": "WDR"}, {"title": "Amazon in Rheinberg: Erster Katastrophenst\u00fctzpunkt in Europa", "url": "https://www1.wdr.de/nachrichten/ruhrgebiet/amazon-in-rheinberg-100.html", "thumbnailUrl": null, "date": "2024-03-27T19:39:21Z", "lat": 51.5473, "lon": 6.6056, "intensity": 0.6, "source": "WDR"}, {"title": "Toter Seeadler: Todesursache wahrscheinlich anderer Gro\u00dfvogel", "url": "https://www1.wdr.de/nachrichten/rheinland/toter-seeadler-xanten-100.html", "thumbnailUrl": null, "date": "2024-04-05T09:13:28Z", "lat": 51.6613, "lon": 6.4542, "intensity": 0.6, "source": "WDR"}, {"title": "Tote Fichten fahren Seilbahn", "url": "https://www1.wdr.de/nachrichten/rheinland/fichten-schweben-in-solingen-um-schaeden-im-wald-zu-vermeiden-100.html", "thumbnailUrl": null, "date": "2024-04-05T06:04:48Z", "lat": 51.1734, "lon": 7.082, "intensity": 0.7, "source": "WDR"}, {"title": "Mit Eisenstange bewaffnet: Polizei erschie\u00dft Mann in Dortmund", "url": "https://www1.wdr.de/nachrichten/mann-dortmund-randalierer-reinoldikirche-niedergeschossen-100.html", "thumbnailUrl": null, "date": "2024-04-05T09:07:44Z", "lat": 51.5142, "lon": 7.4674, "intensity": 0.8, "source": "WDR"}, {"title": "NRW-Polizei identifiziert rund 80 Rechtsextreme in eigenen Reihen", "url": "https://www1.wdr.de/nachrichten/landespolitik/rechtsextreme-nrw-polizei-100.html", "thumbnailUrl": null, "date": "2024-04-04T17:56:00Z", "lat": 51.9607, "lon": 7.6261, "intensity": 0.7, "source": "WDR"}, {"title": "NRW-Landtag jetzt auf WhatsApp und YouTube Shorts", "url": "https://www1.wdr.de/nachrichten/landespolitik/landtag-whatsapp-youtube-100.html", "thumbnailUrl": null, "date": "2024-04-04T15:31:48Z", "lat": 51.5136, "lon": 7.4854, "intensity": 0.6, "source": "WDR"}, {"title": "NRW-Kriminalstatistik 2023: Mehr Straftaten und mehr junge Tatverd\u00e4chtige", "url": "https://www1.wdr.de/nachrichten/landespolitik/kriminalitaetsstatistik-nrw-reul-100.html", "thumbnailUrl": null, "date": "2024-04-04T15:09:10Z", "lat": 51.8133, "lon": 7.6261, "intensity": 0.8, "source": "WDR"}, {"title": "Kommentar: Herbert Reul - der Sheriff ist gescheitert", "url": "https://www1.wdr.de/nachrichten/landespolitik/kriminalitaet-nrw-reul-kommentar-100.html", "thumbnailUrl": null, "date": "2024-04-03T15:56:13Z", "lat": 51.9607, "lon": 7.6261, "intensity": 0.8, "source": "WDR"}, {"title": "Ministerinnen-Paar: Gr\u00fcne Ministerin Paul will Justizministerin aus Sachsen heiraten", "url": "https://www1.wdr.de/nachrichten/landespolitik/gruene-ministerin-paul-will-amtskollegin-heiraten-100.html", "thumbnailUrl": null, "date": "2024-04-03T15:40:36Z", "lat": 51.1657, "lon": 9.9286, "intensity": 0.4, "source": "WDR"}, {"title": "Kreis Heinsberg warnt vor Kriebelm\u00fccke", "url": "https://www1.wdr.de/nachrichten/rheinland/kreis-heinsberg-warnt-vor-kriebelmuecke-100.html", "thumbnailUrl": null, "date": "2024-04-05T09:59:49Z", "lat": 51.0632, "lon": 6.1016, "intensity": 0.3, "source": "WDR"}, {"title": "Lama- und Alpaka-Wanderung f\u00fcr Hochwasserbetroffene in der Eifel", "url": "https://www1.wdr.de/nachrichten/rheinland/lamawanderung-hellenthal-hochwassergeschaedigte-100.html", "thumbnailUrl": null, "date": "2024-04-04T18:34:46Z", "lat": 50.4421, "lon": 6.4469, "intensity": 0.4, "source": "WDR"}, {"title": "Wuppertaler Zoo half beim Umzug des Johannes-Rau-Gymnasiums", "url": "https://www1.wdr.de/nachrichten/rheinland/wuppertal-gymnasium-zieht-in-osterferien-um-100.html", "thumbnailUrl": null, "date": "2024-04-05T05:28:35Z", "lat": 51.2647, "lon": 7.1797, "intensity": 0.6, "source": "WDR"}, {"title": "300 Menschen erinnern in Dortmund mit Schweigemarsch an Mehmet Kuba\u015f\u0131k", "url": "https://www1.wdr.de/nachrichten/ruhrgebiet/tag-der-solidaritaet-mehmet-kubasik-100.html", "thumbnailUrl": null, "date": "2024-04-04T18:33:17Z", "lat": 51.513, "lon": 7.468, "intensity": 0.8, "source": "WDR"}, {"title": "Taubenraub in Gelsenkirchen", "url": "https://www1.wdr.de/nachrichten/ruhrgebiet/taubenraub-gelsenkirchen-100.html", "thumbnailUrl": null, "date": "2024-04-04T18:24:37Z", "lat": 51.5177, "lon": 7.084, "intensity": 0.6, "source": "WDR"}, {"title": "Colani-Ei in L\u00fcnen - Wahrzeichen \u00f6ffnet f\u00fcr Besucher", "url": "https://www1.wdr.de/nachrichten/ruhrgebiet/colani-ei-luenen-102.html", "thumbnailUrl": null, "date": "2024-04-04T18:51:21Z", "lat": 51.6171, "lon": 7.4836, "intensity": 0.3, "source": "WDR"}, {"title": "Nach Verhandlung mit Amazon: Stadt-Mitarbeiter nach \u00f6ffentlichen Beleidigungen krank geschrieben", "url": "https://www1.wdr.de/nachrichten/westfalen-lippe/horn-bad-meinberg-streit-amazon-wirtschaftsfoerderer-100.html", "thumbnailUrl": null, "date": "2024-04-05T07:55:17Z", "lat": 51.8774, "lon": 8.8547, "intensity": 0.6, "source": "WDR"}, {"title": "Rudern: Deutschland-Achter f\u00fcr Olympia in Dortmund vorgestellt", "url": "https://www1.wdr.de/nachrichten/ruhrgebiet/vorstellung-deutschlandachter-rudern-100.html", "thumbnailUrl": null, "date": "2024-04-04T20:49:41Z", "lat": 51.5136, "lon": 7.4633, "intensity": 0.8, "source": "WDR"}, {"title": "Kostenloses Trinkwasser in S\u00fcdwestfalen boomt", "url": "https://www1.wdr.de/nachrichten/westfalen-lippe/trinkwasser-kostenlos-warstein-radfahrer-100.html", "thumbnailUrl": null, "date": "2024-04-04T13:55:23Z", "lat": 51.0, "lon": 8.0, "intensity": 0.4, "source": "WDR"}, {"title": "Die App WDR aktuell begleitet Sie durch den Tag", "url": "https://www1.wdr.de/nachrichten/wdr-aktuell-app-stores-100.html", "thumbnailUrl": null, "date": "2023-10-30T11:49:53Z", "lat": 51.4508, "lon": 7.6261, "intensity": 0.3, "source": "WDR"}, {"title": "WDR Newsroom: Informationen f\u00fcr den Westen rund um die Uhr auf allen Kan\u00e4len", "url": "https://www1.wdr.de/nachrichten/newsroom-information-nrw-westen-100.html", "thumbnailUrl": null, "date": "2021-04-14T22:00:15Z", "lat": 51.4556, "lon": 7.0116, "intensity": 0.1, "source": "WDR"}, {"title": "Das Leitungsteam des Newsrooms im WDR (Programmbereich Aktuelles)", "url": "https://www1.wdr.de/nachrichten/newsroom-leitung-team-programmbereich-aktuelles-100.html", "thumbnailUrl": null, "date": "2024-03-08T15:34:21Z", "lat": 51.460021, "lon": 7.014026, "intensity": 0.3, "source": "WDR"}, {"title": "Pkw eingekesselt und Scheibe eingeschlagen: \"Heldenhafte Rettungsaktion\" in Th\u00fcringen", "url": "https://www.mdr.de/nachrichten/thueringen/mitte-thueringen/weimar/unfall-autobahn-helfer-100.html", "thumbnailUrl": null, "date": "Fri, 05 Apr 2024 10:43:20 +0200", "lat": 50.985444, "lon": 10.859675, "intensity": 0.7, "source": "MDR"}, {"title": "Genthin: Stadtrat stimmt f\u00fcr Abwahlantrag gegen B\u00fcrgermeister", "url": "https://www.mdr.de/nachrichten/sachsen-anhalt/magdeburg/jerichow/genthin-abwahlantrag-buergermeister-guenther-100.html", "thumbnailUrl": null, "date": "Fri, 05 Apr 2024 06:47:57 +0200", "lat": 52.3989, "lon": 11.7368, "intensity": 0.8, "source": "MDR"}, {"title": "Spargelernte in Th\u00fcringen beginnt 2024 fr\u00fcher als \u00fcblich - Preise bleiben stabil", "url": "https://www.mdr.de/nachrichten/thueringen/spargel-ernte-saison-verkauf-start-100.html", "thumbnailUrl": null, "date": "Fri, 05 Apr 2024 11:26:29 +0200", "lat": 51.0109, "lon": 10.8453, "intensity": 0.3, "source": "MDR"}, {"title": "Sozialwesen: Es gibt zu wenige Pflegeeltern f\u00fcr immer mehr Pflegekinder", "url": "https://www.mdr.de/nachrichten/deutschland/gesellschaft/mehr-pflegekinder-weniger-pflegefamilien-100.html", "thumbnailUrl": null, "date": "Fri, 05 Apr 2024 09:31:01 +0200", "lat": 51.3784, "lon": 11.6276, "intensity": 0.8, "source": "MDR"}, {"title": "\"Charit\u00e9\": Warum die neue Staffel so au\u00dfergew\u00f6hnlich ist", "url": "https://www.mdr.de/nachrichten/deutschland/gesellschaft/charite-serie-terziyan-medizin-zukunft-kultur-news-100.html", "thumbnailUrl": null, "date": "Fri, 05 Apr 2024 05:00:02 +0200", "lat": 52.52, "lon": 13.3996, "intensity": 0.3, "source": "MDR"}, {"title": "S\u00fcdzucker in Zeitz: Millionen-Investition f\u00fcr 50 neue Arbeitspl\u00e4tze", "url": "https://www.mdr.de/nachrichten/sachsen-anhalt/halle/burgenland/zeitz-suedzucker-crop-energies-spatenstich-100.html", "thumbnailUrl": null, "date": "Fri, 05 Apr 2024 11:49:12 +0200", "lat": 51.0447, "lon": 12.1477, "intensity": 0.7, "source": "MDR"}, {"title": "Angebot f\u00fcr Fl\u00fcchtlingskinder: Th\u00fcringen kann Suhler Turnhalle nicht wie geplant \u00f6ffnen", "url": "https://www.mdr.de/nachrichten/thueringen/sued-thueringen/suhl/turnhalle-fluechtlinge-kinder-verzoegerung-100.html", "thumbnailUrl": null, "date": "Fri, 05 Apr 2024 10:22:04 +0200", "lat": 50.6116, "lon": 10.7052, "intensity": 0.6, "source": "MDR"}, {"title": "Israel k\u00fcndigt Aufstockung der Gaza-Hilfen an", "url": "https://www.mdr.de/nachrichten/welt/politik/israel-gaza-hilfen-ausweitung-usa-druck-100.html", "thumbnailUrl": null, "date": "Fri, 05 Apr 2024 11:53:53 +0200", "lat": 31.9539, "lon": 34.4359, "intensity": 0.8, "source": "MDR"}, {"title": "Ukraine-News: Russland spricht von abgewehrten Angriffen auf Rostow am Don", "url": "https://www.mdr.de/nachrichten/welt/osteuropa/politik/ukraine-russland-kireg-drohnenangriff-abwehr-rostow-100.html", "thumbnailUrl": null, "date": "Fri, 05 Apr 2024 09:04:48 +0200", "lat": 47.2357, "lon": 39.7139, "intensity": 0.8, "source": "MDR"}, {"title": "\u00d6PNV in Sachsen-Anhalt: L\u00e4ngere Streiks bei Bussen und Stra\u00dfenbahnen drohen", "url": "https://www.mdr.de/nachrichten/sachsen-anhalt/streik-nahverkehr-oepnv-abstimmung-100.html", "thumbnailUrl": null, "date": "Fri, 05 Apr 2024 10:15:35 +0200", "lat": 52.1667, "lon": 11.6015, "intensity": 0.8, "source": "MDR"}, {"title": "Unfall auf A4: Oma und drei Enkelkinder \u00fcberschlagen sich", "url": "https://www.mdr.de/nachrichten/sachsen/dresden/meissen/unfall-oma-enkelkinder-schwerverletzt-autobahn-100.html", "thumbnailUrl": null, "date": "Fri, 05 Apr 2024 08:20:51 +0200", "lat": 51.082, "lon": 13.587, "intensity": 0.8, "source": "MDR"}, {"title": "Osteuropa", "url": "https://www.mdr.de/nachrichten/welt/osteuropa/index.html", "thumbnailUrl": null, "date": "Tue, 25 Apr 2023 13:02:57 +0200", "lat": 45.9432, "lon": 23.8859, "intensity": 0.5, "source": "MDR"}, {"title": "Verkehr", "url": "https://www.mdrjump.de/verkehr/index.html", "thumbnailUrl": null, "date": "Thu, 09 Jun 2022 11:05:09 +0200", "lat": 51.1657, "lon": 11.6229, "intensity": 0.2, "source": "MDR"}, {"title": "So ver\u00e4ndert sich das Klima in Sachsen, Sachsen-Anhalt und Th\u00fcringen", "url": "https://www.mdr.de/nachrichten/deutschland/panorama/wetter-klima-wandel-daten-archiv-region-100.html", "thumbnailUrl": null, "date": "Mon, 04 Mar 2024 10:27:56 +0100", "lat": 51.339695, "lon": 12.496365, "intensity": 0.6, "source": "MDR"}, {"title": "40 Milliarden f\u00fcr den Ausstieg aus der Braunkohle", "url": "https://www.mdr.de/nachrichten/deutschland/wirtschaft/kohlemilliarden/kohle-ausstieg-foerderung-steuergeld-100.html", "thumbnailUrl": null, "date": "Thu, 07 Dec 2023 14:06:43 +0100", "lat": 52.52, "lon": 13.405, "intensity": 0.7, "source": "MDR"}, {"title": "Schaffen wir die Energiewende? Live-Daten zum Ausbau der Windkraft in Deutschland", "url": "https://www.mdr.de/wissen/windkraft-windenergie-ausbau-deutschland-live-daten-aktuell-100.html", "thumbnailUrl": null, "date": "Thu, 16 Mar 2023 10:28:43 +0100", "lat": 51.1657, "lon": 10.4515, "intensity": 0.8, "source": "MDR"}, {"title": "ThSV Eisenach: Attenhofer soll die Weyhrauch-L\u00fccke schlie\u00dfen", "url": "https://www.mdr.de/sport/handball/thsv-eisenach-gian-attenhofer-neuzugang-100.html", "thumbnailUrl": null, "date": "Fri, 05 Apr 2024 09:00:27 +0200", "lat": 50.9787, "lon": 10.3222, "intensity": 0.6, "source": "MDR"}, {"title": "Dynamo Dresden: Gegen Saarbr\u00fccken \"kann es nur besser werden\"", "url": "https://www.mdr.de/sport/fussball_3l/vorschau-dynamo-dresden-fc-saarbruecken-100.html", "thumbnailUrl": null, "date": "Fri, 05 Apr 2024 08:15:27 +0200", "lat": 51.0504, "lon": 13.751, "intensity": 0.8, "source": "MDR"}, {"title": "1. FC Magdeburg in Elversberg unter Zugzwang - \"Das Maximum investieren\"", "url": "https://www.mdr.de/sport/fussball_2bl/vorschau-sv-elversberg-fc-magdeburg-100.html", "thumbnailUrl": null, "date": "Thu, 04 Apr 2024 17:12:10 +0200", "lat": 49.2906, "lon": 7.11, "intensity": 0.6, "source": "MDR"}, {"title": "Kl\u00f6ppeln ist spitze: Tausende Fans in Schwarzenberg erwartet", "url": "https://www.mdr.de/nachrichten/sachsen/chemnitz/annaberg-aue-schwarzenberg/diy-handarbeit-kloeppeln-handwerk-ausflug-100.html", "thumbnailUrl": null, "date": "Fri, 05 Apr 2024 05:15:00 +0200", "lat": 50.5358, "lon": 12.9574, "intensity": 0.3, "source": "MDR"}, {"title": "Wie gef\u00e4hrlich sind Katzen f\u00fcr Singv\u00f6gel?", "url": "https://www.mdr.de/sachsenradio/katzen-voegel-gefahr-garten-100.html", "thumbnailUrl": null, "date": "Thu, 04 Apr 2024 19:11:40 +0200", "lat": 51.104541, "lon": 12.496365, "intensity": 0.8, "source": "MDR"}, {"title": "Der Alltag s\u00e4chsischer Streaming-Profis: Zocken und Zeichnen unter Beobachtung", "url": "https://www.mdr.de/nachrichten/sachsen/leipzig/leipzig-leipzig-land/gaming-streaming-twitch-messe-erfolg-100.html", "thumbnailUrl": null, "date": "Fri, 05 Apr 2024 09:00:00 +0200", "lat": 51.3438, "lon": 12.3826, "intensity": 0.8, "source": "MDR"}, {"title": "Leipzig: 12. S\u00e4chsisches Theatertreffen stellt Programm vor", "url": "https://www.mdr.de/nachrichten/sachsen/leipzig/leipzig-leipzig-land/saechsisches-theater-treffen-programm-kultur-news-100.html", "thumbnailUrl": null, "date": "Thu, 04 Apr 2024 19:36:02 +0200", "lat": 51.343, "lon": 12.386, "intensity": 0.5, "source": "MDR"}, {"title": "Sonneberg, Zeitz und Radebeul: Ausflugsziele f\u00fcrs Wochenende", "url": "https://www.mdr.de/kultur/ausflug-tipps/sonneberg-zeitz-radebeul-wohin-am-wochenende-tipps-100.html", "thumbnailUrl": null, "date": "Thu, 04 Apr 2024 15:30:00 +0200", "lat": 50.3563, "lon": 11.167, "intensity": 0.4, "source": "MDR"}, {"title": "Forschung aus Jena: Bakterien und Gr\u00fcnalgen \"Hand in Hand\" zum Klimaschutz", "url": "https://www.mdr.de/wissen/umwelt-klima/news-bakterien-gruenalgen-gemeinsam-klimaschutz-100.html", "thumbnailUrl": null, "date": "Fri, 05 Apr 2024 11:32:16 +0200", "lat": 50.927, "lon": 11.587, "intensity": 0.7, "source": "MDR"}, {"title": "USA wollen Mondzeit einf\u00fchren", "url": "https://www.mdr.de/wissen/astronomie-raumfahrt/mondzeit-usa-mond-nasa-mondlandung-zeitumstellung-100.html", "thumbnailUrl": null, "date": "Thu, 04 Apr 2024 13:58:37 +0200", "lat": 37.0902, "lon": -95.7129, "intensity": 0.6, "source": "MDR"}, {"title": "Dresdner Forscher sichern Daten dauerhaft durch atomare Defekte", "url": "https://www.mdr.de/wissen/naturwissenschaften-technik/siliziumkarbid-datenspeicher-daten-langzeit-speicherung-hzdr-dresden-100.html", "thumbnailUrl": null, "date": "Thu, 04 Apr 2024 18:00:09 +0200", "lat": 51.0504, "lon": 13.7815, "intensity": 0.7, "source": "MDR"}, {"title": "Maite Kelly: \"Ich bin von Natur aus eher sch\u00fcchtern!\"", "url": "https://www.mdr.de/meine-schlagerwelt/maite-kelly-kelly-family-ueber-ihre-neue-arena-show-schlager-des-monats-christin-stark100.html", "thumbnailUrl": null, "date": "Fri, 05 Apr 2024 11:24:33 +0200", "lat": 53.5511, "lon": 9.9869, "intensity": 0.6, "source": "MDR"}, {"title": "Marie Wegener weint um \"Rocky\"", "url": "https://www.mdr.de/meine-schlagerwelt/marie-wegener-trauer-um-hund-rocky-koeniglich-siegerin-dsds-100.html", "thumbnailUrl": null, "date": "Thu, 04 Apr 2024 14:06:16 +0200", "lat": 51.0491, "lon": 7.8332, "intensity": 0.4, "source": "MDR"}, {"title": "Ungarn in der Nato: Treuer Verb\u00fcndeter oder Wackelkandidat?", "url": "https://www.mdr.de/nachrichten/welt/osteuropa/politik/nato-ungarn-usa-schweden-orban-100.html", "thumbnailUrl": null, "date": "Fri, 05 Apr 2024 05:00:05 +0200", "lat": 47.4979, "lon": 19.0402, "intensity": 0.7, "source": "MDR"}, {"title": "Jubil\u00e4um 600 Jahre Stendaler Dom", "url": "https://www.mdr.de/religion/dom-stendal-sechshundert-jahre-jubilaeum-100.html", "thumbnailUrl": null, "date": "Fri, 05 Apr 2024 10:32:08 +0200", "lat": 52.6147, "lon": 11.8634, "intensity": 0.3, "source": "MDR"}, {"title": "FAQ Barrierefreiheit-Projekt: Welche Barrieren gibt es in Sachsen-Anhalt?", "url": "https://www.mdr.de/nachrichten/sachsen-anhalt/faq-fragen-barrierefreiheit-projekt-100.html", "thumbnailUrl": null, "date": "Fri, 05 Apr 2024 10:46:32 +0200", "lat": 52.1337, "lon": 11.582, "intensity": 0.6, "source": "MDR"}, {"title": "MDR TH\u00dcRINGEN: Neue Direktorin tritt Amt im Landesfunkhaus an", "url": "https://www.mdr.de/nachrichten/thueringen/mitte-thueringen/erfurt/direktorin-landesfunkhaus-astrid-plenk-kika-ard-zdf-100.html", "thumbnailUrl": null, "date": "Tue, 02 Apr 2024 15:03:07 +0200", "lat": 50.9848, "lon": 11.0299, "intensity": 0.4, "source": "MDR"}, {"title": "Nach Messerangriff in Wangen im Allg\u00e4u: 34-J\u00e4hriger wegen versuchten Mordes in U-Haft", "url": "https://www.swr.de/swraktuell/baden-wuerttemberg/friedrichshafen/mann-sticht-in-supermarkt-auf-vierjaehrige-ein-100.html", "thumbnailUrl": "https://www.swr.de/swraktuell/baden-wuerttemberg/friedrichshafen/1712256430888%2Csupermarkt-wangen-mann-sticht-auf-vierjaehrige-ein-100~_v-16x9@2dXL_-77ed5d09bafd4e3cf6a5a0264e5e16ea35f14925.jpg", "date": "Fri, 5 Apr 2024 10:34:08 +0200", "lat": 47.6878, "lon": 9.8333, "intensity": 0.8, "source": "SWR"}, {"title": "Sommerwetter am Wochenende: Bis zu 30 Grad in BW m\u00f6glich", "url": "https://www.swr.de/swraktuell/baden-wuerttemberg/sommerwetter-in-bw-am-wochenende-100.html", "thumbnailUrl": "https://www.swr.de/swraktuell/baden-wuerttemberg/1712243328704%2Csymbolbild-sonnenschein-radfahrer-100~_v-16x9@2dXL_-77ed5d09bafd4e3cf6a5a0264e5e16ea35f14925.jpg", "date": "Fri, 5 Apr 2024 12:03:36 +0200", "lat": 48.6616, "lon": 9.9937, "intensity": 0.7, "source": "SWR"}, {"title": "Osthofen seit mehr als zwei Wochen ohne Mobilfunk: \"Kommunikationsdesaster\"", "url": "https://www.swr.de/swraktuell/rheinland-pfalz/mainz/osthofen-seit-wochen-ohne-mobilfunknetz-buergermeister-schlaegt-alarm-102.html", "thumbnailUrl": null, "date": "Fri, 5 Apr 2024 11:36:40 +0200", "lat": 49.7483, "lon": 8.3667, "intensity": 0.8, "source": "SWR"}, {"title": "Junge Menschen aus Ruanda machen Ausbildung in rheinhessischen Hotels", "url": "https://www.swr.de/swraktuell/rheinland-pfalz/mainz/azubis-aus-ruanda-rheinhessische-hotels-atrium-100.html", "thumbnailUrl": "https://www.swr.de/swraktuell/rheinland-pfalz/mainz/1712307945792%2Cazubis-aus-ruanda-atrium-hotel-mainz-100~_v-16x9@2dXL_-77ed5d09bafd4e3cf6a5a0264e5e16ea35f14925.jpg", "date": "Fri, 5 Apr 2024 11:05:46 +0200", "lat": 49.9928621, "lon": 8.2472522, "intensity": 0.6, "source": "SWR"}, {"title": "05.04.1994: Kurt Cobain erschie\u00dft sich", "url": "https://www.swr.de/swr2/musik-jazz-und-pop/swr2-zeitwort-20240405-kurt-cobain-erschiesst-sich-100.html", "thumbnailUrl": "https://www.swr.de/swr2/musik-jazz-und-pop/1712234592647%2Cswr2-zeitwort-20240405-kurt-cobain-erschiesst-sich-102~_v-16x9@2dXL_-77ed5d09bafd4e3cf6a5a0264e5e16ea35f14925.jpg", "date": "Fri, 5 Apr 2024 05:00:00 +0200", "lat": 47.6062, "lon": -122.3321, "intensity": 1, "source": "SWR"}, {"title": "Klippenspringerin - Sturz ins Ungewisse", "url": "https://www.ardmediathek.de/video/swr-portraet/swr-portraet-klippenspringerin-sturz-ins-ungewisse/swr/Y3JpZDovL3N3ci5kZS9hZXgvbzIwMjgwMDE", "thumbnailUrl": "https://www.swr.de/home/1712300714712%2Canna-bader-klippenspringerin-102~_v-16x9@2dXL_-77ed5d09bafd4e3cf6a5a0264e5e16ea35f14925.jpg", "date": "Fri, 5 Apr 2024 09:05:52 +0200", "lat": 49.8078, "lon": 7.1367, "intensity": 0.8, "source": "SWR"}, {"title": "F\u00e4llt ein Goldfisch vom Himmel \u2013 und \u00fcberlebt", "url": "https://www.swr3.de/aktuell/nachrichten/reiher-goldfisch-wasser-100.html", "thumbnailUrl": "https://www.swr3.de/aktuell/nachrichten/1712303938684%2Cgoldfisch-102~_v-16x9@2dXL_-77ed5d09bafd4e3cf6a5a0264e5e16ea35f14925.jpg", "date": "Fri, 5 Apr 2024 09:58:59 +0200", "lat": 49.2506, "lon": 8.8767, "intensity": 0.2, "source": "SWR"}, {"title": "Aggressive P\u00f6bler in Mainz: Wie geht die Polizei mit solchen Menschen um?", "url": "https://www.swr.de/swraktuell/rheinland-pfalz/mainz/wie-geht-die-polizei-in-mainz-mit-immer-wieder-aggressiven-menschen-um-102.html", "thumbnailUrl": "https://www.swr.de/swraktuell/rheinland-pfalz/mainz/1712230434711%2Cwie-geht-die-polizei-in-mainz-mit-immer-wieder-aggressiven-menschen-um-100~_v-16x9@2dXL_-77ed5d09bafd4e3cf6a5a0264e5e16ea35f14925.jpg", "date": "Thu, 4 Apr 2024 15:01:16 +0200", "lat": 49.9929, "lon": 8.2418, "intensity": 0.8, "source": "SWR"}, {"title": "Weniger Motorradl\u00e4rm im Schwarzwald? Gemeinden rund um Todtnau setzen auf neue Regeln", "url": "https://www.swr.de/swraktuell/baden-wuerttemberg/suedbaden/pilotprojekt-motorradlaerm-100.html", "thumbnailUrl": "https://www.swr.de/swraktuell/baden-wuerttemberg/suedbaden/1712252797821%2Cstrassenarbeiten-schilder-bei-todtnau-100~_v-16x9@2dXL_-77ed5d09bafd4e3cf6a5a0264e5e16ea35f14925.jpg", "date": "Fri, 5 Apr 2024 11:37:12 +0200", "lat": 47.8228, "lon": 7.9208, "intensity": 0.6, "source": "SWR"}, {"title": "Hochstra\u00dfe Nord: Natursch\u00fctzer kritisieren Stadt Ludwigshafen wegen Umzugs von Eidechsen", "url": "https://www.swr.de/swraktuell/rheinland-pfalz/ludwigshafen/wegen-grossbaustelle-in-ludwigshafen-naturschuetzer-kritisieren-neues-zuhause-fuer-eidechsen-100.html", "thumbnailUrl": "https://www.swr.de/swraktuell/baden-wuerttemberg/stuttgart/1657021119268%2Cmauereidechse-108~_v-16x9@2dL_-6c42aff4e68b43c7868c3240d3ebfa29867457da.jpg", "date": "Fri, 5 Apr 2024 11:28:35 +0200", "lat": 49.4846, "lon": 8.4433, "intensity": 0.6, "source": "SWR"}, {"title": "Mann bedroht Menschen mit Messer: Polizei setzt Schusswaffe ein", "url": "https://www.swr.de/swraktuell/baden-wuerttemberg/friedrichshafen/schuss-bei-polizeieinsatz-nach-messerangriff-in-uhldingen-muehlhofen-100.html", "thumbnailUrl": "https://www.swr.de/swraktuell/baden-wuerttemberg/friedrichshafen/1712236769255%2Cschusswechsel-oberuhldingen-100~_v-16x9@2dXL_-77ed5d09bafd4e3cf6a5a0264e5e16ea35f14925.jpg", "date": "Fri, 5 Apr 2024 09:01:29 +0200", "lat": 47.7486, "lon": 9.2212, "intensity": 0.8, "source": "SWR"}, {"title": "20 Jahre alter Bergsteiger aus dem Kreis Neuwied stirbt am Watzmann", "url": "https://www.swr.de/swraktuell/rheinland-pfalz/koblenz/toter-bergsteiger-watzmann-kommt-aus-rlp-100.html", "thumbnailUrl": "https://www.swr.de/swraktuell/rheinland-pfalz/koblenz/1712246789721%2Crettungshubschrauber-bergwacht-watzmann-abgestuerzter-bergsteiger-100~_v-16x9@2dXL_-77ed5d09bafd4e3cf6a5a0264e5e16ea35f14925.jpg", "date": "Fri, 5 Apr 2024 09:13:40 +0200", "lat": 47.5443, "lon": 12.9368, "intensity": 0.8, "source": "SWR"}, {"title": "Dem Pf\u00e4lzerwald geht es so gut wie lange nicht", "url": "https://www.swr.de/swraktuell/rheinland-pfalz/ludwigshafen/weniger-trockene-boeden-im-pfaelzerwald-100.html", "thumbnailUrl": "https://www.swr.de/swraktuell/rheinland-pfalz/ludwigshafen/1712294424088%2Cpfaelzerwald-118~_v-16x9@2dXL_-77ed5d09bafd4e3cf6a5a0264e5e16ea35f14925.jpg", "date": "Fri, 5 Apr 2024 10:49:20 +0200", "lat": 49.2413, "lon": 7.9234, "intensity": 0.6, "source": "SWR"}, {"title": "Bew\u00e4hrungsstrafe nach t\u00f6dlichem Kutschenunfall im Kreis Biberach", "url": "https://www.swr.de/swraktuell/baden-wuerttemberg/friedrichshafen/prozess-toedlicher-kutschenunfall-amtsgericht-biberach-100.html", "thumbnailUrl": "https://www.swr.de/swraktuell/baden-wuerttemberg/friedrichshafen/1667753705321%2Ctoedlicher-unfall-bei-rot-an-der-rot-100~_v-16x9@2dXL_-77ed5d09bafd4e3cf6a5a0264e5e16ea35f14925.jpg", "date": "Thu, 4 Apr 2024 18:15:49 +0200", "lat": 48.09, "lon": 9.7908, "intensity": 0.7, "source": "SWR"},