[{"title": "Hessen am Morgen: +++ Lagerhalle in Lich in Flammen +++", "url": "https://www.tagesschau.de/inland/regional/hessen/hr-hessen-am-morgen--lagerhalle-in-lich-in-flammen-100.html", "thumbnailUrl": "https://images.tagesschau.de/image/a4ff5d2b-9ff3-42e8-9ddd-9c0d40f743a1/AAABjpz4yX8/AAABjcWesUg/16x9-512.jpg", "date": "2024-04-02T06:01:03.334+02:00", "lat": 50.5358, "lon": 8.8197, "intensity": 0.7, "source": "Tagesschau"}, {"title": "FCK im DFB-Pokal, Dreyer reist nach Ruanda, Ankiffen in Mainz", "url": "https://www.tagesschau.de/inland/regional/rheinlandpfalz/swr-fck-im-dfb-pokal-dreyer-reist-nach-ruanda-ankiffen-in-mainz-100.html", "thumbnailUrl": "https://images.tagesschau.de/image/94efac22-7f32-45f2-be3b-7bde7394deea/AAABjpz4rN4/AAABjcWesUg/16x9-512.jpg", "date": "2024-04-02T06:01:00.000+02:00", "lat": 49.9929, "lon": 7.2662, "intensity": 0.5, "source": "Tagesschau"}, {"title": "++ USA: Israel will Bedenken \"ber\u00fccksichtigen\" ++", "url": "https://www.tagesschau.de/newsticker/liveblog-nahost-dienstag-124.html", "thumbnailUrl": "https://images.tagesschau.de/image/7262eed0-99bd-4d9d-898e-fd814a7e56e7/AAABjRhaPSA/AAABjcWesUg/16x9-512.jpg", "date": "2024-04-02T05:21:39.924+02:00", "lat": 31.4611, "lon": 35.0036, "intensity": 0.7, "source": "Tagesschau"}, {"title": "Israel will Sender Al Jazeera abschalten", "url": "https://www.tagesschau.de/ausland/asien/israel-gesetz-al-jazeera-100.html", "thumbnailUrl": "https://images.tagesschau.de/image/303acc43-d709-47c7-8c87-d18683f43c91/AAABjXlxmsc/AAABjcWesUg/16x9-512.jpg", "date": "2024-04-02T05:06:35.955+02:00", "lat": 31.7683, "lon": 35.2137, "intensity": 0.8, "source": "Tagesschau"}, {"title": "Saisonstart in MV: Tourismusbranche zufrieden mit dem Ostergesch\u00e4ft", "url": "https://www.tagesschau.de/inland/regional/mecklenburgvorpommern/ndr-saisonstart-in-mv-tourismusbranche-zufrieden-mit-dem-ostergeschaeft-100.html", "thumbnailUrl": "https://images.tagesschau.de/image/cef98533-7c61-43f7-8fd8-763616c96cd6/AAABjppL1bs/AAABjcWesUg/16x9-512.jpg", "date": "2024-04-02T05:04:00.000+02:00", "lat": 53.6127, "lon": 12.5655, "intensity": 0.8, "source": "Tagesschau"}, {"title": "\"Team nebenan\": 1.000 Euro f\u00fcr eine Idee", "url": "https://www.tagesschau.de/inland/regional/hamburg/ndr-team-nebenan-1-000-euro-fuer-eine-idee-100.html", "thumbnailUrl": "https://images.tagesschau.de/image/3f02b3f4-0eb7-4235-9427-2fc3ac61bd1c/AAABjpzANPE/AAABjcWesUg/16x9-512.jpg", "date": "2024-04-02T05:00:00.000+02:00", "lat": 53.5511, "lon": 9.9937, "intensity": 0.8, "source": "Tagesschau"}, {"title": "Signalrakete gez\u00fcndet: Segelboot ger\u00e4t auf dem Bodensee in Not", "url": "https://www.tagesschau.de/inland/regional/badenwuerttemberg/swr-signalrakete-gezuendet-segelboot-geraet-auf-dem-bodensee-in-seenot-100.html", "thumbnailUrl": "https://images.tagesschau.de/image/7eb4256f-6d49-4847-a77e-9963fc05acf7/AAABjpYtHhw/AAABjcWesUg/16x9-512.jpg", "date": "2024-04-02T03:42:00.000+02:00", "lat": 47.6244, "lon": 9.5901, "intensity": 0.7, "source": "Tagesschau"}, {"title": "\"Russland zur Verantwortung ziehen\"", "url": "https://www.tagesschau.de/ausland/europa/ukraine-konferenz-den-haag-100.html", "thumbnailUrl": "https://images.tagesschau.de/image/eb3d950f-4829-486b-b1a2-199386a98828/AAABjpsu1T0/AAABjcWesUg/16x9-512.jpg", "date": "2024-04-02T03:31:09.152+02:00", "lat": 50.4501, "lon": 30.5234, "intensity": 0.6, "source": "Tagesschau"}, {"title": "Drei Tote nach Lawine bei Zermatt", "url": "https://www.tagesschau.de/ausland/europa/zermatt-lawine-100.html", "thumbnailUrl": "https://images.tagesschau.de/image/694c65f7-1b97-44b0-ab95-bc14122e246d/AAABjpxg7Bc/AAABjcWesUg/16x9-512.jpg", "date": "2024-04-02T03:25:32.693+02:00", "lat": 46.0207, "lon": 7.7439, "intensity": 0.9, "source": "Tagesschau"}, {"title": "Luftangriff t\u00f6tet Mitarbeiter von Hilfsorganisation", "url": "https://www.tagesschau.de/ausland/asien/nahost-isreal-luftangriff-hilfsorganisation-100.html", "thumbnailUrl": "https://images.tagesschau.de/image/13b596ba-b1c3-40d7-8a9f-94f2b3ddf092/AAABjpw8VOE/AAABjcWesUg/16x9-512.jpg", "date": "2024-04-02T03:08:20.026+02:00", "lat": 31.5204, "lon": 34.3447, "intensity": 0.9, "source": "Tagesschau"}, {"title": "Sorge vor Eskalation nach Angriff auf iranische Botschaft", "url": "https://www.tagesschau.de/ausland/asien/damaskus-explosion-iran-botschaft-102.html", "thumbnailUrl": "https://images.tagesschau.de/image/1886863b-49f1-47ca-8a35-18432ba8a835/AAABjpvNylw/AAABjcWesUg/16x9-512.jpg", "date": "2024-04-02T00:45:47.888+02:00", "lat": 33.5138, "lon": 36.3033, "intensity": 0.8, "source": "Tagesschau"}, {"title": "Cannabis-Bef\u00fcrworter in Mainz feiern Teillegalisierung", "url": "https://www.tagesschau.de/inland/regional/rheinlandpfalz/swr-cannabis-befuerworter-in-mainz-feiern-teillegalisierung-102.html", "thumbnailUrl": "https://images.tagesschau.de/image/b2ff0170-2d7b-45c2-b143-46654ca26461/AAABjpzxTBU/AAABjcWesUg/16x9-512.jpg", "date": "2024-04-02T00:06:41.000+02:00", "lat": 50.002541, "lon": 8.247252, "intensity": 0.8, "source": "Tagesschau"}, {"title": "60 Jahre Kampfschwimmer: Die Bundeswehr-Elite in Eckernf\u00f6rde", "url": "https://www.tagesschau.de/inland/regional/schleswigholstein/ndr-60-jahre-kampfschwimmer-die-bundeswehr-elite-in-eckernfoerde-100.html", "thumbnailUrl": "https://images.tagesschau.de/image/8fc59b10-318e-4564-8a39-b12f6b72fc0f/AAABjpuxQdE/AAABjcWesUg/16x9-512.jpg", "date": "2024-04-02T00:04:00.000+02:00", "lat": 54.4773, "lon": 9.8347, "intensity": 0.8, "source": "Tagesschau"}, {"title": "Alkoholverbot am Hamburger Hauptbahnhof wird heute wirksam", "url": "https://www.tagesschau.de/inland/regional/hamburg/ndr-alkoholverbot-am-hamburger-hauptbahnhof-tritt-am-dienstag-in-kraft-100.html", "thumbnailUrl": "https://images.tagesschau.de/image/1abf6620-cb89-4f2a-aca2-6511c86b5369/AAABjputyvY/AAABjcWesUg/16x9-512.jpg", "date": "2024-04-02T00:00:00.000+02:00", "lat": 53.5526, "lon": 9.9937, "intensity": 0.8, "source": "Tagesschau"}, {"title": "Abbau von \"Section Control\": B6 Richtung Laatzen gesperrt", "url": "https://www.tagesschau.de/inland/regional/niedersachsen/ndr-abbau-von-section-control-b6-richtung-laatzen-gesperrt-100.html", "thumbnailUrl": "https://images.tagesschau.de/image/068a752d-4e67-4798-843d-08c0267b36cf/AAABjput-6M/AAABjcWesUg/16x9-512.jpg", "date": "2024-04-02T00:00:00.000+02:00", "lat": 52.3015, "lon": 9.822, "intensity": 0.7, "source": "Tagesschau"}, {"title": "++ Israel erm\u00f6glicht Schlie\u00dfung von Al Jazeera ++", "url": "https://www.tagesschau.de/newsticker/liveblog-nahost-montag-124.html", "thumbnailUrl": "https://images.tagesschau.de/image/62d33f5a-9a56-4f6a-95cb-5f6d063aa8cc/AAABjprMIC8/AAABjcWesUg/16x9-512.jpg", "date": "2024-04-01T23:39:55.046+02:00", "lat": 31.7683, "lon": 35.2137, "intensity": 0.7, "source": "Tagesschau"}, {"title": "Unfall bei Villingen-Schwenningen: Zwei Autofahrer tot", "url": "https://www.tagesschau.de/inland/regional/badenwuerttemberg/swr-unfall-bei-villingen-schwenningen-zwei-autofahrer-tot-100.html", "thumbnailUrl": "https://images.tagesschau.de/image/041a152c-8579-45c8-a645-0f376e7a25ac/AAABjptwxyo/AAABjcWesUg/16x9-512.jpg", "date": "2024-04-01T22:51:04.000+02:00", "lat": 48.0602, "lon": 8.4626, "intensity": 0.8, "source": "Tagesschau"}, {"title": "Neue K\u00f6hlbrandbr\u00fccke soll bis zu 5,3 Milliarden Euro kosten", "url": "https://www.tagesschau.de/inland/regional/hamburg/ndr-koehlbrandbruecke-leonhard-will-neue-plaene-praesentieren-100.html", "thumbnailUrl": "https://images.tagesschau.de/image/acaf40ed-50c3-402c-b0e9-4304cfe7e813/AAABjpl17RM/AAABjcWesUg/16x9-512.jpg", "date": "2024-04-01T21:44:00.000+02:00", "lat": 53.5461, "lon": 9.9869, "intensity": 0.7, "source": "Tagesschau"}, {"title": "Mann in der N\u00e4he des Hamburger Hauptbahnhofs niedergeschossen", "url": "https://www.tagesschau.de/inland/regional/hamburg/ndr-mann-in-der-naehe-des-hamburger-hauptbahnhofs-niedergeschossen-100.html", "thumbnailUrl": "https://images.tagesschau.de/image/e706aec3-efa8-41ef-8e8d-955aad9cab6b/AAABjpOhoQY/AAABjcWesUg/16x9-512.jpg", "date": "2024-04-01T21:41:00.000+02:00", "lat": 53.553485, "lon": 9.991042, "intensity": 0.8, "source": "Tagesschau"}, {"title": "Angriff auf iranische Botschaft in Syrien", "url": "https://www.tagesschau.de/ausland/asien/damaskus-explosion-iran-botschaft-100.html", "thumbnailUrl": "https://images.tagesschau.de/image/53793c99-d764-4c99-b855-803b1b8e7f59/AAABjpq5qxk/AAABjcWesUg/16x9-512.jpg", "date": "2024-04-01T21:37:07.587+02:00", "lat": 33.5138, "lon": 36.2021, "intensity": 0.8, "source": "Tagesschau"}, {"title": "Cannabis-Freigabe: Wie die Hamburger Polizei vorgehen will", "url": "https://www.tagesschau.de/inland/regional/hamburg/ndr-cannabis-freigabe-wie-die-hamburger-polizei-vorgehen-will-100.html", "thumbnailUrl": "https://images.tagesschau.de/image/ed0bc724-86c4-4ef4-872b-49d92e6d0186/AAABjpu0kPk/AAABjcWesUg/16x9-512.jpg", "date": "2024-04-01T21:36:00.000+02:00", "lat": 53.55, "lon": 10.0, "intensity": 0.7, "source": "Tagesschau"}, {"title": "Fr\u00fchling kommt langsam n\u00e4her: Das erwartet die Menschen in BW nach Ostern", "url": "https://www.tagesschau.de/inland/regional/badenwuerttemberg/swr-stau-sonne-sahara-staub-das-erwartet-die-menschen-in-bw-an-ostern-100.html", "thumbnailUrl": "https://images.tagesschau.de/image/e9ac3cba-39a1-4455-9d86-6cb45044ab73/AAABjpEVbu8/AAABjcWesUg/16x9-512.jpg", "date": "2024-04-01T21:29:00.000+02:00", "lat": 48.7904, "lon": 9.0238, "intensity": 0.5, "source": "Tagesschau"}, {"title": "++ Selenskyj will Drohnen-Produktion hochfahren ++", "url": "https://www.tagesschau.de/newsticker/liveblog-ukraine-montag-352.html", "thumbnailUrl": "https://images.tagesschau.de/image/18cff2d2-b577-4419-a4b4-520ef5fe9cb0/AAABjkPNdyw/AAABjcWesUg/16x9-512.jpg", "date": "2024-04-01T21:17:41.312+02:00", "lat": 53.551086, "lon": 9.993682, "intensity": 0.7, "source": "Tagesschau"}, {"title": "Dominikaner-Orden gibt Kloster in Worms auf", "url": "https://www.tagesschau.de/inland/regional/rheinlandpfalz/swr-dominikaner-orden-gibt-kloster-in-worms-auf-102.html", "thumbnailUrl": "https://images.tagesschau.de/image/290ced9a-a188-4c24-a1c2-0e8b43782536/AAABjpsMFW4/AAABjcWesUg/16x9-512.jpg", "date": "2024-04-01T20:58:33.000+02:00", "lat": 49.6313, "lon": 8.3586, "intensity": 0.8, "source": "Tagesschau"}, {"title": "Kapelle im Turm der Garnisonkirche eingeweiht  - Proteste vor der T\u00fcr", "url": "https://www.tagesschau.de/inland/regional/brandenburg/rbb-kapelle-im-garnisonkirchturm-wird-am-ostermontag-eroeffnet-protest-geplant-100.html", "thumbnailUrl": "https://images.tagesschau.de/image/ed72c186-1574-437a-af2a-9215bd5042fb/AAABjpq0bZk/AAABjcWesUg/16x9-512.jpg", "date": "2024-04-01T20:52:10.000+02:00", "lat": 52.400263, "lon": 13.057889, "intensity": 0.7, "source": "Tagesschau"}, {"title": "Countdown zum Pokalhalbfinale 1. FC Saarbr\u00fccken gegen 1. FC Kaiserlautern", "url": "https://www.tagesschau.de/inland/regional/saarland/sr-countdown-zum-pokalhalbfinale-1-fc-saarbruecken-gegen-1-fc-kaiserlautern-100.html", "thumbnailUrl": "https://images.tagesschau.de/image/8f0d814d-b0c3-4e93-8b8a-6dcd285c1fe3/AAABjpsKN_0/AAABjcWesUg/16x9-512.jpg", "date": "2024-04-01T20:48:00.000+02:00", "lat": 49.35, "lon": 7.0, "intensity": 0.8, "source": "Tagesschau"}, {"title": "Steckt Russland hinter dem \"Havanna-Syndrom\"?", "url": "https://www.tagesschau.de/ausland/europa/havanna-syndrom-russland-spur-100.html", "thumbnailUrl": "https://images.tagesschau.de/image/b71ad3a4-6c05-4c45-b8d2-62fc064722db/AAABjprvrpY/AAABjcWesUg/16x9-512.jpg", "date": "2024-04-01T20:33:03.154+02:00", "lat": 55.7558, "lon": 37.6176, "intensity": 0.8, "source": "Tagesschau"}, {"title": "Kiffen erlaubt: Polizei und Justiz in SH vor gro\u00dfen Herausforderungen", "url": "https://www.tagesschau.de/inland/regional/schleswigholstein/ndr-kiffen-erlaubt-polizei-und-justiz-in-sh-vor-grossen-herausforderungen-100.html", "thumbnailUrl": "https://images.tagesschau.de/image/3ccb1173-f4b4-4bfc-85f4-1b85b06d14ab/AAABjpu0jSw/AAABjcWesUg/16x9-512.jpg", "date": "2024-04-01T20:27:00.000+02:00", "lat": 54.3326, "lon": 9.6961, "intensity": 0.8, "source": "Tagesschau"}, {"title": "Cannabis-Protest in Leipzig: Demonstranten fordern mehr Entkriminalisierung", "url": "https://www.tagesschau.de/inland/regional/sachsen/mdr-cannabis-protest-in-leipzig-demonstranten-fordern-mehr-entkriminalisierung-100.html", "thumbnailUrl": "https://images.tagesschau.de/image/9f5037ef-dc4e-45aa-a76a-6d233fc15bdc/AAABjpv8WVI/AAABjcWesUg/16x9-512.jpg", "date": "2024-04-01T20:08:08.000+02:00", "lat": 51.3436, "lon": 12.3879, "intensity": 0.6, "source": "Tagesschau"}, {"title": "3:1 gegen Straubing: Effiziente Eisb\u00e4ren starten mit Sieg in die Halbfinal-Serie der DEL", "url": "https://www.tagesschau.de/inland/regional/berlin/rbb-31-gegen-straubing-effiziente-eisbaeren-starten-mit-sieg-in-die-halbfinal-serie-der-del-102.html", "thumbnailUrl": "https://images.tagesschau.de/image/4398e0e1-43ab-463c-9c56-46631c6e97ba/AAABjprXVMQ/AAABjcWesUg/16x9-512.jpg", "date": "2024-04-01T20:05:56.000+02:00", "lat": 52.520008, "lon": 13.404954, "intensity": 0.8, "source": "Tagesschau"}, {"title": "Wetterlage und Temperaturen", "url": "https://www.tagesschau.de/wetter/europa-welt", "thumbnailUrl": "https://images.tagesschau.de/image/6e7d3b16-79c8-4308-822b-20c3035236b5/AAABjprDmQg/AAABjcWesUg/16x9-512.jpg", "date": "2024-04-01T19:46:23.669+02:00", "lat": 53.1424, "lon": -7.6921, "intensity": 0.5, "source": "Tagesschau"}, {"title": "Friedensglocke auf dem Fichtelberg verstummt", "url": "https://www.tagesschau.de/inland/regional/sachsen/mdr-friedensglocke-auf-dem-fichtelberg-verstummt-100.html", "thumbnailUrl": "https://images.tagesschau.de/image/f76b7579-aebc-4c9c-886b-af08c21768d0/AAABjpv8dno/AAABjcWesUg/16x9-512.jpg", "date": "2024-04-01T19:16:54.000+02:00", "lat": 50.458, "lon": 12.995, "intensity": 0.7, "source": "Tagesschau"}, {"title": "Letzter Ostertag und Ferienende - dichter Verkehr, vereinzelt Staus", "url": "https://www.tagesschau.de/inland/regional/niedersachsen/ndr-osterverkehr-2024-hier-muessen-autofahrer-mit-staus-rechnen-100.html", "thumbnailUrl": "https://images.tagesschau.de/image/2f60070f-438e-4f17-8444-3446089ddffa/AAABjpqppq8/AAABjcWesUg/16x9-512.jpg", "date": "2024-04-01T19:14:00.000+02:00", "lat": 52.3758916, "lon": 9.7320104, "intensity": 0.7, "source": "Tagesschau"}, {"title": "DEL2-Playoffs: Kassel Huskies verspielen Zwei-Tore-Vorsprung gegen Kaufbeuren", "url": "https://www.tagesschau.de/inland/regional/hessen/hr-del2-playoffs-kassel-huskies-verspielen-zwei-tore-vorsprung-gegen-kaufbeuren-102.html", "thumbnailUrl": "https://images.tagesschau.de/image/a2c07fb2-da40-41fa-9294-3198aa397112/AAABjpqwoqE/AAABjcWesUg/16x9-512.jpg", "date": "2024-04-01T18:59:30.546+02:00", "lat": 51.3127, "lon": 9.4846, "intensity": 0.7, "source": "Tagesschau"}, {"title": "FCK im DFB-Pokal ohne Ache: Das Endspiel um das Endspiel", "url": "https://www.tagesschau.de/inland/regional/rheinlandpfalz/swr-fck-im-dfb-pokal-ohne-ache-das-endspiel-um-das-endspiel-102.html", "thumbnailUrl": "https://images.tagesschau.de/image/9cafb961-8499-4b7d-832d-cfcbfbeb38ba/AAABjpqpMt0/AAABjcWesUg/16x9-512.jpg", "date": "2024-04-01T18:36:53.000+02:00", "lat": 49.2349, "lon": 7.0419, "intensity": 0.8, "source": "Tagesschau"}, {"title": "Vermisster 85-J\u00e4hriger aus Lehrte leblos aufgefunden", "url": "https://www.tagesschau.de/inland/regional/niedersachsen/ndr-polizei-sucht-den-85-jaehrigen-anatoli-r-aus-lehrte-100.html", "thumbnailUrl": "https://images.tagesschau.de/image/f9927396-7cda-456f-9f87-aa73601c8622/AAABjpqBXPk/AAABjcWesUg/16x9-512.jpg", "date": "2024-04-01T18:30:00.000+02:00", "lat": 52.3886, "lon": 9.8406, "intensity": 0.7, "source": "Tagesschau"}, {"title": "FC Saarbr\u00fccken TT verteidigt Champions League-Titel", "url": "https://www.tagesschau.de/inland/regional/saarland/sr-finale-dehemm-fuer-fcs-tischtennis-in-der-champions-league-102.html", "thumbnailUrl": "https://images.tagesschau.de/image/e7b7e693-a9e8-49f4-9204-aa23e8a9d765/AAABjppcRR0/AAABjcWesUg/16x9-512.jpg", "date": "2024-04-01T18:26:00.000+02:00", "lat": 49.2354, "lon": 6.9619, "intensity": 0.8, "source": "Tagesschau"}, {"title": "Handball-Bundesliga: Schl\u00e4frige MT Melsungen verliert in Hamburg", "url": "https://www.tagesschau.de/inland/regional/hessen/hr-handball-bundesliga-schlaefrige-mt-melsungen-verliert-in-hamburg-102.html", "thumbnailUrl": "https://images.tagesschau.de/image/77bc304e-475e-47b0-97ec-cb34ae323a17/AAABjppydpE/AAABjcWesUg/16x9-512.jpg", "date": "2024-04-01T18:10:54.797+02:00", "lat": 53.5511, "lon": 10.0003, "intensity": 0.6, "source": "Tagesschau"}, {"title": "Positive Osterbilanz am Bodensee und in Oberschwaben", "url": "https://www.tagesschau.de/inland/regional/badenwuerttemberg/swr-positive-osterbilanz-am-bodensee-und-in-oberschwaben-100.html", "thumbnailUrl": "https://images.tagesschau.de/image/5da92ec1-6cfd-4081-adad-e252e0846854/AAABjpsyl04/AAABjcWesUg/16x9-512.jpg", "date": "2024-04-01T17:51:52.000+02:00", "lat": 47.5676, "lon": 9.3547, "intensity": 0.7, "source": "Tagesschau"}, {"title": "T\u00f6dliche Einsatzfahrt in Frankfurt: Frau stirbt nach Zusammensto\u00df von Rettungswagen mit Pkw ", "url": "https://www.tagesschau.de/inland/regional/hessen/hr-toedliche-einsatzfahrt-in-frankfurt-frau-stirbt-nach-zusammenstoss-von-rettungswagen-mit-pkw-100.html", "thumbnailUrl": "https://images.tagesschau.de/image/7f608da8-0a31-4c61-af1e-028dee107a60/AAABjppalm4/AAABjcWesUg/16x9-512.jpg", "date": "2024-04-01T17:48:40.666+02:00", "lat": 50.0686, "lon": 8.6375, "intensity": 0.8, "source": "Tagesschau"}, {"title": "Ein Denkzettel f\u00fcr Erdogan", "url": "https://www.tagesschau.de/kommentar/kommunalwahlen-tuerkei-erdogan-100.html", "thumbnailUrl": "https://images.tagesschau.de/image/5bcb1dd9-8324-4bc0-9759-01561b4b8dec/AAABjppPn8E/AAABjcWesUg/16x9-512.jpg", "date": "2024-04-01T17:40:20.817+02:00", "lat": 39.9612, "lon": 35.2433, "intensity": 0.6, "source": "Tagesschau"}, {"title": "Ticketpreise gestiegen: So teuer wird es im Nahverkehr in SH", "url": "https://www.tagesschau.de/inland/regional/schleswigholstein/ndr-ticketpreise-steigen-so-teuer-wird-es-im-nahverkehr-in-sh-100.html", "thumbnailUrl": "https://images.tagesschau.de/image/9fdeb354-0cc9-4034-8dfa-63097ea3cc4f/AAABjppKaJw/AAABjcWesUg/16x9-512.jpg", "date": "2024-04-01T17:30:00.000+02:00", "lat": 54.5519, "lon": 9.6966, "intensity": 0.4, "source": "Tagesschau"}, {"title": "Schleuse Banzkow: Schweriner Seen wieder f\u00fcr Boote erreichbar", "url": "https://www.tagesschau.de/inland/regional/mecklenburgvorpommern/ndr-schleuse-banzkow-schweriner-seen-wieder-fuer-boote-erreichbar-100.html", "thumbnailUrl": "https://images.tagesschau.de/image/b4c873b0-0514-4a72-8bc5-ac8a2c63806f/AAABjpf1Edo/AAABjcWesUg/16x9-512.jpg", "date": "2024-04-01T17:14:00.000+02:00", "lat": 53.6269, "lon": 11.4501, "intensity": 0.6, "source": "Tagesschau"}, {"title": "R\u00fcgener Wanderfr\u00fchling hat begonnen", "url": "https://www.tagesschau.de/inland/regional/mecklenburgvorpommern/ndr-ruegener-wanderfruehling-beginnt-100.html", "thumbnailUrl": "https://images.tagesschau.de/image/361d9002-3865-4318-96e2-a70a43120c75/AAABjph8kAg/AAABjcWesUg/16x9-512.jpg", "date": "2024-04-01T17:13:00.000+02:00", "lat": 54.3992, "lon": 13.4274, "intensity": 0.6, "source": "Tagesschau"}, {"title": "Autofahrer \u00fcberf\u00e4hrt bei Flucht Verkehrsschilder und Bauz\u00e4une", "url": "https://www.tagesschau.de/inland/regional/niedersachsen/ndr-autofahrer-ueberfaehrt-bei-flucht-verkehrsschilder-und-bauzaeune-100.html", "thumbnailUrl": "https://images.tagesschau.de/image/6d5f7b1f-2738-4bb8-8d04-f674f40add99/AAABjppOIvA/AAABjcWesUg/16x9-512.jpg", "date": "2024-04-01T17:06:00.000+02:00", "lat": 53.079296, "lon": 8.801694, "intensity": 0.7, "source": "Tagesschau"}, {"title": "Tr\u00fcbes Wetter an Ostermontag: Im Norden gab es Schauer und Sturm", "url": "https://www.tagesschau.de/inland/regional/hamburg/ndr-warm-und-sonnig-so-wird-das-oster-wetter-im-norden-100.html", "thumbnailUrl": "https://images.tagesschau.de/image/54060ae3-2294-49fe-8b3e-2fc5afb5b879/AAABjpocqwM/AAABjcWesUg/16x9-512.jpg", "date": "2024-04-01T16:49:00.000+02:00", "lat": 52.0, "lon": 10.0, "intensity": 0.7, "source": "Tagesschau"}, {"title": "Besucherrekord auf der S21-Baustelle", "url": "https://www.tagesschau.de/inland/regional/badenwuerttemberg/swr-baustellenbesichtigung-von-stuttgart-21-das-denken-die-besucher-100.html", "thumbnailUrl": "https://images.tagesschau.de/image/749e0fff-27a4-413a-9c04-decb4a991d15/AAABjpo5fzY/AAABjcWesUg/16x9-512.jpg", "date": "2024-04-01T16:43:00.000+02:00", "lat": 48.7758, "lon": 9.1829, "intensity": 0.8, "source": "Tagesschau"}, {"title": "Nach Ank\u00fcndigung: Boxt Stefan Raab wirklich nochmal gegen Regina Halmich?", "url": "https://www.tagesschau.de/inland/regional/nordrheinwestfalen/wdr-stefan-raab-comeback-oder-aprilscherz-100.html", "thumbnailUrl": "https://images.tagesschau.de/image/a1fbbb7d-490e-49e5-94d9-afd902211307/AAABjpoyI5c/AAABjcWesUg/16x9-512.jpg", "date": "2024-04-01T16:41:00.000+02:00", "lat": 51.4818, "lon": 7.6123, "intensity": 0.8, "source": "Tagesschau"}, {"title": "Erdogan will nach Niederlage \"Fehler korrigieren\"", "url": "https://www.tagesschau.de/ausland/kommunalwahlen-tuerkei-erdogan-verliert-100.html", "thumbnailUrl": "https://images.tagesschau.de/image/b0e98f01-f068-475c-98e7-2c0d402345c6/AAABjpn3h3U/AAABjcWesUg/16x9-512.jpg", "date": "2024-04-01T16:29:34.917+02:00", "lat": 38.9637, "lon": 35.2433, "intensity": 0.8, "source": "Tagesschau"}, {"title": "K\u00f6nigspfalz Helfta bei Eisleben wird Freilichtmuseum", "url": "https://www.tagesschau.de/inland/regional/sachsenanhalt/mdr-koenigspfalz-helfta-bei-eisleben-wird-freilichtmuseum-100.html", "thumbnailUrl": "https://images.tagesschau.de/image/3eb681d2-09e8-4d61-8c63-6bcc5a825ded/AAABjpv3G3o/AAABjcWesUg/16x9-512.jpg", "date": "2024-04-01T16:24:08.000+02:00", "lat": 51.5285, "lon": 11.5526, "intensity": 0.6, "source": "Tagesschau"}, {"title": "F\u00fcr Frieden und Abr\u00fcstung: Abschluss der Osterm\u00e4rsche mit Kundgebung in Frankfurt", "url": "https://www.tagesschau.de/inland/regional/hessen/hr-200-menschen-marschieren-in-bruchkoebel-fuer-den-frieden-100.html", "thumbnailUrl": "https://images.tagesschau.de/image/42c9eab6-76c9-4c93-a117-c163f746bf71/AAABjpoKD_g/AAABjcWesUg/16x9-512.jpg", "date": "2024-04-01T16:21:11.709+02:00", "lat": 50.1109, "lon": 8.6821, "intensity": 0.6, "source": "Tagesschau"}, {"title": "Modernisierung der Ampeln: Gro\u00dfer Stern ist ab Dienstag f\u00fcr vier Tage gesperrt", "url": "https://www.tagesschau.de/inland/regional/berlin/rbb-modernisierung-der-ampeln-grosser-stern-ist-ab-dienstag-fuer-vier-tage-gesperrt-100.html", "thumbnailUrl": "https://images.tagesschau.de/image/3c0f1e03-9370-4199-96d2-87a1194817c3/AAABjpn_Sy0/AAABjcWesUg/16x9-512.jpg", "date": "2024-04-01T16:06:46.000+02:00", "lat": 52.5147, "lon": 13.3428, "intensity": 0.6, "source": "Tagesschau"}, {"title": "Milder Winter: Kr\u00f6tenwanderung endet in diesem Jahr fr\u00fcher", "url": "https://www.tagesschau.de/inland/regional/niedersachsen/ndr-milder-winter-kroetenwanderung-endet-in-diesem-jahr-frueher-100.html", "thumbnailUrl": "https://images.tagesschau.de/image/e920d905-ce2a-4571-b2db-892bc9713701/AAABjpn9ie0/AAABjcWesUg/16x9-512.jpg", "date": "2024-04-01T16:05:00.000+02:00", "lat": 52.3759, "lon": 9.7392, "intensity": 0.4, "source": "Tagesschau"}, {"title": "Vor 80 Jahren: Als der Luftkrieg Saarbr\u00fccken komplett zerst\u00f6rte", "url": "https://www.tagesschau.de/inland/regional/saarland/sr-vor-80-jahren-als-der-luftkrieg-saarbruecken-komplett-zerstoerte-100.html", "thumbnailUrl": "https://images.tagesschau.de/image/b7dbb74b-db4c-4af5-aa64-fd47d53510c2/AAABjpn1xnc/AAABjcWesUg/16x9-512.jpg", "date": "2024-04-01T15:58:00.000+02:00", "lat": 49.2402, "lon": 6.9954, "intensity": 0.8, "source": "Tagesschau"}, {"title": "Gerettet per Kran: Pferd st\u00fcrzt zw\u00f6lf Meter tiefen Hang hinab ", "url": "https://www.tagesschau.de/inland/regional/thueringen/mdr-gerettet-per-kran-pferd-stuerzt-zwoelf-meter-tiefen-hang-hinab-100.html", "thumbnailUrl": "https://images.tagesschau.de/image/9bafbb42-7877-44ec-a7e4-3ec6b97dc0f8/AAABjpv6O2s/AAABjcWesUg/16x9-512.jpg", "date": "2024-04-01T15:49:03.000+02:00", "lat": 50.8278, "lon": 11.582, "intensity": 0.8, "source": "Tagesschau"}, {"title": "Bauprojekt in Potsdam-Mittelmark: Im Schatten der Beelitzer Heilst\u00e4tten", "url": "https://www.tagesschau.de/inland/regional/brandenburg/rbb-bauprojekt-in-potsdam-mittelmark-im-schatten-der-beelitzer-heilstaetten-100.html", "thumbnailUrl": "https://images.tagesschau.de/image/bea7a0de-d0fd-4684-9664-98a7dd0f3ee6/AAABjpnsxnU/AAABjcWesUg/16x9-512.jpg", "date": "2024-04-01T15:45:32.000+02:00", "lat": 52.3344, "lon": 13.1649, "intensity": 0.8, "source": "Tagesschau"}, {"title": "So werden die Landkreise in Sachsen die Bezahlkarte f\u00fcr Asylbewerber umsetzen", "url": "https://www.tagesschau.de/inland/regional/sachsen/mdr-so-werden-die-landkreise-in-sachsen-die-bezahlkarte-fuer-asylbewerber-umsetzen-100.html", "thumbnailUrl": "https://images.tagesschau.de/image/decd8e03-802e-4108-a9ea-97b7a88d4a0c/AAABjpv8L0w/AAABjcWesUg/16x9-512.jpg", "date": "2024-04-01T15:45:28.000+02:00", "lat": 51.0109, "lon": 14.4378, "intensity": 0.7, "source": "Tagesschau"}, {"title": "Mann springt bei Flucht vor Polizei in die Elbe", "url": "https://www.tagesschau.de/inland/regional/sachsenanhalt/mdr-mann-springt-bei-flucht-vor-polizei-in-die-elbe-102.html", "thumbnailUrl": "https://images.tagesschau.de/image/4562df5c-719c-4e8b-81ef-f1da0dbfee34/AAABjpv2-m0/AAABjcWesUg/16x9-512.jpg", "date": "2024-04-01T15:40:57.000+02:00", "lat": 52.1205, "lon": 11.6292, "intensity": 0.8, "source": "Tagesschau"}, {"title": "FSB meldet weitere Festnahmen nach Terroranschlag", "url": "https://www.tagesschau.de/ausland/europa/russland-festnahmen-nach-anschlag-100.html", "thumbnailUrl": "https://images.tagesschau.de/image/fd4dabec-8ff1-44f4-ab04-127b4d631cf5/AAABjpnY4-U/AAABjcWesUg/16x9-512.jpg", "date": "2024-04-01T15:30:12.836+02:00", "lat": 42.9836, "lon": 47.1167, "intensity": 0.8, "source": "Tagesschau"}, {"title": "Fast jedem Vierten fehlt das Geld f\u00fcr eine Woche Urlaub", "url": "https://www.tagesschau.de/inland/regional/nordrheinwestfalen/wdr-fast-jedem-vierten-fehlt-das-geld-fuer-eine-woche-urlaub-100.html", "thumbnailUrl": "https://images.tagesschau.de/image/0b50a1f8-3642-4bc9-af11-8de1fd6ac150/AAABjprgHZg/AAABjcWesUg/16x9-512.jpg", "date": "2024-04-01T15:30:00.000+02:00", "lat": 51.1657, "lon": 7.6261, "intensity": 0.8, "source": "Tagesschau"}, {"title": "Regionalliga Nordost: Energie Cottbus r\u00fcckt durch knappen Sieg gegen Eilenburg auf Platz zwei vor", "url": "https://www.tagesschau.de/inland/regional/brandenburg/rbb-regionalliga-nordost-energie-cottbus-rueckt-durch-knappen-sieg-gegen-eilenburg-auf-platz-zwei-vor-102.html", "thumbnailUrl": "https://images.tagesschau.de/image/ec395e47-e2cd-43bd-bf1b-10a12de6876b/AAABjpnWyrY/AAABjcWesUg/16x9-512.jpg", "date": "2024-04-01T15:20:00.000+02:00", "lat": 51.770186, "lon": 14.331427, "intensity": 0.8, "source": "Tagesschau"}, {"title": "Fensterbauer Eurolam in Wiegendorf f\u00fchrt 4-Tage-Woche ein", "url": "https://www.tagesschau.de/inland/regional/thueringen/mdr-fensterbauer-eurolam-in-wiegendorf-fuehrt-4-tage-woche-ein-100.html", "thumbnailUrl": "https://images.tagesschau.de/image/bfcad444-3f6d-41b4-b73a-cf90295c4c46/AAABjpv6S_o/AAABjcWesUg/16x9-512.jpg", "date": "2024-04-01T15:17:45.000+02:00", "lat": 50.9344, "lon": 11.2151, "intensity": 0.7, "source": "Tagesschau"}, {"title": "Teurer Kakao - reiche Bauern?", "url": "https://www.tagesschau.de/ausland/afrika/elfenbeinkueste-kakao-100.html", "thumbnailUrl": "https://images.tagesschau.de/image/df09df10-c2c0-4483-a57e-d3f7dfe9ee31/AAABjpnEUGg/AAABjcWesUg/16x9-512.jpg", "date": "2024-04-01T15:06:03.969+02:00", "lat": 7.54, "lon": -5.5471, "intensity": 0.7, "source": "Tagesschau"}, {"title": "Kirchheim/Teck: Feuer in Baumarkt ausgebrochen", "url": "https://www.tagesschau.de/inland/regional/badenwuerttemberg/swr-kirchheimteck-feuer-in-baumarkt-ausgebrochen-100.html", "thumbnailUrl": "https://images.tagesschau.de/image/4fee7d0f-5641-44a6-aebd-e193fe1e12f2/AAABjpUsyOo/AAABjcWesUg/16x9-512.jpg", "date": "2024-04-01T15:04:00.000+02:00", "lat": 48.6413, "lon": 9.40504, "intensity": 0.8, "source": "Tagesschau"}, {"title": "Cannabis-Legalisierung in Kraft getreten ", "url": "https://www.tagesschau.de/inland/regional/hessen/hr-cannabis-legalisierung-in-kraft-getreten-100.html", "thumbnailUrl": "https://images.tagesschau.de/image/5115125c-1dac-4dc1-9a5f-f38baeee462d/AAABjpnCwTg/AAABjcWesUg/16x9-512.jpg", "date": "2024-04-01T15:02:36.448+02:00", "lat": 50.5777, "lon": 9.6933, "intensity": 0.8, "source": "Tagesschau"}, {"title": "War's das mit Skifahren in Deutschland?", "url": "https://www.tagesschau.de/wissen/klima/skifahren-deutschland-zukunft-100.html", "thumbnailUrl": "https://images.tagesschau.de/image/b413be8d-48b7-486c-92eb-f45316c7cdc8/AAABjpnIJhs/AAABjcWesUg/16x9-512.jpg", "date": "2024-04-01T15:02:08.616+02:00", "lat": 47.6195, "lon": 9.7431, "intensity": 0.6, "source": "Tagesschau"}, {"title": "Landkreis Spree-Nei\u00dfe: Vier Menschen bei Verkehrsunfall in Kolkwitz schwer verletzt", "url": "https://www.tagesschau.de/inland/regional/brandenburg/rbb-landkreis-spree-neisse-vier-menschen-bei-verkehrsunfall-in-kolkwitz-zum-teil-schwer-verletzt-100.html", "thumbnailUrl": "https://images.tagesschau.de/image/8c58a97b-b87c-4db3-9b12-57b8a5069b03/AAABjpm7SwI/AAABjcWesUg/16x9-512.jpg", "date": "2024-04-01T14:53:24.000+02:00", "lat": 51.7181, "lon": 14.3246, "intensity": 0.8, "source": "Tagesschau"}, {"title": "Cannabis-Legalisierung: Das gilt seit Ostermontag", "url": "https://www.tagesschau.de/inland/regional/badenwuerttemberg/swr-cannabis-legalisierung-ab-ostermontag-das-gilt-jetzt-100.html", "thumbnailUrl": "https://images.tagesschau.de/image/1708d2f9-2d21-45d3-ad18-01aad536feaf/AAABjonPQsA/AAABjcWesUg/16x9-512.jpg", "date": "2024-04-01T14:31:00.000+02:00", "lat": 48.8566, "lon": 9.35, "intensity": 0.6, "source": "Tagesschau"}, {"title": "Mann erschossen - Polizistin schwer verletzt", "url": "https://www.tagesschau.de/inland/regional/niedersachsen/grosseinsatz-der-polizei-nach-schuessen-in-nienburg-100.html", "thumbnailUrl": "https://images.tagesschau.de/image/fe871530-9d7b-4384-a451-80d7445cc255/AAABjpB4ZaM/AAABjcWesUg/16x9-512.jpg", "date": "2024-04-01T14:12:00.000+02:00", "lat": 52.636, "lon": 9.234, "intensity": 0.9, "source": "Tagesschau"}, {"title": "Darmstadt 98 gibt nicht auf: \"Relegation ist unsere Meisterschaft\"", "url": "https://www.tagesschau.de/inland/regional/hessen/hr-darmstadt-98-gibt-nicht-auf-relegation-ist-unsere-meisterschaft-102.html", "thumbnailUrl": "https://images.tagesschau.de/image/5c651791-037e-40f4-8c4f-8325b2a25721/AAABjpmq4Mo/AAABjcWesUg/16x9-512.jpg", "date": "2024-04-01T14:10:47.362+02:00", "lat": 49.8738, "lon": 8.6553, "intensity": 0.7, "source": "Tagesschau"}, {"title": "Berlin-Nikolassee: Zwei Schwerverletzte nach mutma\u00dflichem illegalem Rennen", "url": "https://www.tagesschau.de/inland/regional/berlin/rbb-berlin-nikolassee-zwei-schwerverletzte-nach-mutmasslichem-illegalem-rennen-100.html", "thumbnailUrl": "https://images.tagesschau.de/image/9aeb0f34-c945-49eb-9e86-2dde87cd5f65/AAABjpl_EME/AAABjcWesUg/16x9-512.jpg", "date": "2024-04-01T13:47:19.000+02:00", "lat": 52.4268, "lon": 13.2517, "intensity": 0.8, "source": "Tagesschau"}, {"title": "Reglose Person in Bankfiliale: Mann schl\u00e4ft beim Geldabheben ein", "url": "https://www.tagesschau.de/inland/regional/niedersachsen/ndr-reglose-person-in-bankfiliale-mann-schlaeft-beim-geldabheben-ein-100.html", "thumbnailUrl": "https://images.tagesschau.de/image/1940cecd-5be1-4549-9e56-6e5f4e5b7a80/AAABjpl7fw4/AAABjcWesUg/16x9-512.jpg", "date": "2024-04-01T13:42:00.000+02:00", "lat": 53.1839, "lon": 8.7975, "intensity": 0.4, "source": "Tagesschau"}, {"title": "Ex-Verkehrsminister Scheuer verl\u00e4sst Bundestag", "url": "https://www.tagesschau.de/inland/innenpolitik/andreas-scheuer-bundestag-100.html", "thumbnailUrl": "https://images.tagesschau.de/image/97ec30ad-32e4-4780-941e-27c6899af06c/AAABhnPuXOQ/AAABjcWesUg/16x9-512.jpg", "date": "2024-04-01T13:34:16.610+02:00", "lat": 51.1657, "lon": 10.4515, "intensity": 0.7, "source": "Tagesschau"}, {"title": "Keine 24 Stunden eingeweiht: Dobermann-Brunnen in Apolda wieder zerst\u00f6rt", "url": "https://www.tagesschau.de/inland/regional/thueringen/mdr-keine-24-stunden-eingeweiht-dobermann-brunnen-in-apolda-wieder-zerstoert-100.html", "thumbnailUrl": "https://images.tagesschau.de/image/3ad14516-d2f6-4bd0-9f5a-4c3f74034571/AAABjpv6Y4k/AAABjcWesUg/16x9-512.jpg", "date": "2024-04-01T13:26:58.000+02:00", "lat": 51.0355, "lon": 11.5136, "intensity": 0.7, "source": "Tagesschau"}, {"title": "FCS-Trainer Ziehl ist optimistisch, dass DFB-Pokal-Spiel stattfinden kann", "url": "https://www.tagesschau.de/inland/regional/saarland/sr-fcs-trainer-ziehl-optimistisch-dass-dfb-pokal-spiel-stattfinden-kann-100.html", "thumbnailUrl": "https://images.tagesschau.de/image/dc926a93-1a8c-471d-91e1-0536b2e2c670/AAABjpt2Rck/AAABjcWesUg/16x9-512.jpg", "date": "2024-04-01T12:55:00.000+02:00", "lat": 49.2264, "lon": 6.9928, "intensity": 0.8, "source": "Tagesschau"}, {"title": "Lagerhalle in Flammen: Rauchs\u00e4ule zieht \u00fcber Hannover", "url": "https://www.tagesschau.de/inland/regional/niedersachsen/ndr-lagerhalle-in-flammen-80-feuerwehrleute-bei-brand-im-einsatz-100.html", "thumbnailUrl": "https://images.tagesschau.de/image/0c164e77-d37a-457b-8de0-6c36ea09da48/AAABjplRbaE/AAABjcWesUg/16x9-512.jpg", "date": "2024-04-01T12:53:00.000+02:00", "lat": 52.3833, "lon": 9.7301, "intensity": 0.8, "source": "Tagesschau"}, {"title": "Kind mit Spielzeugwaffe auf A11 l\u00f6st Polizeieinsatz aus", "url": "https://www.tagesschau.de/inland/regional/brandenburg/rbb-kind-mit-spielzeugwaffe-auf-a11-loest-polizeieinsatz-aus-100.html", "thumbnailUrl": "https://images.tagesschau.de/image/42ac0869-d6f2-4943-9808-d897d3fbd232/AAABjpn_Tck/AAABjcWesUg/16x9-512.jpg", "date": "2024-04-01T12:39:31.000+02:00", "lat": 52.3989, "lon": 13.0167, "intensity": 0.3, "source": "Tagesschau"}, {"title": "Hunderte feiern Cannabis-Legalisierung in Berlin", "url": "https://www.tagesschau.de/inland/regional/berlin/rbb-hunderte-feiern-cannabis-legalisierung-in-berlin-100.html", "thumbnailUrl": "https://images.tagesschau.de/image/298a8c73-da6b-4d9a-957d-13f92e90a70f/AAABjpk3uS4/AAABjcWesUg/16x9-512.jpg", "date": "2024-04-01T12:31:57.000+02:00", "lat": 52.5166, "lon": 13.3777, "intensity": 0.8, "source": "Tagesschau"}, {"title": "Verpuffung beim Osterfeuer - Mann zieht sich Verbrennungen zu", "url": "https://www.tagesschau.de/inland/regional/niedersachsen/ndr-verpuffung-beim-osterfeuer-mann-zieht-sich-verbrennungen-zu-100.html", "thumbnailUrl": "https://images.tagesschau.de/image/83f5a2fa-a436-430e-834e-9ddd8765739c/AAABjpkpIwI/AAABjcWesUg/16x9-512.jpg", "date": "2024-04-01T12:13:00.000+02:00", "lat": 52.847747, "lon": 7.995538, "intensity": 0.7, "source": "Tagesschau"}, {"title": "Verwechslung: Wolf bei Speyer entpuppt sich als Husky", "url": "https://www.tagesschau.de/inland/regional/rheinlandpfalz/swr-verwechslung-wolf-bei-speyer-entpuppt-sich-als-husky-100.html", "thumbnailUrl": "https://images.tagesschau.de/image/551a1f50-8c5d-410c-a126-e0147e3bac29/AAABjpossTQ/AAABjcWesUg/16x9-512.jpg", "date": "2024-04-01T12:07:41.000+02:00", "lat": 49.3245, "lon": 8.4273, "intensity": 0.4, "source": "Tagesschau"}, {"title": "Stuttgarter Jugendzentrum Halev gewinnt \"Jewrovision\" ", "url": "https://www.tagesschau.de/inland/regional/badenwuerttemberg/swr-stuttgarter-jugendzentrum-halev-gewinnt-jewrovision-100.html", "thumbnailUrl": "https://images.tagesschau.de/image/f866b719-1c35-48a0-aa2b-17561bff5eae/AAABjpkm44s/AAABjcWesUg/16x9-512.jpg", "date": "2024-04-01T12:04:21.000+02:00", "lat": 48.7758, "lon": 9.1829, "intensity": 0.8, "source": "Tagesschau"}, {"title": "Mehr als 270 Migranten erreichen Zypern an einem Tag", "url": "https://www.tagesschau.de/ausland/europa/migranten-zypern-102.html", "thumbnailUrl": "https://images.tagesschau.de/image/73fdf936-745a-4c3b-a964-9835f1f47790/AAABjpkVPm4/AAABjcWesUg/16x9-512.jpg", "date": "2024-04-01T11:55:23.629+02:00", "lat": 35.1264, "lon": 33.4299, "intensity": 0.8, "source": "Tagesschau"}, {"title": "Niedersachsen: \u00d6ko-Ausbau stockt - bringen Anreize die Wende?", "url": "https://www.tagesschau.de/inland/regional/niedersachsen/ndr-niedersachsen-oeko-ausbau-stockt-bringen-anreize-die-wende-100.html", "thumbnailUrl": "https://images.tagesschau.de/image/8c5e649d-285a-4f68-8433-4fb4ab35c386/AAABjpkRVpc/AAABjcWesUg/16x9-512.jpg", "date": "2024-04-01T11:47:00.000+02:00", "lat": 52.4736, "lon": 10.4515, "intensity": 0.6, "source": "Tagesschau"}, {"title": "Die \"Flowlosen\": Der HSV ist der gro\u00dfe Verlierer im Aufstiegsrennen", "url": "https://www.tagesschau.de/inland/regional/niedersachsen/ndr-die-flowlosen-der-hsv-ist-der-grosse-verlierer-im-aufstiegsrennen-102.html", "thumbnailUrl": "https://images.tagesschau.de/image/3f532b89-44d5-40c6-8ff3-55ba76fb34e5/AAABjpmeLMY/AAABjcWesUg/16x9-512.jpg", "date": "2024-04-01T11:44:00.000+02:00", "lat": 53.5511, "lon": 9.9937, "intensity": 0.8, "source": "Tagesschau"}, {"title": "Mannheim-K\u00e4fertal: Unbekannte werfen Tannenbaum und Steine auf Stra\u00dfenbahn", "url": "https://www.tagesschau.de/inland/regional/badenwuerttemberg/swr-mannheim-kaefertal-unbekannte-werfen-tannenbaum-und-steine-auf-strassenbahn-100.html", "thumbnailUrl": "https://images.tagesschau.de/image/c0cee20a-748c-416a-bf23-80c2132eba6d/AAABjpkb6wk/AAABjcWesUg/16x9-512.jpg", "date": "2024-04-01T11:38:35.000+02:00", "lat": 49.4606, "lon": 8.5044, "intensity": 0.7, "source": "Tagesschau"}, {"title": "Neue pal\u00e4stinensische Regierung vereidigt", "url": "https://www.tagesschau.de/ausland/regierung-palaestina-vereidigt-100.html", "thumbnailUrl": "https://images.tagesschau.de/image/d9f68f99-67f2-47b9-aa9a-1de3dfe3389d/AAABjpjtDWU/AAABjcWesUg/16x9-512.jpg", "date": "2024-04-01T11:37:53.606+02:00", "lat": 31.7683, "lon": 35.2024, "intensity": 0.8, "source": "Tagesschau"}, {"title": "Eintracht Frankfurt Frauen: Elfmeter-Drama macht Mut f\u00fcr den Kampf um Europa", "url": "https://www.tagesschau.de/inland/regional/hessen/hr-eintracht-frankfurt-frauen-elfmeter-drama-macht-mut-fuer-den-kampf-um-europa-102.html", "thumbnailUrl": "https://images.tagesschau.de/image/fd24a17c-a890-49fe-ad99-727c229f478b/AAABjpkUq5I/AAABjcWesUg/16x9-512.jpg", "date": "2024-04-01T11:36:10.350+02:00", "lat": 50.1109, "lon": 8.6821, "intensity": 0.7, "source": "Tagesschau"}, {"title": "Studierende fahren g\u00fcnstiger - aber nicht \u00fcberall", "url": "https://www.tagesschau.de/inland/gesellschaft/deutschlandticket-studierende-102.html", "thumbnailUrl": "https://images.tagesschau.de/image/44fbc613-a3ff-4fb3-850b-aab4c94c2629/AAABhnRxuI4/AAABjcWesUg/16x9-512.jpg", "date": "2024-04-01T11:35:47.405+02:00", "lat": 51.5431, "lon": 9.9937, "intensity": 0.6, "source": "Tagesschau"}, {"title": "FC St. Pauli siegt gegen SC Paderborn - Bundesliga ist ganz nah", "url": "https://www.tagesschau.de/inland/regional/hamburg/ndr-fc-st-pauli-siegt-gegen-paderborn-bundesliga-ganz-nah-102.html", "thumbnailUrl": "https://images.tagesschau.de/image/f90c6f78-308e-4fc1-add3-85a83722b266/AAABjpVXNuE/AAABjcWesUg/16x9-512.jpg", "date": "2024-04-01T11:30:00.000+02:00", "lat": 53.551, "lon": 9.991, "intensity": 0.8, "source": "Tagesschau"}, {"title": "Tausende feiern Judentum bei \"Jewrovision\" 2024 in Hannover", "url": "https://www.tagesschau.de/inland/regional/niedersachsen/ndr-1-000-jugendliche-feiern-judentum-bei-jewrovision-2024-in-hannover-100.html", "thumbnailUrl": "https://images.tagesschau.de/image/25ba49ce-66c8-4559-b133-ab24f3456be6/AAABjpj-_ZY/AAABjcWesUg/16x9-512.jpg", "date": "2024-04-01T11:29:00.000+02:00", "lat": 52.37589, "lon": 9.73322, "intensity": 0.6, "source": "Tagesschau"}, {"title": "Nofretete-B\u00fcste vor 100 Jahren erstmals \u00f6ffentlich ausgestellt", "url": "https://www.tagesschau.de/inland/regional/berlin/rbb-nofretete-bueste-vor-100-jahren-erstmals-oeffentlich-ausgestellt-100.html", "thumbnailUrl": "https://images.tagesschau.de/image/ff9e9151-97f5-4ba1-bc37-7856a69d9338/AAABjpkCkZM/AAABjcWesUg/16x9-512.jpg", "date": "2024-04-01T11:28:17.000+02:00", "lat": 52.52, "lon": 13.397, "intensity": 0.8, "source": "Tagesschau"}, {"title": "Kultur: +++ Goldmaske des Tutanchamun in Frankfurt +++ Gro\u00dfes Glockengel\u00e4ute zu Ostern in Frankfurt +++ Filmdreh in Marburg mit Kinostar Tony Leung +++", "url": "https://www.tagesschau.de/inland/regional/hessen/hr--schauspiel-frankfurt-bringt-putin-und-macbeth-zusammen--die-filmfestival-saison-2023-startet--lichter-filmfest-zum-thema-liebe-startet-am-dienstag-100.html", "thumbnailUrl": "https://images.tagesschau.de/image/a7c56f39-bfd0-4c9e-9aba-df12eb240b46/AAABjpjsivA/AAABjcWesUg/16x9-512.jpg", "date": "2024-04-01T11:09:53.354+02:00", "lat": 50.1109, "lon": 8.6821, "intensity": 0.7, "source": "Tagesschau"}, {"title": "Wie die Polizei mit Super-Recognizern verd\u00e4chtige Fans findet", "url": "https://www.tagesschau.de/inland/regional/schleswigholstein/ndr-wie-super-recognizer-beim-fussball-tatverdaechtige-finden-100.html", "thumbnailUrl": "https://images.tagesschau.de/image/14523b5b-f9bc-4010-abf2-9f4d3eb9c1ab/AAABjpjsQaA/AAABjcWesUg/16x9-512.jpg", "date": "2024-04-01T11:08:00.000+02:00", "lat": 54.3183, "lon": 10.1374, "intensity": 0.8, "source": "Tagesschau"}, {"title": "Mehrgenerationen-Spielpl\u00e4tze in 16 Kommunen im Saarland geplant", "url": "https://www.tagesschau.de/inland/regional/saarland/sr-mehrgenerationen-spielplaetze-in-16-kommunen-im-saarland-geplant-100.html", "thumbnailUrl": "https://images.tagesschau.de/image/ed31d108-c252-4d18-9c9c-781be0d9c29f/AAABjpjfaXQ/AAABjcWesUg/16x9-512.jpg", "date": "2024-04-01T10:55:00.000+02:00", "lat": 49.3964, "lon": 6.9969, "intensity": 0.6, "source": "Tagesschau"}, {"title": "Grabow: Geldautomat aus Tankstelle gestohlen", "url": "https://www.tagesschau.de/inland/regional/mecklenburgvorpommern/ndr-grabow-geldautomat-aus-tankstelle-gestohlen-100.html", "thumbnailUrl": "https://images.tagesschau.de/image/622e7adb-bf50-4aeb-8832-ab20676a5b25/AAABjpn3lYk/AAABjcWesUg/16x9-512.jpg", "date": "2024-04-01T10:51:00.000+02:00", "lat": 53.2612, "lon": 11.7267, "intensity": 0.8, "source": "Tagesschau"}, {"title": "iRobot Factory: Wie Sch\u00fcler spielerisch programmieren lernen", "url": "https://www.tagesschau.de/inland/regional/niedersachsen/ndr-irobot-factory-wie-schueler-spielerisch-programmieren-lernen-100.html", "thumbnailUrl": "https://images.tagesschau.de/image/ec5ceb90-dd44-4f18-8eef-fb905f599082/AAABjpkusPk/AAABjcWesUg/16x9-512.jpg", "date": "2024-04-01T10:40:00.000+02:00", "lat": 52.3759, "lon": 10.4667, "intensity": 0.6, "source": "Tagesschau"}, {"title": "Gewitter am Ostersonntag \u00fcber NRW: Blitzeinschlag in Krefeld", "url": "https://www.tagesschau.de/inland/regional/nordrheinwestfalen/wdr-gewitter-am-ostersonntag-ueber-nrw-blitzeinschlag-in-krefeld-100.html", "thumbnailUrl": "https://images.tagesschau.de/image/eb7f94d1-52b9-4361-98cd-e1e26bce9395/AAABjpkAWf0/AAABjcWesUg/16x9-512.jpg", "date": "2024-04-01T10:11:55.000+02:00", "lat": 51.3389, "lon": 6.57, "intensity": 0.8, "source": "Tagesschau"}, {"title": "Intel-Ansiedlung: Experten bef\u00fcrchten steigende Bodenpreise", "url": "https://www.tagesschau.de/inland/regional/sachsenanhalt/mdr-intel-ansiedlung-experten-befuerchten-steigende-bodenpreise-100.html", "thumbnailUrl": "https://images.tagesschau.de/image/38e7a8a4-81b4-43cc-b601-e7e6ebc8feea/AAABjpv22aU/AAABjcWesUg/16x9-512.jpg", "date": "2024-04-01T10:03:06.000+02:00", "lat": 52.145, "lon": 11.631, "intensity": 0.7, "source": "Tagesschau"}, {"title": "Kommt in weiteren St\u00e4dten in Baden-W\u00fcrttemberg die Verpackungssteuer?", "url": "https://www.tagesschau.de/inland/regional/badenwuerttemberg/swr-kommt-in-weiteren-staedten-in-baden-wuerttemberg-die-verpackungssteuer-100.html", "thumbnailUrl": "https://images.tagesschau.de/image/4a68666b-87a7-44e7-ae1a-1aaad2755252/AAABjpijB78/AAABjcWesUg/16x9-512.jpg", "date": "2024-04-01T09:49:01.000+02:00", "lat": 48.7274, "lon": 9.9937, "intensity": 0.7, "source": "Tagesschau"}, {"title": "Hohe Frauenquote: Hochschule Fulda setzt verst\u00e4rkt auf Professorinnen", "url": "https://www.tagesschau.de/inland/regional/hessen/hr-hohe-frauenquote-hochschule-fulda-setzt-verstaerkt-auf-professorinnen-100.html", "thumbnailUrl": "https://images.tagesschau.de/image/008c8a34-3aaf-433e-98a6-887896a8a951/AAABjpifeBg/AAABjcWesUg/16x9-512.jpg", "date": "2024-04-01T09:45:41.465+02:00", "lat": 50.5587, "lon": 9.6787, "intensity": 0.7, "source": "Tagesschau"}, {"title": "Israels Armee zieht Panzer von Al-Schifa-Klinik ab", "url": "https://www.tagesschau.de/ausland/asien/israel-gaza-al-schifa-100.html", "thumbnailUrl": "https://images.tagesschau.de/image/8cd640d8-e91b-4c27-a7fb-9211019ebc6a/AAABjph4EvU/AAABjcWesUg/16x9-512.jpg", "date": "2024-04-01T09:34:34.841+02:00", "lat": 31.512, "lon": 34.462, "intensity": 0.8, "source": "Tagesschau"}, {"title": "Darmstadt 98: +++ Das Highlight-Video vom Punktgewinn in Bochum +++ Lilien stolz auf Aufholjagd +++ Lilien punkten in Bochum +++ ", "url": "https://www.tagesschau.de/inland/regional/hessen/hr--tietz-vermisst-fehlende-gier--lilien-fans-liefern-sich-raststaetten-pruegelei--die-niederlage-der-lilien-in-der-video-zusammenfassung-102.html", "thumbnailUrl": "https://images.tagesschau.de/image/5a516e08-c2cd-45b1-bc36-39f707a8ffb4/AAABjpiWYrk/AAABjcWesUg/16x9-512.jpg", "date": "2024-04-01T09:34:16.430+02:00", "lat": 49.8748, "lon": 8.6526, "intensity": 0.7, "source": "Tagesschau"}, {"title": "Verfassungsschutz: Abteilung f\u00fcr Rechtsextremismus f\u00fchrungslos", "url": "https://www.tagesschau.de/inland/regional/niedersachsen/ndr-verfassungsschutz-abteilung-fuer-rechtsextremismus-fuehrungslos-100.html", "thumbnailUrl": "https://images.tagesschau.de/image/2f761ce1-e95e-400e-8d60-d7b79f9a2305/AAABjpiNbfU/AAABjcWesUg/16x9-512.jpg", "date": "2024-04-01T09:17:00.000+02:00", "lat": 51.1657, "lon": 10.4515, "intensity": 0.8, "source": "Tagesschau"}, {"title": "Invasive Art: Imkerverband will Ausbreitung der Asiatischen Hornisse in Berlin verhindern", "url": "https://www.tagesschau.de/inland/regional/berlin/rbb-invasive-art-imkerverband-will-ausbreitung-der-asiatischen-hornisse-in-berlin-verhindern-100.html", "thumbnailUrl": "https://images.tagesschau.de/image/0a3878a6-c2c1-45a5-887f-ac533f63b68d/AAABjpiGIJ4/AAABjcWesUg/16x9-512.jpg", "date": "2024-04-01T09:13:21.000+02:00", "lat": 52.520008, "lon": 13.404954, "intensity": 0.7, "source": "Tagesschau"}, {"title": "Cannabis-Liberalisierung tritt heute in Kraft ", "url": "https://www.tagesschau.de/inland/regional/saarland/sr-cannabis-liberalisierung-tritt-heute-in-kraft-100.html", "thumbnailUrl": "https://images.tagesschau.de/image/7e7322b5-6d6d-4393-9cd0-15ec7a662a85/AAABjpiFsb0/AAABjcWesUg/16x9-512.jpg", "date": "2024-04-01T09:02:00.000+02:00", "lat": 49.3964, "lon": 6.9815, "intensity": 0.9, "source": "Tagesschau"}, {"title": "Messerangriff auf Osterkirmes in Homburg", "url": "https://www.tagesschau.de/inland/regional/saarland/sr-messerangriff-auf-osterkirmes-in-homburg-100.html", "thumbnailUrl": "https://images.tagesschau.de/image/613410dd-375b-4a19-94dd-b56f1cbb0384/AAABjpiShVs/AAABjcWesUg/16x9-512.jpg", "date": "2024-04-01T08:38:00.000+02:00", "lat": 49.3147, "lon": 7.3356, "intensity": 0.8, "source": "Tagesschau"}, {"title": "Neues Cannabis-Gesetz tritt in Kraft: Woidke kritisiert Legalisierung - Hunderte Menschen bei \"Ankiffen\" am Brandenburger Tor", "url": "https://www.tagesschau.de/inland/regional/brandenburg/rbb-teil-legalisierung-von-cannabis-woidke-kritisiert-hanfverband-ruft-zu-smoke-in-am-brandenburger-tor-auf-100.html", "thumbnailUrl": "https://images.tagesschau.de/image/85a5e645-0483-4293-81db-7dda7369840f/AAABjpk3vAU/AAABjcWesUg/16x9-512.jpg", "date": "2024-04-01T08:31:03.000+02:00", "lat": 52.516275, "lon": 13.377704, "intensity": 0.8, "source": "Tagesschau"}, {"title": "Wissing glaubt an p\u00fcnktliche Z\u00fcge - zu Weihnachten", "url": "https://www.tagesschau.de/inland/gesellschaft/wissing-bahn-puenklich-100.html", "thumbnailUrl": "https://images.tagesschau.de/image/6a1f5da0-0e30-4548-949e-1fa64dcf9771/AAABjTs8-IA/AAABjcWesUg/16x9-512.jpg", "date": "2024-04-01T08:28:23.257+02:00", "lat": 51.9607, "lon": 9.7456, "intensity": 0.4, "source": "Tagesschau"}, {"title": "Die Hamburger Marktschreier in Saarbr\u00fccken zu Gast", "url": "https://www.tagesschau.de/inland/regional/saarland/sr-die-hamburger-marktschreier-kommen-nach-saarbruecken-100.html", "thumbnailUrl": "https://images.tagesschau.de/image/f171d8ae-bc90-4686-80bc-5d39c8d7784a/AAABjo5HnSE/AAABjcWesUg/16x9-512.jpg", "date": "2024-04-01T08:28:00.000+02:00", "lat": 49.2402, "lon": 6.9811, "intensity": 0.5, "source": "Tagesschau"}, {"title": "Saarbr\u00fccker Zoo feiert Artenschutztag am Ostermontag", "url": "https://www.tagesschau.de/inland/regional/saarland/sr-saarbruecker-zoo-feiert-artenschutztag-am-ostermontag-100.html", "thumbnailUrl": "https://images.tagesschau.de/image/40e457be-8773-4718-92a7-b5c4169fb8a7/AAABjpTuflM/AAABjcWesUg/16x9-512.jpg", "date": "2024-04-01T08:23:00.000+02:00", "lat": 49.2402, "lon": 6.988, "intensity": 0.5, "source": "Tagesschau"}, {"title": "Weniger Weinkonsum macht Winzern zu schaffen", "url": "https://www.tagesschau.de/wirtschaft/unternehmen/wein-winzer-konkurrenz-100.html", "thumbnailUrl": "https://images.tagesschau.de/image/32b98fb6-08a2-4925-9002-e39de775347a/AAABir0SB3M/AAABjcWesUg/16x9-512.jpg", "date": "2024-04-01T08:19:58.084+02:00", "lat": 51.9593, "lon": 7.6079, "intensity": 0.7, "source": "Tagesschau"}, {"title": "Brut- und Setzzeit: Hunde m\u00fcssen ab 1. April an die Leine", "url": "https://www.tagesschau.de/inland/regional/niedersachsen/ndr-brut-und-setzzeit-hunde-muessen-ab-1-april-an-die-leine-100.html", "thumbnailUrl": "https://images.tagesschau.de/image/63ca4395-86d0-4f6b-893a-e4071e44ab5e/AAABjpolys4/AAABjcWesUg/16x9-512.jpg", "date": "2024-04-01T08:18:00.000+02:00", "lat": 52.6367, "lon": 10.4515, "intensity": 0.6, "source": "Tagesschau"}, {"title": "Neue Proteste gegen Netanyahu", "url": "https://www.tagesschau.de/ausland/israel-lage-netanyahu-100.html", "thumbnailUrl": "https://images.tagesschau.de/image/872176fe-b255-4940-984e-d5b80307e571/AAABjphutXU/AAABjcWesUg/16x9-512.jpg", "date": "2024-04-01T08:01:25.869+02:00", "lat": 31.4611, "lon": 35.0004, "intensity": 0.8, "source": "Tagesschau"}, {"title": "FCK zwischen DFB-Pokal-Traum und Abstiegskampf", "url": "https://www.tagesschau.de/inland/regional/rheinlandpfalz/swr-fck-zwischen-dfb-pokal-traum-und-abstiegskampf-102.html", "thumbnailUrl": "https://images.tagesschau.de/image/8a74252b-dcd2-4fcb-bf39-cc04dbf10b5e/AAABjpioh24/AAABjcWesUg/16x9-512.jpg", "date": "2024-04-01T07:50:39.000+02:00", "lat": 49.4431, "lon": 7.5806, "intensity": 0.6, "source": "Tagesschau"}, {"title": "Cannabis ist legal: Doch was ist in Bremen erlaubt und was nicht?", "url": "https://www.tagesschau.de/inland/regional/bremen/rb-cannabis-ist-legal-doch-was-ist-in-bremen-erlaubt-und-was-nicht-100.html", "thumbnailUrl": "https://images.tagesschau.de/image/2f174585-76f2-4fbe-a403-4b32560799b7/AAABjpf8a4c/AAABjcWesUg/16x9-512.jpg", "date": "2024-04-01T06:44:00.000+02:00", "lat": 53.0793, "lon": 8.8017, "intensity": 0.75, "source": "Tagesschau"}, {"title": "Osterr\u00e4derlauf in L\u00fcgde: Uralter Brauch am Ostersonntag", "url": "https://www.tagesschau.de/inland/regional/nordrheinwestfalen/wdr-osterraederlauf-in-luegde-uralter-brauch-zum-ersten-mal-live-im-wdr-100.html", "thumbnailUrl": "https://images.tagesschau.de/image/87b34387-7332-4dc8-b310-fa4ac2f42d35/AAABjpgZpic/AAABjcWesUg/16x9-512.jpg", "date": "2024-04-01T06:26:00.000+02:00", "lat": 51.9833, "lon": 9.2547, "intensity": 0.8, "source": "Tagesschau"}, {"title": "\"Ich habe ja keine Wahl\"", "url": "https://www.tagesschau.de/ausland/europa/ukraine-rekrutierung-soldaten-100.html", "thumbnailUrl": "https://images.tagesschau.de/image/44b77379-2860-43a7-a92d-883850735379/AAABjpdfCFk/AAABjcWesUg/16x9-512.jpg", "date": "2024-04-01T03:56:11.750+02:00", "lat": 50.4501, "lon": 30.5234, "intensity": 0.6, "source": "Tagesschau"}, {"title": "Ab heute ist der Joint legal", "url": "https://www.tagesschau.de/inland/cannabis-teillegalisierung-102.html", "thumbnailUrl": "https://images.tagesschau.de/image/43a91d95-16c4-4ba1-9599-e98ebfb95462/AAABif2RwV8/AAABjcWesUg/16x9-512.jpg", "date": "2024-04-01T03:51:55.756+02:00", "lat": 52.520008, "lon": 13.404954, "intensity": 0.8, "source": "Tagesschau"}, {"title": "Opposition gewinnt Kommunalwahlen in der T\u00fcrkei", "url": "https://www.tagesschau.de/ausland/asien/tuerkei-kommunalwahl-104.html", "thumbnailUrl": "https://images.tagesschau.de/image/7fcd22f0-819c-464e-a61a-23250e74e163/AAABjphtLE8/AAABjcWesUg/16x9-512.jpg", "date": "2024-04-01T01:56:16.676+02:00", "lat": 41.0082376, "lon": 28.9783589, "intensity": 0.8, "source": "Tagesschau"}, {"title": "Wehrpflicht-Ausnahme f\u00fcr Ultraorthodoxe l\u00e4uft aus", "url": "https://www.tagesschau.de/ausland/israel-wehrpflicht-ultraorthodoxe-102.html", "thumbnailUrl": "https://images.tagesschau.de/image/a30c9c59-a5b9-414e-af4d-c4288f0cf75e/AAABjfUb2g0/AAABjcWesUg/16x9-512.jpg", "date": "2024-04-01T00:15:50.921+02:00", "lat": 31.7683, "lon": 35.2137, "intensity": 0.8, "source": "Tagesschau"}, {"title": "Vor 45 Jahren: Protest mit dem Gorleben-Treck nach Hannover ", "url": "https://www.tagesschau.de/inland/regional/niedersachsen/ndr-vor-45-jahren-protest-mit-dem-gorleben-treck-nach-hannover-100.html", "thumbnailUrl": "https://images.tagesschau.de/image/bb62446a-0b59-4062-9743-c9c55dbdf198/AAABjpaMuTk/AAABjcWesUg/16x9-512.jpg", "date": "2024-04-01T00:04:00.000+02:00", "lat": 52.3759, "lon": 9.7332, "intensity": 0.5, "source": "Tagesschau"}, {"title": "Bei Luftangriff im Gazastreifen sterben Mitarbeiter einer Hilfsorganisation", "url": "https://www.br.de/nachrichten/meldungen/index.html#n1", "thumbnailUrl": null, "date": "2024-04-02T05:50:48+02:00", "lat": 30.0444, "lon": 31.2357, "intensity": 0.8, "source": "Bayrischer Rundfunk"}, {"title": "Netanjahu will Verbot von Al-Dschasira umsetzen", "url": "https://www.br.de/nachrichten/meldungen/index.html#n2", "thumbnailUrl": null, "date": "2024-04-02T05:50:48+02:00", "lat": 33.5138, "lon": 36.2021, "intensity": 0.8, "source": "Bayrischer Rundfunk"}, {"title": "Wissing spricht sich erneut gegen Tempolimit auf Autobahnen aus", "url": "https://www.br.de/nachrichten/meldungen/index.html#n3", "thumbnailUrl": null, "date": "2024-04-02T05:50:48+02:00", "lat": 39.9334, "lon": 32.8597, "intensity": 0.8, "source": "Bayrischer Rundfunk"}, {"title": "Ex-Verkehrsminister Scheuer erkl\u00e4rt sofortigen R\u00fcckritt aus Bundestag", "url": "https://www.br.de/nachrichten/meldungen/index.html#n4", "thumbnailUrl": null, "date": "2024-04-02T05:50:48+02:00", "lat": 52.520008, "lon": 13.404954, "intensity": 0.7, "source": "Bayrischer Rundfunk"}, {"title": "Trump zahlt in Betrugsverfahren 175 Millionen Dollar Kaution", "url": "https://www.br.de/nachrichten/meldungen/index.html#n5", "thumbnailUrl": null, "date": "2024-04-02T05:50:48+02:00", "lat": 52.520008, "lon": 13.404954, "intensity": 0.6, "source": "Bayrischer Rundfunk"}, {"title": "Rund 800 Teilnehmer bei Ostermarsch in N\u00fcrnberg", "url": "https://www.br.de/nachrichten/meldungen/index.html#n6", "thumbnailUrl": null, "date": "2024-04-02T05:50:48+02:00", "lat": 48.135125, "lon": 11.581981, "intensity": 0.6, "source": "Bayrischer Rundfunk"}, {"title": "Bei Lawinenungl\u00fcck in Zermatt kommen drei Menschen ums Leben", "url": "https://www.br.de/nachrichten/meldungen/index.html#n7", "thumbnailUrl": null, "date": "2024-04-02T05:50:48+02:00", "lat": 50.110922, "lon": 8.682127, "intensity": 0.8, "source": "Bayrischer Rundfunk"}, {"title": "M\u00fcnchen und Straubing unterliegen im Halbfinale der DEL-Playoffs", "url": "https://www.br.de/nachrichten/meldungen/index.html#n8", "thumbnailUrl": null, "date": "2024-04-02T05:50:48+02:00", "lat": 47.8684, "lon": 12.6394, "intensity": 0.8, "source": "Bayrischer Rundfunk"}, {"title": "Das Wetter in Bayern: Sonne, Wolken und Schauer. H\u00f6chstwerte 10 bis 14 Grad", "url": "https://www.br.de/nachrichten/meldungen/index.html#n9", "thumbnailUrl": null, "date": "2024-04-02T05:50:48+02:00", "lat": 48.5844, "lon": 13.6722, "intensity": 0.8, "source": "Bayrischer Rundfunk"}, {"title": "Kapelle im Turm der Garnisonkirche eingeweiht  - Proteste vor der T\u00fcr", "url": "https://www.rbb24.de/panorama/beitrag/2024/03/brandenburg-garnisonkirche-potsdam-turm-garnisonkirchturm-kapelle.html", "thumbnailUrl": null, "date": "Mon, 01 Apr 2024 20:52:10 +0200", "lat": 52.390569, "lon": 13.064472, "intensity": 0.6, "source": "RBB"}, {"title": "3:1 gegen Straubing: Effiziente Eisb\u00e4ren starten mit Sieg in die Halbfinal-Serie der DEL", "url": "https://www.rbb24.de/sport/beitrag/2024/04/del-eishockey-playoffs-halbfinale-eisbaeren-berlin-straubing-tigers-spiel-1-spielbericht.html", "thumbnailUrl": null, "date": "Mon, 01 Apr 2024 20:05:56 +0200", "lat": 52.520008, "lon": 13.413215, "intensity": 0.8, "source": "RBB"}, {"title": "Modernisierung der Ampeln: Gro\u00dfer Stern ist ab Dienstag f\u00fcr vier Tage gesperrt", "url": "https://www.rbb24.de/panorama/beitrag/2024/04/berlin-grosser-stern-ampeln-vier-tage-gesperrt-siegessaeule-.html", "thumbnailUrl": null, "date": "Mon, 01 Apr 2024 16:06:00 +0200", "lat": 52.5125, "lon": 13.3539, "intensity": 0.6, "source": "RBB"}, {"title": "Bauprojekt in Potsdam-Mittelmark: Im Schatten der Beelitzer Heilst\u00e4tten", "url": "https://www.rbb24.de/panorama/beitrag/2024/04/brandenburg-potsdam-mittelmark-beelitz-heilstaetten-bauprojekt-ruinen-wohnungen-quartier.html", "thumbnailUrl": null, "date": "Mon, 01 Apr 2024 15:45:32 +0200", "lat": 52.2605, "lon": 13.1458, "intensity": 0.7, "source": "RBB"}, {"title": "Regionalliga Nordost: Energie Cottbus r\u00fcckt durch knappen Sieg gegen Eilenburg auf Platz zwei vor", "url": "https://www.rbb24.de/sport/beitrag/2024/04/fussball-regionalliga-nordost-energie-cottbus-eilenburg-spielbericht.html", "thumbnailUrl": null, "date": "Mon, 01 Apr 2024 15:20:00 +0200", "lat": 51.7515, "lon": 14.3251, "intensity": 0.6, "source": "RBB"}, {"title": "Landkreis Spree-Nei\u00dfe: Vier Menschen bei Verkehrsunfall in Kolkwitz schwer verletzt", "url": "https://www.rbb24.de/panorama/beitrag/2024/03/brandenburg-kolkwitz-verkehrsunfall-verletzte.html", "thumbnailUrl": null, "date": "Mon, 01 Apr 2024 14:53:24 +0200", "lat": 51.722, "lon": 14.308, "intensity": 0.8, "source": "RBB"}, {"title": "Berlin-Nikolassee: Zwei Schwerverletzte nach mutma\u00dflichem illegalen Rennen", "url": "https://www.rbb24.de/panorama/beitrag/2024/04/illegales-rennen-unfall-zehlendorf.html", "thumbnailUrl": null, "date": "Mon, 01 Apr 2024 13:47:00 +0200", "lat": 52.431, "lon": 13.2377, "intensity": 0.8, "source": "RBB"}, {"title": "Kind mit Spielzeugwaffe auf A11 l\u00f6st Polizeieinsatz aus", "url": "https://www.rbb24.de/panorama/beitrag/2024/04/polizeieinsatz-kind-spielzeugwaffe-autobahn-11-prenzlau.html", "thumbnailUrl": null, "date": "Mon, 01 Apr 2024 12:39:31 +0200", "lat": 52.518, "lon": 11.632, "intensity": 0.6, "source": "RBB"}, {"title": "Hunderte feiern Cannabis-Legalisierung in Berlin", "url": "https://www.rbb24.de/panorama/beitrag/2024/04/cannabis-legalisierung-feier.html", "thumbnailUrl": null, "date": "Mon, 01 Apr 2024 12:31:00 +0200", "lat": 52.5166, "lon": 13.3777, "intensity": 0.7, "source": "RBB"}, {"title": "Waldbrandgefahr im Brandenburger S\u00fcden steigt leicht", "url": "https://www.rbb24.de/panorama/beitrag/2024/04/suedbrandenburg-waldbrandgefahr-steigt-leicht.html", "thumbnailUrl": null, "date": "Mon, 01 Apr 2024 12:20:00 +0200", "lat": 52.5016, "lon": 13.3326, "intensity": 0.4, "source": "RBB"}, {"title": "Nofretete-B\u00fcste vor 100 Jahren erstmals \u00f6ffentlich ausgestellt", "url": "https://www.rbb24.de/kultur/beitrag/2024/04/berlin-nofretete-bueste-erste-ausstellung-vor-100-jahren.html", "thumbnailUrl": null, "date": "Mon, 01 Apr 2024 11:28:00 +0200", "lat": 52.52, "lon": 13.397, "intensity": 0.8, "source": "RBB"}, {"title": "Invasive Art: Imkerverband will Ausbreitung der Asiatischen Hornisse in Berlin verhindern", "url": "https://www.rbb24.de/panorama/beitrag/2024/04/berlin-imkerverband-schulungen-asiatische-hornisse.html", "thumbnailUrl": null, "date": "Mon, 01 Apr 2024 09:13:21 +0200", "lat": 52.520008, "lon": 13.404954, "intensity": 0.6, "source": "RBB"}, {"title": "Berliner Psychiater warnt: Cannabiskonsum kann vor allem bei jungen M\u00e4nnern zu Psychosen f\u00fchren", "url": "https://www.rbb24.de/panorama/beitrag/2024/04/cannabis-konsum-jugendliche-maenner-psychosen-psychiatrie-berlin.html", "thumbnailUrl": null, "date": "Mon, 01 Apr 2024 08:20:00 +0200", "lat": 52.52, "lon": 13.4229, "intensity": 0.7, "source": "RBB"}, {"title": "Video | Spreewald: Sorbische Ostern", "url": "https://www.rbb24.de/panorama/beitrag/av7/video-sorbisch-ostern-ostersingen-tradition.html", "thumbnailUrl": null, "date": "Sun, 31 Mar 2024 21:40:56 +0200", "lat": 51.8667, "lon": 14.0833, "intensity": 0.2, "source": "RBB"}, {"title": "Erzbischof Koch zu Synodalem Weg: Katholische Kirche verliert Glaubw\u00fcrdigkeit wegen fehlender Gleichberechtigung", "url": "https://www.rbb24.de/panorama/beitrag/2024/03/katholische-kirche-frauen-synodaler-weg-erzbischof-heiner-koch.html", "thumbnailUrl": null, "date": "Sun, 31 Mar 2024 21:09:00 +0200", "lat": 51.225, "lon": 9.976, "intensity": 0.7, "source": "RBB"}, {"title": "Saisonstart auf Galopprennbahn: Mr. Hollywood bezwingt in Hoppegarten Derbysieger Fantastic Moon", "url": "https://www.rbb24.de/sport/beitrag/2024/03/saisonauftakt-hoppegarten-galopprennbahn-mr-hollywood-andrasch-starke.html", "thumbnailUrl": null, "date": "Sun, 31 Mar 2024 18:32:00 +0200", "lat": 52.5123, "lon": 13.6355, "intensity": 0.4, "source": "RBB"}, {"title": "85:65 gegen Hamburg: Alba Berlin gelingt achter Liga-Sieg in Serie - Schneider stellt BBL-Rekord auf", "url": "https://www.rbb24.de/sport/beitrag/2024/03/basketball-bundesliga-alba-berlin-hamburg-towers-spielbericht.html", "thumbnailUrl": null, "date": "Sun, 31 Mar 2024 17:53:00 +0200", "lat": 52.5065, "lon": 13.4633, "intensity": 0.7, "source": "RBB"}, {"title": "2. Fu\u00dfball-Bundesliga: Turbine klettert durch Sieg in Frankfurt auf Platz zwei", "url": "https://www.rbb24.de/sport/beitrag/2024/03/fussball-brandenburg-turbine-zweite-bundesliga-eintracht-frankfurt.html", "thumbnailUrl": null, "date": "Sun, 31 Mar 2024 16:30:00 +0200", "lat": 50.1109, "lon": 8.6821, "intensity": 0.6, "source": "RBB"}, {"title": "Regionalliga Nordost: Viktoria Berlin holt trotz vieler Chancen nur einen Punkt gegen Babelsberg", "url": "https://www.rbb24.de/sport/beitrag/2024/03/fussball-regionalliga-nordost-viktoria-berlin-babelsberg-03-spielbericht.html", "thumbnailUrl": null, "date": "Sun, 31 Mar 2024 16:01:45 +0200", "lat": 52.376, "lon": 13.0511, "intensity": 0.6, "source": "RBB"}, {"title": "Zwei Bl\u00f6cke im Kohlekraftwerk J\u00e4nschwalde vom Netz genommen", "url": "https://www.rbb24.de/wirtschaft/beitrag/2024/03/zwei-bloecke-kohlekraftwerk-jaenschwalde-vom-netz-genommen-spree-neisse-brandenburg.html", "thumbnailUrl": null, "date": "Sun, 31 Mar 2024 14:29:00 +0200", "lat": 51.8149, "lon": 14.26172, "intensity": 0.8, "source": "RBB"}, {"title": "Bundesverteidigungsministerium: Bundeswehr stellte 2023 weniger Soldaten in Berlin und Brandenburg ein", "url": "https://www.rbb24.de/panorama/beitrag/2024/03/bundeswehr-berlin-brandenburg-weniger-soldatinnen-soldaten-eingestellt.html", "thumbnailUrl": null, "date": "Sun, 31 Mar 2024 13:43:00 +0200", "lat": 52.520008, "lon": 13.404954, "intensity": 0.4, "source": "RBB"}, {"title": "Hallen-Weltcup in Frankreich: Potsdamer Triathletin Lindemann gelingt Sieg beim Jahresauftakt", "url": "https://www.rbb24.de/sport/beitrag/2024/03/triathlon-laura-lindemann-potsdam-sieg-hallen-weltcup-frankreich.html", "thumbnailUrl": null, "date": "Sun, 31 Mar 2024 10:43:51 +0200", "lat": 48.8566, "lon": 2.3522, "intensity": 0.7, "source": "RBB"}, {"title": "Letzter DDR-Bildungsminister Hans Joachim Meyer gestorben", "url": "https://www.rbb24.de/panorama/beitrag/2024/03/ddr-bildungsminister-hans-joachim-meyer.html", "thumbnailUrl": null, "date": "Sat, 30 Mar 2024 20:26:00 +0100", "lat": 52.520008, "lon": 13.404954, "intensity": 0.6, "source": "RBB"}, {"title": "Nach 3:1-Sieg in L\u00fcneburg: BR Volleys stehen kurz vor dreizehntem Final-Einzug in Folge", "url": "https://www.rbb24.de/sport/beitrag/2024/03/volleyball-vbl-playoffs-halbfinale-br-volleys-lueneburg-spiel-2-spielbericht.html", "thumbnailUrl": null, "date": "Sat, 30 Mar 2024 20:22:13 +0100", "lat": 53.2402, "lon": 10.4367, "intensity": 0.8, "source": "RBB"}, {"title": "Was das neue Cannabisgesetz im Alltag bedeutet", "url": "https://www.rbb24.de/politik/beitrag/2024/02/bundestag-neues-cannabis-gesetz-legalisierung-fragen-antworten.html", "thumbnailUrl": null, "date": "Sat, 30 Mar 2024 17:24:11 +0100", "lat": 53.5511, "lon": 9.9937, "intensity": 0.7, "source": "RBB"}, {"title": "Regionalliga Nordost: Hertha BSC II und Lok Leipzig teilen sich die Punkte,  Altglienicke schl\u00e4gt BAK", "url": "https://www.rbb24.de/sport/beitrag/2024/03/fussball-regionalliga-nordost-hertha-bsc-berlin-u23-lok-leipzig.html", "thumbnailUrl": null, "date": "Sat, 30 Mar 2024 15:12:13 +0100", "lat": 52.5109, "lon": 13.4345, "intensity": 0.5, "source": "RBB"}, {"title": "Gesundbrunnen: Drei E-Scooter-Fahrer pr\u00fcgeln auf Ehepaar ein", "url": "https://www.rbb24.de/panorama/beitrag/2024/03/berlin-gesundbrunne-e-scooter-fahrer-pruegel-ehepaar-polizei.html", "thumbnailUrl": null, "date": "Sat, 30 Mar 2024 12:44:00 +0100", "lat": 52.5489, "lon": 13.3897, "intensity": 0.7, "source": "RBB"}, {"title": "Autofahrer auf der Flucht verursacht Unfall in Angerm\u00fcnde - drei Schwerverletzte", "url": "https://www.rbb24.de/panorama/beitrag/2024/03/unfall-verkehr-angermuende-uckermark-flucht.html", "thumbnailUrl": null, "date": "Sat, 30 Mar 2024 11:47:00 +0100", "lat": 53.0333, "lon": 14.0024, "intensity": 0.8, "source": "RBB"}, {"title": "Bischof St\u00e4blein: Evangelische Kirche bei Aufarbeitung von Missbrauchsf\u00e4llen zu sp\u00e4t", "url": "https://www.rbb24.de/panorama/beitrag/2024/03/berlin-brandenburg-ekbo-bischof-staeblein-missbrauch-aufarbeitung.html", "thumbnailUrl": null, "date": "Sat, 30 Mar 2024 11:19:00 +0100", "lat": 52.520008, "lon": 13.404954, "intensity": 0.6, "source": "RBB"}, {"title": "Brandenburg: Landtagspr\u00e4sidentin Liedtke gegen Ausgrenzung der AfD", "url": "https://www.rbb24.de/politik/beitrag/2024/03/brandenburg-landtag-praesidentin-liedtke-gegen-afd-ausgrenzung.html", "thumbnailUrl": null, "date": "Sat, 30 Mar 2024 09:13:00 +0100", "lat": 52.4125, "lon": 13.0038, "intensity": 0.3, "source": "RBB"}, {"title": "Suche nach weiteren Ex-RAF-Mitgliedern: Ermittler bereiten sich auf l\u00e4ngere Fahndung nach Ex-Terroristen vor", "url": "https://www.rbb24.de/panorama/beitrag/2024/03/berlin-niedersachsen-raf-ermittler-polizei-laengere-suche-nach-ex-raf-terroristen.html", "thumbnailUrl": null, "date": "Sat, 30 Mar 2024 09:02:00 +0100", "lat": 53.551, "lon": 9.982, "intensity": 0.7, "source": "RBB"}, {"title": "Video | Baustopp: Wie es um das Bauprojekt \"Upside Berlin\" steht", "url": "https://www.rbb24.de/panorama/beitrag/av7/video-baustopp-hochhaeuser-friedrichshain-berlin.html", "thumbnailUrl": null, "date": "Fri, 29 Mar 2024 21:13:11 +0100", "lat": 52.466, "lon": 13.739, "intensity": 0.8, "source": "RBB"}, {"title": "Video | Lost Place Fotografie: Auf den Spuren der Tuberkuloseklinik Kolkwitz", "url": "https://www.rbb24.de/panorama/beitrag/av7/video-lost-place-fotografie-kunst-verborgen.html", "thumbnailUrl": null, "date": "Fri, 29 Mar 2024 20:57:05 +0100", "lat": 51.751525, "lon": 14.323335, "intensity": 0.7, "source": "RBB"}, {"title": "Basketball-Euroleague: Alba geht bei Fenerbahce mit 68:103 unter", "url": "https://www.rbb24.de/sport/beitrag/2024/03/basketball-euroleague-fenerbahce-istanbul-alba-berlin.html", "thumbnailUrl": null, "date": "Fri, 29 Mar 2024 20:52:43 +0100", "lat": 41.0839, "lon": 28.9861, "intensity": 0.7, "source": "RBB"}, {"title": "Video | Frankfurt-Oder: Experimentelles Ballett im Kleist Forum", "url": "https://www.rbb24.de/kultur/beitrag/av7/video-kleist-ballett-tanz-kultur-kunst.html", "thumbnailUrl": null, "date": "Fri, 29 Mar 2024 20:50:15 +0100", "lat": 52.3412, "lon": 14.5471, "intensity": 0.4, "source": "RBB"}, {"title": "Video | Teltow-Fl\u00e4ming: Wie die Evangelische Kirche mit sexualisierter Gewalt umgeht", "url": "https://www.rbb24.de/panorama/beitrag/av7/video-sexualisiert-gewalt-evangelisch-kirche-konfirmanten.html", "thumbnailUrl": null, "date": "Fri, 29 Mar 2024 20:41:17 +0100", "lat": 52.3321, "lon": 13.2457, "intensity": 0.6, "source": "RBB"}, {"title": "Video | Senftenberg: \"Santa Barbara\" wieder auf dem Senftenberger See unterwegs", "url": "https://www.rbb24.de/panorama/beitrag/av7/video-solar-senftenberg-gaeste-restaurant-fruehling.html", "thumbnailUrl": null, "date": "Fri, 29 Mar 2024 20:39:28 +0100", "lat": 51.5259, "lon": 13.9706, "intensity": 0.3, "source": "RBB"}, {"title": "Video | L\u00fcbben: Ferienhaussiedlung vor dem Aus", "url": "https://www.rbb24.de/panorama/beitrag/av7/video-ferienhaus-siedlung-luebben-weigern-sich-auszug.html", "thumbnailUrl": null, "date": "Fri, 29 Mar 2024 20:27:01 +0100", "lat": 51.9346, "lon": 13.8613, "intensity": 0.8, "source": "RBB"}, {"title": "Pro-pal\u00e4stinensische Demonstranten versammeln sich im Berliner Hauptbahnhof", "url": "https://www.rbb24.de/panorama/beitrag/2024/03/berlin-demo-protest-pro-palaestina-polizei-hauptbahnhof.html", "thumbnailUrl": null, "date": "Fri, 29 Mar 2024 19:38:28 +0100", "lat": 52.5251, "lon": 13.3694, "intensity": 0.7, "source": "RBB"}, {"title": "Video | Beispiel Treuenbrietzen: Wer kontrolliert die Einhaltung des Cannabis-Gesetzes?", "url": "https://www.rbb24.de/panorama/beitrag/av7/video-brandenburg-chaos-durch-cannabis-gesetz-anbau-garten.html", "thumbnailUrl": null, "date": "Thu, 28 Mar 2024 20:51:50 +0100", "lat": 52.0919, "lon": 12.8852, "intensity": 0.7, "source": "RBB"}, {"title": "Video | Abstellzonen: Funktioniert das Konzept gegen wild geparkte E-Scooter?", "url": "https://www.rbb24.de/panorama/beitrag/av7/video-berlin-konzept-elektro-scooter-parken-test-berlin-mitte.html", "thumbnailUrl": null, "date": "Thu, 28 Mar 2024 20:36:50 +0100", "lat": 48.7758, "lon": 9.1752, "intensity": 0.6, "source": "RBB"}, {"title": "Historiker Sebastian Conrad: \"Nofretete wird unabh\u00e4ngig davon erkannt, ob man das Original je gesehen hat\"", "url": "https://www.rbb24.de/kultur/beitrag/2024/02/interview-nofretete-sebastian-conrad-ausstellung-aegypten-berlin.html", "thumbnailUrl": null, "date": "Sun, 04 Feb 2024 12:16:00 +0100", "lat": 52.520008, "lon": 13.396128, "intensity": 0.6, "source": "RBB"}, {"title": "Neue K\u00f6hlbrandbr\u00fccke soll bis zu 5,3 Milliarden Euro kosten", "url": "https://www.ndr.de/nachrichten/hamburg/Neue-Koehlbrandbruecke-soll-bis-zu-53-Milliarden-Euro-kosten,koehlbrandbruecke384.html", "thumbnailUrl": "https://www.ndr.de/nachrichten/hamburg/koehlbrandbruecke386_v-contentwidescreen.jpg", "date": "2024-04-01T21:44:37.693+02:00", "lat": 53.5317, "lon": 9.9522, "intensity": 0.8, "source": "NDR"}, {"title": "Alkoholverbot am Hamburger Hauptbahnhof wird heute wirksam", "url": "https://www.ndr.de/nachrichten/hamburg/Alkoholverbot-am-Hamburger-Hauptbahnhof-wird-heute-wirksam,hauptbahnhof686.html", "thumbnailUrl": "https://www.ndr.de/nachrichten/hamburg/hauptbahnhof688_v-contentwidescreen.jpg", "date": "2024-04-02T00:00:00.572+02:00", "lat": 53.5526, "lon": 9.9937, "intensity": 0.8, "source": "NDR"}, {"title": "Kiffen erlaubt: Polizei und Justiz in SH vor gro\u00dfen Herausforderungen", "url": "https://www.ndr.de/nachrichten/schleswig-holstein/Kiffen-erlaubt-Polizei-und-Justiz-in-SH-vor-grossen-Herausforderungen,cannabis826.html", "thumbnailUrl": "https://www.ndr.de/nachrichten/niedersachsen/cannabis806_v-contentwidescreen.jpg", "date": "2024-04-01T20:28:00.547+02:00", "lat": 54.3295, "lon": 10.4515, "intensity": 0.8, "source": "NDR"}, {"title": "Hamburgs Chilehaus: Welterbe und Wahrzeichen des \u00dcberseehandels", "url": "https://www.ndr.de/ratgeber/reise/hamburg/Hamburgs-Chilehaus-Welterbe-und-Wahrzeichen-des-Ueberseehandels,chilehaus109.html", "thumbnailUrl": "https://www.ndr.de/ratgeber/reise/hamburg/chilehaus160_v-contentwidescreen.jpg", "date": "2024-04-01T12:52:34.363+02:00", "lat": 53.5495, "lon": 9.9889, "intensity": 0.5, "source": "NDR"}, {"title": "Saisonstart in MV: Tourismusbranche zufrieden mit dem Ostergesch\u00e4ft", "url": "https://www.ndr.de/nachrichten/mecklenburg-vorpommern/Saisonstart-in-MV-Tourismusbranche-zufrieden-mit-dem-Ostergeschaeft,saisonstart164.html", "thumbnailUrl": "https://www.ndr.de/ostern1418_v-contentwidescreen.jpg", "date": "2024-04-02T05:04:30.483+02:00", "lat": 53.612, "lon": 12.623, "intensity": 0.7, "source": "NDR"}, {"title": "Abbau von \"Section Control\": B6 Richtung Laatzen gesperrt", "url": "https://www.ndr.de/nachrichten/niedersachsen/hannover_weser-leinegebiet/Abbau-von-Section-Control-B6-Richtung-Laatzen-gesperrt,sectioncontrol150.html", "thumbnailUrl": "https://www.ndr.de/nachrichten/niedersachsen/hannover_weser-leinegebiet/sectioncontrol110_v-contentwidescreen.jpg", "date": "2024-04-02T00:00:01.740+02:00", "lat": 52.3418, "lon": 9.7909, "intensity": 0.6, "source": "NDR"}, {"title": "Milder Winter: Kr\u00f6tenwanderung endet in diesem Jahr fr\u00fcher", "url": "https://www.ndr.de/nachrichten/niedersachsen/Milder-Winter-Kroetenwanderung-endet-in-diesem-Jahr-frueher,kroetenwanderung168.html", "thumbnailUrl": "https://www.ndr.de/nachrichten/hamburg/kroeten172_v-contentwidescreen.jpg", "date": "2024-04-01T16:25:00.027+02:00", "lat": 52.3759, "lon": 9.7531, "intensity": 0.4, "source": "NDR"}, {"title": "Grabow: Geldautomat aus Tankstelle gestohlen", "url": "https://www.ndr.de/nachrichten/mecklenburg-vorpommern/Grabow-Geldautomat-aus-Tankstelle-gestohlen,bankautomat118.html", "thumbnailUrl": "https://www.ndr.de/nachrichten/niedersachsen/hannover_weser-leinegebiet/socialcard108_v-contentwidescreen.jpg", "date": "2024-04-01T15:59:25.056+02:00", "lat": 53.3258, "lon": 11.7014, "intensity": 0.8, "source": "NDR"}, {"title": "Letzter Ostertag und Ferienende - dichter Verkehr, vereinzelt Staus", "url": "https://www.ndr.de/nachrichten/niedersachsen/Letzter-Ostertag-und-Ferienende-dichter-Verkehr-vereinzelt-Staus,osterverkehr136.html", "thumbnailUrl": "https://www.ndr.de/nachrichten/niedersachsen/verkehr880_v-contentwidescreen.jpg", "date": "2024-04-01T19:15:34.554+02:00", "lat": 52.3759, "lon": 9.8968, "intensity": 0.6, "source": "NDR"}, {"title": "Cannabis-Legalisierung: \u00d6ffentliches Kiffen in Hannover", "url": "https://www.ndr.de/fernsehen/sendungen/hallo_niedersachsen/Cannabis-Legalisierung-Oeffentliches-Kiffen-in-Hannover,hallonds86652.html", "thumbnailUrl": "https://www.ndr.de/fernsehen/screenshot1725246_v-contentwidescreen.jpg", "date": "2024-04-01T20:58:51.056+02:00", "lat": 52.3759, "lon": 9.7332, "intensity": 0.8, "source": "NDR"}, {"title": "Hamburger Ostermarsch: Kritik am Regierungskurs", "url": "https://www.ndr.de/fernsehen/sendungen/hamburg_journal/Hamburger-Ostermarsch-Kritik-am-Regierungskurs,hamj145650.html", "thumbnailUrl": "https://www.ndr.de/fernsehen/screenshot1725468_v-contentwidescreen.jpg", "date": "2024-04-01T20:46:50.979+02:00", "lat": 53.5511, "lon": 9.9937, "intensity": 0.7, "source": "NDR"}, {"title": "In Banzkow wird wieder geschleust", "url": "https://www.ndr.de/fernsehen/sendungen/nordmagazin/In-Banzkow-wird-wieder-geschleust,nordmagazin116850.html", "thumbnailUrl": "https://www.ndr.de/fernsehen/screenshot1725408_v-contentwidescreen.jpg", "date": "2024-04-01T21:39:21.862+02:00", "lat": 53.4856, "lon": 11.4581, "intensity": 0.6, "source": "NDR"}, {"title": "Uni Hannover: Wie stabil sind Windr\u00e4der?", "url": "https://www.ndr.de/fernsehen/sendungen/hallo_niedersachsen/Uni-Hannover-Wie-stabil-sind-Windraeder,hallonds86660.html", "thumbnailUrl": "https://www.ndr.de/fernsehen/screenshot1725346_v-contentwidescreen.jpg", "date": "2024-04-01T20:59:59.905+02:00", "lat": 52.3705, "lon": 9.7306, "intensity": 0.8, "source": "NDR"}, {"title": "Kommentar zur Wahl in der T\u00fcrkei: Erdogan kassiert Denkzettel", "url": "https://www.ndr.de/nachrichten/info/Kommentar-zur-Wahl-in-der-Tuerkei-Erdogan-kassiert-Denkzettel,audio1605194.html", "thumbnailUrl": "https://www.ndr.de/nachrichten/info/erdogan498_v-contentwidescreen.jpg", "date": "2024-04-01T16:52:21.439+02:00", "lat": 38.9637, "lon": 35.2433, "intensity": 0.9, "source": "NDR"}, {"title": "Soziologin: Aufregung um Elterngeld-\u00c4nderungen \u00fcbertrieben", "url": "https://www.ndr.de/nachrichten/info/Soziologin-Aufregung-um-Elterngeld-Aenderungen-uebertrieben,audio1605156.html", "thumbnailUrl": "https://www.ndr.de/kultur/sendungen/ard_radiofestival/juttaallmendinger100_v-contentwidescreen.jpg", "date": "2024-04-01T16:28:38.763+02:00", "lat": 51.1657, "lon": 10.4515, "intensity": 0.3, "source": "NDR"}, {"title": "Heute mitdiskutieren: Warum tun wir uns mit der EU so schwer?", "url": "https://www.ndr.de/nachrichten/info/epg/Zweckehe-statt-Liebe-warum-tun-wir-uns-mit-der-EU-so-schwer-,sendung1433278.html", "thumbnailUrl": "https://www.ndr.de/ndr1niedersachsen/europafahne100_v-contentwidescreen.jpg", "date": "2024-04-02T00:00:00.161+02:00", "lat": 51.5413, "lon": 9.9937, "intensity": 0.3, "source": "NDR"}, {"title": "\"W\u00fcnsch Dir Deinen NDR\" - Jetzt f\u00fcr die Publikumsaktion bewerben!", "url": "https://www.ndr.de/wuensch_dir_deinen_ndr/index.html", "thumbnailUrl": "https://www.ndr.de/der_ndr/wunschprogramm131_v-contentwidescreen.jpg", "date": "2024-03-26T07:59:24.876+01:00", "lat": 53.551086, "lon": 9.993682, "intensity": 0.2, "source": "NDR"}, {"title": "Relaunch der vier NDR L\u00e4nder-Apps: Nachrichten aus Ihrer Region!", "url": "https://www.ndr.de/Relaunch-der-vier-NDR-Laender-Apps-Nachrichten-aus-Ihrer-Region,laenderapprelaunch100.html", "thumbnailUrl": "https://www.ndr.de/laenderapprelaunch102_v-contentwidescreen.jpg", "date": "2024-03-19T09:22:34.719+01:00", "lat": 53.8659, "lon": 9.8606, "intensity": 0.4, "source": "NDR"}, {"title": "Gaspreis Dashboard", "url": "https://www.ndr.de/home/gaspreis176.html", "thumbnailUrl": null, "date": "2023-04-06T14:49:06.409+02:00", "lat": 51.3426, "lon": 9.9976, "intensity": 0.7, "source": "NDR"}, {"title": "NDR Radioprogramme", "url": "https://www.ndr.de/radio/radiologobox100.html", "thumbnailUrl": null, "date": "2020-12-01T14:04:26.700+01:00", "lat": 53.5511, "lon": 9.9937, "intensity": 0.3, "source": "NDR"}, {"title": "Krieg und Terror - Die Lage im Nahen Osten und in der Ukraine", "url": "https://www.ndr.de/nachrichten/info/podcast5342.html", "thumbnailUrl": "https://www.ndr.de/nachrichten/info/podcastbild412_v-contentwidescreen.jpg", "date": "2024-04-01T18:32:24.024+02:00", "lat": 46.79651, "lon": 30.739834, "intensity": 0.8, "source": "NDR"}, {"title": "Die Ern\u00e4hrungs-Docs - Essen als Medizin", "url": "https://www.ndr.de/fernsehen/sendungen/die-ernaehrungsdocs/audio-podcast/index.html", "thumbnailUrl": "https://www.ndr.de/fernsehen/sendungen/die-ernaehrungsdocs/podcastbild338_v-contentwidescreen.jpg", "date": "2024-03-27T08:00:08.131+01:00", "lat": 53.5511, "lon": 9.9876, "intensity": 0.3, "source": "NDR"}, {"title": "Unsere Comedy \"Die Kur-Oase\"!", "url": "https://www.ndr.de/ndr2/podcasts/podcast5816.html", "thumbnailUrl": "https://www.ndr.de/ndr2/podcasts/podcast5812_v-contentwidescreen.jpg", "date": "2024-03-28T07:15:06.107+01:00", "lat": 54.9069, "lon": 8.7386, "intensity": 0.2, "source": "NDR"}, {"title": "Organisiertes Verbrechen - Recherchen im Verborgenen", "url": "https://www.ndr.de/nachrichten/info/podcast4992.html", "thumbnailUrl": "https://www.ndr.de/nachrichten/info/podcastbildov100_v-contentwidescreen.jpg", "date": "2024-03-01T06:00:27.490+01:00", "lat": 45.9432, "lon": 24.9668, "intensity": 0.8, "source": "NDR"}, {"title": "eat.READ.sleep. B\u00fccher f\u00fcr dich", "url": "https://www.ndr.de/kultur/sendungen/eat_read_sleep/index.html", "thumbnailUrl": "https://www.ndr.de/mediathek/podcastbild434_v-contentwidescreen.jpg", "date": "2024-03-29T06:00:20.892+01:00", "lat": 53.5511, "lon": 9.9937, "intensity": 0.2, "source": "NDR"}, {"title": "Killed in Action: Afghanistan - Mission ohne Ziel", "url": "https://www.ndr.de/nachrichten/info/sendungen/podcast4574.html", "thumbnailUrl": "https://www.ndr.de/nachrichten/info/podcasts/podcastbild478_v-contentwidescreen.jpg", "date": "2024-02-16T17:44:01.214+01:00", "lat": 33.9391, "lon": 66.2385, "intensity": 0.8, "source": "NDR"}, {"title": "Streitkr\u00e4fte und Strategien", "url": "https://www.ndr.de/nachrichten/info/podcast2998.html", "thumbnailUrl": "https://www.ndr.de/mediathek/mediathekbild566_v-contentwidescreen.jpg", "date": "2024-03-26T17:22:43.541+01:00", "lat": 53.5511, "lon": 9.9937, "intensity": 0.8, "source": "NDR"}, {"title": "Standpunkte", "url": "https://www.ndr.de/nachrichten/info/podcast4700.html", "thumbnailUrl": "https://www.ndr.de/mediathek/podcast5332_v-contentwidescreen.jpg", "date": "2024-04-02T00:04:17.037+02:00", "lat": 53.5511, "lon": 9.9937, "intensity": 0.5, "source": "NDR"}, {"title": "Mein Einsatz - der Feuerwehr-Podcast von NDR Niedersachsen", "url": "https://www.ndr.de/ndr1niedersachsen/podcast5774.html", "thumbnailUrl": "https://www.ndr.de/ndr1niedersachsen/podcasts/podcastbild364_v-contentwidescreen.jpg", "date": "2024-03-28T04:00:07.923+01:00", "lat": 52.3759, "lon": 9.7345, "intensity": 0.7, "source": "NDR"}, {"title": "\"Feel Hamburg\" - alle Folgen", "url": "https://www.ndr.de/903/podcasts/podcast5108.html", "thumbnailUrl": "https://www.ndr.de/mediathek/mediathekbild514_v-contentwidescreen.jpg", "date": "2024-03-28T13:59:51.353+01:00", "lat": 53.55, "lon": 10.0, "intensity": 0.4, "source": "NDR"}, {"title": "Intensiv-Station - Satire von NDR Info", "url": "https://www.ndr.de/nachrichten/info/podcast4274.html", "thumbnailUrl": "https://www.ndr.de/nachrichten/info/programm/intensivstation3272_v-contentwidescreen.jpg", "date": "2024-03-25T22:56:23.803+01:00", "lat": 54.3706, "lon": 10.5038, "intensity": 0.8, "source": "NDR"}, {"title": "Amerika, wir m\u00fcssen reden!", "url": "https://www.ndr.de/nachrichten/info/podcast4932.html", "thumbnailUrl": "https://www.ndr.de/nachrichten/info/podcastbild488_v-contentwidescreen.jpg", "date": "2024-03-15T17:30:07.058+01:00", "lat": 39.78373, "lon": -100.445882, "intensity": 0.7, "source": "NDR"}, {"title": "Gewitter am Ostersonntag \u00fcber NRW: Blitzeinschlag in Krefeld", "url": "https://www1.wdr.de/nachrichten/nrw-gewitter-ostersonntag-100.html", "thumbnailUrl": null, "date": "2024-04-01T09:29:40Z", "lat": 51.3387, "lon": 6.5657, "intensity": 0.7, "source": "WDR"}, {"title": "Fast jedem Vierten fehlt das Geld f\u00fcr eine Woche Urlaub", "url": "https://www1.wdr.de/nachrichten/armut-deutschland-urlaub-eine-woche-100.html", "thumbnailUrl": null, "date": "2024-04-01T18:14:15Z", "lat": 51.1657, "lon": 10.4515, "intensity": 0.8, "source": "WDR"}, {"title": "Kiffen, WhatsApp, Gaspreise: Was sich ab April \u00e4ndert", "url": "https://www1.wdr.de/nachrichten/erster-april-anderungen-gaspreise-100.html", "thumbnailUrl": null, "date": "2024-04-01T18:15:24Z", "lat": 51.1657, "lon": 10.4515, "intensity": 0.8, "source": "WDR"}, {"title": "Nach Ank\u00fcndigung: Boxt Stefan Raab wirklich nochmal gegen Regina Halmich?", "url": "https://www1.wdr.de/nachrichten/stefan-raab-comeback-oder-aprilscherz-100.html", "thumbnailUrl": null, "date": "2024-04-01T15:02:34Z", "lat": 50.0344, "lon": 8.5365, "intensity": 0.6, "source": "WDR"}, {"title": "Gegen Israel und NATO: Botschaften bei Osterm\u00e4rschen sorgen f\u00fcr Kritik", "url": "https://www1.wdr.de/nachrichten/ostermaersche-nrw-ueberblick-100.html", "thumbnailUrl": null, "date": "2024-04-01T16:35:14Z", "lat": 51.4556, "lon": 7.5976, "intensity": 0.6, "source": "WDR"}, {"title": "Kirchen beten zu Ostern f\u00fcr Frieden und Hoffnung", "url": "https://www1.wdr.de/nachrichten/oster-kirchen-botschaften-100.html", "thumbnailUrl": null, "date": "2024-03-31T19:27:51Z", "lat": 50.2667, "lon": 7.4375, "intensity": 0.7, "source": "WDR"}, {"title": "Osterr\u00e4derlauf in L\u00fcgde: Uralter Brauch am Ostersonntag", "url": "https://www1.wdr.de/nachrichten/westfalen-lippe/osterraeder-lauf-luegde-100.html", "thumbnailUrl": null, "date": "2024-04-01T07:08:33Z", "lat": 51.9774, "lon": 9.2522, "intensity": 0.7, "source": "WDR"}, {"title": "Wechselhaftes Wetter an Ostern \u2013 Saharastaub d\u00e4mpft die Temperaturen bei uns", "url": "https://www1.wdr.de/nachrichten/wetter-ostern-saharastaub-100.html", "thumbnailUrl": null, "date": "2024-04-01T05:56:03Z", "lat": 51.1657, "lon": 10.4515, "intensity": 0.6, "source": "WDR"}, {"title": "Vorsicht beim Osterfeuer: Das ist zu beachten", "url": "https://www1.wdr.de/nachrichten/osterfeuer-das-ist-zu-beachten-100.html", "thumbnailUrl": null, "date": "2024-03-28T16:00:38Z", "lat": 51.4606, "lon": 7.6129, "intensity": 0.4, "source": "WDR"}, {"title": "RWE nimmt Braunkohle-Bl\u00f6cke vom Netz", "url": "https://www1.wdr.de/nachrichten/rwe-braunkohle-stilllegung-100.html", "thumbnailUrl": null, "date": "2024-04-01T12:24:24Z", "lat": 51.4332, "lon": 6.9255, "intensity": 0.7, "source": "WDR"}, {"title": "Vier Verletzte nach Kollision auf B 258 bei Roetgen - Vollsperrung aufgehoben", "url": "https://www1.wdr.de/nachrichten/rheinland/unfall-himmelsleiter-b258-100.html", "thumbnailUrl": null, "date": "2024-04-01T16:42:03Z", "lat": 50.6396, "lon": 6.2457, "intensity": 0.8, "source": "WDR"}, {"title": "Brandstiftung in Solingen: Mehr als 700 Menschen bei Trauermarsch", "url": "https://www1.wdr.de/nachrichten/rheinland/brandstiftung-solingen-welches-motiv-100.html", "thumbnailUrl": null, "date": "2024-03-30T19:11:16Z", "lat": 51.1657, "lon": 7.0783, "intensity": 0.8, "source": "WDR"}, {"title": "Schwerer Unfall in Hagen: Linienbus kracht frontal in ein Auto", "url": "https://www1.wdr.de/nachrichten/unfall-hagen-linienbus-100.html", "thumbnailUrl": null, "date": "2024-03-31T14:43:23Z", "lat": 51.3607, "lon": 7.4717, "intensity": 0.8, "source": "WDR"}, {"title": "Krieg gegen die Ukraine: Ukraine-Liveblog: ++ Selenskyj will Drohnen-Produktion hochfahren ++", "url": "https://www.tagesschau.de/newsticker/liveblog-ukraine-montag-352.html", "thumbnailUrl": null, "date": "2024-04-01T20:24:02Z", "lat": 50.4501, "lon": 30.5234, "intensity": 0.8, "source": "WDR"}, {"title": "Wegen Blockade von US-Hilfen: Selenskyj bef\u00fcrchtet R\u00fcckzug der Streitkr\u00e4fte wegen blockierter Hilfen", "url": "https://www.tagesschau.de/ausland/europa/ukraine-selenskyj-hilfen-usa-100.html", "thumbnailUrl": null, "date": "2024-03-30T15:06:03Z", "lat": 50.4501, "lon": 30.5234, "intensity": 0.8, "source": "WDR"}, {"title": "Ukraine gedenkt der Irpin-Opfer: Suche nach Erinnerungskultur zum Jahrestag der Irpin-Befreiung", "url": "https://www.tagesschau.de/ausland/europa/irpin-bruecke-ukraine-100.html", "thumbnailUrl": null, "date": "2024-03-29T21:36:02Z", "lat": 50.531783, "lon": 30.22409, "intensity": 0.8, "source": "WDR"}, {"title": "Ukraine: Zwischen Krieg und Normalit\u00e4t", "url": "https://www1.wdr.de/mediathek/audio/wdr5/wdr5-mittagsecho/audio-ukraine-zwischen-krieg-und-normalitaet-100.html", "thumbnailUrl": null, "date": "2024-03-27T13:17:56Z", "lat": 50.4501, "lon": 30.5234, "intensity": 0.7, "source": "WDR"}, {"title": "WDR aktuell Whatsapp-Kanal abonnieren - so geht's", "url": "https://www1.wdr.de/nachrichten/wdr-aktuell-whatsapp-kanal-100.html", "thumbnailUrl": null, "date": "2023-12-22T20:22:52Z", "lat": 51.4818, "lon": 7.6261, "intensity": 0.1, "source": "WDR"}, {"title": "Nahost-Krieg: Nahost-Liveblog: ++ Israel erm\u00f6glicht Schlie\u00dfung von Al Jazeera ++", "url": "https://www.tagesschau.de/newsticker/liveblog-nahost-montag-124.html", "thumbnailUrl": null, "date": "2024-04-01T17:57:02Z", "lat": 33.5138, "lon": 36.2268, "intensity": 0.8, "source": "WDR"}, {"title": "Israel: Zehntausende protestieren erneut gegen Netanyahu-Regierung", "url": "https://www.tagesschau.de/ausland/israel-lage-netanyahu-100.html", "thumbnailUrl": null, "date": "2024-04-01T06:54:03Z", "lat": 31.0461, "lon": 35.8436, "intensity": 0.8, "source": "WDR"}, {"title": "Israel: Israel: Wehrpflicht-Ausnahme f\u00fcr Ultraorthodoxe l\u00e4uft aus", "url": "https://www.tagesschau.de/ausland/israel-wehrpflicht-ultraorthodoxe-102.html", "thumbnailUrl": null, "date": "2024-03-31T22:18:02Z", "lat": 31.7683, "lon": 35.2137, "intensity": 0.8, "source": "WDR"}, {"title": "Die wichtigsten Fakten \u00fcber den Gazastreifen", "url": "https://www1.wdr.de/nachrichten/gaza-gazastreifen-israel-hintergrund-100.html", "thumbnailUrl": null, "date": "2023-10-11T15:33:25Z", "lat": 31.5107, "lon": 34.3445, "intensity": 0.8, "source": "WDR"}, {"title": "Rosa Spektakel - in Bonn bl\u00fchen die Kirschb\u00e4ume", "url": "https://www1.wdr.de/nachrichten/rheinland/kirschbluete-bonn-106.html", "thumbnailUrl": null, "date": "2024-03-30T19:11:07Z", "lat": 50.7374, "lon": 7.0982, "intensity": 0.2, "source": "WDR"}, {"title": "Im siebten Stock: Brand in Hochhaus in Krefeld", "url": "https://www1.wdr.de/nachrichten/rheinland/brand-hochhaus-krefeld-100.html", "thumbnailUrl": null, "date": "2024-03-30T20:16:34Z", "lat": 51.3388, "lon": 6.5761, "intensity": 0.8, "source": "WDR"}, {"title": "Autoposer-Treffen am \"Car-Freitag\" in NRW und den Niederlanden", "url": "https://www1.wdr.de/nachrichten/autoposer-treffen-nrw-100.html", "thumbnailUrl": null, "date": "2024-03-30T11:46:45Z", "lat": 51.6784, "lon": 6.155, "intensity": 0.7, "source": "WDR"}, {"title": "H\u00fcpfburg in Krefeld von Windsto\u00df erfasst - vier Kinder verletzt", "url": "https://www1.wdr.de/nachrichten/rheinland/huepfburg-krefeld-unfall-100.html", "thumbnailUrl": null, "date": "2024-03-31T19:04:37Z", "lat": 51.3331, "lon": 6.5629, "intensity": 0.7, "source": "WDR"}, {"title": "Gedenken an Naziopfer in Dortmund", "url": "https://www1.wdr.de/nachrichten/ruhrgebiet/gedenkstunde-bittermark-dortmund-100.html", "thumbnailUrl": null, "date": "2024-03-30T08:18:20Z", "lat": 51.482901, "lon": 7.499172, "intensity": 0.8, "source": "WDR"}, {"title": "Verbote am Karfreitag: Das sind die Regeln in NRW", "url": "https://www1.wdr.de/nachrichten/landespolitik/tanzverbot-ostern-keine-aenderungen-100.html", "thumbnailUrl": null, "date": "2024-03-30T05:17:01Z", "lat": 51.9607, "lon": 7.5964, "intensity": 0.4, "source": "WDR"}, {"title": "Organspende: Laumann f\u00fcr Widerspruchsl\u00f6sung", "url": "https://www1.wdr.de/nachrichten/landespolitik/organspende-laumann-widerspruchsloesung-100.html", "thumbnailUrl": null, "date": "2024-03-28T19:23:22Z", "lat": 51.9607, "lon": 7.6261, "intensity": 0.8, "source": "WDR"}, {"title": "Warum viele Kinder in NRW nicht schwimmen k\u00f6nnen", "url": "https://www1.wdr.de/nachrichten/viele-kinder-koennen-nicht-schwimmen-100.html", "thumbnailUrl": null, "date": "2024-03-27T19:11:15Z", "lat": 51.4818, "lon": 7.6124, "intensity": 0.8, "source": "WDR"}, {"title": "Verfassungsbeschwerde: OVG wohl noch lange ohne neuen Chef", "url": "https://www1.wdr.de/nachrichten/landespolitik/besetzung-limbach-ovg-verfassungsbeschwerde-100.html", "thumbnailUrl": null, "date": "2024-03-27T13:49:43Z", "lat": 51.4818, "lon": 7.1443, "intensity": 0.6, "source": "WDR"}, {"title": "\"Viel gr\u00f6\u00dfere Fortschritte\" - Schwimmen lernen in den Ferien", "url": "https://www1.wdr.de/nachrichten/westfalen-lippe/schwimmen-kinder-ferienkurse-100.html", "thumbnailUrl": null, "date": "2024-03-27T19:41:53Z", "lat": 51.9607, "lon": 7.6261, "intensity": 0.4, "source": "WDR"}, {"title": "Karfreitags-Prozession - Der Kreuzweg f\u00fchrt durch Wuppertal", "url": "https://www1.wdr.de/nachrichten/wolfram-lumpe-kreuzweg-wuppertal-100.html", "thumbnailUrl": null, "date": "2024-03-30T05:17:09Z", "lat": 51.2647, "lon": 7.17, "intensity": 0.6, "source": "WDR"}, {"title": "Festnahme nach Messerangriff in Wuppertaler Einkaufszentrum", "url": "https://www1.wdr.de/nachrichten/wuppertal-messerattacke-einkaufszentrum-100.html", "thumbnailUrl": null, "date": "2024-03-30T10:35:36Z", "lat": 51.2647, "lon": 7.1797, "intensity": 0.8, "source": "WDR"}, {"title": "Rheinberg: Brand auf Schulgel\u00e4nde", "url": "https://www1.wdr.de/nachrichten/ruhrgebiet/rheinberg-gefahrenmitteilung-brand-100.html", "thumbnailUrl": null, "date": "2024-03-29T06:05:52Z", "lat": 51.5493, "lon": 6.5974, "intensity": 0.7, "source": "WDR"}, {"title": "T\u00f6dlicher Unfall in Essener Kletterhalle", "url": "https://www1.wdr.de/nachrichten/ruhrgebiet/unfall-kletterhalle-essen-102.html", "thumbnailUrl": null, "date": "2024-03-30T19:10:49Z", "lat": 51.4556, "lon": 7.0123, "intensity": 0.8, "source": "WDR"}, {"title": "Schw\u00e4cheanfall: Reisebus mit Sch\u00fclern bei Werl verungl\u00fcckt", "url": "https://www1.wdr.de/nachrichten/westfalen-lippe/busunfall-autobahn-unna-werl-100.html", "thumbnailUrl": null, "date": "2024-03-29T18:28:55Z", "lat": 51.5441, "lon": 7.8847, "intensity": 0.8, "source": "WDR"}, {"title": "Besitz von Kinderpornografie: Priester aus Recklinghausen angeklagt", "url": "https://www1.wdr.de/nachrichten/ruhrgebiet/priester-recklinghausen-anklage-kinderpornografie-100.html", "thumbnailUrl": null, "date": "2024-03-28T18:14:47Z", "lat": 51.6142, "lon": 7.2016, "intensity": 0.9, "source": "WDR"}, {"title": "Lodernde Tradition: So spektakul\u00e4r war der Osterr\u00e4derlauf in L\u00fcgde", "url": "https://www1.wdr.de/nachrichten/westfalen-lippe/fotos-osterraeder-luegde-100.html", "thumbnailUrl": null, "date": "2024-04-01T04:49:25Z", "lat": 51.9776, "lon": 9.1177, "intensity": 0.8, "source": "WDR"}, {"title": "Sanierung beim insolventen Glashersteller Ritzenhoff", "url": "https://www1.wdr.de/nachrichten/westfalen-lippe/ritzenhoff-glas-sanierung-100.html", "thumbnailUrl": null, "date": "2024-03-28T19:52:45Z", "lat": 51.3871, "lon": 8.5009, "intensity": 0.7, "source": "WDR"}, {"title": "Bauarbeiter bei Sturz durchs Dach in Gevelsberg schwer verletzt", "url": "https://www1.wdr.de/nachrichten/ruhrgebiet/unfall-gevelsberg-bauarbeiten-100.html", "thumbnailUrl": null, "date": "2024-03-28T17:47:16Z", "lat": 51.3327, "lon": 7.3505, "intensity": 0.8, "source": "WDR"}, {"title": "Die App WDR aktuell begleitet Sie durch den Tag", "url": "https://www1.wdr.de/nachrichten/wdr-aktuell-app-stores-100.html", "thumbnailUrl": null, "date": "2023-10-30T11:49:53Z", "lat": 51.4508, "lon": 7.6261, "intensity": 0.3, "source": "WDR"}, {"title": "WDR Newsroom: Informationen f\u00fcr den Westen rund um die Uhr auf allen Kan\u00e4len", "url": "https://www1.wdr.de/nachrichten/newsroom-information-nrw-westen-100.html", "thumbnailUrl": null, "date": "2021-04-14T22:00:15Z", "lat": 51.4556, "lon": 7.0116, "intensity": 0.1, "source": "WDR"}, {"title": "Das Leitungsteam des Newsrooms im WDR (Programmbereich Aktuelles)", "url": "https://www1.wdr.de/nachrichten/newsroom-leitung-team-programmbereich-aktuelles-100.html", "thumbnailUrl": null, "date": "2024-03-08T15:34:21Z", "lat": 51.460021, "lon": 7.014026, "intensity": 0.3, "source": "WDR"}, {"title": "Wasserstoff-Kraftwerk Leipzig \u2013 Vorbild f\u00fcr klimaneutrale Energieversorgung in Europa?", "url": "https://www.mdr.de/nachrichten/sachsen/leipzig/wasserstoff-kraftwerk-leipzig-kohleausstieg-100.html", "thumbnailUrl": null, "date": "Tue, 02 Apr 2024 05:00:04 +0200", "lat": 51.3397, "lon": 12.3787, "intensity": 0.8, "source": "MDR"}, {"title": "Gurtpflicht bei Busreisen schwer durchsetzbar", "url": "https://www.mdr.de/nachrichten/deutschland/panorama/bus-anschnallpflicht-durchsetzung-100.html", "thumbnailUrl": null, "date": "Tue, 02 Apr 2024 05:25:43 +0200", "lat": 51.5421, "lon": 9.9937, "intensity": 0.6, "source": "MDR"}, {"title": "Wolf l\u00e4uft vor MDR-Kameramann direkt \u00fcber die Stra\u00dfe", "url": "https://www.mdr.de/nachrichten/sachsen/bautzen/bautzen-hoyerswerda-kamenz/wolf-video-sprung-zaun-niedergurig-100.html", "thumbnailUrl": null, "date": "Mon, 01 Apr 2024 21:38:03 +0200", "lat": 51.1667, "lon": 14.3667, "intensity": 0.7, "source": "MDR"}, {"title": "Ex-Verkehrsminister Scheuer legt Bundestagsmandat nieder", "url": "https://www.mdr.de/nachrichten/deutschland/politik/scheuer-bundestag-mandat-ruecktritt-100.html", "thumbnailUrl": null, "date": "Mon, 01 Apr 2024 19:13:07 +0200", "lat": 52.517, "lon": 13.3326, "intensity": 0.7, "source": "MDR"}, {"title": "Rettungsh\u00fcndin Blair findet vermissten f\u00fcnfj\u00e4hrigen Jungen in S\u00e4chsischer Schweiz", "url": "https://www.mdr.de/nachrichten/sachsen/dresden/dippoldiswalde-sebnitz/rathen-suche-kind-saechsische-schweiz-vermisst-100.html", "thumbnailUrl": null, "date": "Mon, 01 Apr 2024 12:47:10 +0200", "lat": 50.918, "lon": 14.1232, "intensity": 0.8, "source": "MDR"}, {"title": "FDP-Chef Lindner will Reserve der Bundeswehr st\u00e4rken", "url": "https://www.mdr.de/nachrichten/deutschland/politik/reserve-christian-lindner-fdp-bundeswehr-dienspflicht-100.html", "thumbnailUrl": null, "date": "Mon, 01 Apr 2024 18:19:49 +0200", "lat": 52.52, "lon": 13.405, "intensity": 0.6, "source": "MDR"}, {"title": "Neue Baustellen auf A2, A9 und A38 in Sachsen-Anhalt", "url": "https://www.mdr.de/nachrichten/sachsen-anhalt/magdeburg/autobahn-baustellen-bundesstrasse-alleringersleben-gerwisch-barleben-102.html", "thumbnailUrl": null, "date": "Tue, 02 Apr 2024 05:01:28 +0200", "lat": 52.1333, "lon": 11.6333, "intensity": 0.6, "source": "MDR"}, {"title": "Wolmirstedt und Breitenstein: Hunderte bei Osterm\u00e4rschen", "url": "https://www.mdr.de/nachrichten/sachsen-anhalt/ostermaersche-krieg-frieden-wolmirstedt-breitenstein-100.html", "thumbnailUrl": null, "date": "Mon, 01 Apr 2024 17:53:43 +0200", "lat": 52.2077, "lon": 11.6293, "intensity": 0.6, "source": "MDR"}, {"title": "Zu Studienzwecken: Fensterbauer Eurolam in Wiegendorf f\u00fchrt 4-Tage-Woche ein", "url": "https://www.mdr.de/nachrichten/thueringen/mitte-thueringen/weimar/eurolam-wiegendorf-vier-tage-woche-100.html", "thumbnailUrl": null, "date": "Mon, 01 Apr 2024 15:17:45 +0200", "lat": 48.0629, "lon": 11.5847, "intensity": 0.5, "source": "MDR"}, {"title": "Friedensglocke auf dem Fichtelberg verstummt", "url": "https://www.mdr.de/nachrichten/sachsen/chemnitz/annaberg-aue-schwarzenberg/oberwiesenthal-fichtelberg-friedensglocke-symbol-100.html", "thumbnailUrl": null, "date": "Mon, 01 Apr 2024 19:16:54 +0200", "lat": 50.4294, "lon": 12.9724, "intensity": 0.8, "source": "MDR"}, {"title": "Osteuropa", "url": "https://www.mdr.de/nachrichten/welt/osteuropa/index.html", "thumbnailUrl": null, "date": "Tue, 25 Apr 2023 13:02:57 +0200", "lat": 45.9432, "lon": 23.8859, "intensity": 0.5, "source": "MDR"}, {"title": "Verkehr", "url": "https://www.mdrjump.de/verkehr/index.html", "thumbnailUrl": null, "date": "Thu, 09 Jun 2022 11:05:09 +0200", "lat": 51.1657, "lon": 11.6229, "intensity": 0.2, "source": "MDR"}, {"title": "So ver\u00e4ndert sich das Klima in Sachsen, Sachsen-Anhalt und Th\u00fcringen", "url": "https://www.mdr.de/nachrichten/deutschland/panorama/wetter-klima-wandel-daten-archiv-region-100.html", "thumbnailUrl": null, "date": "Mon, 04 Mar 2024 10:27:56 +0100", "lat": 51.339695, "lon": 12.496365, "intensity": 0.6, "source": "MDR"},