[{"title": "++ Israels Botschafter fordert \"Kurswechsel\" der EU ++", "url": "https://www.tagesschau.de/newsticker/liveblog-nahost-donnerstag-128.html", "thumbnailUrl": "https://images.tagesschau.de/image/55a5408c-fa97-425f-8ee6-2cf99af95728/AAABju68BGg/AAABjcWesUg/16x9-512.jpg", "date": "2024-04-18T03:06:16.773+02:00", "lat": 31.7683, "lon": 35.2137, "intensity": 0.7, "source": "Tagesschau"}, {"title": "Unfall-Z\u00fcge am Wormser Hauptbahnhof sind geborgen ", "url": "https://www.tagesschau.de/inland/regional/rheinlandpfalz/swr-zuege-am-wormser-hauptbahnhof-zusammengestossen-100.html", "thumbnailUrl": "https://images.tagesschau.de/image/f149f698-150c-4a07-9024-b833094cac46/AAABjutpyIg/AAABjcWesUg/16x9-512.jpg", "date": "2024-04-18T02:39:00.000+02:00", "lat": 49.6301, "lon": 8.3586, "intensity": 0.8, "source": "Tagesschau"}, {"title": "Hagel und Gl\u00e4tte: Unf\u00e4lle auf der A5", "url": "https://www.tagesschau.de/inland/regional/badenwuerttemberg/swr-hagel-und-glaette-100.html", "thumbnailUrl": "https://images.tagesschau.de/image/cd099e6d-1086-4002-b685-8c292e3e807e/AAABju5wWxA/AAABjcWesUg/16x9-512.jpg", "date": "2024-04-18T01:40:48.000+02:00", "lat": 49.186, "lon": 8.557, "intensity": 0.7, "source": "Tagesschau"}, {"title": "Untersuchungsausschuss zu Gehalt von Weils B\u00fcroleiterin startet", "url": "https://www.tagesschau.de/inland/regional/niedersachsen/ndr-landtag-entscheidet-ueber-untersuchungsausschuss-100.html", "thumbnailUrl": "https://images.tagesschau.de/image/d340a34e-b97f-4fac-b56f-8f8885460db7/AAABju6Cqsg/AAABjcWesUg/16x9-512.jpg", "date": "2024-04-18T00:00:00.000+02:00", "lat": 52.3738, "lon": 9.7332, "intensity": 0.6, "source": "Tagesschau"}, {"title": "F\u00fcnf Investoren sollen Zukunft des Hockenheimrings sichern", "url": "https://www.tagesschau.de/inland/regional/badenwuerttemberg/swr-fuenf-investoren-sollen-zukunft-des-hockenheimrings-sichern-100.html", "thumbnailUrl": "https://images.tagesschau.de/image/fe47ad72-74ea-489b-9f73-7750414af1b6/AAABju4RHWM/AAABjcWesUg/16x9-512.jpg", "date": "2024-04-17T23:47:06.000+02:00", "lat": 49.326522, "lon": 8.569977, "intensity": 0.6, "source": "Tagesschau"}, {"title": "Andernach: Polizei fahndet nach Fl\u00fcchtigen - keine Anhalter mitnehmen", "url": "https://www.tagesschau.de/inland/regional/rheinlandpfalz/swr-andernach-polizei-fahndet-nach-fluechtigen-keine-anhalter-mitnehmen-100.html", "thumbnailUrl": "https://images.tagesschau.de/image/05e3c53a-4a0b-491a-8cbe-4ea121b690b0/AAABju4ES5A/AAABjcWesUg/16x9-512.jpg", "date": "2024-04-17T23:40:12.000+02:00", "lat": 50.4418, "lon": 7.3957, "intensity": 0.5, "source": "Tagesschau"}, {"title": "++ T\u00fcrkei f\u00fchrt Gespr\u00e4che mit der Hamas ++", "url": "https://www.tagesschau.de/newsticker/liveblog-nahost-mittwoch-122.html", "thumbnailUrl": "https://images.tagesschau.de/image/31ab266f-4449-40b3-bf28-abdab7e5f18b/AAABjuySkEQ/AAABjcWesUg/16x9-512.jpg", "date": "2024-04-17T23:32:26.132+02:00", "lat": 32.093479, "lon": 34.802075, "intensity": 0.8, "source": "Tagesschau"}, {"title": "Bayern M\u00fcnchen steht im Halbfinale", "url": "https://www.tagesschau.de/eilmeldung/championsleague-198.html", "thumbnailUrl": "https://images.sportschau.de/image/6fa1aff4-d6ab-4f48-a99f-4743fee51df5/AAABju3YMGk/AAABjcWesUg/16x9-512.jpg", "date": "2024-04-17T23:12:48.951+02:00", "lat": 48.218, "lon": 11.621, "intensity": 0.8, "source": "Tagesschau"}, {"title": "\"Grunderbe\" geht nach Frankfurt-Griesheim", "url": "https://www.tagesschau.de/inland/regional/hessen/hr-grunderbe-geht-nach-frankfurt-griesheim-100.html", "thumbnailUrl": "https://images.tagesschau.de/image/a0676ab1-3b69-41d2-a90b-d57a621e494a/AAABju3hhg4/AAABjcWesUg/16x9-512.jpg", "date": "2024-04-17T23:04:03.365+02:00", "lat": 50.0791, "lon": 8.5822, "intensity": 0.7, "source": "Tagesschau"}, {"title": "Basketball-Bundesliga: Alba Berlin m\u00fcht sich in Hamburg zum elften Sieg in Serie", "url": "https://www.tagesschau.de/inland/regional/berlin/rbb-basketball-bundesliga-alba-berlin-mueht-sich-in-hamburg-zum-elften-sieg-in-serie-102.html", "thumbnailUrl": "https://images.tagesschau.de/image/869f4852-2244-426b-952a-ca1685f8544e/AAABju3S4Xg/AAABjcWesUg/16x9-512.jpg", "date": "2024-04-17T22:47:22.000+02:00", "lat": 53.551086, "lon": 10.008344, "intensity": 0.7, "source": "Tagesschau"}, {"title": "Berliner Landespokal der Frauen: Viktoria schl\u00e4gt Hohen Neuendorf und zieht ins Finale ein", "url": "https://www.tagesschau.de/inland/regional/berlin/rbb-berliner-landespokal-der-frauen-viktoria-schlaegt-hohen-neuendorf-und-zieht-ins-finale-ein-102.html", "thumbnailUrl": "https://images.tagesschau.de/image/308bd9ec-5d62-4990-88fc-b713fe8d660b/AAABju3RDYc/AAABjcWesUg/16x9-512.jpg", "date": "2024-04-17T22:43:51.000+02:00", "lat": 52.52001, "lon": 13.3061, "intensity": 0.8, "source": "Tagesschau"}, {"title": "300 Jahre Kant: Festakt zur Er\u00f6ffnung der Sonderschau in L\u00fcneburg", "url": "https://www.tagesschau.de/inland/regional/niedersachsen/ndr-300-jahre-kant-festakt-zur-eroeffnung-der-sonderschau-in-lueneburg-100.html", "thumbnailUrl": "https://images.tagesschau.de/image/005c1e6e-2866-403d-9603-4f040b8d3d30/AAABjutkckw/AAABjcWesUg/16x9-512.jpg", "date": "2024-04-17T22:05:00.000+02:00", "lat": 53.248, "lon": 10.412, "intensity": 0.5, "source": "Tagesschau"}, {"title": "2:4 in Bremerhaven: Eisb\u00e4ren kassieren Niederlage zum Auftakt der DEL-Finalserie", "url": "https://www.tagesschau.de/inland/regional/berlin/rbb-jetzt-live-hoeren-und-im-ticker-eisbaeren-starten-gegen-bremerhaven-in-del-finalserie-102.html", "thumbnailUrl": "https://images.tagesschau.de/image/d5680585-210a-4d0b-8153-4c63595c6dfb/AAABju2qmFU/AAABjcWesUg/16x9-512.jpg", "date": "2024-04-17T22:02:53.000+02:00", "lat": 53.55, "lon": 8.58333, "intensity": 0.7, "source": "Tagesschau"}, {"title": "T\u00f6dliche Sch\u00fcsse auf Lukas aus Asperg: Zwei M\u00e4nner zu Haft verurteilt", "url": "https://www.tagesschau.de/inland/regional/badenwuerttemberg/swr-prozess-um-tod-von-lukas-aus-asperg-wir-haben-lebenslang-bekommen-100.html", "thumbnailUrl": "https://images.tagesschau.de/image/38b2efd4-6796-47ac-b86e-dee11749073c/AAABjuySbvg/AAABjcWesUg/16x9-512.jpg", "date": "2024-04-17T21:58:00.000+02:00", "lat": 48.8709, "lon": 9.1292, "intensity": 0.8, "source": "Tagesschau"}, {"title": "Gl\u00e4tte und Frost: In Niedersachsen kommt der Winter zur\u00fcck", "url": "https://www.tagesschau.de/inland/regional/niedersachsen/ndr-auf-warmes-fruehlingswochenende-folgt-nass-kaltes-wetter-100.html", "thumbnailUrl": "https://images.tagesschau.de/image/48710e92-042e-4e1e-abb4-b3e5bee0ccb0/AAABju2x8eI/AAABjcWesUg/16x9-512.jpg", "date": "2024-04-17T21:48:00.000+02:00", "lat": 52.6367, "lon": 10.4515, "intensity": 0.3, "source": "Tagesschau"}, {"title": "Erzieherinnen vor Gericht: Prozess um ertrunkenes Kleinkind in R\u00fcsselsheim gestartet", "url": "https://www.tagesschau.de/inland/regional/hessen/hr-erzieherinnen-vor-gericht-prozess-um-ertrunkenes-kleinkind-in-ruesselsheim-gestartet-100.html", "thumbnailUrl": "https://images.tagesschau.de/image/882dd755-a84a-4070-ac40-7ec210c88046/AAABju2aGBw/AAABjcWesUg/16x9-512.jpg", "date": "2024-04-17T21:46:28.578+02:00", "lat": 49.991, "lon": 8.43254, "intensity": 0.7, "source": "Tagesschau"}, {"title": "BioSquare: Ein neuer Forschungsstandort f\u00fcr Leipzig", "url": "https://www.tagesschau.de/inland/regional/sachsen/mdr-biosquare-ein-neuer-forschungsstandort-fuer-leipzig-100.html", "thumbnailUrl": "https://images.tagesschau.de/image/af380554-b693-4c16-8fca-4e5ee9394f82/AAABju49nUg/AAABjcWesUg/16x9-512.jpg", "date": "2024-04-17T21:40:00.000+02:00", "lat": 51.33969, "lon": 12.38926, "intensity": 0.5, "source": "Tagesschau"}, {"title": "Mehr als 100 Menschen sterben durch Unwetter", "url": "https://www.tagesschau.de/ausland/asien/unwetter-pakistan-afghanistan-100.html", "thumbnailUrl": "https://images.tagesschau.de/image/08e4c97a-c583-4a76-9e9d-fc8cb410dde9/AAABju0rlP4/AAABjcWesUg/16x9-512.jpg", "date": "2024-04-17T21:32:45.910+02:00", "lat": 33.9391, "lon": 66.2385, "intensity": 1, "source": "Tagesschau"}, {"title": "Lkw-Unfall auf der A2: Autobahn Richtung Dortmund wieder frei", "url": "https://www.tagesschau.de/inland/regional/niedersachsen/ndr-lkw-unfall-auf-der-a2-autobahn-in-richtung-dortmund-gesperrt-100.html", "thumbnailUrl": "https://images.tagesschau.de/image/cc108f33-bda5-4f95-94c0-f772c2aff525/AAABju2Q9UE/AAABjcWesUg/16x9-512.jpg", "date": "2024-04-17T21:26:00.000+02:00", "lat": 52.2465, "lon": 9.3324, "intensity": 0.7, "source": "Tagesschau"}, {"title": "Schweriner SC verliert Volleyball-Drama beim MTV Stuttgart ", "url": "https://www.tagesschau.de/inland/regional/mecklenburgvorpommern/ndr-schweriner-sc-verliert-zweites-meisterschaftsfinale-gegen-stuttgart-102.html", "thumbnailUrl": "https://images.tagesschau.de/image/fe43637d-588b-4333-aef6-c775ac74e77e/AAABju2JoEU/AAABjcWesUg/16x9-512.jpg", "date": "2024-04-17T21:20:00.000+02:00", "lat": 53.633, "lon": 9.177, "intensity": 0.8, "source": "Tagesschau"}, {"title": "1:3-Niederlage in Friedrichshafen: BR Volleys stehen vor Final-Aus", "url": "https://www.tagesschau.de/inland/regional/berlin/rbb-13-niederlage-in-friedrichshafen-br-volleys-stehen-vor-final-aus-102.html", "thumbnailUrl": "https://images.tagesschau.de/image/de8ee114-29a7-426a-ad28-5944bf9468c0/AAABju1-p0Q/AAABjcWesUg/16x9-512.jpg", "date": "2024-04-17T21:19:51.000+02:00", "lat": 47.65097, "lon": 8.52929, "intensity": 0.8, "source": "Tagesschau"}, {"title": "Verletzte bei Hisbollah-Angriff auf Nordisrael", "url": "https://www.tagesschau.de/ausland/libanon-angriff-verletzte-100.html", "thumbnailUrl": "https://images.tagesschau.de/image/0adbe1ac-1f04-4ab0-97ef-18bb340737e6/AAABizLMu6w/AAABjcWesUg/16x9-512.jpg", "date": "2024-04-17T21:14:10.816+02:00", "lat": 33.2437, "lon": 35.1781, "intensity": 0.8, "source": "Tagesschau"}, {"title": "Plenkovics Partei liegt laut Umfragen vorn", "url": "https://www.tagesschau.de/ausland/europa/kroatien-wahlen-102.html", "thumbnailUrl": "https://images.tagesschau.de/image/4f17de94-6292-4f0e-a518-52ab606c330e/AAABju11pdw/AAABjcWesUg/16x9-512.jpg", "date": "2024-04-17T21:08:54.932+02:00", "lat": 45.1, "lon": 15.2, "intensity": 0.8, "source": "Tagesschau"}, {"title": "Video auf Facebook: Hallervorden l\u00f6st mit Gedicht \u00fcber Gaza-Krieg Kontroverse aus", "url": "https://www.tagesschau.de/inland/regional/berlin/rbb-video-auf-facebook-hallervorden-loest-mit-gedicht-ueber-gaza-krieg-kontroverse-aus-100.html", "thumbnailUrl": "https://images.tagesschau.de/image/97757ea2-1d68-49c8-983c-1158ea9646b5/AAABju1wAmw/AAABjcWesUg/16x9-512.jpg", "date": "2024-04-17T20:59:38.000+02:00", "lat": 52.520008, "lon": 13.404954, "intensity": 0.7, "source": "Tagesschau"}, {"title": "Aktivisten der \"Letzten Generation\" blockieren Verkehr in Saarbr\u00fccken ", "url": "https://www.tagesschau.de/inland/regional/saarland/sr-aktivisten-der-letzten-generation-blockieren-verkehr-in-saarbruecken-100.html", "thumbnailUrl": "https://images.tagesschau.de/image/48ca1dc5-efae-48e1-9a39-555e264948de/AAABju1YJXM/AAABjcWesUg/16x9-512.jpg", "date": "2024-04-17T20:33:00.000+02:00", "lat": 49.2354, "lon": 6.9815, "intensity": 0.7, "source": "Tagesschau"}, {"title": "Live: Bayern gegen Arsenal", "url": "https://www.sportschau.de/live-und-ergebnisse/fussball/uefa-champions-league/ma9671765/bayern-muenchen_arsenal-fc/liveticker/", "thumbnailUrl": "https://images.tagesschau.de/image/5e211391-faaa-4bb9-8a92-cfd2c053b5f8/AAABjhR4xlg/AAABjcWesUg/16x9-512.jpg", "date": "2024-04-17T20:15:57.074+02:00", "lat": 48.218775, "lon": 11.624005, "intensity": 0.8, "source": "Tagesschau"}, {"title": "T\u00f6dlicher Polizeieinsatz in Berlin-Moabit: Gericht weist Klage von Witwe auf Schadenersatz ab", "url": "https://www.tagesschau.de/inland/regional/berlin/rbb-toedlicher-polizeieinsatz-in-berlin-moabit-gericht-weist-klage-von-witwe-auf-schadenersatz-ab-100.html", "thumbnailUrl": "https://images.tagesschau.de/image/1d884cf9-cb54-4e6a-9ffe-9e035501a75b/AAABju1JjRY/AAABjcWesUg/16x9-512.jpg", "date": "2024-04-17T20:13:30.000+02:00", "lat": 52.530807, "lon": 13.341403, "intensity": 0.8, "source": "Tagesschau"}, {"title": "Kooperation von Unis und Bundeswehr: Kritik und Knackpunkte", "url": "https://www.tagesschau.de/inland/regional/bayern/br-kooperation-von-unis-und-bundeswehr-kritik-und-knackpunkte-104.html", "thumbnailUrl": "https://images.tagesschau.de/image/30e1876a-e9f2-40c9-bb13-54410b8c1a89/AAABju0-jv8/AAABjcWesUg/16x9-512.jpg", "date": "2024-04-17T20:02:41.122+02:00", "lat": 48.7701, "lon": 11.4979, "intensity": 0.8, "source": "Tagesschau"}, {"title": "Tausende alkoholabh\u00e4ngige Menschen im Saarland", "url": "https://www.tagesschau.de/inland/regional/saarland/sr-tausende-alkoholabhaengige-menschen-im-saarland-100.html", "thumbnailUrl": "https://images.tagesschau.de/image/4e2ecb38-4d8f-43c2-a418-008195cd494f/AAABju062iA/AAABjcWesUg/16x9-512.jpg", "date": "2024-04-17T20:00:00.000+02:00", "lat": 49.3964, "lon": 7.0, "intensity": 0.8, "source": "Tagesschau"}, {"title": "Abi-Pr\u00fcfungen in Hamburg erstmals wieder ohne Corona-Erleichterungen", "url": "https://www.tagesschau.de/inland/regional/hamburg/ndr-abi-pruefungen-in-hamburg-erstmals-wieder-ohne-corona-erleichterungen-100.html", "thumbnailUrl": "https://images.tagesschau.de/image/a7a036c8-267e-4479-8e45-381411c0af87/AAABjucHbZE/AAABjcWesUg/16x9-512.jpg", "date": "2024-04-17T19:52:00.000+02:00", "lat": 53.55, "lon": 10.0, "intensity": 0.6, "source": "Tagesschau"}, {"title": "Wei\u00dfe \u00dcberraschung auf der Schw\u00e4bischen Alb und im Nordschwarzwald", "url": "https://www.tagesschau.de/inland/regional/badenwuerttemberg/swr-weisse-ueberraschung-auf-der-schwaebischen-alb-und-im-nordschwarzwald-100.html", "thumbnailUrl": "https://images.tagesschau.de/image/50974bd2-a96b-48f1-bb30-695f201d436c/AAABjuymwKg/AAABjcWesUg/16x9-512.jpg", "date": "2024-04-17T19:48:00.000+02:00", "lat": 48.6786, "lon": 9.0702, "intensity": 0.3, "source": "Tagesschau"}, {"title": "Bund soll H\u00e4fen bezahlen, da ist sich die Bremer Politik fast einig", "url": "https://www.tagesschau.de/inland/regional/bremen/rb-berlin-soll-haefen-bezahlen-da-ist-sich-die-bremer-politik-fast-einig-100.html", "thumbnailUrl": "https://images.tagesschau.de/image/1c574c2c-99b7-417b-bbd2-bd0145f690df/AAABju0uIjs/AAABjcWesUg/16x9-512.jpg", "date": "2024-04-17T19:48:00.000+02:00", "lat": 53.0793, "lon": 8.8017, "intensity": 0.7, "source": "Tagesschau"}, {"title": "Th\u00fcringen will Gema-Geb\u00fchren f\u00fcr Vereinsfeste \u00fcbernehmen", "url": "https://www.tagesschau.de/inland/regional/thueringen/mdr-thueringen-will-gema-gebuehren-fuer-vereinsfeste-uebernehmen-100.html", "thumbnailUrl": "https://images.tagesschau.de/image/212bfffc-5c21-4755-bf43-73b1d4faad58/AAABju49Yq8/AAABjcWesUg/16x9-512.jpg", "date": "2024-04-17T19:42:53.000+02:00", "lat": 51.011, "lon": 10.8453, "intensity": 0.6, "source": "Tagesschau"}, {"title": "Debatte \u00fcber mehr Tierwohl: \"Am Ende steht der Preis\"", "url": "https://www.tagesschau.de/inland/regional/schleswigholstein/ndr-debatte-ueber-mehr-tierwohl-am-ende-steht-der-preis-100.html", "thumbnailUrl": "https://images.tagesschau.de/image/d9847596-1561-418f-9a2f-44a4c93649e6/AAABju1WYM8/AAABjcWesUg/16x9-512.jpg", "date": "2024-04-17T19:37:00.000+02:00", "lat": 54.4976, "lon": 9.6869, "intensity": 0.6, "source": "Tagesschau"}, {"title": "360.000 Euro f\u00fcr Staatsb\u00fcrgerschaft: Razzia gegen mutma\u00dfliche Schleuser", "url": "https://www.tagesschau.de/inland/regional/hamburg/ndr-razzia-gegen-mutmassliche-schleuser-1-000-beamte-im-einsatz-100.html", "thumbnailUrl": "https://images.tagesschau.de/image/c57e75a9-89cf-46a8-8a3a-5eafb845124a/AAABju0k7SE/AAABjcWesUg/16x9-512.jpg", "date": "2024-04-17T19:36:00.000+02:00", "lat": 53.5511, "lon": 9.9937, "intensity": 0.8, "source": "Tagesschau"}, {"title": "6,90 Euro f\u00fcr den Zwiebelrostbraten: Waiblinger Wirt zieht Bilanz", "url": "https://www.tagesschau.de/inland/regional/badenwuerttemberg/swr-690-euro-fuer-den-zwiebelrostbraten-waiblinger-wirt-zieht-bilanz-100.html", "thumbnailUrl": "https://images.tagesschau.de/image/2078e1ab-c2da-4c0e-af5b-ec2c03a97869/AAABju0fd7M/AAABjcWesUg/16x9-512.jpg", "date": "2024-04-17T19:33:00.000+02:00", "lat": 48.8306, "lon": 9.3183, "intensity": 0.7, "source": "Tagesschau"}, {"title": "Mit Sneakern und Jogginghose: Touristen an Zugspitze gerettet", "url": "https://www.tagesschau.de/inland/regional/bayern/br-mit-sneakern-und-jogginghose-touristen-an-zugspitze-gerettet-102.html", "thumbnailUrl": "https://images.tagesschau.de/image/087d8729-46bf-4581-a48e-09a5857936eb/AAABju08vwk/AAABjcWesUg/16x9-512.jpg", "date": "2024-04-17T19:30:00.000+02:00", "lat": 47.4216, "lon": 11.07063, "intensity": 0.7, "source": "Tagesschau"}, {"title": "Zoo Magdeburg weist Kritik an Schimpansenhaltung zur\u00fcck", "url": "https://www.tagesschau.de/inland/regional/sachsenanhalt/mdr-zoo-magdeburg-weist-kritik-an-schimpansenhaltung-zurueck-100.html", "thumbnailUrl": "https://images.tagesschau.de/image/fe598304-9274-4511-bb96-b18f7490d58b/AAABju4-AKs/AAABjcWesUg/16x9-512.jpg", "date": "2024-04-17T19:27:21.000+02:00", "lat": 52.128, "lon": 11.639, "intensity": 0.7, "source": "Tagesschau"}, {"title": "Razzia bei AfD Niedersachsen: Andere Parteien reagieren entsetzt", "url": "https://www.tagesschau.de/inland/regional/niedersachsen/ndr-razzia-bei-afd-niedersachsen-andere-parteien-reagieren-entsetzt-100.html", "thumbnailUrl": "https://images.tagesschau.de/image/49e0e874-76f8-4d6e-9eb0-6c5aaa00e47f/AAABju6Crp8/AAABjcWesUg/16x9-512.jpg", "date": "2024-04-17T19:24:00.000+02:00", "lat": 52.3759, "lon": 9.3107, "intensity": 0.8, "source": "Tagesschau"}, {"title": "Handy gegen Wein: Wie die Restaurant-Aktion in NRW ankommt", "url": "https://www.tagesschau.de/inland/regional/nordrheinwestfalen/wdr-handy-auf-dem-esstisch-im-restaurant-was-wirte-in-nrw-dazu-sagen-100.html", "thumbnailUrl": "https://images.tagesschau.de/image/4989bb0d-00d6-4912-8cdb-b5dbdbca5cc7/AAABju08r3M/AAABjcWesUg/16x9-512.jpg", "date": "2024-04-17T19:23:00.000+02:00", "lat": 51.455643, "lon": 7.588576, "intensity": 0.6, "source": "Tagesschau"}, {"title": "Lauterbach will Klinikreform vorantreiben ", "url": "https://www.tagesschau.de/inland/innenpolitik/krankenhausreform-118.html", "thumbnailUrl": "https://images.tagesschau.de/image/c7a96373-c51b-4217-8fae-41830700e82e/AAABjuyzYm4/AAABjcWesUg/16x9-512.jpg", "date": "2024-04-17T19:08:50.796+02:00", "lat": 50.634, "lon": 9.391, "intensity": 0.7, "source": "Tagesschau"}, {"title": "1. FC Kaiserslautern gibt Vorverkaufs-Start f\u00fcr Tickets f\u00fcr das DFB-Pokalfinale bekannt", "url": "https://www.tagesschau.de/inland/regional/rheinlandpfalz/swr-1-fc-kaiserslautern-gibt-vorverkaufs-start-fuer-tickets-fuer-das-dfb-pokalfinale-bekannt-102.html", "thumbnailUrl": "https://images.tagesschau.de/image/ea91c301-73c1-4a18-9ea9-16e5daed9ca3/AAABju0PDMk/AAABjcWesUg/16x9-512.jpg", "date": "2024-04-17T19:05:48.000+02:00", "lat": 52.5086, "lon": 13.2394, "intensity": 0.4, "source": "Tagesschau"}, {"title": "Zweitliga-Abstiegskampf: So hart ist das Restprogramm des SV Wehen Wiesbaden", "url": "https://www.tagesschau.de/inland/regional/hessen/hr-zweitliga-abstiegskampf-so-hart-ist-das-restprogramm-des-sv-wehen-wiesbaden-102.html", "thumbnailUrl": "https://images.tagesschau.de/image/42d68002-8b6e-4b32-a7fc-6766024b1ab6/AAABju0LWBA/AAABjcWesUg/16x9-512.jpg", "date": "2024-04-17T19:01:17.775+02:00", "lat": 50.078218, "lon": 8.239753, "intensity": 0.8, "source": "Tagesschau"}, {"title": "Th\u00fcringen-Derby: So betraten Neonazi-Hooligans das Stadion in Jena", "url": "https://www.tagesschau.de/inland/regional/thueringen/mdr-thueringen-derby-so-betraten-neonazi-hooligans-das-stadion-in-jena-100.html", "thumbnailUrl": "https://images.tagesschau.de/image/24c899f7-bdfe-4d90-b81d-aab06d15b1b4/AAABju49F5c/AAABjcWesUg/16x9-512.jpg", "date": "2024-04-17T18:50:25.000+02:00", "lat": 50.928, "lon": 11.588, "intensity": 0.8, "source": "Tagesschau"}, {"title": "Ahrtal: Hinterbliebene von Flutopfern fordern, Staatsanw\u00e4lte auszuwechseln", "url": "https://www.tagesschau.de/inland/regional/rheinlandpfalz/swr-ahrtal-hinterbliebene-von-flutopfern-fordern-staatsanwaelte-auszuwechseln-100.html", "thumbnailUrl": "https://images.tagesschau.de/image/7bca932c-72dd-4094-bb17-d33499af0032/AAABjuzNBDs/AAABjcWesUg/16x9-512.jpg", "date": "2024-04-17T18:44:00.000+02:00", "lat": 50.5946, "lon": 7.3324, "intensity": 0.8, "source": "Tagesschau"}, {"title": "Basketballerinnen von Alba Berlin: Noch drei Siege bis zum ersten Titel", "url": "https://www.tagesschau.de/inland/regional/berlin/rbb-basketballerinnen-von-alba-berlin-noch-drei-siege-bis-zum-ersten-titel-100.html", "thumbnailUrl": "https://images.tagesschau.de/image/e657aa53-70f5-49c4-a3e9-0a0785d40194/AAABjuzzfCo/AAABjcWesUg/16x9-512.jpg", "date": "2024-04-17T18:42:42.000+02:00", "lat": 52.520008, "lon": 13.404954, "intensity": 0.9, "source": "Tagesschau"}, {"title": "Freie-W\u00e4hler-Kandidat Locurcio darf nicht bei Saarlouiser OB-Wahl antreten", "url": "https://www.tagesschau.de/inland/regional/saarland/sr-freie-waehler-kandidat-locurcio-darf-nicht-bei-saarlouiser-ob-wahl-antreten-100.html", "thumbnailUrl": "https://images.tagesschau.de/image/6b2b4712-4c52-44c5-a0be-247c6292f8ab/AAABjuyi-8A/AAABjcWesUg/16x9-512.jpg", "date": "2024-04-17T18:39:00.000+02:00", "lat": 49.3167, "lon": 6.75, "intensity": 0.5, "source": "Tagesschau"}, {"title": "Verletzte nach mutma\u00dflichem Pfeffersprayangriff in Linienbus", "url": "https://www.tagesschau.de/inland/regional/hamburg/ndr-verletzte-nach-mutmasslichem-pfeffersprayangriff-in-linienbus-100.html", "thumbnailUrl": "https://images.tagesschau.de/image/cbbc30d5-b91a-4ce4-bb5a-46f456a49ffa/AAABjuuSFV8/AAABjcWesUg/16x9-512.jpg", "date": "2024-04-17T18:37:00.000+02:00", "lat": 53.6002, "lon": 9.8308, "intensity": 0.6, "source": "Tagesschau"}, {"title": "Frau in Brechen mit Messer get\u00f6tet: Polizei nimmt Sohn als Tatverd\u00e4chtigen fest", "url": "https://www.tagesschau.de/inland/regional/hessen/hr-frau-in-brechen-mit-messer-getoetet-polizei-nimmt-sohn-als-tatverdaechtigen-fest-100.html", "thumbnailUrl": "https://images.tagesschau.de/image/cfbba7bb-956d-427e-bbc2-bf97e3291168/AAABjuzqU_s/AAABjcWesUg/16x9-512.jpg", "date": "2024-04-17T18:35:01.220+02:00", "lat": 50.3815, "lon": 8.1527, "intensity": 0.8, "source": "Tagesschau"}, {"title": "Homeoffice sorgt f\u00fcr Leerstand bei B\u00fcrofl\u00e4chen in Hamburg", "url": "https://www.tagesschau.de/inland/regional/hamburg/ndr-homeoffice-sorgt-fuer-leerstand-bei-bueroflaechen-in-hamburg-100.html", "thumbnailUrl": "https://images.tagesschau.de/image/47f69c44-95fd-4cfc-bbdb-7530da3ce0a1/AAABjuvzJLQ/AAABjcWesUg/16x9-512.jpg", "date": "2024-04-17T18:35:00.000+02:00", "lat": 53.5511, "lon": 9.9937, "intensity": 0.8, "source": "Tagesschau"}, {"title": "Nach Feuer in Firma von AfD-Politiker: Brandursache weiter unklar", "url": "https://www.tagesschau.de/inland/regional/sachsenanhalt/mdr-fuhrpark-verbrannt-staatsschutz-ermittelt-nach-feuer-in-firma-von-afd-politiker-100.html", "thumbnailUrl": "https://images.tagesschau.de/image/bca2d7f5-d2c6-4bca-87b1-c93832554993/AAABjuzmrYw/AAABjcWesUg/16x9-512.jpg", "date": "2024-04-17T18:30:12.000+02:00", "lat": 51.3587, "lon": 11.8351, "intensity": 0.8, "source": "Tagesschau"}, {"title": "Entscheidung \u00fcber Gasbohrungen vor Borkum erwartet", "url": "https://www.tagesschau.de/inland/regional/niedersachsen/ndr-entscheidung-ueber-gasbohrungen-vor-borkum-erwartet-100.html", "thumbnailUrl": "https://images.tagesschau.de/image/04dedfd4-76c1-4260-98b4-0768f886ee85/AAABjuzjGYA/AAABjcWesUg/16x9-512.jpg", "date": "2024-04-17T18:25:00.000+02:00", "lat": 52.0705, "lon": 4.3007, "intensity": 0.6, "source": "Tagesschau"}, {"title": "Schleibr\u00fccke Lindaunis: Viel Kritik an Verz\u00f6gerung", "url": "https://www.tagesschau.de/inland/regional/schleswigholstein/ndr-der-neubau-der-schleibruecke-bei-lindaunis-verzoegert-sich-100.html", "thumbnailUrl": "https://images.tagesschau.de/image/ee87e67c-17b7-436c-ab75-b74d3bb6403b/AAABjucr_gY/AAABjcWesUg/16x9-512.jpg", "date": "2024-04-17T18:25:00.000+02:00", "lat": 54.6165, "lon": 9.6696, "intensity": 0.7, "source": "Tagesschau"}, {"title": "Union Krankenversicherung erzielt Millionen-\u00dcberschuss", "url": "https://www.tagesschau.de/inland/regional/saarland/sr-union-krankenversicherung-erzielt-millionen-ueberschuss-100.html", "thumbnailUrl": "https://images.tagesschau.de/image/1355c957-c1dd-4931-9b49-6bc603f9f854/AAABjuzfTEc/AAABjcWesUg/16x9-512.jpg", "date": "2024-04-17T18:21:00.000+02:00", "lat": 49.2402, "lon": 6.9969, "intensity": 0.8, "source": "Tagesschau"}, {"title": "Gro\u00dfbaustelle bis 2031: So laufen die Arbeiten auf der A8 bei Neunkirchen", "url": "https://www.tagesschau.de/inland/regional/saarland/sr-grossbaustelle-bis-2031-so-laufen-die-arbeiten-auf-der-a8-bei-neunkirchen-100.html", "thumbnailUrl": "https://images.tagesschau.de/image/cde7765e-d698-4f13-be90-4468739e198f/AAABjuzZzfI/AAABjcWesUg/16x9-512.jpg", "date": "2024-04-17T18:16:00.000+02:00", "lat": 49.3414, "lon": 7.2333, "intensity": 0.6, "source": "Tagesschau"}, {"title": "200 Polizisten im Einsatz: Drei M\u00e4nner bei Drogenrazzia in Berlin festgenommen - Waffen beschlagnahmt", "url": "https://www.tagesschau.de/inland/regional/berlin/rbb-200-polizisten-im-einsatz-drei-maenner-bei-drogenrazzia-in-berlin-festgenommen-waffen-beschlagnahmt-100.html", "thumbnailUrl": "https://images.tagesschau.de/image/599d8bb3-d380-46f5-87ad-3bc1c51e1718/AAABjuzaAcE/AAABjcWesUg/16x9-512.jpg", "date": "2024-04-17T18:15:59.000+02:00", "lat": 52.520008, "lon": 13.404954, "intensity": 0.8, "source": "Tagesschau"}, {"title": "Eine Elf-Milliarden-Euro-L\u00fccke zwischen Wollen und K\u00f6nnen", "url": "https://www.tagesschau.de/inland/regional/sachsen/mdr-eine-elf-milliarden-euro-luecke-zwischen-wollen-und-koennen-100.html", "thumbnailUrl": "https://images.tagesschau.de/image/da27a3e3-84c2-4236-862b-184cd544bced/AAABju49RJc/AAABjcWesUg/16x9-512.jpg", "date": "2024-04-17T18:12:00.000+02:00", "lat": 51.050409, "lon": 13.737262, "intensity": 0.7, "source": "Tagesschau"}, {"title": "Trotz Missbrauchsvorwurfs: Kirche muss Pastor weiter besch\u00e4ftigen", "url": "https://www.tagesschau.de/inland/regional/niedersachsen/ndr-trotz-missbrauchsvorwurfs-kirche-muss-pastor-weiter-beschaeftigen-100.html", "thumbnailUrl": "https://images.tagesschau.de/image/0d7bb114-c28b-4aea-ba97-3be914905fc4/AAABjuzO4E8/AAABjcWesUg/16x9-512.jpg", "date": "2024-04-17T18:04:00.000+02:00", "lat": 52.3759, "lon": 9.7539, "intensity": 0.7, "source": "Tagesschau"}, {"title": "Trotz weniger Neuzulassungen: SH bei E-Mobilit\u00e4t auf gutem Weg?", "url": "https://www.tagesschau.de/inland/regional/schleswigholstein/ndr-trotz-weniger-neuzulassungen-sh-bei-e-mobilitaet-auf-gutem-weg-100.html", "thumbnailUrl": "https://images.tagesschau.de/image/742f2d97-24e8-4c1e-8481-feb92cc15baf/AAABjuzZ5f4/AAABjcWesUg/16x9-512.jpg", "date": "2024-04-17T18:01:00.000+02:00", "lat": 54.2194, "lon": 9.6963, "intensity": 0.6, "source": "Tagesschau"}, {"title": "Wieder ein Wolf beim Schluchsee \u00fcberfahren: Tier war tr\u00e4chtig", "url": "https://www.tagesschau.de/inland/regional/badenwuerttemberg/swr-wieder-ein-wolf-beim-schluchsee-ueberfahren-100.html", "thumbnailUrl": "https://images.tagesschau.de/image/4e2f23a2-9a01-4d13-8f01-a6c7114ed535/AAABjuzLKlk/AAABjcWesUg/16x9-512.jpg", "date": "2024-04-17T17:57:00.000+02:00", "lat": 47.8233, "lon": 8.1766, "intensity": 0.8, "source": "Tagesschau"}, {"title": "Mindestens 17 Tote nach schwerem Raketenangriff", "url": "https://www.tagesschau.de/ausland/europa/ukraine-tschernihiw-raketenangriff-100.html", "thumbnailUrl": "https://images.tagesschau.de/image/7e03477c-5783-4c08-bccd-7a75fd4cc0ef/AAABjutE1Oc/AAABjcWesUg/16x9-512.jpg", "date": "2024-04-17T17:54:37.380+02:00", "lat": 49.9935, "lon": 33.3016, "intensity": 0.9, "source": "Tagesschau"}, {"title": "Dienstgruppenleiter sagt im Fall Dram\u00e9 aus: \"Einsatz gut gelaufen\"", "url": "https://www.tagesschau.de/inland/regional/nordrheinwestfalen/wdr-dienstgruppenleiter-sagt-im-fall-dram-aus-einsatz-gut-gelaufen-104.html", "thumbnailUrl": "https://images.tagesschau.de/image/a864a18d-b1f9-4e7c-b19b-9730b2ece62a/AAABju1zoYI/AAABjcWesUg/16x9-512.jpg", "date": "2024-04-17T17:53:00.000+02:00", "lat": 51.5136, "lon": 7.4653, "intensity": 0.8, "source": "Tagesschau"}, {"title": "A8-Bauarbeiten zwischen Merchweiler und Bildstock dauern l\u00e4nger", "url": "https://www.tagesschau.de/inland/regional/saarland/sr-a8-bauarbeiten-zwischen-merchweiler-und-bildstock-dauern-laenger-100.html", "thumbnailUrl": "https://images.tagesschau.de/image/82f21523-f429-4376-bc9b-70706ed46ef8/AAABjuwZi2Q/AAABjcWesUg/16x9-512.jpg", "date": "2024-04-17T17:50:26.693+02:00", "lat": 49.3069, "lon": 7.0275, "intensity": 0.6, "source": "Tagesschau"}, {"title": "Wirbel um eine fragw\u00fcrdige Spende an die CDU in Anklam", "url": "https://www.tagesschau.de/inland/regional/mecklenburgvorpommern/ndr-wirbel-um-eine-fragwuerdige-spende-an-die-cdu-in-anklam-100.html", "thumbnailUrl": "https://images.tagesschau.de/image/51c8a95b-8d7b-48e4-8dbc-7fe2587f7261/AAABjuvUF5s/AAABjcWesUg/16x9-512.jpg", "date": "2024-04-17T17:50:00.000+02:00", "lat": 53.8524, "lon": 13.69, "intensity": 0.6, "source": "Tagesschau"}, {"title": "Steigender Energiebedarf: Stromnetz Berlin schlie\u00dft Lage wie in Oranienburg aus", "url": "https://www.tagesschau.de/inland/regional/berlin/rbb-steigender-energiebedarf-stromnetz-berlin-schliesst-lage-wie-in-oranienburg-aus-100.html", "thumbnailUrl": "https://images.tagesschau.de/image/5935df24-a19c-42b6-a72f-c71cb694b2a3/AAABjuy-gbw/AAABjcWesUg/16x9-512.jpg", "date": "2024-04-17T17:46:29.000+02:00", "lat": 52.7558, "lon": 13.2394, "intensity": 0.7, "source": "Tagesschau"}, {"title": "Oberhavel: Hennigsdorfer Malerbetrieb setzt auf Vier-Tage-Woche", "url": "https://www.tagesschau.de/inland/regional/brandenburg/rbb-oberhavel-hennigsdorfer-malerbetrieb-setzt-auf-vier-tage-woche-100.html", "thumbnailUrl": "https://images.tagesschau.de/image/057c0894-09f9-439e-9cba-a7102d29bf58/AAABjuy8kUE/AAABjcWesUg/16x9-512.jpg", "date": "2024-04-17T17:42:33.000+02:00", "lat": 52.6399, "lon": 13.2127, "intensity": 0.4, "source": "Tagesschau"}, {"title": "Einschr\u00e4nkungen im Kundenservice: Verdi ruft Telekom-Besch\u00e4ftigte zu Warnstreik auf", "url": "https://www.tagesschau.de/inland/regional/brandenburg/rbb-einschraenkungen-im-kundenservice-verdi-ruft-telekom-beschaeftigte-zu-warnstreik-auf-100.html", "thumbnailUrl": "https://images.tagesschau.de/image/d0354430-46be-415c-9c80-7f683b0fc860/AAABjuy8pi0/AAABjcWesUg/16x9-512.jpg", "date": "2024-04-17T17:42:09.000+02:00", "lat": 52.520008, "lon": 13.404954, "intensity": 0.8, "source": "Tagesschau"}, {"title": "ver.di ruft f\u00fcr Donnerstag und Freitag zu Streiks im \u00d6PNV in BW auf - Abipr\u00fcfungen betroffen", "url": "https://www.tagesschau.de/inland/regional/badenwuerttemberg/swr-ver-di-ruft-fuer-donnerstag-und-freitag-zu-streiks-im-oepnv-in-bw-auf-100.html", "thumbnailUrl": "https://images.tagesschau.de/image/6dfc8cb8-deac-4168-9259-28b3faaa596d/AAABju1oobo/AAABjcWesUg/16x9-512.jpg", "date": "2024-04-17T17:34:00.000+02:00", "lat": 48.7758, "lon": 9.0222, "intensity": 0.8, "source": "Tagesschau"}, {"title": "Arcelor verschiebt Wasserstoff-Entscheidung f\u00fcr Bremen noch einmal", "url": "https://www.tagesschau.de/inland/regional/bremen/rb-arcelor-verschiebt-wasserstoff-entscheidung-fuer-bremen-noch-einmal-100.html", "thumbnailUrl": "https://images.tagesschau.de/image/a3058fc1-293d-4440-a6f0-fb6012855533/AAABjuzANVE/AAABjcWesUg/16x9-512.jpg", "date": "2024-04-17T17:28:00.000+02:00", "lat": 53.0793, "lon": 8.8017, "intensity": 0.7, "source": "Tagesschau"}, {"title": "Nach schwerem Unfall in Garbsen: Polizei ermittelt gegen Vater", "url": "https://www.tagesschau.de/inland/regional/niedersachsen/ndr-schwerer-unfall-in-garbsen-zwei-kinder-unter-den-verletzten-100.html", "thumbnailUrl": "https://images.tagesschau.de/image/15c13d3e-0c7d-487a-921d-1e5fa8142f78/AAABjuyt6Gk/AAABjcWesUg/16x9-512.jpg", "date": "2024-04-17T17:27:00.000+02:00", "lat": 52.4125, "lon": 9.6123, "intensity": 0.8, "source": "Tagesschau"}, {"title": "Diplomatischer Dauereinsatz in Nahost ", "url": "https://www.tagesschau.de/ausland/europa/baerbock-nahost-g7-102.html", "thumbnailUrl": "https://images.tagesschau.de/image/d6f6c589-49f1-480e-a09c-934e94e1a317/AAABjuyYJe8/AAABjcWesUg/16x9-512.jpg", "date": "2024-04-17T17:25:02.726+02:00", "lat": 31.7683, "lon": 35.2134, "intensity": 0.8, "source": "Tagesschau"}, {"title": "Neue Anreize f\u00fcr energetische Sanierung?", "url": "https://www.tagesschau.de/wirtschaft/energetische-sanierung-bund-mieterbund-100.html", "thumbnailUrl": "https://images.tagesschau.de/image/11e7a1f7-0f54-4ba8-9a26-2e4a1023157d/AAABitYZu9w/AAABjcWesUg/16x9-512.jpg", "date": "2024-04-17T17:22:34.910+02:00", "lat": 51.1657, "lon": 10.4515, "intensity": 0.7, "source": "Tagesschau"}, {"title": "Wasserversorger WSE bietet Tesla Deal an - Produktionsstopp vorerst abgewendet", "url": "https://www.tagesschau.de/inland/regional/brandenburg/rbb-streit-um-abwasser-grenzwerte-teslas-wasserversorger-wse-waehlt-neuen-versammlungschef-100.html", "thumbnailUrl": "https://images.tagesschau.de/image/9e2ee447-6101-413c-9c27-9d347c5a5b2b/AAABjuykxDg/AAABjcWesUg/16x9-512.jpg", "date": "2024-04-17T17:17:03.000+02:00", "lat": 52.517, "lon": 13.8574, "intensity": 0.7, "source": "Tagesschau"}, {"title": "BASF nimmt in Ludwigshafen Elektro-Ofen f\u00fcr Steamcracker in Betrieb", "url": "https://www.tagesschau.de/inland/regional/rheinlandpfalz/swr-basf-ludwigshafen-elektroheizung-fuer-einen-energiefresser-100.html", "thumbnailUrl": "https://images.tagesschau.de/image/2ccd26ed-5401-4c9c-9bb2-0b4a63453ede/AAABjuyzW8w/AAABjcWesUg/16x9-512.jpg", "date": "2024-04-17T17:16:00.000+02:00", "lat": 49.47765, "lon": 8.44332, "intensity": 0.7, "source": "Tagesschau"}, {"title": "Landkreise Merzig-Wadern und Saarlouis starten Kooperation beim \u00d6PNV", "url": "https://www.tagesschau.de/inland/regional/saarland/sr-landkreise-merzig-wadern-und-saarlouis-startet-kooperation-beim-oepnv-100.html", "thumbnailUrl": "https://images.tagesschau.de/image/0251b2e8-32f7-4c7b-8108-2b06cce4c46b/AAABjuyi4tU/AAABjcWesUg/16x9-512.jpg", "date": "2024-04-17T17:15:00.000+02:00", "lat": 49.3759, "lon": 6.7453, "intensity": 0.8, "source": "Tagesschau"}, {"title": "Der Klimawandel bedroht die Weltwirtschaft", "url": "https://www.tagesschau.de/wirtschaft/klimafolgen-potsdam-institut-weltwirtschaft-schrumpft-drastisch-100.html", "thumbnailUrl": "https://images.tagesschau.de/image/4791923b-2665-4e1f-9cec-20655e053fd5/AAABjuu3c54/AAABjcWesUg/16x9-512.jpg", "date": "2024-04-17T17:00:43.678+02:00", "lat": 52.3958, "lon": 13.0645, "intensity": 0.8, "source": "Tagesschau"}, {"title": "A27: Polizei stoppt Kleintransporter mit 19 Personen", "url": "https://www.tagesschau.de/inland/regional/niedersachsen/ndr-a27-polizei-stoppt-kleintransporter-mit-19-personen-100.html", "thumbnailUrl": "https://images.tagesschau.de/image/4feee421-1322-4c25-82c5-fae418da9432/AAABju1hWuo/AAABjcWesUg/16x9-512.jpg", "date": "2024-04-17T17:00:00.000+02:00", "lat": 52.375, "lon": 9.732, "intensity": 0.7, "source": "Tagesschau"}, {"title": "L\u00e4nder wollen Deutschlandticket bis 2036 verl\u00e4ngern", "url": "https://www.tagesschau.de/inland/deutschlandticket-zuschuss-nrw-100.html", "thumbnailUrl": "https://images.tagesschau.de/image/cca74ed6-ff94-4424-ac70-5cb94698c7fe/AAABjTAdX7w/AAABjcWesUg/16x9-512.jpg", "date": "2024-04-17T16:58:12.263+02:00", "lat": 51.1657, "lon": 9.9977, "intensity": 0.5, "source": "Tagesschau"}, {"title": "Missbrauchs-Fall Edenkoben: Kommt Angeklagter in Sicherungsverwahrung?", "url": "https://www.tagesschau.de/inland/regional/rheinlandpfalz/swr-missbrauchs-fall-edenkoben-kommt-angeklagter-in-sicherungsverwahrung-100.html", "thumbnailUrl": "https://images.tagesschau.de/image/c85fbd55-8790-4952-b393-16d33232d1e7/AAABjuySfuA/AAABjcWesUg/16x9-512.jpg", "date": "2024-04-17T16:56:49.000+02:00", "lat": 49.3006, "lon": 8.1167, "intensity": 0.9, "source": "Tagesschau"}, {"title": "Fahrer ohne F\u00fchrerschein verursacht Unfall mit Fahrschulauto", "url": "https://www.tagesschau.de/inland/regional/niedersachsen/ndr-fahrer-ohne-fuehrerschein-verursacht-unfall-mit-fahrschulauto-100.html", "thumbnailUrl": "https://images.tagesschau.de/image/3ba4fead-3390-4efd-813b-af778fdd6e17/AAABjuyQxCQ/AAABjcWesUg/16x9-512.jpg", "date": "2024-04-17T16:56:00.000+02:00", "lat": 52.2799, "lon": 8.0476, "intensity": 0.7, "source": "Tagesschau"}, {"title": "Mit Cyber-Attacken hat Israel Erfahrung", "url": "https://www.tagesschau.de/ausland/asien/israel-iran-cyberangriffe-100.html", "thumbnailUrl": "https://images.tagesschau.de/image/f1a032c9-db13-4a15-a133-febcd0408972/AAABjuyONOk/AAABjcWesUg/16x9-512.jpg", "date": "2024-04-17T16:55:26.766+02:00", "lat": 31.7683, "lon": 35.2137, "intensity": 0.8, "source": "Tagesschau"}, {"title": "B\u00fcndnis im Norden fordert Inflationsausgleich f\u00fcr Rentner", "url": "https://www.tagesschau.de/inland/regional/schleswigholstein/ndr-buendnis-im-norden-fordert-inflationsausgleich-fuer-rentner-100.html", "thumbnailUrl": "https://images.tagesschau.de/image/067809ef-e427-4288-aa53-fc14e244f482/AAABju0LbVw/AAABjcWesUg/16x9-512.jpg", "date": "2024-04-17T16:52:00.000+02:00", "lat": 54.4609, "lon": 9.5569, "intensity": 0.8, "source": "Tagesschau"}, {"title": "Hochhaus der TU Berlin am Ernst-Reuter-Platz nach Wasserschaden gesperrt ", "url": "https://www.tagesschau.de/inland/regional/berlin/rbb-hochhaus-der-tu-berlin-am-ernst-reuter-platz-nach-wasserschaden-gesperrt-100.html", "thumbnailUrl": "https://images.tagesschau.de/image/f9e6e679-bde4-4904-a7bf-84c4f808687c/AAABjuyM92o/AAABjcWesUg/16x9-512.jpg", "date": "2024-04-17T16:51:42.000+02:00", "lat": 52.51282, "lon": 13.33025, "intensity": 0.7, "source": "Tagesschau"}, {"title": "Kein Gender-Verbot an der Goethe-Uni Frankfurt - Absage an Landesregierung", "url": "https://www.tagesschau.de/inland/regional/hessen/hr-kein-gender-verbot-an-der-goethe-uni-frankfurt-absage-an-landesregierung-100.html", "thumbnailUrl": "https://images.tagesschau.de/image/28994591-47be-4c2d-9d94-446da85803db/AAABjuyLKbE/AAABjcWesUg/16x9-512.jpg", "date": "2024-04-17T16:51:18.791+02:00", "lat": 50.119, "lon": 8.679, "intensity": 0.6, "source": "Tagesschau"}, {"title": "Neustadt-Glewe: Alte Brauerei nach Gro\u00dfbrand einsturzgef\u00e4hrdet", "url": "https://www.tagesschau.de/inland/regional/mecklenburgvorpommern/ndr-brand-in-neustadt-glewe-bahnverkehr-kommt-zum-erliegen-100.html", "thumbnailUrl": "https://images.tagesschau.de/image/f0a80842-4206-471c-bb98-030c098052f6/AAABjut8FJ8/AAABjcWesUg/16x9-512.jpg", "date": "2024-04-17T16:51:00.000+02:00", "lat": 53.3634, "lon": 11.5529, "intensity": 0.8, "source": "Tagesschau"}, {"title": "Razzia bei AfD Niedersachsen", "url": "https://www.tagesschau.de/inland/innenpolitik/razzia-afd-niedersachsen-100.html", "thumbnailUrl": "https://images.tagesschau.de/image/28ff1d23-9d58-426a-aa82-abb0a73690e5/AAABjusogu4/AAABjcWesUg/16x9-512.jpg", "date": "2024-04-17T16:46:12.794+02:00", "lat": 52.3759, "lon": 9.7356, "intensity": 0.8, "source": "Tagesschau"}, {"title": "Nach den sommerlichen Temperaturen droht in Brandenburg jetzt der Bl\u00fctenfrost", "url": "https://www.tagesschau.de/inland/regional/brandenburg/rbb-nach-den-sommerlichen-temperaturen-droht-in-brandenburg-jetzt-der-bluetenfrost-100.html", "thumbnailUrl": "https://images.tagesschau.de/image/4f96cc8b-737b-4286-9fac-fe54fe1cf6c0/AAABjuyHiTc/AAABjcWesUg/16x9-512.jpg", "date": "2024-04-17T16:42:00.000+02:00", "lat": 52.4125, "lon": 13.0064, "intensity": 0.8, "source": "Tagesschau"}, {"title": "Friedrichskoog: Wie ein Deich fit f\u00fcr den Klimawandel wird", "url": "https://www.tagesschau.de/inland/regional/schleswigholstein/ndr-friedrichskoog-wie-deiche-fit-fuer-den-klimawandel-werden-100.html", "thumbnailUrl": "https://images.tagesschau.de/image/ad335fcb-6f90-4b01-92c9-7813c9fcc112/AAABjufsVsc/AAABjcWesUg/16x9-512.jpg", "date": "2024-04-17T16:42:00.000+02:00", "lat": 54.0167, "lon": 9.1167, "intensity": 0.7, "source": "Tagesschau"}, {"title": "Kiel hofft auf noch mehr Kreuzfahrtpassagiere", "url": "https://www.tagesschau.de/inland/regional/schleswigholstein/ndr-kiel-hofft-auf-noch-mehr-kreuzfahrtpassagiere-100.html", "thumbnailUrl": "https://images.tagesschau.de/image/e7331f04-a911-4b37-9138-52dac534afe9/AAABjuyDyhY/AAABjcWesUg/16x9-512.jpg", "date": "2024-04-17T16:40:00.000+02:00", "lat": 54.3233, "lon": 10.1228, "intensity": 0.7, "source": "Tagesschau"}, {"title": "Frau stirbt durch Gaskartusche: Stadt Karlsruhe hatte Kontakt zur Familie des Tatverd\u00e4chtigen", "url": "https://www.tagesschau.de/inland/regional/badenwuerttemberg/swr-frau-stirbt-durch-gaskartusche-13-jaehriger-tatverdaechtiger-ermittelt-100.html", "thumbnailUrl": "https://images.tagesschau.de/image/ed72040e-d143-4515-98a8-d9895c5594b6/AAABjuuMjoQ/AAABjcWesUg/16x9-512.jpg", "date": "2024-04-17T16:38:00.000+02:00", "lat": 49.0069, "lon": 8.4037, "intensity": 0.9, "source": "Tagesschau"}, {"title": "Feuer in Braunschweiger Chemiefabrik unter Kontrolle - f\u00fcnf Verletzte", "url": "https://www.tagesschau.de/inland/regional/niedersachsen/ndr-explosionsgefahr-in-braunschweig-feuer-in-gewerbegebiet-100.html", "thumbnailUrl": "https://images.tagesschau.de/image/13bf965d-ed2d-4fd2-9bdc-d4ccdbca04a9/AAABjuyALiQ/AAABjcWesUg/16x9-512.jpg", "date": "2024-04-17T16:38:00.000+02:00", "lat": 52.2689, "lon": 10.5277, "intensity": 0.8, "source": "Tagesschau"}, {"title": "Neustadt: tote Frau an der Burgruine Wolfsburg gefunden", "url": "https://www.tagesschau.de/inland/regional/rheinlandpfalz/swr-neustadt-tote-frau-an-der-burgruine-wolfsburg-gefunden-100.html", "thumbnailUrl": "https://images.tagesschau.de/image/5726db29-09ba-4755-ae57-015273d2ae1e/AAABju4ETl0/AAABjcWesUg/16x9-512.jpg", "date": "2024-04-17T16:35:35.000+02:00", "lat": 49.367617, "lon": 8.124856, "intensity": 0.8, "source": "Tagesschau"}, {"title": "Th\u00fcringer Energieversorger verbessert Stromnetz mit 600 Millionen Euro", "url": "https://www.tagesschau.de/inland/regional/thueringen/mdr-thueringer-energieversorger-verbessert-stromnetz-mit-600-millionen-euro-100.html", "thumbnailUrl": "https://images.tagesschau.de/image/e3542b0a-cc6c-438f-a067-e9db5ce94684/AAABju49uIM/AAABjcWesUg/16x9-512.jpg", "date": "2024-04-17T16:35:13.000+02:00", "lat": 51.0504, "lon": 11.6008, "intensity": 0.7, "source": "Tagesschau"}, {"title": "Brandschutzexperte: So kann man historische Bauten besser vor Feuer sch\u00fctzen", "url": "https://www.tagesschau.de/inland/regional/nordrheinwestfalen/wdr-brandschutzexperte-so-kann-man-historische-bauten-besser-vor-feuer-schuetzen-100.html", "thumbnailUrl": "https://images.tagesschau.de/image/51395c03-03e3-4205-8d3f-d8e7456b1cb8/AAABju1b0uM/AAABjcWesUg/16x9-512.jpg", "date": "2024-04-17T16:33:00.000+02:00", "lat": 55.6761, "lon": 12.5931, "intensity": 0.8, "source": "Tagesschau"}, {"title": "Windkraftanlagen: Anwohner sollen finanziell profitieren", "url": "https://www.tagesschau.de/inland/regional/niedersachsen/ndr-windkraftanlagen-anwohner-sollen-in-finanziell-profitieren-100.html", "thumbnailUrl": "https://images.tagesschau.de/image/4f6e1dcc-474b-4f43-a5a3-26785b0501ff/AAABjuvbhnM/AAABjcWesUg/16x9-512.jpg", "date": "2024-04-17T16:30:00.000+02:00", "lat": 52.3759, "lon": 9.7533, "intensity": 0.7, "source": "Tagesschau"}, {"title": "Deutsche Bahn: Strecke zwischen Kassel und G\u00f6ttingen nach Reparatur wieder frei", "url": "https://www.tagesschau.de/inland/regional/hessen/hr-stoerung-zwischen-kassel-und-goettingen-oberleitungsschaden-bremst-bahnverkehr-in-nordhessen-aus-100.html", "thumbnailUrl": "https://images.tagesschau.de/image/093ef2fe-8cd2-4cc7-9384-b7d7d4a5b40a/AAABjux1Ne0/AAABjcWesUg/16x9-512.jpg", "date": "2024-04-17T16:27:29.861+02:00", "lat": 51.312, "lon": 9.491, "intensity": 0.4, "source": "Tagesschau"}, {"title": "Wo soll er hin? Schwierige Standortsuche f\u00fcr Leuchtturm Roter Sand", "url": "https://www.tagesschau.de/inland/regional/bremen/rb-wo-soll-er-hin-schwierige-standortsuche-fuer-leuchtturm-roter-sand-100.html", "thumbnailUrl": "https://images.tagesschau.de/image/a975fdad-c488-41ff-8592-dfbc88cb68d9/AAABju0jD_4/AAABjcWesUg/16x9-512.jpg", "date": "2024-04-17T16:25:00.000+02:00", "lat": 53.073, "lon": 8.448, "intensity": 0.7, "source": "Tagesschau"}, {"title": "Staaten verschulden sich wieder mehr - nur Deutschland nicht", "url": "https://www.tagesschau.de/ausland/iwf-verschuldung-deutschland-100.html", "thumbnailUrl": "https://images.tagesschau.de/image/dbf9a19a-a396-4c84-b03d-ff5df0931ea0/AAABhnksIZg/AAABjcWesUg/16x9-512.jpg", "date": "2024-04-17T16:24:02.215+02:00", "lat": 51.1657, "lon": 10.4515, "intensity": 0.6, "source": "Tagesschau"}, {"title": "Neue Chance f\u00fcr Ihme-Zentrum: Betonburg verwandelt sich in \"Open-Air-Galerie\"", "url": "https://www.tagesschau.de/inland/regional/niedersachsen/ndr-neue-chance-fuer-ihme-zentrum-betonburg-verwandelt-sich-in-open-air-galerie-100.html", "thumbnailUrl": "https://images.tagesschau.de/image/023b7534-e83f-4d82-8746-a0948eb806f1/AAABjurdBqA/AAABjcWesUg/16x9-512.jpg", "date": "2024-04-17T16:21:00.000+02:00", "lat": 52.3759, "lon": 9.7091, "intensity": 0.6, "source": "Tagesschau"}, {"title": "Kindergipfel im saarl\u00e4ndischen Landtag", "url": "https://www.tagesschau.de/inland/regional/saarland/sr-kindergipfel-im-saarlaendischen-landtag-102.html", "thumbnailUrl": "https://images.tagesschau.de/image/b456f6ce-c66f-4270-bdec-ee04b32af654/AAABju0xsaw/AAABjcWesUg/16x9-512.jpg", "date": "2024-04-17T16:20:00.000+02:00", "lat": 49.2463, "lon": 6.9969, "intensity": 0.6, "source": "Tagesschau"}, {"title": "Berlin: Bundesverkehrsministerium, Bahn und Bayern kritisieren das 29-Euro-Ticket scharf", "url": "https://www.tagesschau.de/inland/regional/berlin/rbb-berlin-bundesverkehrsministerium-bahn-und-bayern-kritisieren-das-29-euro-ticket-scharf-100.html", "thumbnailUrl": "https://images.tagesschau.de/image/46d63b66-3138-4cb5-a5a9-118f4355f539/AAABjuxvt8o/AAABjcWesUg/16x9-512.jpg", "date": "2024-04-17T16:18:06.000+02:00", "lat": 52.520008, "lon": 13.404954, "intensity": 0.8, "source": "Tagesschau"}, {"title": "Eintracht: +++ FCA stapelt vor Eintracht-Partie tief +++ Kr\u00f6sche lobt \"Vorzeigeprofi\" Hasebe +++ Hasebe fordert Leidenschaft gegen Augsburg +++", "url": "https://www.tagesschau.de/inland/regional/hessen/hr--eintracht-wohl-mit-chaibi-einig--glasner-fast-nur-kolo-muani-der-tore-erzielt--bericht-eintracht-sagt-aouar-ab-100.html", "thumbnailUrl": "https://images.tagesschau.de/image/9397812c-c278-4e57-9572-10417a64b225/AAABjuxqXW0/AAABjcWesUg/16x9-512.jpg", "date": "2024-04-17T16:15:25.966+02:00", "lat": 50.110922, "lon": 8.682127, "intensity": 0.6, "source": "Tagesschau"}, {"title": "Wie alte Wehranlagen die Fl\u00fcsse verstopfen", "url": "https://www.tagesschau.de/inland/regional/sachsenanhalt/mdr-wie-alte-wehranlagen-die-fluesse-verstopfen-100.html", "thumbnailUrl": "https://images.tagesschau.de/image/6ddd713f-5fcb-4543-b41c-ace507cf6a92/AAABju4-PBc/AAABjcWesUg/16x9-512.jpg", "date": "2024-04-17T16:13:50.000+02:00", "lat": 52.1234, "lon": 11.6276, "intensity": 0.7, "source": "Tagesschau"}, {"title": "Der \"YouTube-Erzieher\"", "url": "https://www.tagesschau.de/ausland/asien/indien-wahl-youtube-100.html", "thumbnailUrl": "https://images.tagesschau.de/image/65c3a6ad-d08e-48ab-af9e-1a625a54aebf/AAABjuwqiOc/AAABjcWesUg/16x9-512.jpg", "date": "2024-04-17T16:12:57.610+02:00", "lat": 28.6139, "lon": 77.209, "intensity": 0.8, "source": "Tagesschau"}, {"title": "Witwe von Jan Fedder versteigert weitere Erinnerungsst\u00fccke", "url": "https://www.tagesschau.de/inland/regional/hamburg/ndr-witwe-von-jan-fedder-versteigert-weitere-erinnerungsstuecke-100.html", "thumbnailUrl": "https://images.tagesschau.de/image/fd9c4b87-963a-4a9c-a4b8-f14dcf1c77e3/AAABjuxqMHE/AAABjcWesUg/16x9-512.jpg", "date": "2024-04-17T16:08:00.000+02:00", "lat": 53.5511, "lon": 9.9937, "intensity": 0.8, "source": "Tagesschau"}, {"title": "Schutzh\u00fctte Amelinghausen: Gemeinderat lehnt Kompromiss ab", "url": "https://www.tagesschau.de/inland/regional/niedersachsen/ndr-schutzhuette-amelinghausen-gemeinderat-lehnt-kompromiss-ab-100.html", "thumbnailUrl": "https://images.tagesschau.de/image/03026c36-4811-4611-83a6-0dd301f0bf38/AAABjusOS20/AAABjcWesUg/16x9-512.jpg", "date": "2024-04-17T16:08:00.000+02:00", "lat": 53.1234, "lon": 10.2316, "intensity": 0.6, "source": "Tagesschau"}, {"title": "Hacker-Angriff auf die Heinrich-Heine-Universit\u00e4t D\u00fcsseldorf", "url": "https://www.tagesschau.de/inland/regional/nordrheinwestfalen/wdr-hacker-angriff-auf-die-heinrich-heine-universitaet-duesseldorf-100.html", "thumbnailUrl": "https://images.tagesschau.de/image/9c706392-0c2c-48f7-86c1-757fcdbab5b2/AAABjuymkh0/AAABjcWesUg/16x9-512.jpg", "date": "2024-04-17T16:06:00.000+02:00", "lat": 51.2201, "lon": 6.7879, "intensity": 0.8, "source": "Tagesschau"}, {"title": "Fahrfehler: Fahnenmast st\u00fcrzt um und verletzt Fu\u00dfg\u00e4ngerin", "url": "https://www.tagesschau.de/inland/regional/niedersachsen/ndr-fahrfehler-fahnenmast-stuerzt-um-und-verletzt-fussgaengerin-100.html", "thumbnailUrl": "https://images.tagesschau.de/image/2485797f-23f9-4c3f-8c93-ea109dc833c2/AAABjuxmnhY/AAABjcWesUg/16x9-512.jpg", "date": "2024-04-17T16:06:00.000+02:00", "lat": 52.1316, "lon": 10.4515, "intensity": 0.6, "source": "Tagesschau"}, {"title": "Polizei stoppt 14-J\u00e4hrigen beim Autofahren in Delmenhorst", "url": "https://www.tagesschau.de/inland/regional/niedersachsen/ndr-polizei-stoppt-14-jaehrigen-beim-autofahren-in-delmenhorst-100.html", "thumbnailUrl": "https://images.tagesschau.de/image/b6ba0b22-78ff-40ba-88b3-59786a166114/AAABjuxUTQM/AAABjcWesUg/16x9-512.jpg", "date": "2024-04-17T16:05:00.000+02:00", "lat": 53.0497, "lon": 8.6297, "intensity": 0.7, "source": "Tagesschau"}, {"title": "Verkehrsministerkonferenz in M\u00fcnster: Greenpeace fordert Baustopp f\u00fcr Autobahnen", "url": "https://www.tagesschau.de/inland/regional/nordrheinwestfalen/wdr-verkehrsministerkonferenz-in-muenster-greenpeace-fordert-baustopp-fuer-autobahnen-102.html", "thumbnailUrl": "https://images.tagesschau.de/image/4a1cda8e-4539-47d4-95bf-421368b7d550/AAABjuyOzTw/AAABjcWesUg/16x9-512.jpg", "date": "2024-04-17T16:01:00.000+02:00", "lat": 51.9607, "lon": 7.6261, "intensity": 0.6, "source": "Tagesschau"}, {"title": "Frau wegen mutma\u00dflicher T\u00f6tung von Tochter und Mutter in Berlin vor Gericht", "url": "https://www.tagesschau.de/inland/regional/berlin/rbb-frau-wegen-mutmasslicher-toetung-von-tochter-und-mutter-in-berlin-vor-gericht-100.html", "thumbnailUrl": "https://images.tagesschau.de/image/622725b9-0e05-429a-b37e-81f835912245/AAABjuxbgUc/AAABjcWesUg/16x9-512.jpg", "date": "2024-04-17T15:56:30.000+02:00", "lat": 52.520008, "lon": 13.404954, "intensity": 0.8, "source": "Tagesschau"}, {"title": "Eine Konferenz f\u00fcr den Frieden", "url": "https://www.tagesschau.de/inland/innenpolitik/friedenskonferenz-friedenspolitik-konflikte-berghof-100.html", "thumbnailUrl": "https://images.tagesschau.de/image/e111d86f-8b7c-4b25-8cf0-77e18b3d2e28/AAABjuv6554/AAABjcWesUg/16x9-512.jpg", "date": "2024-04-17T15:56:04.035+02:00", "lat": 52.520008, "lon": 13.404954, "intensity": 0.8, "source": "Tagesschau"}, {"title": "Statt in Ford-Werk Saarlouis: Chery Automobile will Autos in Spanien produzieren", "url": "https://www.tagesschau.de/inland/regional/saarland/sr-statt-in-ford-werk-saarlouis-chery-automobile-will-autos-in-spanien-produzieren-100.html", "thumbnailUrl": "https://images.tagesschau.de/image/46f6d3fd-7c6d-4fa4-ac7b-ff601eb04c0e/AAABjuxUI6Y/AAABjcWesUg/16x9-512.jpg", "date": "2024-04-17T15:50:00.945+02:00", "lat": 49.3182, "lon": 6.7978, "intensity": 0.8, "source": "Tagesschau"}, {"title": "Elterninitiative zu G9: Landtag in BW lehnt Volksantrag ab - G9 soll trotzdem kommen", "url": "https://www.tagesschau.de/inland/regional/badenwuerttemberg/swr-abstimmung-ueber-g9-antrag-eltern-wollen-druck-aufrechterhalten-100.html", "thumbnailUrl": "https://images.tagesschau.de/image/26be671d-32f2-4768-b180-d053ee2223a6/AAABjuxhCqc/AAABjcWesUg/16x9-512.jpg", "date": "2024-04-17T15:50:00.000+02:00", "lat": 48.7758, "lon": 9.1829, "intensity": 0.8, "source": "Tagesschau"}, {"title": "Gro\u00dfrazzia gegen Schleuser - Durchsuchungen in Frankfurt", "url": "https://www.tagesschau.de/inland/regional/hessen/hr-grossrazzia-gegen-schleuser-einsatz-in-frankfurt-100.html", "thumbnailUrl": "https://images.tagesschau.de/image/4af382dd-ced9-4457-9bc6-bab0754f048c/AAABjuxQf0M/AAABjcWesUg/16x9-512.jpg", "date": "2024-04-17T15:47:15.772+02:00", "lat": 50.110922, "lon": 8.682127, "intensity": 0.8, "source": "Tagesschau"}, {"title": "Heimaufsicht pr\u00fcft Polizeieinsatz in Pflegeheim in Berlin-Lichtenberg", "url": "https://www.tagesschau.de/inland/regional/berlin/rbb-heimaufsicht-prueft-polizeieinsatz-in-pflegeheim-in-berlin-lichtenberg-100.html", "thumbnailUrl": "https://images.tagesschau.de/image/590e19b7-968e-448e-a621-e07a0a26539a/AAABjuxOues/AAABjcWesUg/16x9-512.jpg", "date": "2024-04-17T15:42:34.000+02:00", "lat": 52.52, "lon": 13.4909, "intensity": 0.8, "source": "Tagesschau"}, {"title": "Razzia bei AfD in Niedersachsen: Partei bestreitet Vorw\u00fcrfe", "url": "https://www.tagesschau.de/inland/regional/niedersachsen/ndr-landtag-hat-immunitaet-von-afd-politiker-schledde-aufgehoben-100.html", "thumbnailUrl": "https://images.tagesschau.de/image/50b6142e-0287-4d6c-ac15-dcf86cc8399a/AAABju0fo0A/AAABjcWesUg/16x9-512.jpg", "date": "2024-04-17T15:38:00.000+02:00", "lat": 52.3759, "lon": 9.7533, "intensity": 0.5, "source": "Tagesschau"}, {"title": "Schwester get\u00f6tet? 24-J\u00e4hriger schweigt im Mordprozess", "url": "https://www.tagesschau.de/inland/regional/niedersachsen/ndr-schwester-getoetet-mordprozess-gegen-24-jaehrigen-beginnt-100.html", "thumbnailUrl": "https://images.tagesschau.de/image/72d9906e-d5e9-4a00-a938-ba38d417b41c/AAABjuyYKN0/AAABjcWesUg/16x9-512.jpg", "date": "2024-04-17T15:33:00.000+02:00", "lat": 53.0793, "lon": 8.8017, "intensity": 0.8, "source": "Tagesschau"}, {"title": "Ermittlungen gegen ehemalige Erzieherinnen einer Kita in Pirmasens eingestellt", "url": "https://www.tagesschau.de/inland/regional/rheinlandpfalz/swr-ermittlungen-gegen-ehemalige-erzieherinnen-einer-kita-in-pirmasens-eingestellt-100.html", "thumbnailUrl": "https://images.tagesschau.de/image/8519de3c-a339-4418-8a58-2a9e61ba594b/AAABjuw6l-8/AAABjcWesUg/16x9-512.jpg", "date": "2024-04-17T15:30:00.000+02:00", "lat": 49.2013, "lon": 7.605, "intensity": 0.8, "source": "Tagesschau"}, {"title": "Deutschlandticket ausgedruckt: Mann aus Bus geworfen", "url": "https://www.tagesschau.de/inland/regional/niedersachsen/ndr-deutschlandticket-ausgedruckt-mann-aus-bus-geworfen-100.html", "thumbnailUrl": "https://images.tagesschau.de/image/9f255a13-57a8-4f51-9d03-e300bdba78ee/AAABjuvdZfk/AAABjcWesUg/16x9-512.jpg", "date": "2024-04-17T15:29:00.000+02:00", "lat": 52.2727, "lon": 10.4515, "intensity": 0.6, "source": "Tagesschau"}, {"title": "Fahndungs- und Sicherheitstag in BW: Polizei kontrolliert verst\u00e4rkt an Autobahnen", "url": "https://www.tagesschau.de/inland/regional/badenwuerttemberg/swr-fahndungs-und-sicherheitstag-in-baden-wuerttemberg-strassenkriminalitaet-im-fokus-100.html", "thumbnailUrl": "https://images.tagesschau.de/image/c5a2d3e7-7ff0-472a-ac83-50babc8bb88f/AAABjuolrYs/AAABjcWesUg/16x9-512.jpg", "date": "2024-04-17T15:27:00.000+02:00", "lat": 48.6616, "lon": 9.9976, "intensity": 0.6, "source": "Tagesschau"}, {"title": "Gro\u00dfeinsatz gegen Schleuserkriminalit\u00e4t - auch in NRW", "url": "https://www.tagesschau.de/inland/regional/nordrheinwestfalen/wdr-polizei-koeln-grosseinsatz-gegen-schleuserkriminalitaet-in-acht-bundeslaendern-100.html", "thumbnailUrl": "https://images.tagesschau.de/image/643a3c3e-49e6-411a-97cd-c00cdc73653a/AAABju2EHd0/AAABjcWesUg/16x9-512.jpg", "date": "2024-04-17T15:23:00.000+02:00", "lat": 51.9607, "lon": 7.6261, "intensity": 0.8, "source": "Tagesschau"}, {"title": "Schienenverkehr: Deutsche Bahn testet Zweierabteils im ICE ", "url": "https://www.tagesschau.de/inland/regional/berlin/rbb-schienenverkehr-deutsche-bahn-testet-zweierabteils-im-ice-100.html", "thumbnailUrl": "https://images.tagesschau.de/image/2d8197e9-dc7d-4441-a0bb-2a5c11255ca5/AAABjuwzWls/AAABjcWesUg/16x9-512.jpg", "date": "2024-04-17T15:13:15.000+02:00", "lat": 52.520008, "lon": 13.404954, "intensity": 0.6, "source": "Tagesschau"}, {"title": "\"Blue Punisher\": 17-j\u00e4hriger Dealer zu gemeinn\u00fctziger Arbeit verurteilt  ", "url": "https://www.tagesschau.de/inland/regional/mecklenburgvorpommern/ndr-blue-punisher-urteil-erwartet-nach-drogentod-einer-13-jaehrigen-100.html", "thumbnailUrl": "https://images.tagesschau.de/image/51302026-5dfb-42e7-92f5-142a475c4a03/AAABjuxzT8A/AAABjcWesUg/16x9-512.jpg", "date": "2024-04-17T15:10:00.000+02:00", "lat": 53.7286, "lon": 13.2536, "intensity": 0.8, "source": "Tagesschau"}, {"title": "Affenversuche an Bremer Uni: Hirnforscher darf erstmal weitermachen", "url": "https://www.tagesschau.de/inland/regional/bremen/rb-affenversuche-an-bremer-uni-hirnforscher-darf-erstmal-weitermachen-100.html", "thumbnailUrl": "https://images.tagesschau.de/image/e92c8f1d-160a-4f01-a433-370e641b6846/AAABjuwtwq8/AAABjcWesUg/16x9-512.jpg", "date": "2024-04-17T15:07:00.000+02:00", "lat": 53.0793, "lon": 8.8017, "intensity": 0.8, "source": "Tagesschau"}, {"title": "Angebotsmieten in Berlin stiegen um 18,3 Prozent - zwei Bezirke besonders beliebt", "url": "https://www.tagesschau.de/inland/regional/berlin/rbb-hoher-zuzug-abnehmende-wohnungsangebote-berlin-mit-staerkstem-mietanstieg-der-deutschen-grossstaedte-100.html", "thumbnailUrl": "https://images.tagesschau.de/image/86adb45f-2afe-4f11-9d14-6782af33ab6f/AAABjuwt5qg/AAABjcWesUg/16x9-512.jpg", "date": "2024-04-17T15:06:55.000+02:00", "lat": 52.520008, "lon": 13.404954, "intensity": 0.8, "source": "Tagesschau"}, {"title": "Grundfos will Standort in Wahlstedt schlie\u00dfen ", "url": "https://www.tagesschau.de/inland/regional/schleswigholstein/ndr-grundfos-will-standort-in-wahlstedt-schliessen-100.html", "thumbnailUrl": "https://images.tagesschau.de/image/a7f4c878-e432-42e7-a3b0-c90502689206/AAABjuybnKc/AAABjcWesUg/16x9-512.jpg", "date": "2024-04-17T15:05:00.000+02:00", "lat": 53.9564, "lon": 10.1787, "intensity": 0.8, "source": "Tagesschau"}, {"title": "Einzigartig in BW: Fischadler br\u00fcten wieder bei Rastatt", "url": "https://www.tagesschau.de/inland/regional/badenwuerttemberg/swr-einzigartig-in-bw-fischadler-brueten-wieder-bei-rastatt-100.html", "thumbnailUrl": "https://images.tagesschau.de/image/37c1c51a-1a7c-4439-989f-5650df793dd8/AAABjuwoOHA/AAABjcWesUg/16x9-512.jpg", "date": "2024-04-17T14:53:33.000+02:00", "lat": 48.8566, "lon": 8.2029, "intensity": 0.7, "source": "Tagesschau"}, {"title": "Nach Funkmast-Brand in P\u00f6\u00dfneck: Polizei schlie\u00dft Brandstiftung nicht aus", "url": "https://www.tagesschau.de/inland/regional/thueringen/mdr-mehr-als-500-000-euro-schaden-funkmast-brennt-aus-100.html", "thumbnailUrl": "https://images.tagesschau.de/image/fc850498-1b46-4375-b602-1a6b5396b595/AAABjuwfDgg/AAABjcWesUg/16x9-512.jpg", "date": "2024-04-17T14:53:25.000+02:00", "lat": 50.7405, "lon": 11.5966, "intensity": 0.7, "source": "Tagesschau"}, {"title": "Baerbock warnt vor \"Eskalationsspirale\"", "url": "https://www.tagesschau.de/ausland/europa/baerbock-nahost-g7-100.html", "thumbnailUrl": "https://images.tagesschau.de/image/252d7697-faac-4a0b-af25-9e18dc6d47b4/AAABjuwjFfc/AAABjcWesUg/16x9-512.jpg", "date": "2024-04-17T14:53:24.406+02:00", "lat": 37.7794, "lon": 45.4215, "intensity": 0.7, "source": "Tagesschau"}, {"title": "Hilferuf von G\u00fcstrows Kleing\u00e4rtnern: \"Man l\u00e4sst uns absaufen\"", "url": "https://www.tagesschau.de/inland/regional/mecklenburgvorpommern/ndr-hilferuf-von-guestrows-kleingaertnern-man-laesst-uns-absaufen-100.html", "thumbnailUrl": "https://images.tagesschau.de/image/5309efd5-c1f6-4a36-b746-1eac2b7874d2/AAABjuxLB_o/AAABjcWesUg/16x9-512.jpg", "date": "2024-04-17T14:51:00.000+02:00", "lat": 53.7933, "lon": 12.1757, "intensity": 0.7, "source": "Tagesschau"}, {"title": "Wegen Mordes verurteilter Altenpfleger legt Revision ein", "url": "https://www.tagesschau.de/inland/regional/niedersachsen/ndr-wegen-mordes-verurteilter-altenpfleger-legt-revision-ein-100.html", "thumbnailUrl": "https://images.tagesschau.de/image/6e4e0681-6451-41d7-8e3f-a8ad8c42dbce/AAABjuwfO0A/AAABjcWesUg/16x9-512.jpg", "date": "2024-04-17T14:48:00.000+02:00", "lat": 52.3759, "lon": 8.8017, "intensity": 0.7, "source": "Tagesschau"}, {"title": "Lizenz f\u00fcr 2024/2025: HSV-Handballer m\u00fcssen nachbessern", "url": "https://www.tagesschau.de/inland/regional/hamburg/ndr-lizenz-fuer-20242025-hsv-handballer-muessen-nachbessern-102.html", "thumbnailUrl": "https://images.tagesschau.de/image/6a62cf9d-8f69-4d95-b683-b0b5ec5e80a8/AAABjuwt2W4/AAABjcWesUg/16x9-512.jpg", "date": "2024-04-17T14:47:00.000+02:00", "lat": 53.55, "lon": 10.0, "intensity": 0.8, "source": "Tagesschau"}, {"title": "Immer noch Feuer in historischer B\u00f6rse", "url": "https://www.tagesschau.de/ausland/europa/daenemark-kopenhagen-brand-boerse-100.html", "thumbnailUrl": "https://images.tagesschau.de/image/2741c29c-8a1c-4109-b039-4ab287b60467/AAABjuwTPL8/AAABjcWesUg/16x9-512.jpg", "date": "2024-04-17T14:41:07.787+02:00", "lat": 55.676097, "lon": 12.575634, "intensity": 0.8, "source": "Tagesschau"}, {"title": "Hamburger Hafen: Eine Tonne Kokain sichergestellt ", "url": "https://www.tagesschau.de/inland/regional/hamburg/ndr-hamburger-hafen-eine-tonne-kokain-sichergestellt-100.html", "thumbnailUrl": "https://images.tagesschau.de/image/1c5a438a-9333-4194-947f-0fc0b4d117ef/AAABjuwWDfU/AAABjcWesUg/16x9-512.jpg", "date": "2024-04-17T14:41:00.000+02:00", "lat": 53.5753, "lon": 10.0081, "intensity": 0.9, "source": "Tagesschau"}, {"title": "Bistum Trier entl\u00e4sst AfD-Politiker aus Kirchengremium", "url": "https://www.tagesschau.de/inland/regional/rheinlandpfalz/swr-bistum-trier-entlaesst-afd-politiker-aus-kirchengremium-100.html", "thumbnailUrl": "https://images.tagesschau.de/image/1b5ab936-8f1a-4389-89d8-fe07f106cb01/AAABjuwSSZM/AAABjcWesUg/16x9-512.jpg", "date": "2024-04-17T14:33:58.000+02:00", "lat": 49.75, "lon": 7.08, "intensity": 0.6, "source": "Tagesschau"}, {"title": "\"Rote Rosen\": Bekannte Sportlerin \u00fcbernimmt Gastrolle", "url": "https://www.tagesschau.de/inland/regional/niedersachsen/ndr-olympiasiegerin-heike-drechsler-spielt-bei-roten-rosen-mit-100.html", "thumbnailUrl": "https://images.tagesschau.de/image/4539ae7c-523c-444a-aed5-a725d7f33f95/AAABjuwM1ww/AAABjcWesUg/16x9-512.jpg", "date": "2024-04-17T14:31:00.000+02:00", "lat": 52.3759, "lon": 9.7371, "intensity": 0.3, "source": "Tagesschau"}, {"title": "Thalia Theater: Joachim Lux stellt seine letzte Spielzeit vor ", "url": "https://www.tagesschau.de/inland/regional/hamburg/ndr-thalia-theater-joachim-lux-stellt-seine-letzte-spielzeit-vor-102.html", "thumbnailUrl": "https://images.tagesschau.de/image/372b507d-061f-4034-8108-584db6da8ae1/AAABju1JmWs/AAABjcWesUg/16x9-512.jpg", "date": "2024-04-17T14:26:00.000+02:00", "lat": 53.5511, "lon": 9.9925, "intensity": 0.6, "source": "Tagesschau"}, {"title": "Stadtautobahn wird gesperrt: Klimaaktivisten wollen am Sonntag auf der A100 demonstrieren", "url": "https://www.tagesschau.de/inland/regional/berlin/rbb-stadtautobahn-wird-gesperrt-klimaaktivisten-wollen-am-sonntag-auf-der-a100-demonstrieren-100.html", "thumbnailUrl": "https://images.tagesschau.de/image/ce244b86-a3e0-44a0-8805-f05f5a16598f/AAABjuwHSps/AAABjcWesUg/16x9-512.jpg", "date": "2024-04-17T14:25:51.000+02:00", "lat": 52.5244, "lon": 13.4105, "intensity": 0.7, "source": "Tagesschau"}, {"title": "Schleuser-Razzia: Auch Objekte in Rheinland-Pfalz durchsucht", "url": "https://www.tagesschau.de/inland/regional/rheinlandpfalz/swr-schleuser-razzia-auch-objekte-in-rheinland-pfalz-durchsucht-100.html", "thumbnailUrl": "https://images.tagesschau.de/image/ada3c482-0353-4f8c-b0d7-e1851ecf5295/AAABjuyLO7E/AAABjcWesUg/16x9-512.jpg", "date": "2024-04-17T14:18:00.000+02:00", "lat": 50.03623, "lon": 7.26614, "intensity": 0.8, "source": "Tagesschau"}, {"title": "So viele Stunden arbeiten die Deutschen", "url": "https://www.tagesschau.de/wirtschaft/arbeitsmarkt/arbeitszeit-beschaeftigte-arbeitsstunden-100.html", "thumbnailUrl": "https://images.tagesschau.de/image/922a2f08-5262-4c2e-a610-02ee61430bb2/AAABjuvnfQE/AAABjcWesUg/16x9-512.jpg", "date": "2024-04-17T14:08:52.667+02:00", "lat": 51.1657, "lon": 10.4515, "intensity": 0.7, "source": "Tagesschau"}, {"title": "Abitur trotz \u00d6PNV-Warnstreiks: F\u00fcr 47.500 Sch\u00fcler in BW beginnt die Pr\u00fcfungszeit", "url": "https://www.tagesschau.de/inland/regional/badenwuerttemberg/swr-abiturpruefungen-fuer-47-500-schueler-in-bw-beginnen-prueflinge-von-oepnv-streik-betroffen-100.html", "thumbnailUrl": "https://images.tagesschau.de/image/aafe8933-2c08-4e1e-97d4-635c7b715350/AAABjuv6dBU/AAABjcWesUg/16x9-512.jpg", "date": "2024-04-17T14:08:47.000+02:00", "lat": 48.661, "lon": 9.991, "intensity": 0.7, "source": "Tagesschau"}, {"title": "Farbattacke auf G\u00f6ttinger Tageblatt: Staatsschutz ermittelt", "url": "https://www.tagesschau.de/inland/regional/niedersachsen/ndr-farbattacke-auf-goettinger-tageblatt-staatsschutz-ermittelt-100.html", "thumbnailUrl": "https://images.tagesschau.de/image/d36d7f4c-c5da-429c-aae0-6a104007173f/AAABjuwFfbw/AAABjcWesUg/16x9-512.jpg", "date": "2024-04-17T13:55:00.000+02:00", "lat": 51.5413, "lon": 9.9357, "intensity": 0.6, "source": "Tagesschau"}, {"title": "Spielothek in Berlin-Neuk\u00f6lln \u00fcberfallen - Tatverd\u00e4chtiger hinterlegte Personalien", "url": "https://www.tagesschau.de/inland/regional/berlin/rbb-ueberfall-in-berlin-neukoelln-tatverdaechtiger-soll-personalien-in-ausgeraubter-spielothek-hinterlegt-haben-100.html", "thumbnailUrl": "https://images.tagesschau.de/image/a55dc34c-7a9d-4f1c-80ee-6cd423df30c7/AAABjuvr0ko/AAABjcWesUg/16x9-512.jpg", "date": "2024-04-17T13:54:47.000+02:00", "lat": 52.4811, "lon": 13.4434, "intensity": 0.7, "source": "Tagesschau"}, {"title": "Eintracht Frankfurt: Makoto Hasebe h\u00f6rt im Sommer auf", "url": "https://www.tagesschau.de/inland/regional/hessen/hr-eintracht-frankfurt-makoto-hasebe-hoert-im-sommer-auf-102.html", "thumbnailUrl": "https://images.tagesschau.de/image/d80c710d-7393-4073-8c90-286aa0c7b2d8/AAABjuvqC1w/AAABjcWesUg/16x9-512.jpg", "date": "2024-04-17T13:54:24.596+02:00", "lat": 50.1109, "lon": 8.6821, "intensity": 0.8, "source": "Tagesschau"}, {"title": "Schwerer Unfall auf der A7: Beifahrerin lebensgef\u00e4hrlich verletzt", "url": "https://www.tagesschau.de/inland/regional/niedersachsen/ndr-schwerer-unfall-auf-der-a7-beifahrerin-lebensgefaehrlich-verletzt-100.html", "thumbnailUrl": "https://images.tagesschau.de/image/830707a4-af74-432c-845e-61b0f412ee8b/AAABjuv1BgU/AAABjcWesUg/16x9-512.jpg", "date": "2024-04-17T13:42:00.000+02:00", "lat": 53.0655, "lon": 9.9945, "intensity": 0.8, "source": "Tagesschau"}, {"title": "49-Euro-Ticket: Ministerin H\u00fcskens f\u00fcr automatische Preisanpassung", "url": "https://www.tagesschau.de/inland/regional/sachsenanhalt/mdr-49-euro-ticket-ministerin-hueskens-fuer-automatische-preisanpassung-100.html", "thumbnailUrl": "https://images.tagesschau.de/image/0151bc87-f8af-44bc-a6cb-dde4eccfbaeb/AAABju4-YIc/AAABjcWesUg/16x9-512.jpg", "date": "2024-04-17T13:38:27.000+02:00", "lat": 52.1102, "lon": 11.6276, "intensity": 0.7, "source": "Tagesschau"}, {"title": "Saarbr\u00fccken schlie\u00dft Mietpreisbremse aktuell aus ", "url": "https://www.tagesschau.de/inland/regional/saarland/sr-saarbruecken-schliesst-mietpreisbremse-aktuell-aus-100.html", "thumbnailUrl": "https://images.tagesschau.de/image/89cea6e0-3c2c-4dab-8b9b-397059de7d00/AAABjuvbUDQ/AAABjcWesUg/16x9-512.jpg", "date": "2024-04-17T13:29:00.000+02:00", "lat": 49.2354, "lon": 6.9815, "intensity": 0.4, "source": "Tagesschau"}, {"title": "Mann f\u00e4hrt Kollegen vors\u00e4tzlich an: Fast drei Jahre Haft ", "url": "https://www.tagesschau.de/inland/regional/hamburg/ndr-fast-drei-jahre-haft-mann-faehrt-kollegen-vorsaetzlich-an-100.html", "thumbnailUrl": "https://images.tagesschau.de/image/566ac7eb-b75b-4f73-98b7-47eabf50d33d/AAABjuv6nic/AAABjcWesUg/16x9-512.jpg", "date": "2024-04-17T13:27:00.000+02:00", "lat": 53.5511, "lon": 9.9937, "intensity": 0.8, "source": "Tagesschau"}, {"title": "Bremerhavener Busfahrer bekommen mehr Freizeit und Geld", "url": "https://www.tagesschau.de/inland/regional/bremen/rb-bremerhavener-busfahrer-bekommen-mehr-freizeit-und-geld-100.html", "thumbnailUrl": "https://images.tagesschau.de/image/4f97ba52-e254-49e8-baf6-0f3617d4ddf7/AAABjuwzRdo/AAABjcWesUg/16x9-512.jpg", "date": "2024-04-17T13:26:00.000+02:00", "lat": 53.539584, "lon": 8.576125, "intensity": 0.6, "source": "Tagesschau"}, {"title": "Deutsche Verlage immer mehr im Visier von Hackern", "url": "https://www.tagesschau.de/inland/verlage-cyberangriffe-schutzmassnahmen-100.html", "thumbnailUrl": "https://images.tagesschau.de/image/24b65eea-48c4-4eb5-bd42-b622f8e75dda/AAABjuvGKvY/AAABjcWesUg/16x9-512.jpg", "date": "2024-04-17T13:16:57.220+02:00", "lat": 53.5511, "lon": 9.9937, "intensity": 0.8, "source": "Tagesschau"}, {"title": "Corona-Aufarbeitung: Forscher fordern F\u00f6rderung des Gesundheitsdienstes", "url": "https://www.tagesschau.de/inland/regional/saarland/sr-corona-aufarbeitung-forscher-fordern-foerderung-des-gesundheitsdienstes-100.html", "thumbnailUrl": "https://images.tagesschau.de/image/396dc142-2dfb-49c0-9721-7f41114c8469/AAABjuvKz28/AAABjcWesUg/16x9-512.jpg", "date": "2024-04-17T13:15:00.000+02:00", "lat": 49.3964, "lon": 6.9867, "intensity": 0.7, "source": "Tagesschau"}, {"title": "Herthas Sparkurs tr\u00e4gt Fr\u00fcchte: Das neue Betriebsergebnis in der Analyse", "url": "https://www.tagesschau.de/inland/regional/berlin/rbb-herthas-sparkurs-traegt-fruechte-das-neue-betriebsergebnis-in-der-analyse-102.html", "thumbnailUrl": "https://images.tagesschau.de/image/39b2e53e-aa80-4cdf-a5b3-8c0a55374655/AAABjuvHL9o/AAABjcWesUg/16x9-512.jpg", "date": "2024-04-17T13:12:25.000+02:00", "lat": 52.52, "lon": 13.407, "intensity": 0.8, "source": "Tagesschau"}, {"title": "Verkehrsminister beraten: Woher soll das Geld f\u00fcr all die Baustellen kommen?", "url": "https://www.tagesschau.de/inland/regional/nordrheinwestfalen/wdr-verkehrsminister-beraten-woher-soll-das-geld-fuer-all-die-baustellen-kommen-102.html", "thumbnailUrl": "https://images.tagesschau.de/image/d39e05c1-a83f-4b2f-998b-7ee83f950aca/AAABjuwvh4A/AAABjcWesUg/16x9-512.jpg", "date": "2024-04-17T13:11:00.000+02:00", "lat": 51.1657, "lon": 7.6261, "intensity": 0.8, "source": "Tagesschau"}, {"title": "Millionenschaden in Keltern - Lagerhallen mit Heuballen und Wohnmobilen brennen aus", "url": "https://www.tagesschau.de/inland/regional/badenwuerttemberg/swr-millionenschaden-in-keltern-lagerhallen-mit-heuballen-und-wohnmobilen-brennen-aus-100.html", "thumbnailUrl": "https://images.tagesschau.de/image/78716706-fb91-433d-83ed-688565bf7429/AAABjutgocU/AAABjcWesUg/16x9-512.jpg", "date": "2024-04-17T13:03:00.000+02:00", "lat": 48.9213, "lon": 8.6627, "intensity": 0.8, "source": "Tagesschau"}, {"title": "Gro\u00dfbritannien will Zigaretten verbieten", "url": "https://www.tagesschau.de/ausland/europa/grossbritannien-rauchverbot-kauf-tabak-100.html", "thumbnailUrl": "https://images.tagesschau.de/image/f3bcd086-f56f-47b0-a7d9-2328069e2c78/AAABipNByVU/AAABjcWesUg/16x9-512.jpg", "date": "2024-04-17T13:01:25.715+02:00", "lat": 51.5074, "lon": -0.1276, "intensity": 0.8, "source": "Tagesschau"}, {"title": "Gro\u00df-Razzia gegen Schleuser: Durchsuchungen auch in Baden-W\u00fcrttemberg", "url": "https://www.tagesschau.de/inland/regional/badenwuerttemberg/swr-gross-razzia-gegen-schleuser-durchsuchungen-auch-in-baden-wuerttemberg-102.html", "thumbnailUrl": "https://images.tagesschau.de/image/45cfc6c1-6989-47f5-9b38-0ca27b186cd3/AAABjuyLPZI/AAABjcWesUg/16x9-512.jpg", "date": "2024-04-17T12:53:30.000+02:00", "lat": 48.6616, "lon": 9.4895, "intensity": 0.8, "source": "Tagesschau"}, {"title": "Saarl\u00e4nder kaufen weniger E-Autos", "url": "https://www.tagesschau.de/inland/regional/saarland/sr-saarlaender-kaufen-weniger-e-autos-100.html", "thumbnailUrl": "https://images.tagesschau.de/image/576141ea-8e57-4020-8a18-7c2e731aa980/AAABjuu01eI/AAABjcWesUg/16x9-512.jpg", "date": "2024-04-17T12:48:00.000+02:00", "lat": 49.3964, "lon": 6.9603, "intensity": 0.4, "source": "Tagesschau"}, {"title": "Raub\u00fcberfall in Hannover: Unbekannter verletzt 19-J\u00e4hrigen schwer", "url": "https://www.tagesschau.de/inland/regional/niedersachsen/ndr-raubueberfall-in-hannover-unbekannter-verletzt-19-jaehrigen-schwer-100.html", "thumbnailUrl": "https://images.tagesschau.de/image/b7610a3a-b051-4a2a-a3f4-70e313bdb207/AAABjuuzSa8/AAABjcWesUg/16x9-512.jpg", "date": "2024-04-17T12:42:00.000+02:00", "lat": 52.37589, "lon": 9.73322, "intensity": 0.8, "source": "Tagesschau"}, {"title": "Mit Bildern zu gr\u00f6\u00dferem Wortschatz: Wie Bad Mergentheim bei der Sprachf\u00f6rderung vorangeht", "url": "https://www.tagesschau.de/inland/regional/badenwuerttemberg/swr-mit-bildern-zu-groesserem-wortschatz-wie-bad-mergentheim-bei-der-sprachfoerderung-vorangeht-100.html", "thumbnailUrl": "https://images.tagesschau.de/image/3cdd346d-1e08-4f11-9ccc-3c74d01889a7/AAABjuvdME8/AAABjcWesUg/16x9-512.jpg", "date": "2024-04-17T12:35:06.000+02:00", "lat": 49.47854, "lon": 9.77362, "intensity": 0.8, "source": "Tagesschau"}, {"title": "Weltkriegsbombe in Rastatt: Blindg\u00e4nger erfolgreich gesprengt", "url": "https://www.tagesschau.de/inland/regional/badenwuerttemberg/swr-blindgaenger-an-der-a5-weltkriegsbombe-in-rastatt-gefunden-100.html", "thumbnailUrl": "https://images.tagesschau.de/image/472c4aed-b626-4527-9313-30cfe377ec26/AAABjuufAIs/AAABjcWesUg/16x9-512.jpg", "date": "2024-04-17T12:32:00.000+02:00", "lat": 48.8566, "lon": 8.2026, "intensity": 0.8, "source": "Tagesschau"}, {"title": "Wirbel um Maa\u00dfen-Interview im Landtag", "url": "https://www.tagesschau.de/inland/regional/nordrheinwestfalen/wdr-wirbel-um-maassen-interview-im-landtag-100.html", "thumbnailUrl": "https://images.tagesschau.de/image/f0a64463-730b-4439-9271-72f6f677c93c/AAABjuvMpPc/AAABjcWesUg/16x9-512.jpg", "date": "2024-04-17T12:30:00.000+02:00", "lat": 51.446172, "lon": 7.588576, "intensity": 0.6, "source": "Tagesschau"}, {"title": "Toter Mann nach Brand in Bad Neuenahr-Ahrweiler entdeckt", "url": "https://www.tagesschau.de/inland/regional/rheinlandpfalz/swr-toter-mann-nach-brand-in-bad-neuenahr-ahrweiler-entdeckt-100.html", "thumbnailUrl": "https://images.tagesschau.de/image/9239dee2-77ff-425f-8e10-debdf17b6086/AAABjuvBvPo/AAABjcWesUg/16x9-512.jpg", "date": "2024-04-17T12:22:56.000+02:00", "lat": 50.5431, "lon": 7.1074, "intensity": 0.9, "source": "Tagesschau"}, {"title": "Mehr als 30.000 junge Menschen in Baden-W\u00fcrttemberg leiden unter Schlafst\u00f6rungen", "url": "https://www.tagesschau.de/inland/regional/badenwuerttemberg/swr-mehr-als-30-000-junge-menschen-in-baden-wuerttemberg-leiden-unter-schlafstoerungen-100.html", "thumbnailUrl": "https://images.tagesschau.de/image/0a92c3a0-ce8a-4d35-ae86-9d8bf394c2ab/AAABjuvDghU/AAABjcWesUg/16x9-512.jpg", "date": "2024-04-17T12:21:55.000+02:00", "lat": 48.6616, "lon": 9.4895, "intensity": 0.8, "source": "Tagesschau"}, {"title": "Trikot-\"Klau\" nach BVB-Spiel - Rollstuhlfahrer kl\u00e4rt Situation auf", "url": "https://www.tagesschau.de/inland/regional/nordrheinwestfalen/wdr-fan-sorgt-mit-trikot-klau-fuer-empoerung-bvb-plant-trost-fuer-rollstuhlfahrer-102.html", "thumbnailUrl": "https://images.tagesschau.de/image/cbbab386-7267-48a3-9958-3ddbab3ea8ff/AAABjuumMJI/AAABjcWesUg/16x9-512.jpg", "date": "2024-04-17T12:20:00.000+02:00", "lat": 51.5136, "lon": 7.4437, "intensity": 0.6, "source": "Tagesschau"}, {"title": "Gro\u00dfeinsatz gegen mutma\u00dfliche Schleuser", "url": "https://www.tagesschau.de/inland/razzien-schleuser-102.html", "thumbnailUrl": "https://images.tagesschau.de/image/3b6bfd58-58a3-4348-a0a7-03730f017ab6/AAABjuqjKmA/AAABjcWesUg/16x9-512.jpg", "date": "2024-04-17T12:19:26.198+02:00", "lat": 51.1657, "lon": 10.4515, "intensity": 0.8, "source": "Tagesschau"}, {"title": "Berlin-Charlottenburg: Kaiserdamm soll ab Freitag wieder in beiden Richtungen frei befahrbar sein", "url": "https://www.tagesschau.de/inland/regional/berlin/rbb-berlin-charlottenburg-kaiserdamm-soll-ab-freitag-wieder-in-beiden-richtungen-frei-befahrbar-sein-100.html", "thumbnailUrl": "https://images.tagesschau.de/image/64c2ae11-ad05-48c5-8e89-51f2d171d0b0/AAABjuuDb-4/AAABjcWesUg/16x9-512.jpg", "date": "2024-04-17T11:59:00.000+02:00", "lat": 52.5167, "lon": 13.2925, "intensity": 0.4, "source": "Tagesschau"}, {"title": "Saarl\u00e4nder sollen M\u00e4dchen aus Bad Kreuznach missbraucht haben", "url": "https://www.tagesschau.de/inland/regional/saarland/sr-saarlaender-sollen-maedchen-aus-bad-kreuznach-missbraucht-haben-100.html", "thumbnailUrl": "https://images.tagesschau.de/image/6a497312-4e4b-434b-8fde-19a0381e634b/AAABjuuHD0c/AAABjcWesUg/16x9-512.jpg", "date": "2024-04-17T11:58:00.000+02:00", "lat": 49.8419, "lon": 7.8719, "intensity": 0.6, "source": "Tagesschau"}, {"title": "Kultur: +++ Goethe-Uni bleibt beim Gendersternchen +++ Deutsche Nationalbibliothek kostenfrei f\u00fcr 16-J\u00e4hrige +++ Nacht der Museen mit \u00fcber 40 Kultureinrichtungen +++", "url": "https://www.tagesschau.de/inland/regional/hessen/hr--schauspiel-frankfurt-bringt-putin-und-macbeth-zusammen--die-filmfestival-saison-2023-startet--lichter-filmfest-zum-thema-liebe-startet-am-dienstag-100.html", "thumbnailUrl": "https://images.tagesschau.de/image/248b5b28-6e04-4e61-aab0-681a28aa85b6/AAABjutoLKA/AAABjcWesUg/16x9-512.jpg", "date": "2024-04-17T11:49:10.267+02:00", "lat": 50.110922, "lon": 8.682127, "intensity": 0.7, "source": "Tagesschau"}, {"title": "Diese Nordhessin fliegt 7.800 Kilometer, um die Kassel Huskies zu sehen", "url": "https://www.tagesschau.de/inland/regional/hessen/hr-diese-nordhessin-fliegt-7-800-kilometer-um-die-kassel-huskies-zu-sehen-102.html", "thumbnailUrl": "https://images.tagesschau.de/image/b3edcabb-e1a8-4c23-910d-e25ce6d32750/AAABjuwV6sc/AAABjcWesUg/16x9-512.jpg", "date": "2024-04-17T11:40:00.860+02:00", "lat": 51.3107, "lon": 9.4806, "intensity": 0.7, "source": "Tagesschau"}, {"title": "Bistum entl\u00e4sst AfD-Abgeordneten Schaufert aus Kirchenamt", "url": "https://www.tagesschau.de/inland/regional/saarland/sr-bistum-entlaesst-afd-abgeordneten-schaufert-aus-kirchenamt-100.html", "thumbnailUrl": "https://images.tagesschau.de/image/db69fa1d-4913-494a-b00d-060afda8b58c/AAABjutvQmE/AAABjcWesUg/16x9-512.jpg", "date": "2024-04-17T11:39:00.000+02:00", "lat": 49.3436, "lon": 7.1734, "intensity": 0.8, "source": "Tagesschau"}, {"title": "Nach Brand in Schweinezuchtanlage in Binde: Unrechtm\u00e4\u00dfig erbaute St\u00e4lle nicht betroffen", "url": "https://www.tagesschau.de/inland/regional/sachsenanhalt/mdr-nach-brand-in-schweinemast-in-binde-unrechtmaessig-erbaute-staelle-nicht-betroffen-100.html", "thumbnailUrl": "https://images.tagesschau.de/image/8b6bf1bb-455e-43fe-9440-cb06413a0c67/AAABjuzmsIs/AAABjcWesUg/16x9-512.jpg", "date": "2024-04-17T11:16:26.000+02:00", "lat": 52.8533, "lon": 11.3833, "intensity": 0.7, "source": "Tagesschau"}, {"title": "Land unter nach Unwettern in Dubai", "url": "https://www.tagesschau.de/ausland/asien/dubai-unwetter-100.html", "thumbnailUrl": "https://images.tagesschau.de/image/d98cfecc-90bb-436f-877b-eebcaef45fce/AAABjutHme0/AAABjcWesUg/16x9-512.jpg", "date": "2024-04-17T11:15:49.645+02:00", "lat": 25.2048, "lon": 55.2708, "intensity": 0.8, "source": "Tagesschau"}, {"title": "Kommunen ver\u00e4rgert \u00fcber Sch\u00e4den nach Glasfaser-Ausbau: \"Fl\u00e4chendeckendes Problem\"", "url": "https://www.tagesschau.de/inland/regional/hessen/hr-flaechendeckendes-problem-schlampereien-beim-glasfaser-ausbau-100.html", "thumbnailUrl": "https://images.tagesschau.de/image/65fd5f7c-6ce6-441b-b151-24c22372c49d/AAABjuvXpcs/AAABjcWesUg/16x9-512.jpg", "date": "2024-04-17T11:14:06.849+02:00", "lat": 50.7677, "lon": 9.0723, "intensity": 0.8, "source": "Tagesschau"}, {"title": "M\u00e4rkisch-Oderland: Frau versucht Haustiere aus brennendem Haus in Hackenow zu retten und wird dabei verletzt", "url": "https://www.tagesschau.de/inland/regional/brandenburg/rbb-maerkisch-oderland-frau-versucht-haustiere-aus-brennendem-haus-in-hackenow-zu-retten-und-wird-dabei-verletzt-100.html", "thumbnailUrl": "https://images.tagesschau.de/image/88cdd0aa-5b61-4efd-97e9-f6276a271ae7/AAABjutVvHY/AAABjcWesUg/16x9-512.jpg", "date": "2024-04-17T11:09:00.000+02:00", "lat": 52.6516, "lon": 13.8153, "intensity": 0.8, "source": "Tagesschau"}, {"title": "Wetterlage und Temperaturen", "url": "https://www.tagesschau.de/wetter/europa-welt", "thumbnailUrl": "https://images.tagesschau.de/image/6e7d3b16-79c8-4308-822b-20c3035236b5/AAABju0SOP8/AAABjcWesUg/16x9-512.jpg", "date": "2024-04-17T10:58:47.101+02:00", "lat": 51.1657, "lon": 10.4515, "intensity": 0.3, "source": "Tagesschau"}, {"title": "Wie Technik aus Kaisers Zeiten den Nord-Ostsee-Kanal am Laufen h\u00e4lt", "url": "https://www.tagesschau.de/inland/regional/schleswigholstein/ndr-wie-technik-aus-kaisers-zeiten-den-nord-ostsee-kanal-am-laufen-haelt-100.html", "thumbnailUrl": "https://images.tagesschau.de/image/4b84fd3e-247b-43e0-8c83-0c592d6b22e7/AAABjut07Ug/AAABjcWesUg/16x9-512.jpg", "date": "2024-04-17T10:58:00.000+02:00", "lat": 54.4576, "lon": 9.7031, "intensity": 0.7, "source": "Tagesschau"}, {"title": "Kaufhof in Wuppertal soll neues Zuhause f\u00fcr Schule werden", "url": "https://www.tagesschau.de/inland/regional/nordrheinwestfalen/wdr-kaufhof-soll-neues-zuhause-fuer-schule-werden-100.html", "thumbnailUrl": "https://images.tagesschau.de/image/8599e8aa-567e-4744-a675-8b90189c0f3c/AAABjuxxizI/AAABjcWesUg/16x9-512.jpg", "date": "2024-04-17T10:54:07.000+02:00", "lat": 51.2562, "lon": 7.1377, "intensity": 0.6, "source": "Tagesschau"}, {"title": "Im Saarland werden immer mehr Schwimmabzeichen verliehen ", "url": "https://www.tagesschau.de/inland/regional/saarland/sr-2023-mehr-als-4000-schwimmabzeichen-im-saarland-vergeben-100.html", "thumbnailUrl": "https://images.tagesschau.de/image/2ec255c1-b541-4fc3-bfcb-d2b046920b5e/AAABjutVq9w/AAABjcWesUg/16x9-512.jpg", "date": "2024-04-17T10:53:00.000+02:00", "lat": 49.3964, "lon": 7.0, "intensity": 0.4, "source": "Tagesschau"}, {"title": "Terrorverdacht: Anklage gegen Reichsb\u00fcrger wegen geplanter Lauterbach-Entf\u00fchrung", "url": "https://www.tagesschau.de/inland/regional/hessen/hr-terrorverdacht-anklage-gegen-reichsbuerger-aus-suedhessen-wegen-geplanter-lauterbach-entfuehrung-100.html", "thumbnailUrl": "https://images.tagesschau.de/image/fb0d74d1-796b-4a59-88ec-528b6fe2aa74/AAABjuvZw0k/AAABjcWesUg/16x9-512.jpg", "date": "2024-04-17T10:43:18.357+02:00", "lat": 49.8728, "lon": 8.3405, "intensity": 0.8, "source": "Tagesschau"}, {"title": "A7 in Hamburg im Juni f\u00fcr ein Wochenende gesperrt", "url": "https://www.tagesschau.de/inland/regional/hamburg/ndr-a7-in-hamburg-im-juni-fuer-ein-wochenende-gesperrt-100.html", "thumbnailUrl": "https://images.tagesschau.de/image/1f898e99-fba7-49b2-88b2-bf17383f186d/AAABjugb5FU/AAABjcWesUg/16x9-512.jpg", "date": "2024-04-17T10:42:00.000+02:00", "lat": 53.5511, "lon": 9.8969, "intensity": 0.6, "source": "Tagesschau"}, {"title": "Berlin-Spandau: 70-J\u00e4hriger soll Lebensgef\u00e4hrtin schwere Stichverletzungen zugef\u00fcgt haben", "url": "https://www.tagesschau.de/inland/regional/berlin/rbb-berlin-spandau-70-jaehriger-soll-lebensgefaehrtin-schwere-stichverletzungen-zugefuegt-haben-100.html", "thumbnailUrl": "https://images.tagesschau.de/image/4a2498e5-1c72-43fd-aad5-eea5f01e62d5/AAABjus8Ha0/AAABjcWesUg/16x9-512.jpg", "date": "2024-04-17T10:40:38.000+02:00", "lat": 52.5357, "lon": 13.2026, "intensity": 0.8, "source": "Tagesschau"}, {"title": "Hessen am Morgen: +++ Schriftliche Abiturpr\u00fcfungen beginnen +++ Unfallfahrer l\u00e4sst Mann mit Herzinfarkt auf A67 zur\u00fcck +++ Anklage wegen Terrorverdachts gegen 61-J\u00e4hrigen +++", "url": "https://www.tagesschau.de/inland/regional/hessen/hr-hessen-am-morgen--schriftliche-abiturpruefungen-beginnen-100.html", "thumbnailUrl": "https://images.tagesschau.de/image/70163477-0e7a-4e35-a7df-40067c60b736/AAABjuvfBZ4/AAABjcWesUg/16x9-512.jpg", "date": "2024-04-17T10:28:12.071+02:00", "lat": 50.6411, "lon": 9.6756, "intensity": 0.8, "source": "Tagesschau"}, {"title": "Mehr als 400 Taten? Razzia gegen mutma\u00dfliche Kokainh\u00e4ndler", "url": "https://www.tagesschau.de/inland/regional/niedersachsen/ndr-mehr-als-400-taten-razzia-gegen-mutmassliche-kokainhaendler-100.html", "thumbnailUrl": "https://images.tagesschau.de/image/700ef62f-a6b8-41d7-9657-ae7548e4dea4/AAABjusiaMM/AAABjcWesUg/16x9-512.jpg", "date": "2024-04-17T10:09:00.000+02:00", "lat": 52.2593, "lon": 9.0576, "intensity": 0.8, "source": "Tagesschau"}, {"title": "BW-Newsticker am Morgen: Schnee im Schwarzwald, Debatte um R\u00fcckkehr zu G9, Ermittlungen nach Tod durch Gaskartusche", "url": "https://www.tagesschau.de/inland/regional/badenwuerttemberg/swr-bw-newsticker-am-morgen-rueckkehr-zu-g9-tod-durch-gaskartusche-sicherheit-und-polizei-100.html", "thumbnailUrl": "https://images.tagesschau.de/image/726e1d45-70c0-4814-8fe7-7846ccb1350b/AAABjuty92g/AAABjcWesUg/16x9-512.jpg", "date": "2024-04-17T10:00:00.000+02:00", "lat": 48.7157, "lon": 8.3405, "intensity": 0.4, "source": "Tagesschau"}, {"title": "Landtag will Corona aufarbeiten, Zugausf\u00e4lle auf Bahnstrecke bei Worms, Gro\u00dfrazzia gegen Schleuser", "url": "https://www.tagesschau.de/inland/regional/rheinlandpfalz/swr-landtag-will-corona-aufarbeiten-bahnstrecke-nach-zugunfall-wieder-frei-prozess-spenden-fuer-is-terror-100.html", "thumbnailUrl": "https://images.tagesschau.de/image/376ca01d-fa8b-4052-bd6b-a04531fa307b/AAABjuriT_Y/AAABjcWesUg/16x9-512.jpg", "date": "2024-04-17T10:00:00.000+02:00", "lat": 49.44329, "lon": 8.27111, "intensity": 0.5, "source": "Tagesschau"}, {"title": "Gemeinderat Namborn befasst sich in Sondersitzung mit Korruptionsvorw\u00fcrfen", "url": "https://www.tagesschau.de/inland/regional/saarland/sr-gemeinderat-namborn-befasst-sich-in-sondersitzung-mit-korruptionsvorwuerfen-100.html", "thumbnailUrl": "https://images.tagesschau.de/image/e89c8001-bd44-48ec-a45a-709899eb4cd8/AAABjusTs4U/AAABjcWesUg/16x9-512.jpg", "date": "2024-04-17T10:00:00.000+02:00", "lat": 49.4908, "lon": 7.1692, "intensity": 0.7, "source": "Tagesschau"}, {"title": "Lufthansa bei Stornierungen europaweit vorn", "url": "https://www.tagesschau.de/wirtschaft/unternehmen/lufthansa-flugausfaelle-104.html", "thumbnailUrl": "https://images.tagesschau.de/image/7209044b-15da-40c2-b279-5b451206eae7/AAABjur79_s/AAABjcWesUg/16x9-512.jpg", "date": "2024-04-17T09:50:32.975+02:00", "lat": 50.6333, "lon": 9.6614, "intensity": 0.8, "source": "Tagesschau"}, {"title": "Frau bei Brand in Hamburger Fl\u00fcchtlingsunterkunft gestorben", "url": "https://www.tagesschau.de/inland/regional/hamburg/ndr-ein-toter-bei-brand-in-hamburger-fluechtlingsunterkunft-100.html", "thumbnailUrl": "https://images.tagesschau.de/image/5b4c3001-430f-484b-a5c3-3b5da7974aef/AAABjusKtOU/AAABjcWesUg/16x9-512.jpg", "date": "2024-04-17T09:50:00.000+02:00", "lat": 53.6275, "lon": 10.1619, "intensity": 0.8, "source": "Tagesschau"}, {"title": "Reifen zerstochen: Neun Autos in Cuxhaven besch\u00e4digt", "url": "https://www.tagesschau.de/inland/regional/niedersachsen/ndr-reifen-zerstochen-neun-autos-in-cuxhaven-beschaedigt-100.html", "thumbnailUrl": "https://images.tagesschau.de/image/53a614c6-5d70-4e52-811d-6f91f10de0ee/AAABjusT5Zo/AAABjcWesUg/16x9-512.jpg", "date": "2024-04-17T09:35:00.000+02:00", "lat": 53.8694, "lon": 8.6875, "intensity": 0.7, "source": "Tagesschau"}, {"title": "Kommunen in RLP wollen Freifl\u00e4chen-Photovoltaik besser steuern", "url": "https://www.tagesschau.de/inland/regional/rheinlandpfalz/swr-kommunen-in-rlp-wollen-freiflaechen-photovoltaik-besser-steuern-100.html", "thumbnailUrl": "https://images.tagesschau.de/image/2d8b6526-1b5a-4f48-be6a-c1d528f102b4/AAABjuvtnyE/AAABjcWesUg/16x9-512.jpg", "date": "2024-04-17T09:30:31.000+02:00", "lat": 49.8175, "lon": 7.4474, "intensity": 0.7, "source": "Tagesschau"}, {"title": "Aktivisten hungern nahe dem Kanzleramt gegen die Klimakrise ", "url": "https://www.tagesschau.de/inland/regional/berlin/rbb-aktivisten-hungern-nahe-dem-kanzleramt-gegen-die-klimakrise-100.html", "thumbnailUrl": "https://images.tagesschau.de/image/e25318a3-b641-4d09-aba5-f15e3ae94d2c/AAABjur4SWE/AAABjcWesUg/16x9-512.jpg", "date": "2024-04-17T09:22:42.000+02:00", "lat": 52.52, "lon": 13.3889, "intensity": 0.8, "source": "Tagesschau"}, {"title": "Gro\u00dfeinsatz im Schullandheim Bad Essen: Ursache f\u00fcr Erkrankung klar", "url": "https://www.tagesschau.de/inland/regional/niedersachsen/ndr-grosseinsatz-im-schullandheim-bad-essen-ursache-fuer-erkrankung-klar-100.html", "thumbnailUrl": "https://images.tagesschau.de/image/7b757bba-d777-4f51-bba1-43d1d9171452/AAABjugfjcY/AAABjcWesUg/16x9-512.jpg", "date": "2024-04-17T09:21:00.000+02:00", "lat": 52.3825, "lon": 8.3801, "intensity": 0.8, "source": "Tagesschau"}, {"title": "Berufserkrankung bei Landwirten: Pestizide verursachen Parkinson", "url": "https://www.tagesschau.de/inland/regional/niedersachsen/ndr-berufserkrankung-bei-landwirten-pestizide-verursachen-parkinson-100.html", "thumbnailUrl": "https://images.tagesschau.de/image/92f61152-4147-436a-9238-7875d53e0899/AAABjuxB2fQ/AAABjcWesUg/16x9-512.jpg", "date": "2024-04-17T09:19:00.000+02:00", "lat": 52.2371, "lon": 10.0259, "intensity": 0.8, "source": "Tagesschau"}, {"title": "Jugendkriminalit\u00e4t in BW: Kretschmann fordert \u00dcberpr\u00fcfung der Strafm\u00fcndigkeit", "url": "https://www.tagesschau.de/inland/regional/badenwuerttemberg/swr-jugendkriminalitaet-in-bw-kretschmann-fordert-ueberpruefung-der-strafmuendigkeit-100.html", "thumbnailUrl": "https://images.tagesschau.de/image/ee015ce9-f343-4b62-8f7c-cb651efb2005/AAABjuesJGk/AAABjcWesUg/16x9-512.jpg", "date": "2024-04-17T09:13:00.000+02:00", "lat": 48.7904, "lon": 9.048, "intensity": 0.6, "source": "Tagesschau"}, {"title": "Geldautomaten in zwei Bankfilialen in Gro\u00dfrosseln gesprengt", "url": "https://www.tagesschau.de/inland/regional/saarland/sr-geldautomaten-in-zwei-bankfilialen-in-grossrosseln-gesprengt-100.html", "thumbnailUrl": "https://images.tagesschau.de/image/7f85eee8-c7b1-44e5-9e1a-8625d2bef64b/AAABjusIt3A/AAABjcWesUg/16x9-512.jpg", "date": "2024-04-17T08:57:00.000+02:00", "lat": 49.1875, "lon": 6.8657, "intensity": 0.8, "source": "Tagesschau"}, {"title": "Berlin-Lichtenberg: Mann l\u00f6st mit falschem Notruf SEK-Einsatz aus", "url": "https://www.tagesschau.de/inland/regional/berlin/rbb-berlin-lichtenberg-mann-loest-mit-falschem-notruf-sek-einsatz-aus-100.html", "thumbnailUrl": "https://images.tagesschau.de/image/350b87ee-7838-471f-9ae4-cd4b3a66ab7d/AAABjurnyvU/AAABjcWesUg/16x9-512.jpg", "date": "2024-04-17T08:56:41.000+02:00", "lat": 52.51, "lon": 13.4894, "intensity": 0.7, "source": "Tagesschau"}, {"title": "Bogensee-Areal in Barnim: Berlin erw\u00e4gt Abriss der \"Goebbels-Villa\" in Wandlitz ", "url": "https://www.tagesschau.de/inland/regional/brandenburg/rbb-wandlitz-barnim-berlin-erhoeht-den-druck-fuer-eine-loesung-in-bogensee-100.html", "thumbnailUrl": "https://images.tagesschau.de/image/9e362acb-5a2e-4a8e-8e9e-ea10b5eb69fe/AAABjuyHkTw/AAABjcWesUg/16x9-512.jpg", "date": "2024-04-17T08:55:05.000+02:00", "lat": 52.6369, "lon": 13.4803, "intensity": 0.8, "source": "Tagesschau"}, {"title": "Bekifft Autofahren: Ein Selbstversuch mit Cannabis", "url": "https://www.tagesschau.de/inland/regional/niedersachsen/ndr-bekifft-autofahren-ein-selbstversuch-mit-cannabis-100.html", "thumbnailUrl": "https://images.tagesschau.de/image/4cf40d08-4d6a-47c5-840c-6cf05a565065/AAABjuyLWMY/AAABjcWesUg/16x9-512.jpg", "date": "2024-04-17T08:53:00.000+02:00", "lat": 52.3759, "lon": 9.7344, "intensity": 0.7, "source": "Tagesschau"}, {"title": "Stadion-Neubau in Oldenburg: Kritiker gehen in \"zweite Halbzeit\"", "url": "https://www.tagesschau.de/inland/regional/niedersachsen/ndr-neues-stadion-fuer-vfb-oldenburg-stadtrat-stimmt-heute-ab-100.html", "thumbnailUrl": "https://images.tagesschau.de/image/2af2d640-77d8-43e8-9289-73d41cfd542b/AAABjubvqLw/AAABjcWesUg/16x9-512.jpg", "date": "2024-04-17T08:52:00.000+02:00", "lat": 53.1447, "lon": 8.2176, "intensity": 0.6, "source": "Tagesschau"}, {"title": "Politik-Abitur: Teil der Pr\u00fcflinge darf Klausur erneut schreiben", "url": "https://www.tagesschau.de/inland/regional/niedersachsen/ndr-verzoegerte-politik-abipruefung-ministerium-kuendigt-konsequenzen-an-100.html", "thumbnailUrl": "https://images.tagesschau.de/image/3bf464af-afa8-416b-b588-083dfcbdc4db/AAABjucB45I/AAABjcWesUg/16x9-512.jpg", "date": "2024-04-17T08:51:00.000+02:00", "lat": 52.3555, "lon": 9.6856, "intensity": 0.6, "source": "Tagesschau"}, {"title": "B\u00fcrgeranzeigen wegen Parkverst\u00f6\u00dfen nehmen in Sachsen sprunghaft zu", "url": "https://www.tagesschau.de/inland/regional/sachsen/mdr-buergeranzeigen-wegen-parkverstoessen-nehmen-in-sachsen-sprunghaft-zu-100.html", "thumbnailUrl": "https://images.tagesschau.de/image/4c2c978b-03c0-4a8c-bafb-7978a9d9914e/AAABju493ug/AAABjcWesUg/16x9-512.jpg", "date": "2024-04-17T08:49:43.000+02:00", "lat": 51.1045, "lon": 13.4085, "intensity": 0.7, "source": "Tagesschau"}, {"title": "Keine Hilfen, keine Hoffnung f\u00fcr die Ukraine?", "url": "https://www.tagesschau.de/ausland/11km-krieg-in-der-ukraine-100.html", "thumbnailUrl": "https://images.tagesschau.de/image/06246bc2-4006-44db-989c-cd098fbee243/AAABjupGqww/AAABjcWesUg/16x9-512.jpg", "date": "2024-04-17T08:49:05.968+02:00", "lat": 50.4501, "lon": 30.5234, "intensity": 0.9, "source": "Tagesschau"}, {"title": "Nach Hochwasser: Wieder Z\u00fcge zwischen L\u00fcdenscheid und Hagen unterwegs", "url": "https://www.tagesschau.de/inland/regional/nordrheinwestfalen/wdr-nach-hochwasser-wieder-zuege-zwischen-luedenscheid-und-hagen-unterwegs-100.html", "thumbnailUrl": "https://images.tagesschau.de/image/0a4e3da8-6960-4b4c-b781-b9ab865d75b2/AAABjusR-Kg/AAABjcWesUg/16x9-512.jpg", "date": "2024-04-17T08:42:00.000+02:00", "lat": 51.2193, "lon": 7.5643, "intensity": 0.6, "source": "Tagesschau"}, {"title": "Drei Personen bei Unfall nahe Homburg verletzt", "url": "https://www.tagesschau.de/inland/regional/saarland/sr-drei-personen-bei-unfall-nahe-homburg-verletzt-100.html", "thumbnailUrl": "https://images.tagesschau.de/image/0d2fe1b5-cada-4699-a2b9-90aceae68705/AAABjuq9pak/AAABjcWesUg/16x9-512.jpg", "date": "2024-04-17T08:25:00.000+02:00", "lat": 49.3167, "lon": 7.3367, "intensity": 0.8, "source": "Tagesschau"}, {"title": "Geldabheben beim Einkaufen wird immer beliebter", "url": "https://www.tagesschau.de/wirtschaft/verbraucher/geldabheben-einkaufen-100.html", "thumbnailUrl": "https://images.tagesschau.de/image/26be686d-01b0-427d-a79c-e4a436114615/AAABjuqJWfc/AAABjcWesUg/16x9-512.jpg", "date": "2024-04-17T08:20:48.328+02:00", "lat": 51.111111, "lon": 9.999999, "intensity": 0.4, "source": "Tagesschau"}, {"title": "100 Tage vor Olympia-Auftakt: Diese Sportler aus Berlin und Brandenburg wollen in Paris gl\u00e4nzen", "url": "https://www.tagesschau.de/inland/regional/berlin/rbb-100-tage-vor-olympia-auftakt-diese-sportler-aus-berlin-und-brandenburg-wollen-in-paris-glaenzen-102.html", "thumbnailUrl": "https://images.tagesschau.de/image/973a84f6-6bc8-45bc-81b0-4edb40aa1705/AAABjuqyvGs/AAABjcWesUg/16x9-512.jpg", "date": "2024-04-17T08:12:04.000+02:00", "lat": 52.520008, "lon": 13.404954, "intensity": 0.6, "source": "Tagesschau"}, {"title": "Mythos Bremer Br\u00fccke: 125 Jahre VfL Osnabr\u00fcck", "url": "https://www.tagesschau.de/inland/regional/niedersachsen/ndr-mythos-bremer-bruecke-125-jahre-vfl-osnabrueck-106.html", "thumbnailUrl": "https://images.tagesschau.de/image/9f8af5e1-9a94-453e-96c7-32458745fa6a/AAABjuZisXM/AAABjcWesUg/16x9-512.jpg", "date": "2024-04-17T08:12:00.000+02:00", "lat": 52.2673, "lon": 8.0476, "intensity": 0.4, "source": "Tagesschau"}, {"title": "Bremerhaven-Trainer Popiesch: DEL-Finale gegen die eigene Vergangenheit", "url": "https://www.tagesschau.de/inland/regional/niedersachsen/ndr-bremerhaven-trainer-popiesch-del-finale-gegen-die-eigene-vergangenheit-102.html", "thumbnailUrl": "https://images.tagesschau.de/image/81425040-f999-48bf-bace-9a6a587213cb/AAABjuYCVOE/AAABjcWesUg/16x9-512.jpg", "date": "2024-04-17T08:11:00.000+02:00", "lat": 53.5396, "lon": 8.5806, "intensity": 0.8, "source": "Tagesschau"}, {"title": "Hilfe f\u00fcr die Menschen in der Ukraine", "url": "https://www.tagesschau.de/spendenkonten/spendenkonten-133.html", "thumbnailUrl": "https://images.tagesschau.de/image/af005073-bb3d-428a-b6f8-a685c725811f/AAABh4VRChA/AAABjcWesUg/16x9-512.jpg", "date": "2024-04-17T08:04:32.717+02:00", "lat": 50.4501, "lon": 30.5234, "intensity": 0.8, "source": "Tagesschau"}, {"title": "\"Wir rennen, w\u00e4hrend Drohnen \u00fcber uns fliegen\"", "url": "https://www.tagesschau.de/ausland/europa/ukraine-tschassiw-jar-102.html", "thumbnailUrl": "https://images.tagesschau.de/image/a4b88fd7-b3bc-4cf5-870c-3fc1abf9df00/AAABjrLvGFM/AAABjcWesUg/16x9-512.jpg", "date": "2024-04-17T08:04:01.275+02:00", "lat": 48.6943, "lon": 38.5402, "intensity": 0.8, "source": "Tagesschau"}, {"title": "Darmstadt 98: +++ Fernie will \"frisches Blut\" reinbringen +++ Fritsch schickt Essenseinladung Richtung Wiesbaden +++ Fernie hat Dreijahresvertrag +++", "url": "https://www.tagesschau.de/inland/regional/hessen/hr--tietz-vermisst-fehlende-gier--lilien-fans-liefern-sich-raststaetten-pruegelei--die-niederlage-der-lilien-in-der-video-zusammenfassung-102.html", "thumbnailUrl": "https://images.tagesschau.de/image/424f0079-35a3-4328-8db6-01df088bbde2/AAABjueuE8w/AAABjcWesUg/16x9-512.jpg", "date": "2024-04-17T07:52:22.266+02:00", "lat": 49.878, "lon": 8.6536, "intensity": 0.6, "source": "Tagesschau"}, {"title": "Krankenhausreform: Bund und L\u00e4nder diskutieren in Berlin", "url": "https://www.tagesschau.de/inland/regional/niedersachsen/ndr-krankenhausreform-niedersachsen-fuerchtet-um-kleine-klinken-100.html", "thumbnailUrl": "https://images.tagesschau.de/image/bb780e41-09c1-4f34-909a-82588ac7f030/AAABjuqgdLE/AAABjcWesUg/16x9-512.jpg", "date": "2024-04-17T07:52:00.000+02:00", "lat": 52.3796, "lon": 10.4234, "intensity": 0.7, "source": "Tagesschau"}, {"title": "Paul Fernie startet bei Darmstadt 98: Das Gegenteil der \"One-Man-Show\"", "url": "https://www.tagesschau.de/inland/regional/hessen/hr-paul-fernie-startet-bei-darmstadt-98-der-mann-der-das-gegenteil-der-one-man-show-sein-soll-102.html", "thumbnailUrl": "https://images.tagesschau.de/image/73d932dd-5d7e-40cd-95c1-7203a0b57fb4/AAABjuvaP1g/AAABjcWesUg/16x9-512.jpg", "date": "2024-04-17T07:30:41.036+02:00", "lat": 49.8717, "lon": 8.6498, "intensity": 0.8, "source": "Tagesschau"}, {"title": "Schnee im Nordschwarzwald: Aprilwetter hat Baden-W\u00fcrttemberg fest im Griff", "url": "https://www.tagesschau.de/inland/regional/badenwuerttemberg/swr-typisches-aprilwetter-wetterumsturz-bringt-kaelte-und-regen-nach-bw-100.html", "thumbnailUrl": "https://images.tagesschau.de/image/677c4300-b7ac-45fd-9860-e385f510c29d/AAABjuymzVQ/AAABjcWesUg/16x9-512.jpg", "date": "2024-04-17T07:16:00.000+02:00", "lat": 48.7758, "lon": 9.0233, "intensity": 0.8, "source": "Tagesschau"},