[{"title": "\"Weniger, daf\u00fcr bewusster\"", "url": "https://www.tagesschau.de/inland/gesellschaft/sinkender-fleischkonsum-deutschland-100.html", "thumbnailUrl": "https://images.tagesschau.de/image/7a414591-816c-4eb2-8c03-f31bb099804a/AAABjqj6byY/AAABjcWesUg/16x9-512.jpg", "date": "2024-04-04T15:02:17.873+02:00", "lat": 51.3396, "lon": 9.9937, "intensity": 0.5, "source": "Tagesschau"}, {"title": "Wie gehen Bayerns Staatstheater mit dem Gender-Verbot um?", "url": "https://www.tagesschau.de/inland/regional/bayern/br-wie-gehen-bayerns-staatstheater-mit-dem-gender-verbot-um-102.html", "thumbnailUrl": "https://images.tagesschau.de/image/c70fb2c2-9226-4627-bbb9-d165d6300fdc/AAABjqk0Di8/AAABjcWesUg/16x9-512.jpg", "date": "2024-04-04T15:01:15.899+02:00", "lat": 48.1371, "lon": 11.5797, "intensity": 0.7, "source": "Tagesschau"}, {"title": "Pragsdorf-Prozess: Angeklagter Jugendlicher legt Teilgest\u00e4ndnis ab", "url": "https://www.tagesschau.de/inland/regional/mecklenburgvorpommern/ndr-prozess-um-getoeteten-sechsjaehrigen-aus-pragsdorf-urteil-verschoben-100.html", "thumbnailUrl": "https://images.tagesschau.de/image/1a53ea90-82dc-4363-8ce5-ed5259a489d4/AAABjqkzvcI/AAABjcWesUg/16x9-512.jpg", "date": "2024-04-04T14:59:00.000+02:00", "lat": 53.7931, "lon": 12.8806, "intensity": 0.5, "source": "Tagesschau"}, {"title": "Fracht aus Russland - Staatsanwaltschaft ermittelt ", "url": "https://www.tagesschau.de/inland/regional/mecklenburgvorpommern/atlantic-navigator-rostock-100.html", "thumbnailUrl": "https://images.tagesschau.de/image/5bd5070a-ae6f-4e24-a04a-4ba4194b8ef3/AAABjqUCuN4/AAABjcWesUg/16x9-512.jpg", "date": "2024-04-04T14:59:00.000+02:00", "lat": 54.0887, "lon": 12.1403, "intensity": 0.7, "source": "Tagesschau"}, {"title": "Gr\u00fcn statt grau: Land weitet Schottergarten-Verbot auf Bremerhaven aus", "url": "https://www.tagesschau.de/inland/regional/bremen/rb-gruen-statt-grau-land-weitet-schottergarten-verbot-auf-bremerhaven-aus-100.html", "thumbnailUrl": "https://images.tagesschau.de/image/ba62e98e-a1fb-4df2-bba5-7e14d2d2d1b2/AAABjqkz90U/AAABjcWesUg/16x9-512.jpg", "date": "2024-04-04T14:59:00.000+02:00", "lat": 53.0793, "lon": 8.8017, "intensity": 0.8, "source": "Tagesschau"}, {"title": "Nach Diesel-Unfall: B437 vor Wesertunnel wieder frei", "url": "https://www.tagesschau.de/inland/regional/niedersachsen/ndr-nach-diesel-unfall-b437-vor-wesertunnel-am-donnerstag-gesperrt-100.html", "thumbnailUrl": "https://images.tagesschau.de/image/fd90d294-e153-47e9-a9a4-06f2628bc8e3/AAABjqkuqQU/AAABjcWesUg/16x9-512.jpg", "date": "2024-04-04T14:56:00.000+02:00", "lat": 53.5275, "lon": 8.6531, "intensity": 0.8, "source": "Tagesschau"}, {"title": "NRW-Karte zu Wohnungseinbr\u00fcchen: Wo wird viel, wo wenig eingebrochen?", "url": "https://www.tagesschau.de/inland/regional/nordrheinwestfalen/wdr-nrw-karte-zu-wohnungseinbruechen-wo-wird-viel-wo-wenig-eingebrochen-100.html", "thumbnailUrl": "https://images.tagesschau.de/image/66121e89-c542-42b1-a3ae-693684288f52/AAABjqkx354/AAABjcWesUg/16x9-512.jpg", "date": "2024-04-04T14:51:00.000+02:00", "lat": 51.8133, "lon": 7.6261, "intensity": 0.8, "source": "Tagesschau"}, {"title": "Neugew\u00e4hlter Tesla-Betriebsrat in Gr\u00fcnheide best\u00e4tigt Michaela Schmitz als Vorsitzende", "url": "https://www.tagesschau.de/inland/regional/brandenburg/rbb-neugewaehlter-tesla-betriebsrat-in-gruenheide-bestaetigt-michaela-schmitz-als-vorsitzende-100.html", "thumbnailUrl": "https://images.tagesschau.de/image/e65a782a-c431-4805-af54-98ffd57c073e/AAABjqkH6YA/AAABjcWesUg/16x9-512.jpg", "date": "2024-04-04T14:50:40.000+02:00", "lat": 52.378699, "lon": 13.891977, "intensity": 0.6, "source": "Tagesschau"}, {"title": "Rechtsextremismus: Auch Ermittlungen gegen Polizisten im Norden", "url": "https://www.tagesschau.de/inland/regional/niedersachsen/ndr-rechtsextremismus-auch-ermittlungen-gegen-polizisten-im-norden-100.html", "thumbnailUrl": "https://images.tagesschau.de/image/67e87692-45bb-4a0f-8bf6-d1ad6f39ba1a/AAABjqkrcsw/AAABjcWesUg/16x9-512.jpg", "date": "2024-04-04T14:49:00.000+02:00", "lat": 52.3759, "lon": 9.3732, "intensity": 0.6, "source": "Tagesschau"}, {"title": "Gro\u00dfst\u00f6rung bei Kartenzahlung in ganz Deutschland", "url": "https://www.tagesschau.de/inland/regional/nordrheinwestfalen/wdr-grossstoerung-bei-kartenzahlung-in-ganz-deutschland-100.html", "thumbnailUrl": "https://images.tagesschau.de/image/ad0187ae-58d4-41db-8fbb-db6a7a2fe93b/AAABjqkqjE4/AAABjcWesUg/16x9-512.jpg", "date": "2024-04-04T11:53:00.000+02:00", "lat": 51.1657, "lon": 7.6261, "intensity": 0.8, "source": "Tagesschau"}, {"title": "Zickzack-Kurs der SPD bei Wahlwerbung in Kitas in MV", "url": "https://www.tagesschau.de/inland/regional/mecklenburgvorpommern/ndr-zickzack-kurs-der-spd-bei-wahlwerbung-in-kitas-in-mv-100.html", "thumbnailUrl": "https://images.tagesschau.de/image/ccb31d2d-8404-4e91-a40d-e8ca3339e8af/AAABjqknAOo/AAABjcWesUg/16x9-512.jpg", "date": "2024-04-04T14:44:00.000+02:00", "lat": 53.6355, "lon": 11.4139, "intensity": 0.6, "source": "Tagesschau"}, {"title": "Reform-Pl\u00e4ne: Bundeswehr erh\u00e4lt neues operatives F\u00fchrungskommando", "url": "https://www.tagesschau.de/inland/regional/brandenburg/rbb-reform-plaene-bundeswehr-erhaelt-neues-operatives-fuehrungskommando-100.html", "thumbnailUrl": "https://images.tagesschau.de/image/5f97ee03-450b-4ab0-8cc2-e641c6854aa9/AAABjqkrXb8/AAABjcWesUg/16x9-512.jpg", "date": "2024-04-04T14:43:14.000+02:00", "lat": 52.52, "lon": 13.405, "intensity": 0.7, "source": "Tagesschau"}, {"title": "Stolz und Sorgen in Br\u00fcssel", "url": "https://www.tagesschau.de/ausland/europa/feier-nato-jubilaeum-100.html", "thumbnailUrl": "https://images.tagesschau.de/image/e9ff5b91-7f83-4ac1-973f-43c44fd76989/AAABjqkfjZI/AAABjcWesUg/16x9-512.jpg", "date": "2024-04-04T14:40:01.532+02:00", "lat": 50.8503, "lon": 4.3517, "intensity": 0.8, "source": "Tagesschau"}, {"title": "A1: Lkw mit Bierkisten kippt um - Autobahn bei Stuhr gesperrt", "url": "https://www.tagesschau.de/inland/regional/niedersachsen/ndr-a1-lkw-mit-bierkisten-kippt-um-autobahn-bei-stuhr-gesperrt-100.html", "thumbnailUrl": "https://images.tagesschau.de/image/bbd36dfe-1ac8-46c8-897c-b12498bdf800/AAABjqjaZLs/AAABjcWesUg/16x9-512.jpg", "date": "2024-04-04T14:40:00.000+02:00", "lat": 53.0426, "lon": 8.7863, "intensity": 0.8, "source": "Tagesschau"}, {"title": "Tod nach Zahn-OP: Hamburger Zahn\u00e4rztin und An\u00e4sthesist vor Gericht", "url": "https://www.tagesschau.de/inland/regional/hamburg/ndr-hamburger-zahnaerztin-und-anaesthesist-vor-landgericht-angeklagt-100.html", "thumbnailUrl": "https://images.tagesschau.de/image/8422dafa-5206-484a-802a-3d7a1a7cf44f/AAABjqkhuSQ/AAABjcWesUg/16x9-512.jpg", "date": "2024-04-04T14:37:00.000+02:00", "lat": 53.5511, "lon": 9.9416, "intensity": 0.8, "source": "Tagesschau"}, {"title": "Fliegerbombe entsch\u00e4rft - Sperrkreis wird demn\u00e4chst aufgehoben", "url": "https://www.tagesschau.de/inland/regional/berlin/rbb-tausende-in-charlottenburg-muessen-fuer-bombenentschaerfung-weichen-102.html", "thumbnailUrl": "https://images.tagesschau.de/image/88c44344-a9ec-4bd8-b5a0-aee0a6f99bba/AAABjqkIHLM/AAABjcWesUg/16x9-512.jpg", "date": "2024-04-04T14:36:47.000+02:00", "lat": 52.5046, "lon": 13.284, "intensity": 0.8, "source": "Tagesschau"}, {"title": "Matratzen-K\u00e4uferin liegt falsch - Klage vor Gericht scheitert", "url": "https://www.tagesschau.de/inland/regional/niedersachsen/ndr-matratzen-kaeuferin-liegt-falsch-klage-vor-gericht-scheitert-100.html", "thumbnailUrl": "https://images.tagesschau.de/image/07761591-2675-40c7-afe9-6123286a9246/AAABjqkeMiU/AAABjcWesUg/16x9-512.jpg", "date": "2024-04-04T14:35:00.000+02:00", "lat": 52.3759, "lon": 9.732, "intensity": 0.3, "source": "Tagesschau"}, {"title": "Korruptionsermittlungen im Ordnungsamt Frankfurt weiten sich aus", "url": "https://www.tagesschau.de/inland/regional/hessen/hr-taxi-und-mietwagenkonzessionen-ermittlungen-wegen-korruption-im-ordnungsamt-weiten-sich-aus-100.html", "thumbnailUrl": "https://images.tagesschau.de/image/77bc69bb-d642-43dc-82a3-e03c14797341/AAABjqkTD9I/AAABjcWesUg/16x9-512.jpg", "date": "2024-04-04T14:24:56.945+02:00", "lat": 50.110922, "lon": 8.682127, "intensity": 0.8, "source": "Tagesschau"}, {"title": "Lkw-Fahrer nach Unfall auf dem s\u00fcdlichen Berliner Ring gestorben", "url": "https://www.tagesschau.de/inland/regional/brandenburg/rbb-schwerer-unfall-auf-dem-suedlichen-berliner-ring-a10-in-richtung-potsdam-gesperrt-100.html", "thumbnailUrl": "https://images.tagesschau.de/image/9eb76ccb-1896-4d5b-8c42-19e609b5a296/AAABjqkPTGM/AAABjcWesUg/16x9-512.jpg", "date": "2024-04-04T14:19:51.000+02:00", "lat": 52.5011, "lon": 13.2884, "intensity": 0.8, "source": "Tagesschau"}, {"title": "++ 350.000 Menschen nach Angriff ohne Strom ++", "url": "https://www.tagesschau.de/newsticker/liveblog-ukraine-donnerstag-328.html", "thumbnailUrl": "https://images.tagesschau.de/image/8cb9edb6-d75d-45b2-96c0-7845ac663014/AAABjqhdaSw/AAABjcWesUg/16x9-512.jpg", "date": "2024-04-04T14:19:34.389+02:00", "lat": 49.9935, "lon": 36.231389, "intensity": 0.8, "source": "Tagesschau"}, {"title": "Kultur : +++ Frankfurter Oper-Dirigent wechselt zur Met nach New York +++ Schlossgarten Fulda wieder er\u00f6ffnet +++ Atelier zu vermieten in Offenbach +++", "url": "https://www.tagesschau.de/inland/regional/hessen/hr--schauspiel-frankfurt-bringt-putin-und-macbeth-zusammen--die-filmfestival-saison-2023-startet--lichter-filmfest-zum-thema-liebe-startet-am-dienstag-100.html", "thumbnailUrl": "https://images.tagesschau.de/image/bfb25bcf-eca7-4d6c-9b74-ce1fab2e22f3/AAABjqkLmXc/AAABjcWesUg/16x9-512.jpg", "date": "2024-04-04T14:17:56.181+02:00", "lat": 50.3155, "lon": 9.6862, "intensity": 0.7, "source": "Tagesschau"}, {"title": "Datenanalyse: Hat sich der HSV unter Trainer Baumgart verbessert?", "url": "https://www.tagesschau.de/inland/regional/hamburg/ndr-datenanalyse-hat-sich-der-hsv-unter-trainer-baumgart-verbessert-102.html", "thumbnailUrl": "https://images.tagesschau.de/image/ef6b3e83-5170-4d55-ba22-c2b01b07a84c/AAABjqkL6Mw/AAABjcWesUg/16x9-512.jpg", "date": "2024-04-04T14:17:00.000+02:00", "lat": 53.551086, "lon": 9.993682, "intensity": 0.5, "source": "Tagesschau"}, {"title": "Nach Eisb\u00e4ren-Krimi in Straubing: Die l\u00e4ngste Eishockey-Partie endet um 02:33 Uhr in der Nacht", "url": "https://www.tagesschau.de/inland/regional/berlin/rbb-nach-eisbaeren-krimi-in-straubing-die-laengste-eishockey-partie-endet-um-0233-uhr-102.html", "thumbnailUrl": "https://images.tagesschau.de/image/37bee5eb-1a3e-416c-917b-81678d13ffd3/AAABjqj5fP4/AAABjcWesUg/16x9-512.jpg", "date": "2024-04-04T14:16:24.000+02:00", "lat": 48.99442, "lon": 12.57361, "intensity": 0.8, "source": "Tagesschau"}, {"title": "Biotop bei Hermeskeil zerst\u00f6rt: Das sagen die Verantwortlichen", "url": "https://www.tagesschau.de/inland/regional/rheinlandpfalz/swr-biotop-bei-hermeskeil-zerstoert-das-sagen-die-verantwortlichen-100.html", "thumbnailUrl": "https://images.tagesschau.de/image/1573608e-d993-4683-b7fd-c7bb9de45f51/AAABjqMb19k/AAABjcWesUg/16x9-512.jpg", "date": "2024-04-04T10:00:00.000+02:00", "lat": 49.645, "lon": 6.9417, "intensity": 0.7, "source": "Tagesschau"}, {"title": "Wo sich Immobilien als Geldanlage besonders lohnen", "url": "https://www.tagesschau.de/wirtschaft/verbraucher/iw-immobilien-kauf-miete-100.html", "thumbnailUrl": "https://images.tagesschau.de/image/f0974dae-d54d-4fe3-8540-acd71c4bfd92/AAABhoMQ4lY/AAABjcWesUg/16x9-512.jpg", "date": "2024-04-04T14:14:54.056+02:00", "lat": 51.1657, "lon": 10.4515, "intensity": 0.4, "source": "Tagesschau"}, {"title": "Cannabis-Rauchen wird auf dem gesamten Stuttgarter Fr\u00fchlingsfest verboten", "url": "https://www.tagesschau.de/inland/regional/badenwuerttemberg/swr-stuttgarter-fruehlingsfest-in-den-festzelten-darf-kein-cannabis-geraucht-werden-100.html", "thumbnailUrl": "https://images.tagesschau.de/image/fe0ac453-18db-4205-993e-7db1aaeb7813/AAABjqiYFdQ/AAABjcWesUg/16x9-512.jpg", "date": "2024-04-04T14:03:00.000+02:00", "lat": 48.7758, "lon": 9.1829, "intensity": 0.6, "source": "Tagesschau"}, {"title": "Bedrohung mit Messer: Polizei setzt Schusswaffe ein", "url": "https://www.tagesschau.de/inland/regional/badenwuerttemberg/swr-bedrohung-mit-messer-polizei-setzt-schusswaffe-ein-100.html", "thumbnailUrl": "https://images.tagesschau.de/image/72ef9ed3-6709-4f2b-9db7-4462435f7f9c/AAABjqkm8FU/AAABjcWesUg/16x9-512.jpg", "date": "2024-04-04T14:02:18.000+02:00", "lat": 47.7177, "lon": 9.2613, "intensity": 0.8, "source": "Tagesschau"}, {"title": "Vier Streitkr\u00e4fte und ein zentrales Kommando", "url": "https://www.tagesschau.de/inland/innenpolitik/bundeswehr-fuehrungskommando-plaene-100.html", "thumbnailUrl": "https://images.tagesschau.de/image/dc782cc8-a10f-45e2-9803-da09741171d7/AAABjqj8f-4/AAABjcWesUg/16x9-512.jpg", "date": "2024-04-04T14:01:44.194+02:00", "lat": 51.1657, "lon": 10.4515, "intensity": 0.7, "source": "Tagesschau"}, {"title": "Eintracht: +++ Toppm\u00f6ller fordert hohe Aggresivit\u00e4t +++ Ekitik\u00e9 f\u00e4llt aus, Larsson kehrt zur\u00fcck +++ Bayer-Pokalsieg k\u00f6nnte Eintracht helfen +++", "url": "https://www.tagesschau.de/inland/regional/hessen/hr--eintracht-wohl-mit-chaibi-einig--glasner-fast-nur-kolo-muani-der-tore-erzielt--bericht-eintracht-sagt-aouar-ab-100.html", "thumbnailUrl": "https://images.tagesschau.de/image/85c2120d-c3c3-4fd0-b2ab-54f6cf4698c3/AAABjqj7GOQ/AAABjcWesUg/16x9-512.jpg", "date": "2024-04-04T13:59:32.763+02:00", "lat": 50.1109, "lon": 8.6821, "intensity": 0.7, "source": "Tagesschau"}, {"title": "Baum abgebrochen: Landgericht Baden-Baden hat Klage abgewiesen", "url": "https://www.tagesschau.de/inland/regional/badenwuerttemberg/swr-urteil-erwartet-mann-durch-abgebrochenen-ast-in-rastatt-schwerverletzt-100.html", "thumbnailUrl": "https://images.tagesschau.de/image/c0c4f771-4b23-4115-b6ae-5f35037db139/AAABjqi8svI/AAABjcWesUg/16x9-512.jpg", "date": "2024-04-04T13:50:00.000+02:00", "lat": 48.8566, "lon": 8.2023, "intensity": 0.7, "source": "Tagesschau"}, {"title": "Wilhelmshaven: Versorger \"Bonn\" kehrt aus Nordatlantik zur\u00fcck", "url": "https://www.tagesschau.de/inland/regional/niedersachsen/ndr-wilhelmshaven-versorger-bonn-kehrt-aus-nordatlantik-zurueck-100.html", "thumbnailUrl": "https://images.tagesschau.de/image/4fe2f5fc-6899-4150-8aa5-b9353802ab93/AAABjqj0HMg/AAABjcWesUg/16x9-512.jpg", "date": "2024-04-04T13:46:00.000+02:00", "lat": 53.5185, "lon": 8.1486, "intensity": 0.8, "source": "Tagesschau"}, {"title": "Bergsteiger aus dem Kreis Neuwied verungl\u00fcckt am Watzmann", "url": "https://www.tagesschau.de/inland/regional/rheinlandpfalz/swr-bergsteiger-aus-dem-kreis-neuwied-verunglueckt-am-watzmann-100.html", "thumbnailUrl": "https://images.tagesschau.de/image/a9c07c3f-0861-4572-98a2-42449f8bb883/AAABjqhZ11o/AAABjcWesUg/16x9-512.jpg", "date": "2024-04-04T13:44:00.000+02:00", "lat": 47.55, "lon": 12.9183, "intensity": 0.8, "source": "Tagesschau"}, {"title": "Zuckerwasser im Brief: Entwarnung nach Gro\u00dfeinsatz am Polizeipr\u00e4sidium K\u00f6ln", "url": "https://www.tagesschau.de/inland/regional/nordrheinwestfalen/wdr-unbekannte-substanz-im-brief-feuerwehr-grosseinsatz-am-polizeipraesidium-koeln-100.html", "thumbnailUrl": "https://images.tagesschau.de/image/d3610586-de13-42c0-9dd1-f2baa0f96eec/AAABjqkF6lg/AAABjcWesUg/16x9-512.jpg", "date": "2024-04-04T13:42:00.000+02:00", "lat": 50.9375, "lon": 6.9582, "intensity": 0.8, "source": "Tagesschau"}, {"title": "70 eingeschlossene Bergarbeiter gerettet", "url": "https://www.tagesschau.de/ausland/asien/vermisstensuche-taiwan-erdbeben-102.html", "thumbnailUrl": "https://images.tagesschau.de/image/b832218d-6eb2-4efd-8ae4-6bcec96b555a/AAABjqgxYhQ/AAABjcWesUg/16x9-512.jpg", "date": "2024-04-04T13:37:32.913+02:00", "lat": 24.697501, "lon": 120.960515, "intensity": 0.8, "source": "Tagesschau"}, {"title": "Vor Kellerduell in Mainz: Oscar Vilhelmsson macht Darmstadt 98 Hoffnung", "url": "https://www.tagesschau.de/inland/regional/hessen/hr-vor-kellerduell-in-mainz-oscar-vilhelmsson-macht-darmstadt-98-hoffnung-102.html", "thumbnailUrl": "https://images.tagesschau.de/image/eec6eb80-2d0e-4af9-8291-264de6509b25/AAABjqjnCiU/AAABjcWesUg/16x9-512.jpg", "date": "2024-04-04T13:32:06.328+02:00", "lat": 49.992862, "lon": 8.247252, "intensity": 0.8, "source": "Tagesschau"}, {"title": "Letztes Verfahren nach Amoktat in Alsterdorf eingestellt", "url": "https://www.tagesschau.de/inland/regional/hamburg/ndr-letztes-verfahren-nach-amoktat-in-alsterdorf-eingestellt-100.html", "thumbnailUrl": "https://images.tagesschau.de/image/4e2f5dae-10bc-4555-aaff-6d3e71b7c9a3/AAABjqjlRIU/AAABjcWesUg/16x9-512.jpg", "date": "2024-04-04T13:31:00.000+02:00", "lat": 53.5511, "lon": 9.9937, "intensity": 0.8, "source": "Tagesschau"}, {"title": "Rechte Chatgruppen und \"Reichsb\u00fcrger\"-Verdacht: Immer wieder BW-Polizisten im Blickfeld", "url": "https://www.tagesschau.de/inland/regional/badenwuerttemberg/swr-rechte-chatgruppen-und-reichsbuerger-verdacht-immer-wieder-bw-polizisten-im-blickfeld-100.html", "thumbnailUrl": "https://images.tagesschau.de/image/c66584e1-0326-4683-8b2c-225cc251e36a/AAABjqj3TeE/AAABjcWesUg/16x9-512.jpg", "date": "2024-04-04T13:28:37.000+02:00", "lat": 48.7, "lon": 9.0, "intensity": 0.8, "source": "Tagesschau"}, {"title": "Karlsberg-Mitarbeitende zum Streik aufgerufen", "url": "https://www.tagesschau.de/inland/regional/saarland/sr-karlsberg-mitarbeitende-zum-streik-aufgerufen-100.html", "thumbnailUrl": "https://images.tagesschau.de/image/f71ff4fb-6ad6-48c2-b11e-ff8f23ae2970/AAABjqjsSpo/AAABjcWesUg/16x9-512.jpg", "date": "2024-04-04T13:28:00.000+02:00", "lat": 49.3123, "lon": 7.3403, "intensity": 0.8, "source": "Tagesschau"}, {"title": "Gro\u00dfst\u00f6rung bei Kartenzahlung - Fehler bei der Sparkasse", "url": "https://www.tagesschau.de/inland/regional/hessen/hr-stoerungen-bei-kartenzahlungen-in-supermaerkten-auch-frankfurter-sparkasse-betroffen-100.html", "thumbnailUrl": "https://images.tagesschau.de/image/e8fbd6d4-9fc5-4c80-a120-8a0724c25166/AAABjqjm8ck/AAABjcWesUg/16x9-512.jpg", "date": "2024-04-04T13:13:16.559+02:00", "lat": 50.1109, "lon": 8.6821, "intensity": 0.8, "source": "Tagesschau"}, {"title": "Darmstadt 98: +++ Lilien haben nichts mehr zu verlieren +++ Skarke \"will unbedingt spielen\" +++ Noch viele Tickets f\u00fcr Kellerduell zu haben +++", "url": "https://www.tagesschau.de/inland/regional/hessen/hr--tietz-vermisst-fehlende-gier--lilien-fans-liefern-sich-raststaetten-pruegelei--die-niederlage-der-lilien-in-der-video-zusammenfassung-102.html", "thumbnailUrl": "https://images.tagesschau.de/image/3cfdb0ee-23cd-4313-894e-95f93707eb93/AAABjqjJxjo/AAABjcWesUg/16x9-512.jpg", "date": "2024-04-04T13:04:21.530+02:00", "lat": 49.8717, "lon": 8.65, "intensity": 0.5, "source": "Tagesschau"}, {"title": "A8 bei Pforzheim wegen Unfall in Richtung Karlsruhe gesperrt", "url": "https://www.tagesschau.de/inland/regional/badenwuerttemberg/swr-a8-bei-pforzheim-wegen-unfall-in-richtung-karlsruhe-gesperrt-100.html", "thumbnailUrl": "https://images.tagesschau.de/image/ee4e7ce9-2f1e-45f6-884c-008854394853/AAABjqiUcSM/AAABjcWesUg/16x9-512.jpg", "date": "2024-04-04T13:04:00.000+02:00", "lat": 48.92823, "lon": 8.69472, "intensity": 0.8, "source": "Tagesschau"}, {"title": "Zu wenig Gem\u00fcse auf Speisepl\u00e4nen in Niedersachsens Kitas", "url": "https://www.tagesschau.de/inland/regional/niedersachsen/ndr-zu-wenig-gemuese-auf-speiseplaenen-in-niedersachsens-kitas-100.html", "thumbnailUrl": "https://images.tagesschau.de/image/f33fb7ae-a9e5-4550-94c7-d7d0c9ff7841/AAABjqjKHDY/AAABjcWesUg/16x9-512.jpg", "date": "2024-04-04T13:01:00.000+02:00", "lat": 52.3732, "lon": 9.7356, "intensity": 0.6, "source": "Tagesschau"}, {"title": "Israel beruft Reservisten zur Luftverteidigung ein", "url": "https://www.tagesschau.de/ausland/asien/israel-reservisten-mobilisierung-100.html", "thumbnailUrl": "https://images.tagesschau.de/image/880b76f6-a12c-4edc-b429-771587053fc4/AAABjqfj1kU/AAABjcWesUg/16x9-512.jpg", "date": "2024-04-04T12:59:09.492+02:00", "lat": 31.7683, "lon": 35.2137, "intensity": 0.8, "source": "Tagesschau"}, {"title": "Wangen im Allg\u00e4u: Mann greift Kind in Supermarkt mit Messer an", "url": "https://www.tagesschau.de/inland/regional/badenwuerttemberg/swr-wangen-im-allgaeu-mann-verletzt-kind-in-supermarkt-mit-messer-100.html", "thumbnailUrl": "https://images.tagesschau.de/image/e17fa86c-fdf3-421d-81cd-66c7443cf26e/AAABjqiUaWA/AAABjcWesUg/16x9-512.jpg", "date": "2024-04-04T12:50:00.000+02:00", "lat": 47.6866, "lon": 9.8373, "intensity": 0.8, "source": "Tagesschau"}, {"title": "Berliner Hedwigs-Kathedrale wird im November er\u00f6ffnet - nach sechs Jahren Umbauarbeiten", "url": "https://www.tagesschau.de/inland/regional/berlin/rbb-berliner-hedwigs-kathedrale-wird-im-november-eroeffnet-nach-sechs-jahren-umbauarbeiten-100.html", "thumbnailUrl": "https://images.tagesschau.de/image/3d854977-de0b-481b-bb7f-42ecbfa0b07e/AAABjqi5kXA/AAABjcWesUg/16x9-512.jpg", "date": "2024-04-04T12:42:52.000+02:00", "lat": 52.518611, "lon": 13.396389, "intensity": 0.7, "source": "Tagesschau"}, {"title": "Sorge vor Klagen: Modellprojekt gegen Motorradl\u00e4rm verz\u00f6gert sich", "url": "https://www.tagesschau.de/inland/regional/niedersachsen/ndr-sorge-vor-klagen-modellprojekt-gegen-motorradlaerm-verzoegert-sich-100.html", "thumbnailUrl": "https://images.tagesschau.de/image/a4b04eaf-7c8a-4bf6-9e2e-2cf97ad3bdd8/AAABjqi3ZjA/AAABjcWesUg/16x9-512.jpg", "date": "2024-04-04T12:37:00.000+02:00", "lat": 51.8892, "lon": 9.4992, "intensity": 0.6, "source": "Tagesschau"}, {"title": "OLG Zweibr\u00fccken: Gutachter soll wegen Sonntags\u00f6ffnungen im Outlet geh\u00f6rt werden", "url": "https://www.tagesschau.de/inland/regional/rheinlandpfalz/swr-olg-zweibruecken-was-wird-aus-den-sonntagsoeffnungen-im-outlet-100.html", "thumbnailUrl": "https://images.tagesschau.de/image/c610d61c-3d98-45f1-8d02-36a4463ee225/AAABjqjqfHI/AAABjcWesUg/16x9-512.jpg", "date": "2024-04-04T12:33:00.000+02:00", "lat": 49.2448, "lon": 7.3676, "intensity": 0.5, "source": "Tagesschau"}, {"title": "F\u00fcr Russland ausgesp\u00e4ht", "url": "https://www.tagesschau.de/investigativ/oesterreich-spionage-russland-marsalek-egisto-100.html", "thumbnailUrl": "https://images.tagesschau.de/image/1ef750e2-d9dd-4df9-9e4e-281e2cb54bc7/AAABhnbfqGM/AAABjcWesUg/16x9-512.jpg", "date": "2024-04-04T12:29:35.711+02:00", "lat": 47.5162, "lon": 14.5501, "intensity": 0.8, "source": "Tagesschau"}, {"title": "Anklage erhoben: 27-j\u00e4hriger Rechtsextremist soll Anschlag vorbereitet haben", "url": "https://www.tagesschau.de/inland/regional/hessen/hr-anklage-erhoben-27-jaehriger-rechtsextremist-soll-anschlag-vorbereitet-haben-100.html", "thumbnailUrl": "https://images.tagesschau.de/image/a142b171-17dd-432f-a5ca-0bac261328e6/AAABjqkjY-Q/AAABjcWesUg/16x9-512.jpg", "date": "2024-04-04T12:22:26.968+02:00", "lat": 50.1109, "lon": 8.6821, "intensity": 0.8, "source": "Tagesschau"}, {"title": "Sohn soll Vater in B\u00f6hl-Iggelheim get\u00f6tet haben - Todesursache steht fest", "url": "https://www.tagesschau.de/inland/regional/rheinlandpfalz/swr-sohn-soll-vater-in-boehl-iggelheim-getoetet-haben-100.html", "thumbnailUrl": "https://images.tagesschau.de/image/a0249551-2a00-4d2e-a6a2-e96d6967a1a6/AAABjqkLeMg/AAABjcWesUg/16x9-512.jpg", "date": "2024-04-04T12:22:00.000+02:00", "lat": 49.3095, "lon": 8.3349, "intensity": 0.8, "source": "Tagesschau"}, {"title": "Diebe stehlen Felgen aus Autohaus - Zehntausende Euro Schaden", "url": "https://www.tagesschau.de/inland/regional/niedersachsen/ndr-felgendiebe-pluendern-autohaus-zehntausende-euro-schaden-100.html", "thumbnailUrl": "https://images.tagesschau.de/image/a6c7f9de-848c-4453-a5d3-ca5abd397bfb/AAABjqio9EM/AAABjcWesUg/16x9-512.jpg", "date": "2024-04-04T12:20:00.000+02:00", "lat": 53.5973, "lon": 9.4752, "intensity": 0.8, "source": "Tagesschau"}, {"title": "Berlin-Reinickendorf: 31 Katzen aus Wohnung im M\u00e4rkischen Viertel gerettet ", "url": "https://www.tagesschau.de/inland/regional/berlin/rbb-berlin-reinickendorf-31-katzen-aus-wohnung-im-maerkischen-viertel-gerettet-100.html", "thumbnailUrl": "https://images.tagesschau.de/image/fe2ff349-70a5-4b85-b40e-d7d540a4cbf3/AAABjqilYsg/AAABjcWesUg/16x9-512.jpg", "date": "2024-04-04T12:18:10.000+02:00", "lat": 52.595, "lon": 13.3686, "intensity": 0.5, "source": "Tagesschau"}, {"title": "Mutma\u00dflicher IS-K\u00e4mpfer in Isny festgenommen", "url": "https://www.tagesschau.de/inland/regional/badenwuerttemberg/swr-mutmasslicher-is-kaempfer-in-isny-festgenommen-100.html", "thumbnailUrl": "https://images.tagesschau.de/image/ee405a64-1e76-4647-843b-b6e0951718c0/AAABjqijEyY/AAABjcWesUg/16x9-512.jpg", "date": "2024-04-04T12:18:07.000+02:00", "lat": 47.69, "lon": 9.9333, "intensity": 0.8, "source": "Tagesschau"}, {"title": "Verbindungsoffizier warnte vor Problemen", "url": "https://www.tagesschau.de/investigativ/swr/flutkatastrophe-ahrtal-krisenstab-bundeswehr-100.html", "thumbnailUrl": "https://images.tagesschau.de/image/568ba104-d07d-43a5-88ba-8ec4b3c6a757/AAABhnPrUP8/AAABjcWesUg/16x9-512.jpg", "date": "2024-04-04T12:07:24.261+02:00", "lat": 50.5433, "lon": 7.1007, "intensity": 0.7, "source": "Tagesschau"}, {"title": "Anklage gegen mutma\u00dfliche Rechtsextreme erhoben", "url": "https://www.tagesschau.de/inland/anklage-bundesanwaltschaft-combat18-100.html", "thumbnailUrl": "https://images.tagesschau.de/image/01e14bf7-b158-4fac-9831-4029b5655fb2/AAABikDMkVs/AAABjcWesUg/16x9-512.jpg", "date": "2024-04-04T12:07:00.020+02:00", "lat": 53.5511, "lon": 9.9937, "intensity": 0.8, "source": "Tagesschau"}, {"title": "Bilanz nach drei Monaten E-Rezept: Woran es noch hakt", "url": "https://www.tagesschau.de/inland/regional/bayern/br-drei-monate-e-rezept-bilanz-durchwachsen-104.html", "thumbnailUrl": "https://images.tagesschau.de/image/ba85957e-b46d-445a-ab7c-35b2b19a73a1/AAABjqgop0c/AAABjcWesUg/16x9-512.jpg", "date": "2024-04-04T12:01:34.397+02:00", "lat": 51.1657, "lon": 10.4515, "intensity": 0.6, "source": "Tagesschau"}, {"title": "Prozess gegen \"Maddie\"-Verd\u00e4chtigen: Zeuge belastet Angeklagten B.", "url": "https://www.tagesschau.de/inland/regional/niedersachsen/ndr-prozess-gegen-maddie-verdaechtigen-zeuge-belastet-angeklagten-b-100.html", "thumbnailUrl": "https://images.tagesschau.de/image/028fd795-8e62-4daa-99a9-533043250065/AAABjqiNg9k/AAABjcWesUg/16x9-512.jpg", "date": "2024-04-04T11:59:00.000+02:00", "lat": 52.3759, "lon": 9.7533, "intensity": 0.8, "source": "Tagesschau"}, {"title": "Deutschland-Achter f\u00fcr Olympia: Schlagmann Ocik zur\u00fcck im Boot", "url": "https://www.tagesschau.de/inland/regional/mecklenburgvorpommern/ndr-deutschland-achter-fuer-olympia-schlagmann-ocik-zurueck-im-boot-102.html", "thumbnailUrl": "https://images.tagesschau.de/image/6afb95a6-600e-40f5-a60e-cada74cd7187/AAABjqjAWgo/AAABjcWesUg/16x9-512.jpg", "date": "2024-04-04T11:56:00.000+02:00", "lat": 53.6127, "lon": 12.5924, "intensity": 0.7, "source": "Tagesschau"}, {"title": "Tote bei Angriffen auf Revolutionsgarden", "url": "https://www.tagesschau.de/ausland/asien/iran-kaempfe-revolutionsgarden-100.html", "thumbnailUrl": "https://images.tagesschau.de/image/5a0ea4e9-2ad9-4c55-9251-bf72b1327bc8/AAABjqh_TJk/AAABjcWesUg/16x9-512.jpg", "date": "2024-04-04T11:47:06.813+02:00", "lat": 32.427908, "lon": 53.688046, "intensity": 0.8, "source": "Tagesschau"}, {"title": "Mit Eisenstange bewaffnet: Polizei erschie\u00dft Mann in Dortmund", "url": "https://www.tagesschau.de/inland/regional/nordrheinwestfalen/wdr-mann-in-dortmund-von-polizei-niedergeschossen-100.html", "thumbnailUrl": "https://images.tagesschau.de/image/29214cf5-f20e-4957-a929-cf230ac7e240/AAABjqiCMGU/AAABjcWesUg/16x9-512.jpg", "date": "2024-04-04T11:45:00.000+02:00", "lat": 51.5142, "lon": 7.4669, "intensity": 0.8, "source": "Tagesschau"}, {"title": "Energie Cottbus in Jena: Ein Schl\u00fcsselspiel mit Risiken", "url": "https://www.tagesschau.de/inland/regional/brandenburg/rbb-energie-cottbus-in-jena-ein-schluesselspiel-mit-risiken-102.html", "thumbnailUrl": "https://images.tagesschau.de/image/e0c0b26b-5c18-4ad4-9203-a30799c71673/AAABjqiAaFY/AAABjcWesUg/16x9-512.jpg", "date": "2024-04-04T11:39:13.000+02:00", "lat": 50.9288, "lon": 11.5861, "intensity": 0.7, "source": "Tagesschau"}, {"title": "Tod bei Osterfeuer: Feuerwehr soll vor Baum gewarnt haben", "url": "https://www.tagesschau.de/inland/regional/niedersachsen/ndr-toedliches-unglueck-bei-osterfeuer-22-jaehrige-von-baum-getroffen-100.html", "thumbnailUrl": "https://images.tagesschau.de/image/40c22a82-d804-4d8e-9a62-0eed1554dbf7/AAABjqh9Fxc/AAABjcWesUg/16x9-512.jpg", "date": "2024-04-04T11:31:00.000+02:00", "lat": 52.3764, "lon": 9.2733, "intensity": 0.8, "source": "Tagesschau"}, {"title": "Frankfurt: Polizisten nach rabiatem Einsatz in Sachsenhausen angeklagt", "url": "https://www.tagesschau.de/inland/regional/hessen/hr-frankfurt-polizisten-nach-rabiatem-einsatz-in-sachsenhausen-angeklagt-100.html", "thumbnailUrl": "https://images.tagesschau.de/image/80c26eca-27bf-457c-b2c4-f7976909527f/AAABjqhxvPQ/AAABjcWesUg/16x9-512.jpg", "date": "2024-04-04T11:29:50.181+02:00", "lat": 50.1109, "lon": 8.6842, "intensity": 0.8, "source": "Tagesschau"}, {"title": "\"L\u00fctti\": Neue Busse fahren auf Abruf im Landkreis Osnabr\u00fcck", "url": "https://www.tagesschau.de/inland/regional/niedersachsen/ndr-luetti-neue-busse-fahren-auf-abruf-im-landkreis-osnabrueck-100.html", "thumbnailUrl": "https://images.tagesschau.de/image/86b0b587-d80f-4d14-8633-9cfbab4eabd5/AAABjqfzsTg/AAABjcWesUg/16x9-512.jpg", "date": "2024-04-04T11:29:00.000+02:00", "lat": 52.2812, "lon": 8.0479, "intensity": 0.3, "source": "Tagesschau"}, {"title": "Unfall mit sechs Fahrzeugen: Messeschnellweg in Hannover gesperrt", "url": "https://www.tagesschau.de/inland/regional/niedersachsen/ndr-unfall-mit-sechs-fahrzeugen-messeschnellweg-in-hannover-gesperrt-100.html", "thumbnailUrl": "https://images.tagesschau.de/image/ee96c967-f538-4359-8e04-7d0f2ef4c09e/AAABjqho4w0/AAABjcWesUg/16x9-512.jpg", "date": "2024-04-04T11:19:00.000+02:00", "lat": 52.3759, "lon": 9.7314, "intensity": 0.8, "source": "Tagesschau"}, {"title": "Sozialkaufhaus \"M\u00f6belkiste Hamburg\" \u00f6ffnet an neuem Standort", "url": "https://www.tagesschau.de/inland/regional/hamburg/ndr-sozialkaufhaus-moebelkiste-hamburg-wird-in-barmbek-eroeffnet-100.html", "thumbnailUrl": "https://images.tagesschau.de/image/2d770c0d-189b-4a1b-9789-9941943afb0e/AAABjqdfTUg/AAABjcWesUg/16x9-512.jpg", "date": "2024-04-04T11:15:00.000+02:00", "lat": 53.5921, "lon": 10.0357, "intensity": 0.6, "source": "Tagesschau"}, {"title": "T\u00f6dliche Sch\u00fcsse vor Shisha-Bar: Prozess in Hamburg", "url": "https://www.tagesschau.de/inland/regional/hamburg/ndr-toedliche-schuesse-vor-shisha-bar-prozess-in-hamburg-100.html", "thumbnailUrl": "https://images.tagesschau.de/image/653732ee-3588-4832-af5d-1bd5a3f3b090/AAABjqS0T1I/AAABjcWesUg/16x9-512.jpg", "date": "2024-04-04T11:14:00.000+02:00", "lat": 53.5511, "lon": 9.9937, "intensity": 0.8, "source": "Tagesschau"}, {"title": "BW-Gesundheitsminister kritisiert Debatte um Corona-Aufarbeitung: \"Man vergisst jetzt die Bilder aus Italien\"", "url": "https://www.tagesschau.de/inland/regional/badenwuerttemberg/swr-bw-gesundheitsminister-kritisiert-debatte-um-corona-aufarbeitung-man-vergisst-jetzt-die-bilder-aus-italien-100.html", "thumbnailUrl": "https://images.tagesschau.de/image/fdda7697-4973-4f97-80ae-19603f4c29bc/AAABjqhk0nk/AAABjcWesUg/16x9-512.jpg", "date": "2024-04-04T11:12:07.000+02:00", "lat": 48.6618, "lon": 9.9876, "intensity": 0.3, "source": "Tagesschau"}, {"title": "NRW-Polizei identifiziert rund 80 Rechtsextreme in den eigenen Reihen", "url": "https://www.tagesschau.de/inland/regional/nordrheinwestfalen/wdr-nrw-polizei-identifiziert-rund-80-rechtsextreme-in-den-eigenen-reihen-100.html", "thumbnailUrl": "https://images.tagesschau.de/image/1d5e1507-71b7-4d4f-985b-13109076ede0/AAABjqi3Lag/AAABjcWesUg/16x9-512.jpg", "date": "2024-04-04T11:10:00.000+02:00", "lat": 51.4332, "lon": 7.0106, "intensity": 0.8, "source": "Tagesschau"}, {"title": "Scharfe Kritik an Cornelia Nenz: CDU fordert Ordensr\u00fcckgabe", "url": "https://www.tagesschau.de/inland/regional/mecklenburgvorpommern/ndr-kritik-an-friedensaktivistin-nenz-cdu-fordert-ordensrueckgabe-100.html", "thumbnailUrl": "https://images.tagesschau.de/image/9e88135d-66f2-4e58-9883-d20962c10747/AAABjqjAa1w/AAABjcWesUg/16x9-512.jpg", "date": "2024-04-04T11:08:00.000+02:00", "lat": 53.6127, "lon": 13.663, "intensity": 0.6, "source": "Tagesschau"}, {"title": "B\u00fcrger in Mansfeld-S\u00fcdharz sollen Erdl\u00f6cher melden", "url": "https://www.tagesschau.de/inland/regional/sachsenanhalt/mdr-erdloecher-in-mansfeld-suedharz-buerger-zu-mithilfe-aufgerufen-100.html", "thumbnailUrl": "https://images.tagesschau.de/image/2137f0f0-d600-46af-8926-a5d5b1a955c9/AAABjqhd188/AAABjcWesUg/16x9-512.jpg", "date": "2024-04-04T11:06:56.000+02:00", "lat": 51.446, "lon": 11.441, "intensity": 0.7, "source": "Tagesschau"}, {"title": "Wachgek\u00fcsst: Wie cool ist das \"neue\" CCH?", "url": "https://www.tagesschau.de/inland/regional/hamburg/ndr-wachgekuesst-wie-cool-ist-das-neue-cch-100.html", "thumbnailUrl": "https://images.tagesschau.de/image/c1d3ca68-d5b0-44a6-89ab-76dab1a5a6ad/AAABjqkrAsw/AAABjcWesUg/16x9-512.jpg", "date": "2024-04-04T11:01:00.000+02:00", "lat": 53.5511, "lon": 9.9792, "intensity": 0.7, "source": "Tagesschau"}, {"title": "Wohnungsbau: Hamburg will Bauordnung vereinfachen", "url": "https://www.tagesschau.de/inland/regional/hamburg/ndr-wohnungsbau-hamburg-will-bauordnung-vereinfachen-100.html", "thumbnailUrl": "https://images.tagesschau.de/image/843556bb-b878-4e09-b8e5-ceb7960f62a4/AAABjqeD8Ao/AAABjcWesUg/16x9-512.jpg", "date": "2024-04-04T11:00:00.000+02:00", "lat": 53.55, "lon": 10.0, "intensity": 0.7, "source": "Tagesschau"}, {"title": "Hamilton: R\u00fcckkehr von Sebastian Vettel in die Formel 1 w\u00e4re \"gro\u00dfartig\"", "url": "https://www.tagesschau.de/inland/regional/hessen/hr-hamilton-rueckkehr-von-sebastian-vettel-in-die-formel-1-waere-grossartig-102.html", "thumbnailUrl": "https://images.tagesschau.de/image/abc77ae9-42cb-461c-b2f0-4a0b24f86147/AAABjqh80nk/AAABjcWesUg/16x9-512.jpg", "date": "2024-04-04T10:58:17.989+02:00", "lat": 50.1109, "lon": 8.6833, "intensity": 0.6, "source": "Tagesschau"}, {"title": "Wolf in der Region Hannover: Land stoppt Abschuss vorerst", "url": "https://www.tagesschau.de/inland/regional/niedersachsen/ndr-niedersachsen-stoppt-wolfs-abschuss-in-region-hannover-100.html", "thumbnailUrl": "https://images.tagesschau.de/image/9d218fcc-e3de-406e-8cb1-8b46c3940e0a/AAABjqfEE6Q/AAABjcWesUg/16x9-512.jpg", "date": "2024-04-04T10:58:00.000+02:00", "lat": 52.3759, "lon": 9.7371, "intensity": 0.4, "source": "Tagesschau"}, {"title": "Auto erfasst Frau mit Rollator - 95-J\u00e4hrige verstorben", "url": "https://www.tagesschau.de/inland/regional/niedersachsen/ndr-auto-erfasst-frau-mit-rollator-95-jaehrige-schwer-verletzt-100.html", "thumbnailUrl": "https://images.tagesschau.de/image/eeeb4e03-669b-4ee5-bdd3-9539dba6ddcc/AAABjqhPQ14/AAABjcWesUg/16x9-512.jpg", "date": "2024-04-04T10:47:00.000+02:00", "lat": 52.3759, "lon": 9.7332, "intensity": 0.8, "source": "Tagesschau"}, {"title": "Anklage gegen Berliner Rentner nach mutma\u00dflichem Mord an pflegebed\u00fcrftiger Ehefrau erhoben ", "url": "https://www.tagesschau.de/inland/regional/berlin/rbb-anklage-gegen-berliner-rentner-nach-mutmasslichem-mord-an-pflegebeduerftiger-ehefrau-erhoben-100.html", "thumbnailUrl": "https://images.tagesschau.de/image/9a5e4a14-dab8-4b37-8749-b6d02bd113bc/AAABjqhLlA8/AAABjcWesUg/16x9-512.jpg", "date": "2024-04-04T10:44:08.000+02:00", "lat": 52.520008, "lon": 13.404954, "intensity": 0.8, "source": "Tagesschau"}, {"title": "Schneidewind reicht Bewerbung f\u00fcr Homburger OB-Wahl ein", "url": "https://www.tagesschau.de/inland/regional/saarland/sr-schneidewind-reicht-bewerbung-fuer-homburger-ob-wahl-ein-100.html", "thumbnailUrl": "https://images.tagesschau.de/image/63f45853-d21f-4167-a6c9-dff5318410a8/AAABjqhSiDc/AAABjcWesUg/16x9-512.jpg", "date": "2024-04-04T10:41:00.000+02:00", "lat": 49.3, "lon": 7.3356, "intensity": 0.8, "source": "Tagesschau"}, {"title": "\"Telemoritz\": Was wird aus Hannovers altem Fernsehturm?", "url": "https://www.tagesschau.de/inland/regional/niedersachsen/ndr-telemoritz-was-wird-aus-hannovers-altem-fernsehturm-100.html", "thumbnailUrl": "https://images.tagesschau.de/image/1c4d57b5-71db-459a-b7c0-10628a2b24e5/AAABjqhLqIE/AAABjcWesUg/16x9-512.jpg", "date": "2024-04-04T10:39:00.000+02:00", "lat": 52.3759, "lon": 9.7539, "intensity": 0.5, "source": "Tagesschau"}, {"title": "Musicals\u00e4nger Thomas Borchert: \"Es passiert eine Art Magie\"", "url": "https://www.tagesschau.de/inland/regional/hamburg/ndr-musicalsaenger-thomas-borchert-es-passiert-eine-art-magie-100.html", "thumbnailUrl": "https://images.tagesschau.de/image/01c27659-63bc-4a4b-b6e2-37fea0f35e73/AAABjqhLets/AAABjcWesUg/16x9-512.jpg", "date": "2024-04-04T10:37:00.000+02:00", "lat": 53.5511, "lon": 9.9937, "intensity": 0.7, "source": "Tagesschau"}, {"title": "Oberspreewald-Lausitz: Post kommt im Spreewald ab sofort wieder per Kahn", "url": "https://www.tagesschau.de/inland/regional/brandenburg/rbb-oberspreewald-lausitz-post-kommt-im-spreewald-ab-sofort-wieder-per-kahn-100.html", "thumbnailUrl": "https://images.tagesschau.de/image/ec84f8ef-dae0-4c45-a454-ba092b907d7f/AAABjqhAjC0/AAABjcWesUg/16x9-512.jpg", "date": "2024-04-04T10:32:26.000+02:00", "lat": 51.6197, "lon": 13.9899, "intensity": 0.7, "source": "Tagesschau"}, {"title": "Forscherteam aus Trippstadt zeigt, was der Feldhase im Pf\u00e4lzerwald treibt", "url": "https://www.tagesschau.de/inland/regional/rheinlandpfalz/swr-forscherteam-aus-trippstadt-zeigt-was-der-feldhase-im-pfaelzerwald-treibt-100.html", "thumbnailUrl": "https://images.tagesschau.de/image/54c951d6-5c08-4833-b53c-dc543ea36d06/AAABjqOF60o/AAABjcWesUg/16x9-512.jpg", "date": "2024-04-04T10:27:00.000+02:00", "lat": 49.4312, "lon": 7.7992, "intensity": 0.4, "source": "Tagesschau"}, {"title": "THW Kiel trifft im Champions-League-Viertelfinale auf Montpellier HB", "url": "https://www.tagesschau.de/inland/regional/schleswigholstein/ndr-thw-kiel-trifft-im-champions-league-viertelfinale-auf-montpellier-hb-102.html", "thumbnailUrl": "https://images.tagesschau.de/image/4e0f3d84-8831-47d7-bdf3-3841fd74c135/AAABjqhRBJ4/AAABjcWesUg/16x9-512.jpg", "date": "2024-04-04T10:26:00.000+02:00", "lat": 54.3233, "lon": 10.1403, "intensity": 0.7, "source": "Tagesschau"}, {"title": "Polizei l\u00f6st Autoposer-Treffen mit 500 Fahrzeugen auf", "url": "https://www.tagesschau.de/inland/regional/bayern/br-polizei-loest-autoposer-treffen-mit-500-fahrzeugen-auf-104.html", "thumbnailUrl": "https://images.tagesschau.de/image/d594598e-aa7f-4516-9af4-c1ee458ea9b6/AAABjqgwBlQ/AAABjcWesUg/16x9-512.jpg", "date": "2024-04-04T10:16:26.941+02:00", "lat": 48.137, "lon": 11.572, "intensity": 0.8, "source": "Tagesschau"}, {"title": "Nach Terroranschlag auf Stra\u00dfburger Weihnachtsmarkt: Urteile erwartet", "url": "https://www.tagesschau.de/inland/regional/badenwuerttemberg/swr-nach-terroranschlag-auf-strassburger-weihnachtsmarkt-urteile-erwartet-100.html", "thumbnailUrl": "https://images.tagesschau.de/image/bbe20207-049a-40ba-ac9c-9061a43545c6/AAABjqhZ8ps/AAABjcWesUg/16x9-512.jpg", "date": "2024-04-04T10:16:22.000+02:00", "lat": 48.5839, "lon": 7.7521, "intensity": 0.8, "source": "Tagesschau"}, {"title": "Einbruch in Hanstedter Kaufhaus: Polizei schnappt 19-J\u00e4hrigen", "url": "https://www.tagesschau.de/inland/regional/niedersachsen/ndr-einbruch-in-hanstedter-kaufhaus-polizei-schnappt-19-jaehrigen-100.html", "thumbnailUrl": "https://images.tagesschau.de/image/13640ee7-8888-4ff3-8ae8-7ae4e019b4d9/AAABjqjswIk/AAABjcWesUg/16x9-512.jpg", "date": "2024-04-04T10:15:00.000+02:00", "lat": 53.2833, "lon": 9.85, "intensity": 0.8, "source": "Tagesschau"}, {"title": "Hessen am Morgen: +++ Mehr Pollen in Hessen unterwegs +++ Leiche am Lohrberg in Frankfurt gefunden +++ AfD-Mann droht Feuerwehr-Ausschluss +++", "url": "https://www.tagesschau.de/inland/regional/hessen/hr-hessen-am-morgen--leiche-am-lohrberg-in-frankfurt-gefunden--angeklagter-reichsbuerger-um-prinz-reuss-spricht-erstmals-100.html", "thumbnailUrl": "https://images.tagesschau.de/image/c3c4a246-d58d-4b82-a02a-2c0d17eab5f3/AAABjqhb1Y4/AAABjcWesUg/16x9-512.jpg", "date": "2024-04-04T10:02:29.933+02:00", "lat": 50.1343, "lon": 8.7293, "intensity": 0.8, "source": "Tagesschau"}, {"title": "Lufthansa, Opel, Deutsche Bank: Wie hessische Unternehmen ihre Besch\u00e4ftigten bei Laune halten", "url": "https://www.tagesschau.de/inland/regional/hessen/hr-lufthansa-opel-deutsche-bank-wie-hessische-unternehmen-ihre-beschaeftigten-bei-laune-halten-100.html", "thumbnailUrl": "https://images.tagesschau.de/image/d8a3f81c-3817-463d-96d6-4f2d7e5be9f1/AAABjqgjMPs/AAABjcWesUg/16x9-512.jpg", "date": "2024-04-04T10:02:20.493+02:00", "lat": 50.7753, "lon": 9.5065, "intensity": 0.4, "source": "Tagesschau"}, {"title": "BW-Newsticker am Morgen: Mann sticht in Supermarkt auf Vierj\u00e4hrige ein, Waldbesitzer einigt sich mit B\u00e4rlauch-T\u00e4tern", "url": "https://www.tagesschau.de/inland/regional/badenwuerttemberg/swr-bw-newsticker-am-morgen-mann-sticht-in-supermarkt-auf-vierjaehrige-ein-csu-politiker-reagieren-auf-schaeuble-memoiren-israelisches-auberginen-gericht-sorgt-in-freiburg-fuer-wirbel-100.html", "thumbnailUrl": "https://images.tagesschau.de/image/2e0b27c1-e373-4bb7-8f1d-ae1b21447a55/AAABjqdHOz4/AAABjcWesUg/16x9-512.jpg", "date": "2024-04-04T10:00:00.000+02:00", "lat": 47.996, "lon": 7.849, "intensity": 0.8, "source": "Tagesschau"}, {"title": "Im Saarland ist Tanken derzeit besonders g\u00fcnstig", "url": "https://www.tagesschau.de/inland/regional/saarland/sr-im-saarland-ist-tanken-derzeit-besonders-guenstig-100.html", "thumbnailUrl": "https://images.tagesschau.de/image/b98d5cdc-33f3-415a-97b1-0e1caa850a89/AAABjqgxheA/AAABjcWesUg/16x9-512.jpg", "date": "2024-04-04T09:53:00.000+02:00", "lat": 49.4, "lon": 7.0, "intensity": 0.3, "source": "Tagesschau"}, {"title": "Rattenproblem an G\u00fctersloher Kita", "url": "https://www.tagesschau.de/inland/regional/nordrheinwestfalen/wdr-rattenproblem-an-guetersloher-kita-100.html", "thumbnailUrl": "https://images.tagesschau.de/image/32c8a2b8-b27d-41fb-b212-70da8b4e7ec3/AAABjqhX9Ts/AAABjcWesUg/16x9-512.jpg", "date": "2024-04-04T09:50:00.000+02:00", "lat": 51.9, "lon": 8.38333, "intensity": 0.7, "source": "Tagesschau"}, {"title": "Trend zu Urne und Friedwald: Hoher Leerstand auf Friedh\u00f6fen", "url": "https://www.tagesschau.de/inland/regional/bayern/br-trend-zu-urne-und-friedwald-hoher-leerstand-auf-friedhoefen-100.html", "thumbnailUrl": "https://images.tagesschau.de/image/ad433ab3-5a77-4914-95f3-a716e7b3cbb4/AAABjqgSrVk/AAABjcWesUg/16x9-512.jpg", "date": "2024-04-04T09:44:31.856+02:00", "lat": 49.4503, "lon": 11.077, "intensity": 0.7, "source": "Tagesschau"}, {"title": "Lettland k\u00f6nnte bei Digitalisierung Vorbild f\u00fcr Hamburg werden", "url": "https://www.tagesschau.de/inland/regional/hamburg/ndr-lettland-koennte-bei-digitalisierung-vorbild-fuer-hamburg-werden-100.html", "thumbnailUrl": "https://images.tagesschau.de/image/b70d4563-5be6-46b0-be38-a7dfc01a3eb7/AAABjqgSvog/AAABjcWesUg/16x9-512.jpg", "date": "2024-04-04T09:44:00.000+02:00", "lat": 56.9496, "lon": 24.6032, "intensity": 0.7, "source": "Tagesschau"}, {"title": "Agrarfahrzeugbauer Reisch: Die Insolvenz und ihre Folgen", "url": "https://www.tagesschau.de/inland/regional/bayern/br-agrarfahrzeugbauer-reisch-die-insolvenz-und-ihre-folgen-102.html", "thumbnailUrl": "https://images.tagesschau.de/image/cca72dab-c7c2-4d06-bb5b-5378af7f4d0c/AAABjqgNMXU/AAABjcWesUg/16x9-512.jpg", "date": "2024-04-04T09:39:10.426+02:00", "lat": 48.1319, "lon": 11.54, "intensity": 0.8, "source": "Tagesschau"}, {"title": "Wieder mehr Kinder gehen zur Kommunion im Saarland", "url": "https://www.tagesschau.de/inland/regional/saarland/sr-wieder-mehr-kinder-gehen-zur-kommunion-im-saarland-100.html", "thumbnailUrl": "https://images.tagesschau.de/image/88e20a09-a3c1-42c7-be71-c02dc9cf9262/AAABjqgdYMg/AAABjcWesUg/16x9-512.jpg", "date": "2024-04-04T09:33:00.000+02:00", "lat": 49.3964, "lon": 7.0232, "intensity": 0.6, "source": "Tagesschau"}, {"title": "Weiter Probleme mit Stellwerk in M\u00f6nchengladbach - Versp\u00e4tungen und Zugausf\u00e4lle", "url": "https://www.tagesschau.de/inland/regional/nordrheinwestfalen/wdr-weiter-probleme-mit-stellwerk-in-moenchengladbach-verspaetungen-und-zugausfaelle-100.html", "thumbnailUrl": "https://images.tagesschau.de/image/a5178bdf-ee5c-4a2b-9fdc-386b34467022/AAABjqhSnlE/AAABjcWesUg/16x9-512.jpg", "date": "2024-04-04T09:30:00.000+02:00", "lat": 51.1805, "lon": 6.4358, "intensity": 0.8, "source": "Tagesschau"}, {"title": "T\u00f6dlicher Kutschenunfall: Prozess am Amtsgericht Biberach beginnt", "url": "https://www.tagesschau.de/inland/regional/badenwuerttemberg/swr-toedlicher-kutschenunfall-prozess-am-amtsgericht-biberach-beginnt-100.html", "thumbnailUrl": "https://images.tagesschau.de/image/23016d67-9b11-4968-9748-2a2ca51b3022/AAABjqhv2Ns/AAABjcWesUg/16x9-512.jpg", "date": "2024-04-04T09:29:55.000+02:00", "lat": 48.09937, "lon": 9.79102, "intensity": 0.8, "source": "Tagesschau"}, {"title": "Anteil der \u00fcber 80-J\u00e4hrigen in Berlin und Brandenburg w\u00e4chst", "url": "https://www.tagesschau.de/inland/regional/berlin/rbb-anteil-der-ueber-80-jaehrigen-waechst-100.html", "thumbnailUrl": "https://images.tagesschau.de/image/b0c6744f-ffbb-414f-8832-bcff006ab93f/AAABjqf3HMA/AAABjcWesUg/16x9-512.jpg", "date": "2024-04-04T09:13:31.000+02:00", "lat": 52.520008, "lon": 13.404954, "intensity": 0.7, "source": "Tagesschau"}, {"title": "Eisb\u00e4ren, Volleys, Alba und SC Potsdam: So pr\u00e4sentieren sich die Top-Teams derzeit in den Playoffs", "url": "https://www.tagesschau.de/inland/regional/brandenburg/rbb-eisbaeren-volleys-alba-und-scp-so-praesentieren-sich-die-top-teams-derzeit-in-den-playoffs-102.html", "thumbnailUrl": "https://images.tagesschau.de/image/c222971e-a39e-4d70-aa75-ec043c4e22d1/AAABjqj5fuk/AAABjcWesUg/16x9-512.jpg", "date": "2024-04-04T09:01:36.000+02:00", "lat": 52.52, "lon": 13.405, "intensity": 0.5, "source": "Tagesschau"}, {"title": "Region Essequibo soll bald zu Venezuela geh\u00f6ren", "url": "https://www.tagesschau.de/ausland/amerika/venzuela-essequibo-gesetz-guyana-100.html", "thumbnailUrl": "https://images.tagesschau.de/image/22f02bf0-651c-46c0-96fe-07dcdeb901dd/AAABjqfgKg4/AAABjcWesUg/16x9-512.jpg", "date": "2024-04-04T08:51:10.047+02:00", "lat": 4.860416, "lon": 61.083333, "intensity": 0.8, "source": "Tagesschau"}, {"title": "Stadthalle in Goslar: Denkmalsch\u00fctzer wettern gegen Neubau", "url": "https://www.tagesschau.de/inland/regional/niedersachsen/ndr-stadthalle-in-goslar-denkmalschuetzer-wettern-gegen-neubau-100.html", "thumbnailUrl": "https://images.tagesschau.de/image/b37c52a7-9cc7-4b3b-a7ae-103d2d68db93/AAABjqfhWkk/AAABjcWesUg/16x9-512.jpg", "date": "2024-04-04T08:49:00.000+02:00", "lat": 51.9142, "lon": 10.4261, "intensity": 0.8, "source": "Tagesschau"}, {"title": "Streik am Flughafen Frankfurt? Tarifgespr\u00e4che bei Lufthansa-Kabinenpersonal gehen weiter", "url": "https://www.tagesschau.de/inland/regional/hessen/hr-streik-am-flughafen-frankfurt-tarifgespraeche-bei-lufthansa-kabinenpersonal-gehen-weiter-100.html", "thumbnailUrl": "https://images.tagesschau.de/image/a3436c7f-9116-44a1-a1c4-1b0f0b4573e3/AAABjqfbopM/AAABjcWesUg/16x9-512.jpg", "date": "2024-04-04T08:45:59.538+02:00", "lat": 50.0335, "lon": 8.57, "intensity": 0.7, "source": "Tagesschau"}, {"title": "Millionenschaden nach Hubschrauber-Absturz - Baumf\u00e4llarbeiten sollen bald fortgesetzt werden", "url": "https://www.tagesschau.de/inland/regional/thueringen/mdr-hubschrauber-bei-holzernte-im-kreis-sonneberg-abgestuerzt-100.html", "thumbnailUrl": "https://images.tagesschau.de/image/288af287-be81-4b80-9a5e-ab25861db2a0/AAABjqgO7I4/AAABjcWesUg/16x9-512.jpg", "date": "2024-04-04T08:32:00.000+02:00", "lat": 50.3506, "lon": 11.1753, "intensity": 0.8, "source": "Tagesschau"}, {"title": "Heute vor 15 Jahren: Als Grafite vom VfL Wolfsburg den FC Bayern dem\u00fctigte", "url": "https://www.tagesschau.de/inland/regional/niedersachsen/ndr-heute-vor-15-jahren-als-grafite-vom-vfl-wolfsburg-den-fc-bayern-demuetigte-102.html", "thumbnailUrl": "https://images.tagesschau.de/image/7564c70b-b0df-4cc5-886f-40d31646b3cc/AAABjqfNTFY/AAABjcWesUg/16x9-512.jpg", "date": "2024-04-04T08:29:00.000+02:00", "lat": 51.5167, "lon": 10.75, "intensity": 0.7, "source": "Tagesschau"}, {"title": "Pokalfinale: Ex-FCK-Coach Dirk Schuster w\u00fcnscht Nachfolger Friedhelm Funkel den Triumph", "url": "https://www.tagesschau.de/inland/regional/rheinlandpfalz/swr-pokalfinale-ex-fck-coach-dirk-schuster-wuenscht-nachfolger-friedhelm-funkel-den-triumph-102.html", "thumbnailUrl": "https://images.tagesschau.de/image/91d0eaf2-e87d-41aa-b510-8e37705d7cf2/AAABjqfmnFE/AAABjcWesUg/16x9-512.jpg", "date": "2024-04-04T08:23:36.000+02:00", "lat": 49.4431, "lon": 7.7721, "intensity": 0.8, "source": "Tagesschau"}, {"title": "Mann stirbt nach Wohnungsbrand in Berlin-Hellersdorf", "url": "https://www.tagesschau.de/inland/regional/berlin/rbb-mann-stirbt-nach-wohnungsbrand-in-berlin-hellersdorf-100.html", "thumbnailUrl": "https://images.tagesschau.de/image/1c70f13d-e108-4b0a-9113-cecb4b60ade6/AAABjqfJe0k/AAABjcWesUg/16x9-512.jpg", "date": "2024-04-04T08:22:46.000+02:00", "lat": 52.5135, "lon": 13.6033, "intensity": 0.8, "source": "Tagesschau"}, {"title": "Nach Einbu\u00dfen im Vorjahr: Werder feiert Baumbl\u00fcte 2024 mit verk\u00fcrztem Stadtfest", "url": "https://www.tagesschau.de/inland/regional/brandenburg/rbb-nach-einbussen-im-vorjahr-werder-feiert-baumbluete-2024-mit-verkuerztem-stadtfest-100.html", "thumbnailUrl": "https://images.tagesschau.de/image/77fbdea2-3cd9-4af8-9fa0-f1b5fa08b7f1/AAABjqe6vgA/AAABjcWesUg/16x9-512.jpg", "date": "2024-04-04T08:08:14.000+02:00", "lat": 52.4507, "lon": 13.2175, "intensity": 0.6, "source": "Tagesschau"}, {"title": "Suche nach Vermissten in Taiwan geht weiter", "url": "https://www.tagesschau.de/ausland/asien/vermisstensuche-taiwan-erdbeben-100.html", "thumbnailUrl": "https://images.tagesschau.de/image/a509ae78-174d-42cc-a738-61022dbed9b0/AAABjqeU098/AAABjcWesUg/16x9-512.jpg", "date": "2024-04-04T08:06:07.381+02:00", "lat": 23.69781, "lon": 120.960515, "intensity": 0.7, "source": "Tagesschau"}, {"title": "Hunderte Polizisten unter Extremismusverdacht", "url": "https://www.tagesschau.de/inland/gesellschaft/polizisten-extremismusverdacht-medienbericht-100.html", "thumbnailUrl": "https://images.tagesschau.de/image/fc0b5965-8078-45f4-8da5-7b71be2530fa/AAABjqelmv4/AAABjcWesUg/16x9-512.jpg", "date": "2024-04-04T07:47:12.351+02:00", "lat": 51.5451, "lon": 9.9937, "intensity": 0.8, "source": "Tagesschau"}, {"title": "Frau von L\u00e4rmschutzwand erschlagen: Anklage gegen drei Beschuldigte", "url": "https://www.tagesschau.de/inland/regional/nordrheinwestfalen/wdr-frau-von-laermschutzwand-erschlagen-anklage-gegen-drei-beschuldigte-100.html", "thumbnailUrl": "https://images.tagesschau.de/image/756036e3-b390-4055-88fc-4395f6f37ef5/AAABjqfHUao/AAABjcWesUg/16x9-512.jpg", "date": "2024-04-04T07:35:00.000+02:00", "lat": 50.937, "lon": 7.071, "intensity": 0.8, "source": "Tagesschau"}, {"title": "Ausbau von S\u00fcdschnellweg: B3 in Hannover heute Abend gesperrt", "url": "https://www.tagesschau.de/inland/regional/niedersachsen/ndr-ausbau-von-suedschnellweg-b3-in-hannover-heute-abend-gesperrt-100.html", "thumbnailUrl": "https://images.tagesschau.de/image/e5008b51-bcb4-430d-9aea-17af970de027/AAABjqedql4/AAABjcWesUg/16x9-512.jpg", "date": "2024-04-04T07:33:00.000+02:00", "lat": 52.3759, "lon": 9.7332, "intensity": 0.6, "source": "Tagesschau"}, {"title": "Landesgartenschau Bad Gandersheim: Gesellschaft insolvent", "url": "https://www.tagesschau.de/inland/regional/niedersachsen/ndr-landesgartenschau-bad-gandersheim-gesellschaft-insolvent-100.html", "thumbnailUrl": "https://images.tagesschau.de/image/1a555128-5291-43c5-aa39-7dc8f0db2fc5/AAABjqehRc4/AAABjcWesUg/16x9-512.jpg", "date": "2024-04-04T07:21:00.000+02:00", "lat": 51.8708, "lon": 10.03, "intensity": 0.6, "source": "Tagesschau"}, {"title": "Berliner Know-how f\u00fcr Kyjiw: K\u00fcnstliche Beine f\u00fcr ukrainische Kriegsverletzte", "url": "https://www.tagesschau.de/inland/regional/berlin/rbb-berliner-know-how-fuer-kyjiw-kuenstliche-beine-fuer-ukrainische-kriegsverletzte-100.html", "thumbnailUrl": "https://images.tagesschau.de/image/6d330425-9be0-4f05-9f0b-1c9e899c2db3/AAABjqeO4Bs/AAABjcWesUg/16x9-512.jpg", "date": "2024-04-04T07:18:21.000+02:00", "lat": 52.520008, "lon": 13.404954, "intensity": 0.8, "source": "Tagesschau"}, {"title": "Schlanker, schneller, \"kriegst\u00fcchtiger\"", "url": "https://www.tagesschau.de/inland/innenpolitik/reform-bundeswehr-100.html", "thumbnailUrl": "https://images.tagesschau.de/image/2d125fee-048c-4826-8e2f-7511b4776b76/AAABjqeInCQ/AAABjcWesUg/16x9-512.jpg", "date": "2024-04-04T07:15:32.068+02:00", "lat": 52.3789, "lon": 9.7361, "intensity": 0.7, "source": "Tagesschau"}, {"title": "Playoff-Halbfinale: Eisb\u00e4ren schlagen Straubing in drittl\u00e4ngstem Spiel der DEL-Geschichte", "url": "https://www.tagesschau.de/inland/regional/berlin/rbb-playoff-halbfinale-eisbaeren-schlagen-straubing-in-drittlaengstem-spiel-der-del-geschichte-102.html", "thumbnailUrl": "https://images.tagesschau.de/image/f6440a30-f96c-42da-9f99-36418d27ab63/AAABjqj5gdM/AAABjcWesUg/16x9-512.jpg", "date": "2024-04-04T07:08:00.000+02:00", "lat": 52.520008, "lon": 13.404954, "intensity": 0.8, "source": "Tagesschau"}, {"title": "Stadt Horn-Bad Meinberg: Mitarbeiter nach \u00f6ffentlichen Beleidigungen krank geschrieben", "url": "https://www.tagesschau.de/inland/regional/nordrheinwestfalen/wdr-stadt-horn-bad-meinberg-mitarbeiter-nach-oeffentlichen-beleidigungen-krank-geschrieben-100.html", "thumbnailUrl": "https://images.tagesschau.de/image/27a04562-bd61-41a7-a5f3-cb8876e84fe0/AAABjqer3Dw/AAABjcWesUg/16x9-512.jpg", "date": "2024-04-04T06:52:00.000+02:00", "lat": 51.8858, "lon": 8.8928, "intensity": 0.7, "source": "Tagesschau"}, {"title": "Kollision auf Abfahrt: Drei Verletzte bei Unfall im Landkreis Celle", "url": "https://www.tagesschau.de/inland/regional/niedersachsen/ndr-drei-verletzte-bei-unfall-im-landkreis-celle-100.html", "thumbnailUrl": "https://images.tagesschau.de/image/378f9449-bed7-4cb2-937a-75bdcb354b1a/AAABjqe8whc/AAABjcWesUg/16x9-512.jpg", "date": "2024-04-04T06:44:00.000+02:00", "lat": 52.5797, "lon": 10.1326, "intensity": 0.7, "source": "Tagesschau"}, {"title": "Auslegungsfrist endet: Erweiterungsplan des Tesla-Werks liegt noch am Donnerstag aus", "url": "https://www.tagesschau.de/inland/regional/brandenburg/rbb-auslegungsfrist-endet-erweiterungsplan-des-tesla-werks-liegt-noch-am-donnerstag-aus-100.html", "thumbnailUrl": "https://images.tagesschau.de/image/75be3881-c055-4a36-90a6-044f62102ffb/AAABjqeNCbE/AAABjcWesUg/16x9-512.jpg", "date": "2024-04-04T06:35:07.000+02:00", "lat": 52.3667, "lon": 13.9167, "intensity": 0.6, "source": "Tagesschau"}, {"title": "Stadt Goslar sucht Schlagl\u00f6cher mithilfe von KI", "url": "https://www.tagesschau.de/inland/regional/niedersachsen/ndr-stadt-goslar-sucht-schlagloecher-mithilfe-von-ki-100.html", "thumbnailUrl": "https://images.tagesschau.de/image/c989e666-5e44-4e96-8183-410160c65e1a/AAABjqdsNP0/AAABjcWesUg/16x9-512.jpg", "date": "2024-04-04T06:32:00.000+02:00", "lat": 51.9036, "lon": 10.4296, "intensity": 0.8, "source": "Tagesschau"}, {"title": "Seilbahn im Deutsch-Franz\u00f6sischen Garten geht sp\u00e4ter wieder in Betrieb", "url": "https://www.tagesschau.de/inland/regional/saarland/sr-seilbahn-im-deutsch-franzoesischen-garten-geht-spaeter-wieder-in-betrieb-100.html", "thumbnailUrl": "https://images.tagesschau.de/image/0b194406-24be-4e1a-98bd-c3502a67d2e8/AAABjqdinD4/AAABjcWesUg/16x9-512.jpg", "date": "2024-04-04T06:30:00.000+02:00", "lat": 49.2402, "lon": 6.9762, "intensity": 0.4, "source": "Tagesschau"}, {"title": "THW Weinsberg: Freiwillige gibt es genug - aber die Ausbilder fehlen", "url": "https://www.tagesschau.de/inland/regional/badenwuerttemberg/swr-thw-weinsberg-freiwillige-gibt-es-genug-aber-die-ausbilder-fehlen-100.html", "thumbnailUrl": "https://images.tagesschau.de/image/3a8f4d68-94e8-4bec-8be5-4cbdfecfabfd/AAABjqhv7Bo/AAABjcWesUg/16x9-512.jpg", "date": "2024-04-04T06:27:22.000+02:00", "lat": 49.1503, "lon": 9.2808, "intensity": 0.7, "source": "Tagesschau"}, {"title": "Neuer Negativ-Rekord in Mecklenburg-Vorpommern bei Trickbetrug", "url": "https://www.tagesschau.de/inland/regional/mecklenburgvorpommern/ndr-neuer-negativ-rekord-in-mecklenburg-vorpommern-bei-trickbetrug-100.html", "thumbnailUrl": "https://images.tagesschau.de/image/ed711270-94ba-44c9-844f-3a4d4c3a1d31/AAABjqi3P_U/AAABjcWesUg/16x9-512.jpg", "date": "2024-04-04T06:19:00.000+02:00", "lat": 53.612, "lon": 13.169, "intensity": 0.8, "source": "Tagesschau"}, {"title": "Russlands Pl\u00e4ne f\u00fcr Libyen", "url": "https://www.tagesschau.de/investigativ/ndr-wdr/russland-libyen-marinebasis-100.html", "thumbnailUrl": "https://images.tagesschau.de/image/e2b211f8-12b8-4ea4-8fa8-8d4b11ba1105/AAABjqR1k_U/AAABjcWesUg/16x9-512.jpg", "date": "2024-04-04T06:00:05.708+02:00", "lat": 26.3351, "lon": 17.228331, "intensity": 0.8, "source": "Tagesschau"}, {"title": "Prozessauftakt in Duisburg: Kinderleiche im Rhein-Herne-Kanal versenkt", "url": "https://www.tagesschau.de/inland/regional/nordrheinwestfalen/wdr-prozessauftakt-in-duisburg-kinderleiche-im-rhein-herne-kanal-versenkt-100.html", "thumbnailUrl": "https://images.tagesschau.de/image/f264164f-b742-4953-b56f-00fae60b1136/AAABjqfkmus/AAABjcWesUg/16x9-512.jpg", "date": "2024-04-04T06:00:00.000+02:00", "lat": 51.4344, "lon": 6.7713, "intensity": 0.8, "source": "Tagesschau"}, {"title": "Freiburg: Wie ein israelisch zubereitetes Gericht in einem arabischen Restaurant die Gem\u00fcter erhitzt", "url": "https://www.tagesschau.de/inland/regional/badenwuerttemberg/swr-freiburg-wie-ein-israelisch-zubereitetes-gericht-in-einem-arabischen-restaurant-die-gemueter-erhitzt-100.html", "thumbnailUrl": "https://images.tagesschau.de/image/36648b97-f56c-4439-b6d8-e3204b0c61db/AAABjqcmNOY/AAABjcWesUg/16x9-512.jpg", "date": "2024-04-04T05:24:00.000+02:00", "lat": 47.9990077, "lon": 7.8490209, "intensity": 0.6, "source": "Tagesschau"}, {"title": "Strandkorb gebraucht kaufen: Wo das geht und was es kostet", "url": "https://www.tagesschau.de/inland/regional/schleswigholstein/ndr-strandkorb-gebraucht-kaufen-wo-das-geht-und-was-es-kostet-100.html", "thumbnailUrl": "https://images.tagesschau.de/image/a3010f89-bc76-4cb6-91b9-6cc4e556e918/AAABjqcM_60/AAABjcWesUg/16x9-512.jpg", "date": "2024-04-04T05:00:00.000+02:00", "lat": 54.0767, "lon": 9.9977, "intensity": 0.5, "source": "Tagesschau"}, {"title": "Wie viel bringt die Widerspruchsl\u00f6sung?", "url": "https://www.tagesschau.de/faktenfinder/kontext/organspende-widerspruchsloesung-100.html", "thumbnailUrl": "https://images.tagesschau.de/image/8fe1e202-3098-4201-a821-4d2b69f77bb5/AAABjqj7F6Y/AAABjcWesUg/16x9-512.jpg", "date": "2024-04-04T04:44:48.363+02:00", "lat": 53.5511, "lon": 9.9937, "intensity": 0.8, "source": "Tagesschau"}, {"title": "Alles andere als \"hirntot\"", "url": "https://www.tagesschau.de/ausland/europa/nato-jubilaeum-100.html", "thumbnailUrl": "https://images.tagesschau.de/image/ac43e190-89b2-42a7-b596-58b17eec374e/AAABjqb8tWw/AAABjcWesUg/16x9-512.jpg", "date": "2024-04-04T04:42:43.470+02:00", "lat": 55.7558, "lon": 37.6176, "intensity": 0.8, "source": "Tagesschau"}, {"title": "Pro-europ\u00e4isch oder Putin-h\u00f6rig?", "url": "https://www.tagesschau.de/ausland/europa/georgien-russland-eu-102.html", "thumbnailUrl": "https://images.tagesschau.de/image/b9789a74-b377-4625-9d7a-7a4b342b32ab/AAABjp35G_I/AAABjcWesUg/16x9-512.jpg", "date": "2024-04-04T03:23:13.321+02:00", "lat": 41.717, "lon": 44.793, "intensity": 0.7, "source": "Tagesschau"}, {"title": "Minister Gantz will Neuwahl in Israel", "url": "https://www.tagesschau.de/ausland/asien/gantz-fordert-neuwahlen-israel-100.html", "thumbnailUrl": "https://images.tagesschau.de/image/a406a0b9-bf24-47dc-bc03-f593c0cb37ee/AAABjqagTwU/AAABjcWesUg/16x9-512.jpg", "date": "2024-04-04T03:08:56.248+02:00", "lat": 31.7683, "lon": 35.2137, "intensity": 0.8, "source": "Tagesschau"}, {"title": "853 Hinrichtungen im Iran im Jahr 2023", "url": "https://www.tagesschau.de/ausland/asien/amnesty-iran-hinrichtungen-100.html", "thumbnailUrl": "https://images.tagesschau.de/image/a675bf26-7b3f-4f8a-abd8-ecd8f32f8941/AAABjVTIU6k/AAABjcWesUg/16x9-512.jpg", "date": "2024-04-04T02:47:33.181+02:00", "lat": 35.689197, "lon": 51.388973, "intensity": 0.8, "source": "Tagesschau"}, {"title": "Bundeswehr erh\u00e4lt einheitliches operatives F\u00fchrungskommando", "url": "https://www.br.de/nachrichten/meldungen/index.html#n1", "thumbnailUrl": null, "date": "2024-04-04T14:47:04+02:00", "lat": 30.0444, "lon": 31.2357, "intensity": 0.8, "source": "Bayrischer Rundfunk"}, {"title": "NATO-Generalsekret\u00e4r Stoltenberg setzt auf enge Zusammenarbeit von Europa und den USA", "url": "https://www.br.de/nachrichten/meldungen/index.html#n2", "thumbnailUrl": null, "date": "2024-04-04T14:47:04+02:00", "lat": 33.5138, "lon": 36.2021, "intensity": 0.8, "source": "Bayrischer Rundfunk"}, {"title": "AfD-Abgeordneter Bystron bestreitet Zahlungen aus Russland", "url": "https://www.br.de/nachrichten/meldungen/index.html#n3", "thumbnailUrl": null, "date": "2024-04-04T14:47:04+02:00", "lat": 39.9334, "lon": 32.8597, "intensity": 0.8, "source": "Bayrischer Rundfunk"}, {"title": "\u00d6sterreich will Spionagegesetz versch\u00e4rfen", "url": "https://www.br.de/nachrichten/meldungen/index.html#n4", "thumbnailUrl": null, "date": "2024-04-04T14:47:04+02:00", "lat": 52.520008, "lon": 13.404954, "intensity": 0.7, "source": "Bayrischer Rundfunk"}, {"title": "Bundesanwalt klagt vier mutma\u00dfliche R\u00e4delsf\u00fchrer von \"Combat 18\" an", "url": "https://www.br.de/nachrichten/meldungen/index.html#n5", "thumbnailUrl": null, "date": "2024-04-04T14:47:04+02:00", "lat": 52.520008, "lon": 13.404954, "intensity": 0.6, "source": "Bayrischer Rundfunk"}, {"title": "Zweitwohnungsteuer darf laut Urteil nur begrenzt abgesetzt werden", "url": "https://www.br.de/nachrichten/meldungen/index.html#n6", "thumbnailUrl": null, "date": "2024-04-04T14:47:04+02:00", "lat": 48.135125, "lon": 11.581981, "intensity": 0.6, "source": "Bayrischer Rundfunk"}, {"title": "Helfer in Taiwan bergen zehntes Todesopfer des Erdbebens", "url": "https://www.br.de/nachrichten/meldungen/index.html#n7", "thumbnailUrl": null, "date": "2024-04-04T14:47:04+02:00", "lat": 50.110922, "lon": 8.682127, "intensity": 0.8, "source": "Bayrischer Rundfunk"}, {"title": "Friedenspreis Dresden geht posthum an Alexej Nawalny", "url": "https://www.br.de/nachrichten/meldungen/index.html#n8", "thumbnailUrl": null, "date": "2024-04-04T14:47:04+02:00", "lat": 47.8684, "lon": 12.6394, "intensity": 0.8, "source": "Bayrischer Rundfunk"}, {"title": "Vize-Chefredakteurin der \"SZ\" darf Doktortitel behalten", "url": "https://www.br.de/nachrichten/meldungen/index.html#n9", "thumbnailUrl": null, "date": "2024-04-04T14:47:04+02:00", "lat": 48.5844, "lon": 13.6722, "intensity": 0.8, "source": "Bayrischer Rundfunk"}, {"title": "Wangener OB zeigt sich schockiert \u00fcber Messerangriff auf M\u00e4dchen in Supermarkt", "url": "https://www.br.de/nachrichten/meldungen/index.html#n10", "thumbnailUrl": null, "date": "2024-04-04T14:47:04+02:00", "lat": 53.5396, "lon": 8.5761, "intensity": 0.4, "source": "Bayrischer Rundfunk"}, {"title": "Entsch\u00e4rfung der zweiten Bombe in Amberg verz\u00f6gert sich", "url": "https://www.br.de/nachrichten/meldungen/index.html#n11", "thumbnailUrl": null, "date": "2024-04-04T14:47:04+02:00", "lat": 48.1351, "lon": 11.582, "intensity": 0.3, "source": "Bayrischer Rundfunk"}, {"title": "Das Wetter in Bayern: Wechselhaft mit Regenf\u00e4llen", "url": "https://www.br.de/nachrichten/meldungen/index.html#n12", "thumbnailUrl": null, "date": "2024-04-04T14:47:04+02:00", "lat": 48.1351, "lon": 11.582, "intensity": 0.4, "source": "Bayrischer Rundfunk"}, {"title": "Neugew\u00e4hlter Tesla-Betriebsrat in Gr\u00fcnheide best\u00e4tigt Michaela Schmitz als Vorsitzende", "url": "https://www.rbb24.de/wirtschaft/beitrag/2024/04/brandenburg-gruenheide-tesla-betriebsrat-konstituierende-sitzung-schmitz-vorsitzende.html", "thumbnailUrl": null, "date": "Thu, 04 Apr 2024 14:50:40 +0200", "lat": 52.4711, "lon": 13.8863, "intensity": 0.5, "source": "RBB"}, {"title": "Reform-Pl\u00e4ne: Bundeswehr erh\u00e4lt neues operatives F\u00fchrungskommando", "url": "https://www.rbb24.de/politik/beitrag/2024/04/berlin-brandenburg-geltow-bundeswehr-einheitliches-fuehrung-kommando.html", "thumbnailUrl": null, "date": "Thu, 04 Apr 2024 14:43:14 +0200", "lat": 52.3759, "lon": 9.7031, "intensity": 0.5, "source": "RBB"}, {"title": "Fliegerbombe entsch\u00e4rft - Sperrkreis wird demn\u00e4chst aufgehoben", "url": "https://www.rbb24.de/panorama/beitrag/2024/04/berlin-schmargendorf-wilmersdorf-weltkriegsbombe-entschaerfung-sperrkreis-evakuierung.html", "thumbnailUrl": null, "date": "Thu, 04 Apr 2024 14:36:47 +0200", "lat": 52.5166, "lon": 13.3024, "intensity": 0.8, "source": "RBB"}, {"title": "Lkw-Fahrer nach Unfall auf dem s\u00fcdlichen Berliner Ring gestorben", "url": "https://www.rbb24.de/panorama/beitrag/2024/04/brandenburg-a10-berliner-ring-schwerer-verkehrsunfall-niederlehme.html", "thumbnailUrl": null, "date": "Thu, 04 Apr 2024 14:19:51 +0200", "lat": 52.4392, "lon": 13.5566, "intensity": 0.8, "source": "RBB"}, {"title": "Nach Eisb\u00e4ren-Krimi in Straubing: Die l\u00e4ngste Eishockey-Partie endet um 02:33 Uhr in der Nacht", "url": "https://www.rbb24.de/sport/beitrag/2024/04/eishockey-del-playoffs-eisbaeren-berlin-straubing-spielzeit-laengste-partien-verlaengerung.html", "thumbnailUrl": null, "date": "Thu, 04 Apr 2024 14:16:24 +0200", "lat": 48.88112, "lon": 12.57308, "intensity": 0.8, "source": "RBB"}, {"title": "Legalisierung von Cannabis: Kiffen bleibt in Berliner Freib\u00e4dern verboten", "url": "https://www.rbb24.de/panorama/beitrag/2024/04/kein-cannabis-konsum-berliner-freibaeder-kiffen.html", "thumbnailUrl": null, "date": "Thu, 04 Apr 2024 13:54:00 +0200", "lat": 52.52, "lon": 13.403, "intensity": 0.4, "source": "RBB"}, {"title": "Taxis halten wieder am Europaplatz vor Berliner Hauptbahnhof", "url": "https://www.rbb24.de/politik/beitrag/2024/04/taxi-streit-beendet-europaplatz-hauptbahnhof-berlin.html", "thumbnailUrl": null, "date": "Thu, 04 Apr 2024 13:43:40 +0200", "lat": 52.5251, "lon": 13.3694, "intensity": 0.4, "source": "RBB"}, {"title": "Berliner Hedwigs-Kathedrale wird im November er\u00f6ffnet - nach sechs Jahren Umbauarbeiten", "url": "https://www.rbb24.de/panorama/beitrag/2024/04/berlin-hedwigs-kathedrale-wird-im-november-eroeffnet.html", "thumbnailUrl": null, "date": "Thu, 04 Apr 2024 12:42:00 +0200", "lat": 52.517257, "lon": 13.388794, "intensity": 0.7, "source": "RBB"}, {"title": "Berlin-Reinickendorf: 31 Katzen aus Wohnung im M\u00e4rkischen Viertel gerettet", "url": "https://www.rbb24.de/panorama/beitrag/2024/04/berlin-maerkisches-viertel-31-katzen-wohnung-gerettet.html", "thumbnailUrl": null, "date": "Thu, 04 Apr 2024 12:18:10 +0200", "lat": 52.5933, "lon": 13.3304, "intensity": 0.8, "source": "RBB"}, {"title": "Energie Cottbus in Jena: Ein Schl\u00fcsselspiel mit Risiken", "url": "https://www.rbb24.de/sport/beitrag/2024/04/fussball-regionalliga-nordost-energie-cottbus-carl-zeiss-jena-vorbericht.html", "thumbnailUrl": null, "date": "Thu, 04 Apr 2024 11:39:00 +0200", "lat": 50.927054, "lon": 11.593489, "intensity": 0.7, "source": "RBB"}, {"title": "Anklage gegen Berliner Rentner nach mutma\u00dflichem Mord an pflegebed\u00fcrftiger Ehefrau erhoben", "url": "https://www.rbb24.de/panorama/beitrag/2024/04/berlin-hellersdorf-mann-toetet-ehefrau-anklage-mord-pflege.html", "thumbnailUrl": null, "date": "Thu, 04 Apr 2024 10:44:08 +0200", "lat": 52.52, "lon": 13.4049, "intensity": 0.8, "source": "RBB"}, {"title": "Oberspreewald-Lausitz: Post kommt im Spreewald ab sofort wieder per Kahn", "url": "https://www.rbb24.de/panorama/beitrag/2024/04/brandenburg-spreewald-lehde-post-kahn-wasser-weg.html", "thumbnailUrl": null, "date": "Thu, 04 Apr 2024 10:32:00 +0200", "lat": 51.5267, "lon": 13.9417, "intensity": 0.5, "source": "RBB"}, {"title": "Mann stirbt nach Wohnungsbrand in Berlin-Hellersdorf", "url": "https://www.rbb24.de/panorama/beitrag/2024/04/berlin-hellersdorf-wohnung-brand-toter-mann.html", "thumbnailUrl": null, "date": "Thu, 04 Apr 2024 08:22:00 +0200", "lat": 52.5263, "lon": 13.5688, "intensity": 0.7, "source": "RBB"}, {"title": "Nach Einbu\u00dfen im Vorjahr: Werder feiert Baumbl\u00fcte 2024 mit verk\u00fcrztem Stadtfest", "url": "https://www.rbb24.de/panorama/beitrag/2024/04/brandenburg-werder-havel-baumbluetenfest-stadtfest-kuerzer.html", "thumbnailUrl": null, "date": "Thu, 04 Apr 2024 08:08:00 +0200", "lat": 53.074, "lon": 8.809, "intensity": 0.6, "source": "RBB"}, {"title": "Berliner Know-how f\u00fcr Kyjiw: K\u00fcnstliche Beine f\u00fcr ukrainische Kriegsverletzte", "url": "https://www.rbb24.de/panorama/beitrag/2024/04/berlin-prothesen-krieg-ukraine-soldaten.html", "thumbnailUrl": null, "date": "Thu, 04 Apr 2024 07:18:21 +0200", "lat": 50.4501, "lon": 30.5234, "intensity": 0.8, "source": "RBB"}, {"title": "Playoff-Halbfinale: Eisb\u00e4ren schlagen Straubing in drittl\u00e4ngstem Spiel der DEL-Geschichte", "url": "https://www.rbb24.de/sport/beitrag/2024/04/berlin-sport-eishockey-del-halbfinale-straubing-tigers-eisbaeren-spiel-zwei.html", "thumbnailUrl": null, "date": "Thu, 04 Apr 2024 07:08:00 +0200", "lat": 51.511213, "lon": 12.47794, "intensity": 0.7, "source": "RBB"}, {"title": "Auslegungsfrist endet: Erweiterungsplan des Tesla-Werks liegt noch am Donnerstag aus", "url": "https://www.rbb24.de/wirtschaft/beitrag/2024/04/brandenburg-gruenheide-tesla-auslegungsfrist-endet-gueterbahnhof.html", "thumbnailUrl": null, "date": "Thu, 04 Apr 2024 06:35:00 +0200", "lat": 52.517, "lon": 13.3996, "intensity": 0.7, "source": "RBB"}, {"title": "Sieg gegen L\u00fcneburg: BR Volleys stehen im Volleyball-Finale", "url": "https://www.rbb24.de/sport/beitrag/2024/04/berlin-sport-Volleyball-bundesliga-Halbfinale-BR-Volleys-Lueneburg-spiel-drei.html", "thumbnailUrl": null, "date": "Wed, 03 Apr 2024 22:05:00 +0200", "lat": 52.52, "lon": 13.4393, "intensity": 0.7, "source": "RBB"}, {"title": "Volleyball-Bundesliga: SC Potsdam verliert erstes Halbfinale gegen Schwerin", "url": "https://www.rbb24.de/sport/beitrag/2024/04/brandenburg-sport-Volleyball-Bundesliga-Halbfinale-Schwerin-SC-Potsdam.html", "thumbnailUrl": null, "date": "Wed, 03 Apr 2024 21:29:00 +0200", "lat": 52.3906, "lon": 12.7854, "intensity": 0.6, "source": "RBB"}, {"title": "Verdi: Tarifeinigung bei den Asklepios-Fachkliniken erzielt", "url": "https://www.rbb24.de/wirtschaft/beitrag/2024/04/verdi-tarif-asklepios-fachkliniken-tarifeinigung.html", "thumbnailUrl": null, "date": "Wed, 03 Apr 2024 21:21:00 +0200", "lat": 51.3247, "lon": 9.5226, "intensity": 0.6, "source": "RBB"}, {"title": "Video | Freier Eintritt: J\u00fcdisches Kulturschiff \"MS Goldberg\" ist auf Brandenburg-Tour", "url": "https://www.rbb24.de/kultur/beitrag/av7/video-brandenburg-ms-goldberg-juedisches-kulturschiff.html", "thumbnailUrl": null, "date": "Wed, 03 Apr 2024 21:13:34 +0200", "lat": 52.4125, "lon": 13.9536, "intensity": 0.7, "source": "RBB"}, {"title": "Hertha BSC zu Gast beim SC Paderborn: Das Duell der Konjunktiv-Klubs", "url": "https://www.rbb24.de/sport/beitrag/2024/04/berlin-sport-fussball-hertha-bsc-sc-paderborn-vorbericht.html", "thumbnailUrl": null, "date": "Wed, 03 Apr 2024 18:36:00 +0200", "lat": 51.7208, "lon": 8.7586, "intensity": 0.4, "source": "RBB"}, {"title": "Umweltsenatorin Schreiner: Mischwald-Programm in Berliner Forsten soll nicht fortgesetzt werden", "url": "https://www.rbb24.de/politik/beitrag/2024/04/umweltsenatorin-schreiner-waldumbau-pruefung-mischwald-programm.html", "thumbnailUrl": null, "date": "Wed, 03 Apr 2024 18:02:00 +0200", "lat": 52.52, "lon": 13.405, "intensity": 0.6, "source": "RBB"}, {"title": "Wie kommerzielle Anbieter mit Terminen beim Berliner Einwanderungsamt handeln", "url": "https://www.rbb24.de/politik/beitrag/2024/04/berlin-terminhandel-landesamt-fuer-einwanderung-bots-termine.html", "thumbnailUrl": null, "date": "Wed, 03 Apr 2024 17:05:00 +0200", "lat": 52.5192, "lon": 13.4073, "intensity": 0.8, "source": "RBB"}, {"title": "Rettungskr\u00e4fte brechen Suche nach mutma\u00dflichen Vermissten am Badesee bei Cottbus ab", "url": "https://www.rbb24.de/panorama/beitrag/2024/04/brandenburg-cottbus-badesee-rettung-einsatz-vermisster-angler.html", "thumbnailUrl": null, "date": "Wed, 03 Apr 2024 16:28:57 +0200", "lat": 51.7562, "lon": 13.4085, "intensity": 0.8, "source": "RBB"}, {"title": "Berliner Immobilien-Managerin wegen Betruges verurteilt", "url": "https://www.rbb24.de/panorama/beitrag/2024/04/office-managerin-betrug-130000-urteil-landgericht.html", "thumbnailUrl": null, "date": "Wed, 03 Apr 2024 16:20:31 +0200", "lat": 52.520008, "lon": 13.404954, "intensity": 0.7, "source": "RBB"}, {"title": "Gr\u00fcnheide: Wasserverband bekr\u00e4ftigt Nein zu Tesla-Erweiterungspl\u00e4nen", "url": "https://www.rbb24.de/wirtschaft/beitrag/2024/04/brandenburg-tesla-erweiterung-wse-ablehnung.html", "thumbnailUrl": null, "date": "Wed, 03 Apr 2024 15:46:00 +0200", "lat": 52.4315, "lon": 13.7673, "intensity": 0.7, "source": "RBB"}, {"title": "Ermittlungen gegen Fahrer nach t\u00f6dlichem Motorradunfall auf Berliner Stadtautobahn", "url": "https://www.rbb24.de/panorama/beitrag/2024/04/toedlicher-motorradunfall-a100-berlin-stadtautobahn-ermittlungen-gegen-fahrer.html", "thumbnailUrl": null, "date": "Wed, 03 Apr 2024 15:21:07 +0200", "lat": 52.52, "lon": 13.4069, "intensity": 0.8, "source": "RBB"}, {"title": "Drei Jahre nach Mord an Kosmetikerin in Berlin: Tatverd\u00e4chtiger festgenommen", "url": "https://www.rbb24.de/panorama/beitrag/2024/04/mord-kosmetikerin-festnahme-tatverdaechtiger-charlottenburg.html", "thumbnailUrl": null, "date": "Wed, 03 Apr 2024 14:48:00 +0200", "lat": 52.52, "lon": 13.405, "intensity": 0.7, "source": "RBB"}, {"title": "Kulturst\u00e4tte YAAM kann f\u00fcr mehrere Jahrzehnte an der Schillingbr\u00fccke in Berlin-Friedrichshain bleiben - Mietvertrag unterzeichnet", "url": "https://www.rbb24.de/kultur/beitrag/2024/04/yaam-standort-gesichert-berlin-friedrichshain-subkultur-freizeitstaette.html", "thumbnailUrl": null, "date": "Wed, 03 Apr 2024 14:01:00 +0200", "lat": 52.5145, "lon": 13.4408, "intensity": 0.7, "source": "RBB"}, {"title": "MS Goldberg: J\u00fcdisches Kulturschiff startet in Eisenh\u00fcttenstadt in neue Spielzeit", "url": "https://www.rbb24.de/kultur/beitrag/2024/04/brandenburg-saisonauftakt-juedisches-kulturschiff-eisenhuettenstadt.html", "thumbnailUrl": null, "date": "Wed, 03 Apr 2024 12:31:26 +0200", "lat": 52.1462, "lon": 14.6392, "intensity": 0.7, "source": "RBB"}, {"title": "Mutma\u00dfliche \u00dcbergriffe durch Lehrer stuft Innenministerium als ausl\u00e4nderfeindlich ein", "url": "https://www.rbb24.de/politik/beitrag/2024/04/brandenburg-cottbus-innenministerium-einstufung-uebergriffe-lehrer-auslaenderfeindlich.html", "thumbnailUrl": null, "date": "Wed, 03 Apr 2024 12:29:00 +0200", "lat": 51.7562, "lon": 14.3356, "intensity": 0.8, "source": "RBB"}, {"title": "Hemmschwelle sinkt: Ostdeutsche Sch\u00fclerr\u00e4te warnen vor Rechtsextremismus an Schulen", "url": "https://www.rbb24.de/panorama/beitrag/2024/04/ostdeutschland-brandenburg-schule-schuelerraete-warnung-rechtsextremismus.html", "thumbnailUrl": null, "date": "Wed, 03 Apr 2024 11:47:00 +0200", "lat": 51.337908, "lon": 12.496365, "intensity": 0.7, "source": "RBB"}, {"title": "Agrarpolitik in Brandenburg: Ostdeutsche Landwirte fordern Verkauf von bundeseigenen Agrarfl\u00e4chen", "url": "https://www.rbb24.de/wirtschaft/beitrag/2024/04/ostdeutsche-bauern-fordern-von-bund-weiteren-verkauf-flaechen.html", "thumbnailUrl": null, "date": "Wed, 03 Apr 2024 10:11:41 +0200", "lat": 52.4125, "lon": 13.6416, "intensity": 0.7, "source": "RBB"}, {"title": "Video | Neues Format: Aus rbbKultur wird radio3", "url": "https://www.rbb24.de/panorama/beitrag/av7/video-berlin-brandenburg-rbbkultur-wird-zu-radio3-umbenennung-programmaenderung-rbb.html", "thumbnailUrl": null, "date": "Tue, 02 Apr 2024 21:33:14 +0200", "lat": 52.520008, "lon": 13.404954, "intensity": 0.5, "source": "RBB"}, {"title": "Video: Union Berlin entf\u00fchrt einen Punkt aus Frankfurt", "url": "https://www.rbb24.de/sport/beitrag/av7/video-fussball-berlin-1-fc-union-bundesliga-eintracht-frankfurt.html", "thumbnailUrl": null, "date": "Mon, 01 Apr 2024 00:00:00 +0200", "lat": 52.457778, "lon": 13.494167, "intensity": 0.7, "source": "RBB"}, {"title": "Video: Hertha und N\u00fcrnberg trennen sich nach furiosem Spiel mit 3:3", "url": "https://www.rbb24.de/sport/beitrag/av7/video-fussball-berlin-hertha-bsc-zweite-bundesliga-1-fc-nuernberg.html", "thumbnailUrl": null, "date": "Mon, 01 Apr 2024 00:00:00 +0200", "lat": 52.52, "lon": 13.5007, "intensity": 0.8, "source": "RBB"}, {"title": "Video | Spreewald: Sorbische Ostern", "url": "https://www.rbb24.de/panorama/beitrag/av7/video-sorbisch-ostern-ostersingen-tradition.html", "thumbnailUrl": null, "date": "Sun, 31 Mar 2024 21:40:56 +0200", "lat": 51.8667, "lon": 14.0833, "intensity": 0.2, "source": "RBB"}, {"title": "Video | Baustopp: Wie es um das Bauprojekt \"Upside Berlin\" steht", "url": "https://www.rbb24.de/panorama/beitrag/av7/video-baustopp-hochhaeuser-friedrichshain-berlin.html", "thumbnailUrl": null, "date": "Fri, 29 Mar 2024 21:13:11 +0100", "lat": 52.466, "lon": 13.739, "intensity": 0.8, "source": "RBB"}, {"title": "Video | Lost Place Fotografie: Auf den Spuren der Tuberkuloseklinik Kolkwitz", "url": "https://www.rbb24.de/panorama/beitrag/av7/video-lost-place-fotografie-kunst-verborgen.html", "thumbnailUrl": null, "date": "Fri, 29 Mar 2024 20:57:05 +0100", "lat": 51.751525, "lon": 14.323335, "intensity": 0.7, "source": "RBB"}, {"title": "Video | Frankfurt-Oder: Experimentelles Ballett im Kleist Forum", "url": "https://www.rbb24.de/kultur/beitrag/av7/video-kleist-ballett-tanz-kultur-kunst.html", "thumbnailUrl": null, "date": "Fri, 29 Mar 2024 20:50:15 +0100", "lat": 52.3412, "lon": 14.5471, "intensity": 0.4, "source": "RBB"}, {"title": "Rechtsextremismus: Auch Ermittlungen gegen Polizisten im Norden", "url": "https://www.ndr.de/nachrichten/niedersachsen/Rechtsextremismus-Auch-Ermittlungen-gegen-Polizisten-im-Norden,extremismusverdacht100.html", "thumbnailUrl": "https://www.ndr.de/nachrichten/niedersachsen/polizei7042_v-contentwidescreen.jpg", "date": "2024-04-04T14:49:47.224+02:00", "lat": 53.4336, "lon": 10.4515, "intensity": 0.8, "source": "NDR"}, {"title": "A1: Lkw mit Bierkisten kippt um - Autobahn bei Stuhr gesperrt", "url": "https://www.ndr.de/nachrichten/niedersachsen/oldenburg_ostfriesland/A1-Lkw-mit-Bierkisten-kippt-um-Autobahn-bei-Stuhr-gesperrt,stuhr404.html", "thumbnailUrl": "https://www.ndr.de/nachrichten/niedersachsen/oldenburg_ostfriesland/stuhr408_v-contentwidescreen.jpg", "date": "2024-04-04T14:40:52.467+02:00", "lat": 53.0045, "lon": 8.7469, "intensity": 0.8, "source": "NDR"}, {"title": "Letztes Verfahren nach Amoktat in Alsterdorf eingestellt", "url": "https://www.ndr.de/nachrichten/hamburg/Letztes-Verfahren-nach-Amoktat-in-Alsterdorf-eingestellt,amoktat114.html", "thumbnailUrl": "https://www.ndr.de/nachrichten/hamburg/schuesse414_v-contentwidescreen.jpg", "date": "2024-04-04T13:50:59.210+02:00", "lat": 53.5937, "lon": 9.9785, "intensity": 0.8, "source": "NDR"}, {"title": "Anglerverband: Fischsterben 2023 war Folge von Starkregen", "url": "https://www.ndr.de/nachrichten/niedersachsen/lueneburg_heide_unterelbe/Anglerverband-Fischsterben-2023-war-Folge-von-Starkregen,fischsterben496.html", "thumbnailUrl": "https://www.ndr.de/nachrichten/niedersachsen/lueneburg_heide_unterelbe/fischsterben498_v-contentwidescreen.jpg", "date": "2024-04-04T13:42:29.130+02:00", "lat": 53.0989, "lon": 9.9515, "intensity": 0.7, "source": "NDR"}, {"title": "Zu wenig Gem\u00fcse auf Speisepl\u00e4nen in Niedersachsens Kitas", "url": "https://www.ndr.de/nachrichten/niedersachsen/braunschweig_harz_goettingen/Zu-wenig-Gemuese-auf-Speiseplaenen-in-Niedersachsens-Kitas,kitaessen142.html", "thumbnailUrl": "https://www.ndr.de/ratgeber/kochen/warenkunde/gemuese10_v-contentwidescreen.jpg", "date": "2024-04-04T13:05:11.189+02:00", "lat": 52.375891, "lon": 10.52677, "intensity": 0.6, "source": "NDR"}, {"title": "NDR Info live: Wie sicher sind Busreisen?", "url": "https://www.ndr.de/nachrichten/info/NDR-Info-live-Wie-sicher-sind-Busreisen,ndrinfolive160.html", "thumbnailUrl": "https://www.ndr.de/nachrichten/info/unfall18536_v-contentwidescreen.jpg", "date": "2024-04-04T14:41:41.335+02:00", "lat": 53.5511, "lon": 9.9937, "intensity": 0.7, "source": "NDR"}, {"title": "Ein Jahr nach Ende der Pandemie: Was hat Corona mit uns gemacht?", "url": "https://www.ndr.de/nachrichten/info/Ein-Jahr-nach-Ende-der-Pandemie-Was-hat-Corona-mit-uns-gemacht,ndrinforedezeit450.html", "thumbnailUrl": "https://www.ndr.de/nachrichten/info/corona11564_v-contentwidescreen.jpg", "date": "2024-04-03T22:05:42.351+02:00", "lat": 53.5511, "lon": 10.0012, "intensity": 0.5, "source": "NDR"}, {"title": "Tod nach Zahn-OP: Hamburger Zahn\u00e4rztin und An\u00e4sthesist vor Gericht", "url": "https://www.ndr.de/nachrichten/hamburg/Tod-nach-Zahn-OP-Hamburger-Zahnaerztin-und-Anaesthesist-vor-Gericht,prozess8940.html", "thumbnailUrl": "https://www.ndr.de/nachrichten/hamburg/prozess8944_v-contentwidescreen.jpg", "date": "2024-04-04T14:40:22.353+02:00", "lat": 53.5533, "lon": 9.9466, "intensity": 0.8, "source": "NDR"}, {"title": "Wohnungsbau: Hamburg will Bauordnung vereinfachen", "url": "https://www.ndr.de/nachrichten/hamburg/Wohnungsbau-Hamburg-will-Bauordnung-vereinfachen,bau220.html", "thumbnailUrl": "https://www.ndr.de/nachrichten/hamburg/baustelle936_v-contentwidescreen.jpg", "date": "2024-04-04T11:22:26.383+02:00", "lat": 53.5511, "lon": 9.9937, "intensity": 0.6, "source": "NDR"}, {"title": "Tod bei Osterfeuer: Feuerwehr soll vor Baum gewarnt haben", "url": "https://www.ndr.de/nachrichten/niedersachsen/hannover_weser-leinegebiet/Tod-bei-Osterfeuer-Feuerwehr-soll-vor-Baum-gewarnt-haben,beckedorf118.html", "thumbnailUrl": "https://www.ndr.de/nachrichten/niedersachsen/hannover_weser-leinegebiet/beckedorf122_v-contentwidescreen.jpg", "date": "2024-04-04T11:43:06.386+02:00", "lat": 52.3964, "lon": 9.2905, "intensity": 0.8, "source": "NDR"}, {"title": "Neuer Negativ-Rekord in Mecklenburg-Vorpommern bei Trickbetrug", "url": "https://www.ndr.de/nachrichten/mecklenburg-vorpommern/Neuer-Negativ-Rekord-in-Mecklenburg-Vorpommern-bei-Trickbetrug,trickbetrug252.html", "thumbnailUrl": "https://www.ndr.de/nachrichten/hamburg/telefon294_v-contentwidescreen.jpg", "date": "2024-04-04T14:23:13.179+02:00", "lat": 53.61265, "lon": 12.526206, "intensity": 0.8, "source": "NDR"}, {"title": "Ausbau von S\u00fcdschnellweg: B3 in Hannover heute Abend gesperrt", "url": "https://www.ndr.de/nachrichten/niedersachsen/hannover_weser-leinegebiet/Ausbau-von-Suedschnellweg-B3-in-Hannover-heute-Abend-gesperrt,suedschnellweg220.html", "thumbnailUrl": "https://www.ndr.de/nachrichten/niedersachsen/hannover_weser-leinegebiet/suedschnellweg218_v-contentwidescreen.jpg", "date": "2024-04-04T07:48:05.254+02:00", "lat": 52.375892, "lon": 9.73201, "intensity": 0.7, "source": "NDR"}, {"title": "A7 in Hamburg: Vollsperrung des Elbtunnels am Wochenende", "url": "https://www.ndr.de/nachrichten/hamburg/A7-in-Hamburg-Vollsperrung-des-Elbtunnels-am-Wochenende,asieben594.html", "thumbnailUrl": "https://www.ndr.de/nachrichten/hamburg/autobahnsieben166_v-contentwidescreen.jpg", "date": "2024-04-03T15:10:00.767+02:00", "lat": 53.5446, "lon": 9.90202, "intensity": 0.7, "source": "NDR"}, {"title": "Prozess um get\u00f6teten Sechsj\u00e4hrigen aus Pragsdorf: Urteil verschoben", "url": "https://www.ndr.de/nachrichten/mecklenburg-vorpommern/Prozess-um-getoeteten-Sechsjaehrigen-aus-Pragsdorf-Urteil-verschoben,pragsdorf142.html", "thumbnailUrl": "https://www.ndr.de/nachrichten/mecklenburg-vorpommern/landgericht324_v-contentwidescreen.png", "date": "2024-04-04T13:17:37.375+02:00", "lat": 53.7176, "lon": 12.8209, "intensity": 0.8, "source": "NDR"}, {"title": "NDR MV Live: Experte f\u00fcr maritimes Recht zu \"Atlantic Navigator II\"", "url": "https://www.ndr.de/nachrichten/mecklenburg-vorpommern/ndr_mv_live/NDR-MV-Live-Experte-fuer-maritimes-Recht-zu-Atlantic-Navigator-II,mvlive4076.html", "thumbnailUrl": "https://www.ndr.de/nachrichten/mecklenburg-vorpommern/interview3494_v-contentwidescreen.jpg", "date": "2024-04-04T14:51:23.634+02:00", "lat": 53.8888, "lon": 11.4655, "intensity": 0.2, "source": "NDR"}, {"title": "Neue Ranger in Naturschutzgebieten - macht das Sinn?", "url": "https://www.ndr.de/nachrichten/info/Neue-Ranger-in-Naturschutzgebieten-macht-das-Sinn,ndrinfo58160.html", "thumbnailUrl": "https://www.ndr.de/fernsehen/screenshot1726630_v-contentwidescreen.jpg", "date": "2024-04-04T14:45:42.982+02:00", "lat": 51.1558, "lon": 7.4206, "intensity": 0.4, "source": "NDR"}, {"title": "Lubmin: Wie umweltfreundlich kann Wasserstoff sein?", "url": "https://www.ndr.de/nachrichten/info/Lubmin-Wie-Umweltfreundlich-kann-Wasserstoff-sein-,ndrinfo58158.html", "thumbnailUrl": "https://www.ndr.de/fernsehen/screenshot1726624_v-contentwidescreen.jpg", "date": "2024-04-04T14:45:40.517+02:00", "lat": 54.1533, "lon": 13.9896, "intensity": 0.7, "source": "NDR"}, {"title": "Mindestens 400 Polizeibeamte unter Extremismusverdacht", "url": "https://www.ndr.de/nachrichten/info/Mindestens-400-Polizeibeamte-unter-Extremismusverdacht,ndrinfo58154.html", "thumbnailUrl": "https://www.ndr.de/fernsehen/screenshot1726614_v-contentwidescreen.jpg", "date": "2024-04-04T14:45:33.982+02:00", "lat": 52.520008, "lon": 13.404954, "intensity": 0.8, "source": "NDR"}, {"title": "Hass im Netz auf Politiker: \"Das muss man transparent machen\"", "url": "https://www.ndr.de/nachrichten/info/Hass-im-Netz-auf-Politiker-Das-muss-man-transparent-machen,audio1607084.html", "thumbnailUrl": "https://www.ndr.de/nachrichten/info/berghegger104_v-contentwidescreen.jpg", "date": "2024-04-04T09:02:56.514+02:00", "lat": 48.135125, "lon": 11.58198, "intensity": 0.7, "source": "NDR"}, {"title": "\"W\u00fcnsch Dir Deinen NDR\" - Jetzt f\u00fcr die Publikumsaktion bewerben!", "url": "https://www.ndr.de/wuensch_dir_deinen_ndr/index.html", "thumbnailUrl": "https://www.ndr.de/der_ndr/wunschprogramm131_v-contentwidescreen.jpg", "date": "2024-03-26T07:59:24.876+01:00", "lat": 53.551086, "lon": 9.993682, "intensity": 0.2, "source": "NDR"}, {"title": "Relaunch der vier NDR L\u00e4nder-Apps: Nachrichten aus Ihrer Region!", "url": "https://www.ndr.de/Relaunch-der-vier-NDR-Laender-Apps-Nachrichten-aus-Ihrer-Region,laenderapprelaunch100.html", "thumbnailUrl": "https://www.ndr.de/laenderapprelaunch102_v-contentwidescreen.jpg", "date": "2024-03-19T09:22:34.719+01:00", "lat": 53.8659, "lon": 9.8606, "intensity": 0.4, "source": "NDR"}, {"title": "Gaspreis Dashboard", "url": "https://www.ndr.de/home/gaspreis176.html", "thumbnailUrl": null, "date": "2023-04-06T14:49:06.409+02:00", "lat": 51.3426, "lon": 9.9976, "intensity": 0.7, "source": "NDR"}, {"title": "NDR Radioprogramme", "url": "https://www.ndr.de/radio/radiologobox100.html", "thumbnailUrl": null, "date": "2020-12-01T14:04:26.700+01:00", "lat": 53.5511, "lon": 9.9937, "intensity": 0.3, "source": "NDR"}, {"title": "Krieg und Terror - Die Lage im Nahen Osten und in der Ukraine", "url": "https://www.ndr.de/nachrichten/info/podcast5342.html", "thumbnailUrl": "https://www.ndr.de/nachrichten/info/podcastbild412_v-contentwidescreen.jpg", "date": "2024-04-04T08:00:44.446+02:00", "lat": 46.79651, "lon": 30.739834, "intensity": 0.8, "source": "NDR"}, {"title": "Die Ern\u00e4hrungs-Docs - Essen als Medizin", "url": "https://www.ndr.de/fernsehen/sendungen/die-ernaehrungsdocs/audio-podcast/index.html", "thumbnailUrl": "https://www.ndr.de/fernsehen/sendungen/die-ernaehrungsdocs/podcastbild338_v-contentwidescreen.jpg", "date": "2024-04-04T13:51:10.657+02:00", "lat": 53.5511, "lon": 9.9876, "intensity": 0.3, "source": "NDR"}, {"title": "Unsere Comedy \"Die Kur-Oase\"!", "url": "https://www.ndr.de/ndr2/podcasts/podcast5816.html", "thumbnailUrl": "https://www.ndr.de/ndr2/podcasts/podcast5812_v-contentwidescreen.jpg", "date": "2024-04-04T07:15:06.194+02:00", "lat": 54.9069, "lon": 8.7386, "intensity": 0.2, "source": "NDR"}, {"title": "Organisiertes Verbrechen - Recherchen im Verborgenen", "url": "https://www.ndr.de/nachrichten/info/podcast4992.html", "thumbnailUrl": "https://www.ndr.de/nachrichten/info/podcastbildov100_v-contentwidescreen.jpg", "date": "2024-03-01T06:00:27.490+01:00", "lat": 45.9432, "lon": 24.9668, "intensity": 0.8, "source": "NDR"}, {"title": "eat.READ.sleep. B\u00fccher f\u00fcr dich", "url": "https://www.ndr.de/kultur/sendungen/eat_read_sleep/index.html", "thumbnailUrl": "https://www.ndr.de/mediathek/podcastbild434_v-contentwidescreen.jpg", "date": "2024-03-29T06:00:20.892+01:00", "lat": 53.5511, "lon": 9.9937, "intensity": 0.2, "source": "NDR"}, {"title": "Killed in Action: Afghanistan - Mission ohne Ziel", "url": "https://www.ndr.de/nachrichten/info/sendungen/podcast4574.html", "thumbnailUrl": "https://www.ndr.de/nachrichten/info/podcasts/podcastbild478_v-contentwidescreen.jpg", "date": "2024-02-16T17:44:01.214+01:00", "lat": 33.9391, "lon": 66.2385, "intensity": 0.8, "source": "NDR"}, {"title": "Streitkr\u00e4fte und Strategien", "url": "https://www.ndr.de/nachrichten/info/podcast2998.html", "thumbnailUrl": "https://www.ndr.de/mediathek/mediathekbild566_v-contentwidescreen.jpg", "date": "2024-04-02T16:00:06.249+02:00", "lat": 53.5511, "lon": 9.9937, "intensity": 0.8, "source": "NDR"}, {"title": "Standpunkte", "url": "https://www.ndr.de/nachrichten/info/podcast4700.html", "thumbnailUrl": "https://www.ndr.de/mediathek/podcast5332_v-contentwidescreen.jpg", "date": "2024-04-04T00:01:07.808+02:00", "lat": 53.5511, "lon": 9.9937, "intensity": 0.5, "source": "NDR"}, {"title": "Mein Einsatz - der Feuerwehr-Podcast von NDR Niedersachsen", "url": "https://www.ndr.de/ndr1niedersachsen/podcast5774.html", "thumbnailUrl": "https://www.ndr.de/ndr1niedersachsen/podcasts/podcastbild364_v-contentwidescreen.jpg", "date": "2024-03-28T04:00:07.923+01:00", "lat": 52.3759, "lon": 9.7345, "intensity": 0.7, "source": "NDR"}, {"title": "\"Feel Hamburg\" - alle Folgen", "url": "https://www.ndr.de/903/podcasts/podcast5108.html", "thumbnailUrl": "https://www.ndr.de/mediathek/mediathekbild514_v-contentwidescreen.jpg", "date": "2024-04-03T05:00:09.975+02:00", "lat": 53.55, "lon": 10.0, "intensity": 0.4, "source": "NDR"}, {"title": "Intensiv-Station - Satire von NDR Info", "url": "https://www.ndr.de/nachrichten/info/podcast4274.html", "thumbnailUrl": "https://www.ndr.de/nachrichten/info/programm/intensivstation3272_v-contentwidescreen.jpg", "date": "2024-03-25T22:56:23.803+01:00", "lat": 54.3706, "lon": 10.5038, "intensity": 0.8, "source": "NDR"}, {"title": "Amerika, wir m\u00fcssen reden!", "url": "https://www.ndr.de/nachrichten/info/podcast4932.html", "thumbnailUrl": "https://www.ndr.de/nachrichten/info/podcastbild488_v-contentwidescreen.jpg", "date": "2024-04-03T18:15:10.308+02:00", "lat": 39.78373, "lon": -100.445882, "intensity": 0.7, "source": "NDR"}, {"title": "NRW-Karte zu Wohnungseinbr\u00fcchen: Wo wird viel, wo wenig eingebrochen?", "url": "https://www1.wdr.de/nachrichten/wohnungseinbruch-nrw-kriminalstatistik-102.html", "thumbnailUrl": null, "date": "2024-04-04T12:56:22Z", "lat": 51.9607, "lon": 7.6246, "intensity": 0.8, "source": "WDR"}, {"title": "NRW-Polizei identifiziert rund 80 Rechtsextreme in den eigenen Reihen", "url": "https://www1.wdr.de/nachrichten/landespolitik/rechtsextreme-nrw-polizei-100.html", "thumbnailUrl": null, "date": "2024-04-04T10:47:54Z", "lat": 51.9607, "lon": 7.6261, "intensity": 0.7, "source": "WDR"}, {"title": "Gro\u00dfst\u00f6rung bei Kartenzahlung offenbar behoben", "url": "https://www1.wdr.de/nachrichten/ec-karte-kreditkarte-stoerung-100.html", "thumbnailUrl": null, "date": "2024-04-04T12:50:32Z", "lat": 51.1657, "lon": 10.4515, "intensity": 0.8, "source": "WDR"}, {"title": "Pistorius' Bundeswehr-Reformpl\u00e4ne: Pistorius stellt Bundeswehr-Pl\u00e4ne vor: Schlanker, schneller, \"kriegst\u00fcchtiger\"", "url": "https://www.tagesschau.de/inland/innenpolitik/reform-bundeswehr-100.html", "thumbnailUrl": null, "date": "2024-04-04T05:27:01Z", "lat": 52.3738, "lon": 9.6819, "intensity": 0.7, "source": "WDR"}, {"title": "Zuckerwasser im Brief: Entwarnung nach Gro\u00dfeinsatz am Polizeipr\u00e4sidium K\u00f6ln", "url": "https://www1.wdr.de/nachrichten/rheinland/feuerwehreinsatz-koeln-unbekannte-substanz-briefumschlag-106.html", "thumbnailUrl": null, "date": "2024-04-04T12:10:46Z", "lat": 50.9375, "lon": 7.0069, "intensity": 0.8, "source": "WDR"}, {"title": "Mit Eisenstange bewaffnet: Polizei erschie\u00dft Mann in Dortmund", "url": "https://www1.wdr.de/nachrichten/mann-dortmund-randalierer-reinoldikirche-niedergeschossen-100.html", "thumbnailUrl": null, "date": "2024-04-04T12:56:55Z", "lat": 51.5142, "lon": 7.4674, "intensity": 0.8, "source": "WDR"}, {"title": "Campingplatz in L\u00fcgde: Neustart nach jahrelanger sexualisierter Gewalt", "url": "https://www1.wdr.de/nachrichten/westfalen-lippe/campingplatz-luegde-neustart-100.html", "thumbnailUrl": null, "date": "2024-04-04T12:10:31Z", "lat": 51.9871, "lon": 9.2586, "intensity": 0.8, "source": "WDR"}, {"title": "Marode A42-Br\u00fccke im Ruhrgebiet: Schranken stoppen schwere Lkw", "url": "https://www1.wdr.de/nachrichten/ruhrgebiet/a42-bruecke-bottrop-schrankenanlage-stoppt-lkw-100.html", "thumbnailUrl": null, "date": "2024-04-04T12:30:15Z", "lat": 51.51, "lon": 7.09, "intensity": 0.6, "source": "WDR"}, {"title": "Nahost-Krieg: Nahost-Liveblog: ++ UN verurteilen Angriff auf Botschaft nicht ++", "url": "https://www.tagesschau.de/newsticker/liveblog-nahost-donnerstag-122.html", "thumbnailUrl": null, "date": "2024-04-04T02:48:02Z", "lat": 31.7997, "lon": 35.0044, "intensity": 0.8, "source": "WDR"}, {"title": "Get\u00f6tete Helfer im Gazastreifen: Get\u00f6tete Helfer: Israelische Armee spricht von \"schwerem Fehler\"", "url": "https://www.tagesschau.de/ausland/asien/netanyahu-wck-angriff-102.html", "thumbnailUrl": null, "date": "2024-04-03T05:15:02Z", "lat": 31.5226, "lon": 34.4357, "intensity": 1, "source": "WDR"}, {"title": "Angriff auf Botschaft in Syrien: Iran droht Israel nach Angriff auf Botschaft mit Vergeltung", "url": "https://www.tagesschau.de/ausland/asien/iran-vergeltung-100.html", "thumbnailUrl": null, "date": "2024-04-02T16:33:03Z", "lat": 33.5138, "lon": 36.3, "intensity": 0.8, "source": "WDR"}, {"title": "Die wichtigsten Fakten \u00fcber den Gazastreifen", "url": "https://www1.wdr.de/nachrichten/gaza-gazastreifen-israel-hintergrund-100.html", "thumbnailUrl": null, "date": "2023-10-11T15:33:25Z", "lat": 31.5107, "lon": 34.3445, "intensity": 0.8, "source": "WDR"}, {"title": "WDR aktuell Whatsapp-Kanal abonnieren - so geht's", "url": "https://www1.wdr.de/nachrichten/wdr-aktuell-whatsapp-kanal-100.html", "thumbnailUrl": null, "date": "2023-12-22T20:22:52Z", "lat": 51.4818, "lon": 7.6261, "intensity": 0.1, "source": "WDR"}, {"title": "Krieg gegen die Ukraine: Ukraine-Liveblog: ++ 350.000 Menschen nach Angriff ohne Strom ++", "url": "https://www.tagesschau.de/newsticker/liveblog-ukraine-donnerstag-328.html", "thumbnailUrl": null, "date": "2024-04-04T09:09:01Z", "lat": 49.9935, "lon": 36.230383, "intensity": 0.8, "source": "WDR"}, {"title": "Deutsche Firmen in Mariupol: Deutsche Firmen am russischen Wiederaufbau von Mariupol beteiligt", "url": "https://www.tagesschau.de/investigativ/monitor/ukraine-mariupol-wiederaufbau-russland-100.html", "thumbnailUrl": null, "date": "2024-04-03T16:54:02Z", "lat": 47.0971, "lon": 37.5553, "intensity": 0.8, "source": "WDR"}, {"title": "NATO-Au\u00dfenminister zu Ukraine: Ukraine: NATO will Waffenlieferungen offenbar zentral koordinieren", "url": "https://www.tagesschau.de/ausland/nato-aussenminister-ukraine-fonds-100.html", "thumbnailUrl": null, "date": "2024-04-03T09:03:03Z", "lat": 50.4501, "lon": 30.5234, "intensity": 0.8, "source": "WDR"}, {"title": "Kommt Russland wegen Kriegsverbrechen vor den Internationalen Strafgerichtshof?", "url": "https://www1.wdr.de/nachrichten/kriegsverbrechen-fragen-antworten-100.html", "thumbnailUrl": null, "date": "2024-04-02T16:04:42Z", "lat": 52.0705, "lon": 4.3007, "intensity": 0.8, "source": "WDR"}, {"title": "Rekrutierung in der Ukraine: Rekrutierung in der Ukraine: \"Ich habe ja keine Wahl\"", "url": "https://www.tagesschau.de/ausland/europa/ukraine-rekrutierung-soldaten-100.html", "thumbnailUrl": null, "date": "2024-04-01T02:00:08Z", "lat": 50.4501, "lon": 30.5234, "intensity": 0.7, "source": "WDR"}, {"title": "Ukraine gedenkt der Irpin-Opfer: Suche nach Erinnerungskultur zum Jahrestag der Irpin-Befreiung", "url": "https://www.tagesschau.de/ausland/europa/irpin-bruecke-ukraine-100.html", "thumbnailUrl": null, "date": "2024-03-29T21:36:02Z", "lat": 50.531783, "lon": 30.22409, "intensity": 0.8, "source": "WDR"}, {"title": "Ukraine: Zwischen Krieg und Normalit\u00e4t", "url": "https://www1.wdr.de/mediathek/audio/wdr5/wdr5-mittagsecho/audio-ukraine-zwischen-krieg-und-normalitaet-100.html", "thumbnailUrl": null, "date": "2024-03-27T13:17:56Z", "lat": 50.4501, "lon": 30.5234, "intensity": 0.7, "source": "WDR"}, {"title": "Gelsenkirchen: E-Scooter Verleiher wehrt sich gegen Verbot", "url": "https://www1.wdr.de/nachrichten/ruhrgebiet/e-scooter-raus-aus-gelsenkirchen-verleiher-klagt-100.html", "thumbnailUrl": null, "date": "2024-04-04T12:34:05Z", "lat": 51.5177, "lon": 7.0616, "intensity": 0.8, "source": "WDR"}, {"title": "Rattenproblem an G\u00fctersloher Kita", "url": "https://www1.wdr.de/nachrichten/westfalen-lippe/rattenproblem-kita-guetersloh-100.html", "thumbnailUrl": null, "date": "2024-04-04T12:47:53Z", "lat": 51.9645, "lon": 8.5423, "intensity": 0.7, "source": "WDR"}, {"title": "Problem an Stellwerk in M\u00f6nchengladbach behoben: Z\u00fcge sollen wieder fahren", "url": "https://www1.wdr.de/nachrichten/rheinland/stellwerk-probleme-moenchenglabdach-100.html", "thumbnailUrl": null, "date": "2024-04-04T12:57:14Z", "lat": 51.1805, "lon": 6.4328, "intensity": 0.8, "source": "WDR"}, {"title": "Kostenloses Trinkwasser in S\u00fcdwestfalen boomt", "url": "https://www1.wdr.de/nachrichten/westfalen-lippe/trinkwasser-kostenlos-warstein-radfahrer-100.html", "thumbnailUrl": null, "date": "2024-04-04T12:44:35Z", "lat": 51.0, "lon": 8.0, "intensity": 0.4, "source": "WDR"}, {"title": "Frau von L\u00e4rmschutzwand erschlagen: Anklage gegen drei Beschuldigte", "url": "https://www1.wdr.de/nachrichten/rheinland/frau-laermschutzwand-erschlagen-koeln-prozess-100.html", "thumbnailUrl": null, "date": "2024-04-04T06:53:41Z", "lat": 50.9375, "lon": 6.957, "intensity": 0.7, "source": "WDR"}, {"title": "Kommentar: Herbert Reul - der Sheriff ist gescheitert", "url": "https://www1.wdr.de/nachrichten/landespolitik/kriminalitaet-nrw-reul-kommentar-100.html", "thumbnailUrl": null, "date": "2024-04-03T15:56:13Z", "lat": 51.9607, "lon": 7.6261, "intensity": 0.8, "source": "WDR"}, {"title": "NRW-Kriminalstatistik 2023: Mehr Straftaten und mehr junge Tatverd\u00e4chtige", "url": "https://www1.wdr.de/nachrichten/landespolitik/kriminalitaetsstatistik-nrw-reul-100.html", "thumbnailUrl": null, "date": "2024-04-04T07:13:34Z", "lat": 51.8133, "lon": 7.6261, "intensity": 0.8, "source": "WDR"},