[{"title": "++ Israel emp\u00f6rt \u00fcber m\u00f6gliche US-Sanktionen ++", "url": "https://www.tagesschau.de/newsticker/liveblog-nahost-sonntag-132.html", "thumbnailUrl": "https://images.tagesschau.de/image/e365725b-db56-4c07-9bf6-67c7b59cc4a7/AAABhnRDex8/AAABjcWesUg/16x9-512.jpg", "date": "2024-04-21T03:06:59.494+02:00", "lat": 31.0, "lon": 35.0, "intensity": 0.8, "source": "Tagesschau"}, {"title": "Menschenrechtsaktivistin D\u00fczen Tekkal mit Theodor Heuss Preis ausgezeichnet", "url": "https://www.tagesschau.de/inland/regional/badenwuerttemberg/swr-menschenrechtsaktivistin-duezen-tekkal-mit-theodor-heuss-preis-ausgezeichnet-100.html", "thumbnailUrl": "https://images.tagesschau.de/image/9ab42a7e-e4ce-4004-adaa-9027a3f5e846/AAABjv3Na08/AAABjcWesUg/16x9-512.jpg", "date": "2024-04-21T01:12:03.000+02:00", "lat": 48.775845, "lon": 9.182932, "intensity": 0.7, "source": "Tagesschau"}, {"title": "Dutzende Tote bei Bootsungl\u00fcck", "url": "https://www.tagesschau.de/ausland/afrika/zentralafrikanische-republik-bootsunglueck-100.html", "thumbnailUrl": "https://images.tagesschau.de/image/f58db8b3-4c82-4c47-bd45-585f74fcc305/AAABjv2QBKg/AAABjcWesUg/16x9-512.jpg", "date": "2024-04-21T00:40:39.925+02:00", "lat": 6.6111, "lon": 20.9394, "intensity": 0.8, "source": "Tagesschau"}, {"title": "++ US-Milit\u00e4rhilfe f\u00fcr Israel bewilligt ++", "url": "https://www.tagesschau.de/newsticker/liveblog-nahost-samstag-126.html", "thumbnailUrl": "https://images.tagesschau.de/image/e29fce49-0047-410f-ba3b-71c294caad12/AAABjaJlDIo/AAABjcWesUg/16x9-512.jpg", "date": "2024-04-20T23:37:59.106+02:00", "lat": 32.1093, "lon": 34.8516, "intensity": 0.8, "source": "Tagesschau"}, {"title": "++ Russland meldet zwei Tote in Belgorod ++", "url": "https://www.tagesschau.de/newsticker/liveblog-ukraine-samstag-380.html", "thumbnailUrl": "https://images.tagesschau.de/image/ebee929d-d95e-4607-865e-23f7ede20323/AAABjvq1FyM/AAABjcWesUg/16x9-512.jpg", "date": "2024-04-20T23:37:14.686+02:00", "lat": 50.608, "lon": 36.588, "intensity": 0.7, "source": "Tagesschau"}, {"title": "Chef von Varta verkauft Aktien kurz vor Kurssturz", "url": "https://www.tagesschau.de/inland/regional/badenwuerttemberg/swr-chef-von-varta-verkauft-aktien-kurz-vor-kurssturz-100.html", "thumbnailUrl": "https://images.tagesschau.de/image/923c4868-6aeb-4aa9-be03-c317f8d72961/AAABjv1x3Y0/AAABjcWesUg/16x9-512.jpg", "date": "2024-04-20T23:32:00.000+02:00", "lat": 48.9623, "lon": 10.1285, "intensity": 0.8, "source": "Tagesschau"}, {"title": "Holstein Kiel unbeirrt Richtung Aufstieg, HSV f\u00e4llt weiter zur\u00fcck", "url": "https://www.tagesschau.de/inland/regional/hamburg/ndr-holstein-kiel-weiter-unbeirrt-sieg-auch-beim-hsv-102.html", "thumbnailUrl": "https://images.tagesschau.de/image/cc94d52d-f6a8-47f0-8b9f-bd3930de42aa/AAABjv15OYY/AAABjcWesUg/16x9-512.jpg", "date": "2024-04-20T23:18:00.000+02:00", "lat": 53.551086, "lon": 9.993682, "intensity": 0.8, "source": "Tagesschau"}, {"title": "1:5-Heimniederlage: 1. FC Union Berlin geht gegen abgezockte Bayern unter", "url": "https://www.tagesschau.de/inland/regional/berlin/rbb-15-heimniederlage-1-fc-union-berlin-geht-gegen-abgezockte-bayern-unter-102.html", "thumbnailUrl": "https://images.tagesschau.de/image/0a254155-7db8-43af-b184-77faaa19fe78/AAABjvzfa7I/AAABjcWesUg/16x9-512.jpg", "date": "2024-04-20T21:56:09.000+02:00", "lat": 52.52, "lon": 13.4005, "intensity": 0.8, "source": "Tagesschau"}, {"title": "Luxemburger unterst\u00fctzen Wissenschaft mit Fotos ", "url": "https://www.tagesschau.de/inland/regional/saarland/sr-luxemburger-unterstuetzen-wissenschaft-mit-fotos-100.html", "thumbnailUrl": "https://images.tagesschau.de/image/a7110e58-9b08-42f5-8e8f-b49cf52e016f/AAABjvzjCA8/AAABjcWesUg/16x9-512.jpg", "date": "2024-04-20T20:59:00.000+02:00", "lat": 49.8153, "lon": 6.1296, "intensity": 0.7, "source": "Tagesschau"}, {"title": "3:1-Heimerfolg: BR Volleys melden sich in der Volleyball-Finalserie gegen Friedrichshafen zur\u00fcck", "url": "https://www.tagesschau.de/inland/regional/berlin/rbb-31-heimerfolg-br-volleys-melden-sich-in-der-volleyball-finalserie-gegen-friedrichshafen-zurueck-102.html", "thumbnailUrl": "https://images.tagesschau.de/image/ca4735e9-d43b-4ba4-95b4-ab228dd99064/AAABjvzdnB0/AAABjcWesUg/16x9-512.jpg", "date": "2024-04-20T20:51:12.000+02:00", "lat": 52.5235, "lon": 13.4154, "intensity": 0.6, "source": "Tagesschau"}, {"title": "Uber, Freenow, Bolt und Bliq: Berlin sperrt ein Viertel der Mietwagen auf Plattformen", "url": "https://www.tagesschau.de/inland/regional/berlin/rbb-berlin-sperrt-ein-viertel-der-mietwagen-auf-plattformen-100.html", "thumbnailUrl": "https://images.tagesschau.de/image/b0e2e7e3-41dd-4b2d-9bda-2c8f19778527/AAABjvzbwpo/AAABjcWesUg/16x9-512.jpg", "date": "2024-04-20T20:49:05.000+02:00", "lat": 52.52, "lon": 13.405, "intensity": 0.7, "source": "Tagesschau"}, {"title": "Extremwanderung: Mammutmarsch im Ruhrgebiet", "url": "https://www.tagesschau.de/inland/regional/nordrheinwestfalen/wdr-extremwanderung-mammutmarsch-im-ruhrgebiet-100.html", "thumbnailUrl": "https://images.tagesschau.de/image/0cd64fb9-750f-437e-9bdd-c70d20dcc1ef/AAABjvzO5CU/AAABjcWesUg/16x9-512.jpg", "date": "2024-04-20T20:36:00.000+02:00", "lat": 51.4344, "lon": 6.761, "intensity": 0.8, "source": "Tagesschau"}, {"title": "1. BC Bischmisheim verpasst Finaleinzug bei Badminton-Meisterschaft", "url": "https://www.tagesschau.de/inland/regional/saarland/sr-1-bc-saarbruecken-bischmisheim-verpasst-finaleinzug-bei-badminton-meisterschaft-102.html", "thumbnailUrl": "https://images.tagesschau.de/image/b9266b11-a59d-4dc9-9409-55439ef6229a/AAABjvzZ388/AAABjcWesUg/16x9-512.jpg", "date": "2024-04-20T20:31:00.000+02:00", "lat": 49.2386, "lon": 6.9934, "intensity": 0.7, "source": "Tagesschau"}, {"title": "\"Jugendliche k\u00f6nnen gute Wahlentscheidung treffen\"", "url": "https://www.tagesschau.de/inland/regional/rheinlandpfalz/swr-jugendliche-koennen-gute-wahlentscheidung-treffen-102.html", "thumbnailUrl": "https://images.tagesschau.de/image/f003a24c-cd6e-4522-9eea-fee1977af6ce/AAABjvzLRF4/AAABjcWesUg/16x9-512.jpg", "date": "2024-04-20T20:22:39.000+02:00", "lat": 50.1183, "lon": 7.5371, "intensity": 0.3, "source": "Tagesschau"}, {"title": "Propal\u00e4stinensische Demo gegen deutsche Waffenlieferungen an Israel", "url": "https://www.tagesschau.de/inland/regional/berlin/rbb-propalaestinensische-demo-gegen-deutsche-waffenlieferungen-an-israel-100.html", "thumbnailUrl": "https://images.tagesschau.de/image/23c3762c-e0b1-4739-a023-702a90101e57/AAABjvy-rNk/AAABjcWesUg/16x9-512.jpg", "date": "2024-04-20T20:18:44.000+02:00", "lat": 52.520008, "lon": 13.404954, "intensity": 0.7, "source": "Tagesschau"}, {"title": "Bundeskanzler Scholz in Chemnitz: Mehr Fragen als Antworten", "url": "https://www.tagesschau.de/inland/regional/sachsen/mdr-bundeskanzler-scholz-in-chemnitz-mehr-fragen-als-antworten-100.html", "thumbnailUrl": "https://images.tagesschau.de/image/e474bfc5-e3ef-48f7-9352-2d645fbb647c/AAABjv25Tgc/AAABjcWesUg/16x9-512.jpg", "date": "2024-04-20T20:11:47.000+02:00", "lat": 50.8278, "lon": 12.9276, "intensity": 0.5, "source": "Tagesschau"}, {"title": "Berliner Linke in Erfurt: Inspiration vom Pragmatiker", "url": "https://www.tagesschau.de/inland/regional/berlin/rbb-berliner-linke-in-erfurt-inspiration-vom-pragmatiker-100.html", "thumbnailUrl": "https://images.tagesschau.de/image/e30a1f4e-4073-446d-8bbe-3017f50b060e/AAABjvy3NyM/AAABjcWesUg/16x9-512.jpg", "date": "2024-04-20T20:11:34.000+02:00", "lat": 50.9787, "lon": 11.0328, "intensity": 0.8, "source": "Tagesschau"}, {"title": "Weitere Hilfe f\u00fcr Gaza - harsche Kritik an Israel", "url": "https://www.tagesschau.de/ausland/europa/erdogan-hamas-chef-100.html", "thumbnailUrl": "https://images.tagesschau.de/image/ad2bb853-5523-42d6-9c32-0fce4e8f4bb0/AAABjvyuKE0/AAABjcWesUg/16x9-512.jpg", "date": "2024-04-20T20:04:17.154+02:00", "lat": 41.0082, "lon": 28.9784, "intensity": 0.8, "source": "Tagesschau"}, {"title": "Wetter am Sonntag: Kalt, nass und in h\u00f6heren Lagen glatte Stra\u00dfen", "url": "https://www.tagesschau.de/inland/regional/nordrheinwestfalen/wdr-wetter-in-nrw-viel-regen-und-kaum-sonne-am-wochenende-100.html", "thumbnailUrl": "https://images.tagesschau.de/image/d58ab5a3-4a70-4288-a475-225db287d6eb/AAABjvyi9q8/AAABjcWesUg/16x9-512.jpg", "date": "2024-04-20T19:51:00.000+02:00", "lat": 51.9607, "lon": 7.6169, "intensity": 0.6, "source": "Tagesschau"}, {"title": "Hamburger FDP l\u00e4utet hei\u00dfe Phase des Wahlkampfs ein", "url": "https://www.tagesschau.de/inland/regional/hamburg/ndr-hamburger-fdp-laeutet-heisse-phase-des-wahlkampfs-ein-100.html", "thumbnailUrl": "https://images.tagesschau.de/image/50b305aa-1850-41a7-aad3-eda7f56b11ca/AAABjvyShnk/AAABjcWesUg/16x9-512.jpg", "date": "2024-04-20T19:46:00.000+02:00", "lat": 53.55, "lon": 10.0, "intensity": 0.7, "source": "Tagesschau"}, {"title": "Als erste Frau: Eske Nannen ist Ehrenb\u00fcrgerin von Emden", "url": "https://www.tagesschau.de/inland/regional/niedersachsen/ndr-als-erste-frau-eske-nannen-ist-ehrenbuergerin-von-emden-100.html", "thumbnailUrl": "https://images.tagesschau.de/image/0404bcf1-42b6-4600-9a27-4511d42d7bc1/AAABjvylBEA/AAABjcWesUg/16x9-512.jpg", "date": "2024-04-20T19:38:00.000+02:00", "lat": 53.3643, "lon": 7.2057, "intensity": 0.6, "source": "Tagesschau"}, {"title": "So viel Strom produzierten die saarl\u00e4ndischen Kohlekraftwerke", "url": "https://www.tagesschau.de/inland/regional/saarland/sr-so-viel-strom-produzierten-die-saarlaendischen-kohlekraftwerke-100.html", "thumbnailUrl": "https://images.tagesschau.de/image/86fe0ebc-021f-40de-9697-b979a1ba9c29/AAABjvyOzVc/AAABjcWesUg/16x9-512.jpg", "date": "2024-04-20T19:27:00.000+02:00", "lat": 49.3964, "lon": 7.0184, "intensity": 0.5, "source": "Tagesschau"}, {"title": "Klatsche f\u00fcr SPD-Landeschef Raed Saleh bei Wahl zu Berliner Parteispitze", "url": "https://www.tagesschau.de/inland/regional/berlin/rbb-klatsche-fuer-spd-landeschef-raed-saleh-bei-wahl-zu-berliner-parteispitze-100.html", "thumbnailUrl": "https://images.tagesschau.de/image/2e343d0c-2f67-47a7-905f-f84e5ddaa74a/AAABjvyNQrg/AAABjcWesUg/16x9-512.jpg", "date": "2024-04-20T19:21:04.000+02:00", "lat": 52.520008, "lon": 13.404954, "intensity": 0.3, "source": "Tagesschau"}, {"title": "Polizei nimmt Protestler der \"Letzten Generation\" in Gewahrsam", "url": "https://www.tagesschau.de/inland/regional/saarland/sr-strassenblockade-der-letzten-generation-in-saarbruecken-geplant-100.html", "thumbnailUrl": "https://images.tagesschau.de/image/d1c934dd-d59c-40ff-87d6-11798904189a/AAABjvyM98g/AAABjcWesUg/16x9-512.jpg", "date": "2024-04-20T19:14:00.000+02:00", "lat": 49.2613, "lon": 6.9603, "intensity": 0.5, "source": "Tagesschau"}, {"title": "Hamburger Fr\u00fchlingsdom 2024 geht nach vier Wochen zu Ende", "url": "https://www.tagesschau.de/inland/regional/hamburg/ndr-hamburger-fruehlingsdom-2024-geht-nach-vier-wochen-zu-ende-100.html", "thumbnailUrl": "https://images.tagesschau.de/image/88e99f94-1d7c-4bfd-9c83-efece0807756/AAABjvx44YI/AAABjcWesUg/16x9-512.jpg", "date": "2024-04-20T19:02:00.000+02:00", "lat": 53.5511, "lon": 9.984, "intensity": 0.5, "source": "Tagesschau"}, {"title": "Zehntausende protestieren gegen Massentourismus", "url": "https://www.tagesschau.de/ausland/europa/kanaren-proteste-massentourismus-100.html", "thumbnailUrl": "https://images.tagesschau.de/image/5bf86bad-9030-4940-a5bf-0047e9d5406f/AAABjvxaMf0/AAABjcWesUg/16x9-512.jpg", "date": "2024-04-20T18:59:21.833+02:00", "lat": 40.4168, "lon": -3.7038, "intensity": 0.8, "source": "Tagesschau"}, {"title": "Darmstadt 98: +++ Klarer freut sich \u00fcber \"unfassbares Gef\u00fchl\" +++ Lilien holen Sieg in K\u00f6ln +++ N\u00fcrnberger-Comeback gegen K\u00f6ln +++", "url": "https://www.tagesschau.de/inland/regional/hessen/hr--tietz-vermisst-fehlende-gier--lilien-fans-liefern-sich-raststaetten-pruegelei--die-niederlage-der-lilien-in-der-video-zusammenfassung-102.html", "thumbnailUrl": "https://images.tagesschau.de/image/f0d60839-518e-48fa-852c-2dafdafa69ce/AAABjvxsEhg/AAABjcWesUg/16x9-512.jpg", "date": "2024-04-20T18:50:20.051+02:00", "lat": 49.878, "lon": 8.6536, "intensity": 0.6, "source": "Tagesschau"}, {"title": "Potsdamerin Pefestorff ist erste Frau an der Spitze des Deutschen Kanuverbands", "url": "https://www.tagesschau.de/inland/regional/brandenburg/rbb-potsdamerin-pefestorff-ist-erste-frau-an-der-spitze-des-deutschen-kanuverbands-102.html", "thumbnailUrl": "https://images.tagesschau.de/image/d67e1803-f0de-4824-97e7-acb365505c63/AAABjvxt34Q/AAABjcWesUg/16x9-512.jpg", "date": "2024-04-20T18:49:54.000+02:00", "lat": 52.3906, "lon": 13.0657, "intensity": 0.7, "source": "Tagesschau"}, {"title": "Zwei Schwerverletzte bei Auto-Brand in Bielefeld", "url": "https://www.tagesschau.de/inland/regional/nordrheinwestfalen/wdr-zwei-schwerverletzte-bei-auto-brand-in-bielefeld-100.html", "thumbnailUrl": "https://images.tagesschau.de/image/e619d236-fe5e-4ff0-b60b-6b7f701f6f5d/AAABjvy1QnA/AAABjcWesUg/16x9-512.jpg", "date": "2024-04-20T18:38:00.000+02:00", "lat": 52.030228, "lon": 8.532471, "intensity": 0.7, "source": "Tagesschau"}, {"title": "Stimmen zum Sieg von Darmstadt 98 in K\u00f6ln: \"Unfassbar gut f\u00fcr die ganze Lilien-Seele\"", "url": "https://www.tagesschau.de/inland/regional/hessen/hr-stimmen-zum-sieg-von-darmstadt-98-in-koeln-unfassbar-gut-fuer-die-ganze-lilien-seele-100.html", "thumbnailUrl": "https://images.tagesschau.de/image/6f16208a-fbbd-466e-a993-1ba565fd4633/AAABjvxWKf4/AAABjcWesUg/16x9-512.jpg", "date": "2024-04-20T18:08:39.886+02:00", "lat": 50.9384, "lon": 7.0057, "intensity": 0.7, "source": "Tagesschau"}, {"title": "Fu\u00dfball-Regionalliga: Greifswald legt vor im Aufstiegsrennen - Altglienicke nur Unentschieden", "url": "https://www.tagesschau.de/inland/regional/berlin/rbb-fussball-regionalliga-greifswald-legt-vor-im-aufstiegsrennen-altglienicke-nur-unentschieden-102.html", "thumbnailUrl": "https://images.tagesschau.de/image/f88fe5e3-d312-4f85-8bd7-182742e8bede/AAABjvxHfe0/AAABjcWesUg/16x9-512.jpg", "date": "2024-04-20T18:06:50.000+02:00", "lat": 54.0964, "lon": 13.396, "intensity": 0.6, "source": "Tagesschau"}, {"title": "Nahe Trossingen: Verkehrsunfall mit Todesopfer und Schwerverletzten", "url": "https://www.tagesschau.de/inland/regional/badenwuerttemberg/swr-nahe-trossingen-verkehrsunfall-mit-todesopfer-und-schwerverletzten-100.html", "thumbnailUrl": "https://images.tagesschau.de/image/f406c028-a74e-4773-b574-2fb8b2c46621/AAABjvwbhG4/AAABjcWesUg/16x9-512.jpg", "date": "2024-04-20T18:03:00.000+02:00", "lat": 48.0833, "lon": 8.6333, "intensity": 0.9, "source": "Tagesschau"}, {"title": "Waldbrand\u00fcbung: Feuerwehren aus der Region Trier proben den Ernstfall", "url": "https://www.tagesschau.de/inland/regional/rheinlandpfalz/swr-waldbranduebung-feuerwehren-aus-der-region-trier-proben-den-ernstfall-100.html", "thumbnailUrl": "https://images.tagesschau.de/image/2d97ff7a-f4a9-4656-ae4b-f3636b6a971e/AAABjvsTyiU/AAABjcWesUg/16x9-512.jpg", "date": "2024-04-20T18:00:00.000+02:00", "lat": 49.7559, "lon": 7.2125, "intensity": 0.7, "source": "Tagesschau"}, {"title": "Unter Protest: AfD h\u00e4lt Landesparteitag in Unterl\u00fc\u00df ab", "url": "https://www.tagesschau.de/inland/regional/niedersachsen/ndr-unter-protest-afd-haelt-landesparteitag-in-unterluess-ab-100.html", "thumbnailUrl": "https://images.tagesschau.de/image/841cac51-215f-4c56-a62e-d07b9dde5a22/AAABjvxCAbg/AAABjcWesUg/16x9-512.jpg", "date": "2024-04-20T17:50:00.000+02:00", "lat": 52.9486, "lon": 9.9849, "intensity": 0.7, "source": "Tagesschau"}, {"title": "4.000 Kiffer feiern in Berlin Cannabis-Legalisierung", "url": "https://www.tagesschau.de/inland/regional/berlin/rbb-4-000-kiffer-feiern-in-berlin-cannabis-legalisierung-100.html", "thumbnailUrl": "https://images.tagesschau.de/image/0ddb25ac-9be1-476e-bb09-4cf0b5129f73/AAABjvw-Wlg/AAABjcWesUg/16x9-512.jpg", "date": "2024-04-20T17:47:21.000+02:00", "lat": 52.5166, "lon": 13.3777, "intensity": 0.8, "source": "Tagesschau"}, {"title": "Mehr als 1.000 Menschen demonstrieren in Frankfurt gegen Rechtsextremismus", "url": "https://www.tagesschau.de/inland/regional/hessen/hr-mehr-als-1-000-menschen-demonstrieren-in-frankfurt-gegen-rechtsextremismus-100.html", "thumbnailUrl": "https://images.tagesschau.de/image/77ee1579-2f0e-4c80-97f9-ddd0da8ce971/AAABjvwxez0/AAABjcWesUg/16x9-512.jpg", "date": "2024-04-20T17:46:13.992+02:00", "lat": 50.110922, "lon": 8.682127, "intensity": 0.8, "source": "Tagesschau"}, {"title": "Wetterlage und Temperaturen", "url": "https://www.tagesschau.de/wetter/europa-welt", "thumbnailUrl": "https://images.tagesschau.de/image/6e7d3b16-79c8-4308-822b-20c3035236b5/AAABjvwf70U/AAABjcWesUg/16x9-512.jpg", "date": "2024-04-20T17:28:55.591+02:00", "lat": 51.1657, "lon": 10.4515, "intensity": 0.3, "source": "Tagesschau"}, {"title": "Gr\u00fcne in RLP sagen \"rechts\" den Kampf an und wollen Umweltschutz vorantreiben ", "url": "https://www.tagesschau.de/inland/regional/rheinlandpfalz/swr-gruene-in-rlp-sagen-rechts-den-kampf-an-und-wollen-umweltschutz-vorantreiben-100.html", "thumbnailUrl": "https://images.tagesschau.de/image/944b5e22-ea91-4fee-90f0-010ebd6c408b/AAABjvw1Gg0/AAABjcWesUg/16x9-512.jpg", "date": "2024-04-20T17:28:00.000+02:00", "lat": 49.7933, "lon": 7.2684, "intensity": 0.8, "source": "Tagesschau"}, {"title": "Darmstadt 98 vermeidet vorerst den Abstieg: Sieg beim 1. FC K\u00f6ln", "url": "https://www.tagesschau.de/inland/regional/hessen/hr-darmstadt-98-vermeidet-abstieg-sieg-beim-1-fc-koeln-102.html", "thumbnailUrl": "https://images.tagesschau.de/image/0525e152-91cc-4d1d-af35-e21267e261b4/AAABjvxX9Yg/AAABjcWesUg/16x9-512.jpg", "date": "2024-04-20T17:25:51.609+02:00", "lat": 49.674456, "lon": 8.505303, "intensity": 0.8, "source": "Tagesschau"}, {"title": "Wind l\u00e4sst Wolfsburg im Kellerduell gegen Bochum jubeln", "url": "https://www.tagesschau.de/inland/regional/niedersachsen/ndr-wind-laesst-wolfsburg-im-kellerduell-gegen-bochum-jubeln-102.html", "thumbnailUrl": "https://images.tagesschau.de/image/3f0d7c4d-57e0-47cd-8adb-78ef878bc4dd/AAABjvwmmOU/AAABjcWesUg/16x9-512.jpg", "date": "2024-04-20T17:25:00.000+02:00", "lat": 52.4226, "lon": 10.7867, "intensity": 0.8, "source": "Tagesschau"}, {"title": "Beschluss des Kirchenparlaments: Evangelische Kirche will bestimmte \u00c4mter nicht mehr an AfD-Mitglieder vergeben", "url": "https://www.tagesschau.de/inland/regional/brandenburg/rbb-beschluss-des-kirchenparlaments-evangelische-kirche-will-bestimmte-aemter-nicht-mehr-an-afd-mitglieder-vergeben-100.html", "thumbnailUrl": "https://images.tagesschau.de/image/0e95935c-9397-4aec-8281-a61d01efaca4/AAABjvwfVI4/AAABjcWesUg/16x9-512.jpg", "date": "2024-04-20T17:24:41.000+02:00", "lat": 52.520008, "lon": 13.404954, "intensity": 0.8, "source": "Tagesschau"}, {"title": "Hacker nahmen VW jahrelang ins Visier", "url": "https://www.tagesschau.de/wirtschaft/unternehmen/vw-hacker-100.html", "thumbnailUrl": "https://images.tagesschau.de/image/4035e314-c049-4e40-bac9-2828dbe5b7bc/AAABjvwXV4c/AAABjcWesUg/16x9-512.jpg", "date": "2024-04-20T17:19:32.530+02:00", "lat": 51.6777, "lon": 10.7867, "intensity": 0.8, "source": "Tagesschau"}, {"title": "\"Der genetische Unterschied zwischen Hunden und W\u00f6lfen ist sehr gering\"", "url": "https://www.tagesschau.de/inland/regional/berlin/rbb-der-genetische-unterschied-zwischen-hunden-und-woelfen-ist-sehr-gering-102.html", "thumbnailUrl": "https://images.tagesschau.de/image/d5590123-193f-42a1-a245-fd672f2d5e6e/AAABjvwZpC4/AAABjcWesUg/16x9-512.jpg", "date": "2024-04-20T17:17:47.000+02:00", "lat": 50.2032, "lon": 9.1795, "intensity": 0.7, "source": "Tagesschau"}, {"title": "Frontalzusammensto\u00df und ein brennendes Wohnmobil in RLP", "url": "https://www.tagesschau.de/inland/regional/rheinlandpfalz/swr-frontalzusammenstoss-und-ein-brennendes-wohnmobil-in-rlp-100.html", "thumbnailUrl": "https://images.tagesschau.de/image/7ba3ce08-605e-468f-a5db-0282aad0c88c/AAABjvvvhSQ/AAABjcWesUg/16x9-512.jpg", "date": "2024-04-20T17:17:00.000+02:00", "lat": 49.7928, "lon": 6.4833, "intensity": 0.8, "source": "Tagesschau"}, {"title": "Wahl f\u00fcr neue Berliner SPD-Parteispitze: Landeschef Saleh ist aus dem Rennen", "url": "https://www.tagesschau.de/inland/regional/berlin/rbb-wahl-fuer-neue-berliner-spd-parteispitze-saleh-ist-aus-dem-rennen-100.html", "thumbnailUrl": "https://images.tagesschau.de/image/3c447a38-df48-4fe3-adec-d916ad63373b/AAABjvyNRns/AAABjcWesUg/16x9-512.jpg", "date": "2024-04-20T17:05:47.000+02:00", "lat": 52.520008, "lon": 13.404954, "intensity": 0.7, "source": "Tagesschau"}, {"title": "Mehrere Durchsuchungen in Heilbronn-Franken: Einsatz gegen Kinderpornografie", "url": "https://www.tagesschau.de/inland/regional/badenwuerttemberg/swr-mehrere-durchsuchungen-in-heilbronn-franken-einsatz-gegen-kinderpornografie-100.html", "thumbnailUrl": "https://images.tagesschau.de/image/179f4425-e1a9-4dc2-95ab-b227a915e52a/AAABjvwbokU/AAABjcWesUg/16x9-512.jpg", "date": "2024-04-20T17:01:42.000+02:00", "lat": 49.1427, "lon": 9.2209, "intensity": 0.8, "source": "Tagesschau"}, {"title": "Gericht entscheidet: Fahrrad-Demo auf A39 verboten", "url": "https://www.tagesschau.de/inland/regional/niedersachsen/ndr-streit-um-fahrrad-demo-auf-der-a39-bei-bardowick-100.html", "thumbnailUrl": "https://images.tagesschau.de/image/96c75c9d-3e95-4554-9e6f-b7d2989ed025/AAABjvwFryw/AAABjcWesUg/16x9-512.jpg", "date": "2024-04-20T16:59:00.000+02:00", "lat": 53.3167, "lon": 10.4167, "intensity": 0.8, "source": "Tagesschau"}, {"title": "Harres-Doppelpack beschert FC Homburg Heimsieg", "url": "https://www.tagesschau.de/inland/regional/saarland/sr-harres-doppelpack-beschert-fc-homburg-heimsieg-102.html", "thumbnailUrl": "https://images.tagesschau.de/image/c99a69f6-a935-4be1-8a85-507b5f266dbb/AAABjv0AXcA/AAABjcWesUg/16x9-512.jpg", "date": "2024-04-20T16:32:00.000+02:00", "lat": 49.3121, "lon": 7.3497, "intensity": 0.8, "source": "Tagesschau"}, {"title": "\u00d6PNV in Hessen: Busunternehmen warnen vor weiterer Fahrplan-Ausd\u00fcnnung", "url": "https://www.tagesschau.de/inland/regional/hessen/hr-oepnv-in-hessen-busunternehmen-warnen-vor-weiterer-fahrplan-ausduennung-100.html", "thumbnailUrl": "https://images.tagesschau.de/image/5e367cfc-4ba6-4c35-86ea-6f9286845f57/AAABjvvqCSE/AAABjcWesUg/16x9-512.jpg", "date": "2024-04-20T16:28:46.710+02:00", "lat": 51.1657, "lon": 9.4937, "intensity": 0.8, "source": "Tagesschau"}, {"title": "Ein Toter bei Explosion auf Milit\u00e4rst\u00fctzpunkt", "url": "https://www.tagesschau.de/ausland/asien/irak-explosion-stuetzpunkt-100.html", "thumbnailUrl": "https://images.tagesschau.de/image/b9205344-1140-403a-bade-9931641aeaf8/AAABjvvF29M/AAABjcWesUg/16x9-512.jpg", "date": "2024-04-20T16:22:58.179+02:00", "lat": 33.3037, "lon": 44.3216, "intensity": 0.8, "source": "Tagesschau"}, {"title": "\"Von Erfurt aus fliegen nur Million\u00e4re!\": Sind Fl\u00fcge ab Erfurt wirklich teurer? ", "url": "https://www.tagesschau.de/inland/regional/thueringen/mdr-von-erfurt-aus-fliegen-nur-millionaere-sind-fluege-ab-erfurt-wirklich-teurer-100.html", "thumbnailUrl": "https://images.tagesschau.de/image/5448bff7-21f6-4556-b3cf-71310742fbb9/AAABjv3ER6g/AAABjcWesUg/16x9-512.jpg", "date": "2024-04-20T16:10:30.000+02:00", "lat": 50.9848, "lon": 11.0299, "intensity": 0.5, "source": "Tagesschau"}, {"title": "Cannabis-Legalisierung: Deutsche Bahn verbietet Kiffen an Bahnh\u00f6fen", "url": "https://www.tagesschau.de/inland/regional/brandenburg/rbb-cannabis-legalisierung-deutsche-bahn-verbietet-kiffen-an-bahnhoefen-100.html", "thumbnailUrl": "https://images.tagesschau.de/image/9c135448-1d05-4a09-9cb5-47e232b22040/AAABjvuQZ-Y/AAABjcWesUg/16x9-512.jpg", "date": "2024-04-20T16:09:50.000+02:00", "lat": 52.520008, "lon": 13.404954, "intensity": 0.6, "source": "Tagesschau"}, {"title": "Eintracht: +++ Hellmann bedankt sich bei den Fans +++ Toppm\u00f6ller lobt Ekitik\u00e9 +++ Kr\u00f6sche: \"Erleichterung ist gro\u00df\" +++", "url": "https://www.tagesschau.de/inland/regional/hessen/hr--eintracht-wohl-mit-chaibi-einig--glasner-fast-nur-kolo-muani-der-tore-erzielt--bericht-eintracht-sagt-aouar-ab-100.html", "thumbnailUrl": "https://images.tagesschau.de/image/1f2aade1-ed71-4cf9-833d-76d7ceafec73/AAABjvvSXQw/AAABjcWesUg/16x9-512.jpg", "date": "2024-04-20T16:02:38.268+02:00", "lat": 50.110922, "lon": 8.682127, "intensity": 0.6, "source": "Tagesschau"}, {"title": "1. FC Saarbr\u00fccken gibt Sieg in M\u00fcnchen aus der Hand", "url": "https://www.tagesschau.de/inland/regional/saarland/sr-1-fc-saarbruecken-kann-mit-sieg-auf-den-relegationsplatz-rutschen-102.html", "thumbnailUrl": "https://images.tagesschau.de/image/349bd8ca-6cc9-41e4-8570-17dd8d38ce65/AAABjv0AXxc/AAABjcWesUg/16x9-512.jpg", "date": "2024-04-20T16:00:00.000+02:00", "lat": 49.2402, "lon": 6.9974, "intensity": 0.6, "source": "Tagesschau"}, {"title": "Eintracht Frankfurt Frauen zur\u00fcck auf Champions-League-Kurs", "url": "https://www.tagesschau.de/inland/regional/hessen/hr-eintracht-frankfurt-frauen-zurueck-auf-champions-league-kurs-102.html", "thumbnailUrl": "https://images.tagesschau.de/image/e5381995-562d-42a3-9ce1-2e57f099b928/AAABjvvV_qs/AAABjcWesUg/16x9-512.jpg", "date": "2024-04-20T15:55:59.561+02:00", "lat": 50.1109, "lon": 8.67, "intensity": 0.7, "source": "Tagesschau"}, {"title": "Gegner der Eisb\u00e4ren in DEL-Finalserie: Aktuelle Saison hat aus Bremerhaven \"Fischtown\" gemacht", "url": "https://www.tagesschau.de/inland/regional/berlin/rbb-gegner-der-eisbaeren-in-del-finalserie-saison-hat-aus-bremerhaven-fishtown-gemacht-102.html", "thumbnailUrl": "https://images.tagesschau.de/image/e7ae1b49-54c6-489f-a375-2d61ca5d7b51/AAABjvvDmkI/AAABjcWesUg/16x9-512.jpg", "date": "2024-04-20T15:54:00.000+02:00", "lat": 52.520008, "lon": 13.404954, "intensity": 0.8, "source": "Tagesschau"}, {"title": "Kultur: +++ Mirjam-Pressler-Ausstellung in Frankfurt +++ Werner Reinke und Holger Weinert mit Hessischem Verdienstorden geehrt +++ Ensemble f\u00fcr Festspiel-Musical in Bad Hersfeld steht +++", "url": "https://www.tagesschau.de/inland/regional/hessen/hr--schauspiel-frankfurt-bringt-putin-und-macbeth-zusammen--die-filmfestival-saison-2023-startet--lichter-filmfest-zum-thema-liebe-startet-am-dienstag-100.html", "thumbnailUrl": "https://images.tagesschau.de/image/3fa9cbd6-9cab-4337-b0a8-b4f66f3ba9ff/AAABjvvUD-Y/AAABjcWesUg/16x9-512.jpg", "date": "2024-04-20T15:51:20.440+02:00", "lat": 50.110922, "lon": 8.682127, "intensity": 0.7, "source": "Tagesschau"}, {"title": "VfB L\u00fcbeck: Abstieg vielleicht nur noch eine Frage von Stunden", "url": "https://www.tagesschau.de/inland/regional/schleswigholstein/ndr-vfb-luebeck-abstieg-vielleicht-nur-noch-eine-frage-von-stunden-102.html", "thumbnailUrl": "https://images.tagesschau.de/image/3830d571-e5d1-41ac-bc0b-e70e8acb60c6/AAABjvwFlh0/AAABjcWesUg/16x9-512.jpg", "date": "2024-04-20T15:51:00.000+02:00", "lat": 53.87464, "lon": 10.69938, "intensity": 0.8, "source": "Tagesschau"}, {"title": "Wismar: Faltboot-Ausstellung im Phantechnikum", "url": "https://www.tagesschau.de/inland/regional/mecklenburgvorpommern/ndr-wismar-faltboot-ausstellung-im-phantechnikum-100.html", "thumbnailUrl": "https://images.tagesschau.de/image/cfd9b3e9-58e1-42df-9475-4c27f31835b0/AAABjvyD1NQ/AAABjcWesUg/16x9-512.jpg", "date": "2024-04-20T15:49:00.000+02:00", "lat": 53.8888, "lon": 11.4714, "intensity": 0.4, "source": "Tagesschau"}, {"title": "Wie Hund Balou bei einem Feuer in Osthessen zum Lebensretter wurde", "url": "https://www.tagesschau.de/inland/regional/hessen/hr-wie-hund-balou-bei-einem-feuer-in-osthessen-zum-lebensretter-wurde-100.html", "thumbnailUrl": "https://images.tagesschau.de/image/5ea3ff2c-e62d-48c8-88c4-c32ca1403c78/AAABjvvHXFM/AAABjcWesUg/16x9-512.jpg", "date": "2024-04-20T15:45:55.679+02:00", "lat": 50.5841, "lon": 9.1625, "intensity": 0.8, "source": "Tagesschau"}, {"title": "Russische Beh\u00f6rden rufen zu Evakuierungen auf", "url": "https://www.tagesschau.de/ausland/europa/russland-ural-evakuierung-100.html", "thumbnailUrl": "https://images.tagesschau.de/image/b5471f9d-f987-4901-a11b-d59cb8ab5a45/AAABjvu96ZE/AAABjcWesUg/16x9-512.jpg", "date": "2024-04-20T15:41:51.493+02:00", "lat": 61.524, "lon": 100.7818, "intensity": 0.8, "source": "Tagesschau"}, {"title": "Hilfe aus der Ferne: \u00c4rztekammer will Telenot\u00e4rzte ausbilden", "url": "https://www.tagesschau.de/inland/regional/sachsenanhalt/mdr-hilfe-aus-der-ferne-aerztekammer-will-telenotaerzte-ausbilden-100.html", "thumbnailUrl": "https://images.tagesschau.de/image/217dd3ec-afcf-49dc-a3fe-ffe7af09ea9a/AAABjv2yNyg/AAABjcWesUg/16x9-512.jpg", "date": "2024-04-20T15:41:24.000+02:00", "lat": 52.133, "lon": 11.582, "intensity": 0.6, "source": "Tagesschau"}, {"title": "Ganz Bremen im Fr\u00fchjahrsputz? Diese Hausmittel helfen wirklich", "url": "https://www.tagesschau.de/inland/regional/bremen/rb-ganz-bremen-im-fruehjahrsputz-diese-hausmittel-helfen-wirklich-100.html", "thumbnailUrl": "https://images.tagesschau.de/image/eb5edbc7-adda-460f-a987-b6d1a08a0362/AAABjvu6bG4/AAABjcWesUg/16x9-512.jpg", "date": "2024-04-20T15:33:00.000+02:00", "lat": 53.0793, "lon": 8.8017, "intensity": 0.2, "source": "Tagesschau"}, {"title": "Klimaprotest der Letzten Generation blockiert T\u00fcbingens Innenstadt", "url": "https://www.tagesschau.de/inland/regional/badenwuerttemberg/swr-klimaprotest-der-letzten-generation-blockiert-tuebingens-innenstadt-100.html", "thumbnailUrl": "https://images.tagesschau.de/image/fb8396b1-9b72-43c9-a011-8e04d409aef7/AAABjvu_7T4/AAABjcWesUg/16x9-512.jpg", "date": "2024-04-20T15:32:44.000+02:00", "lat": 48.5236, "lon": 9.1052, "intensity": 0.8, "source": "Tagesschau"}, {"title": "Jetzt live: Die Partien des 30. Spieltags", "url": "https://www.sportschau.de/live-und-ergebnisse/konferenz/ac983/", "thumbnailUrl": "https://images.tagesschau.de/image/9f8165ba-ca30-4328-b2f7-799fe3637a8c/AAABiNkNSio/AAABjcWesUg/16x9-512.jpg", "date": "2024-04-20T15:22:18.472+02:00", "lat": 50.1109, "lon": 8.6821, "intensity": 0.8, "source": "Tagesschau"}, {"title": "Baum rei\u00dft Oberleitung ab - Bahnstrecke K\u00f6ln-Siegen wieder befahrbar", "url": "https://www.tagesschau.de/inland/regional/nordrheinwestfalen/wdr-baum-reisst-oberleitung-ab-bahnstrecke-koeln-siegen-weiterhin-gesperrt-100.html", "thumbnailUrl": "https://images.tagesschau.de/image/130e1355-4b89-4c62-8134-1a57063efbea/AAABjvuvbCI/AAABjcWesUg/16x9-512.jpg", "date": "2024-04-20T15:21:00.000+02:00", "lat": 50.7801, "lon": 7.6459, "intensity": 0.8, "source": "Tagesschau"}, {"title": "Seltener und k\u00fcrzer duschen", "url": "https://www.tagesschau.de/ausland/amerika/kolumbien-wasserknappheit-100.html", "thumbnailUrl": "https://images.tagesschau.de/image/149e2a43-b0ed-4d35-8ad5-595bce89309a/AAABjvYwl80/AAABjcWesUg/16x9-512.jpg", "date": "2024-04-20T15:11:57.071+02:00", "lat": 4.7109, "lon": -74.0721, "intensity": 0.9, "source": "Tagesschau"}, {"title": "St. Pauli bei Hannover 96: \"Charakter zeigen\" und Mini-Krise \u00fcberwinden", "url": "https://www.tagesschau.de/inland/regional/hamburg/ndr-st-pauli-bei-hannover-96-charakter-zeigen-und-mini-krise-ueberwinden-102.html", "thumbnailUrl": "https://images.tagesschau.de/image/e1138b1f-9928-4db3-a588-6ec186f86695/AAABjvufZLo/AAABjcWesUg/16x9-512.jpg", "date": "2024-04-20T15:04:00.000+02:00", "lat": 53.5544, "lon": 9.9623, "intensity": 0.8, "source": "Tagesschau"}, {"title": "\"Schreiben ist Gl\u00fcck\": J\u00fcdisches Museum Frankfurt widmet Autorin Mirjam Pressler Ausstellung", "url": "https://www.tagesschau.de/inland/regional/hessen/hr-schreiben-ist-glueck-juedisches-museum-frankfurt-widmet-autorin-mirjam-pressler-ausstellung-100.html", "thumbnailUrl": "https://images.tagesschau.de/image/2ad80801-a397-424c-8035-370a310c95d9/AAABjvuZtkc/AAABjcWesUg/16x9-512.jpg", "date": "2024-04-20T15:00:40.427+02:00", "lat": 50.1109, "lon": 8.6821, "intensity": 0.8, "source": "Tagesschau"}, {"title": "HSV heute gegen Kiel: H\u00e4lt Holsteins Volkspark-Serie, ist der Aufstieg nah ", "url": "https://www.tagesschau.de/inland/regional/schleswigholstein/ndr-hsv-gegen-kiel-haelt-holsteins-volkspark-serie-ist-der-aufstieg-nah-102.html", "thumbnailUrl": "https://images.tagesschau.de/image/4b159258-0e14-4751-8a2d-a63022102527/AAABjvuXpug/AAABjcWesUg/16x9-512.jpg", "date": "2024-04-20T14:56:00.000+02:00", "lat": 53.5706, "lon": 9.9889, "intensity": 0.8, "source": "Tagesschau"}, {"title": "Wehen Wiesbaden rettet Remis im Keller-Duell beim 1. FC Kaiserslautern", "url": "https://www.tagesschau.de/inland/regional/hessen/hr-wehen-wiesbaden-rettet-remis-im-keller-duell-beim-1-fc-kaiserslautern-102.html", "thumbnailUrl": "https://images.tagesschau.de/image/12849287-83dc-4d1a-a978-d67442f50b35/AAABjvuZ7f8/AAABjcWesUg/16x9-512.jpg", "date": "2024-04-20T14:55:00.643+02:00", "lat": 49.4444, "lon": 7.7845, "intensity": 0.7, "source": "Tagesschau"}, {"title": "Partycrasher Eintracht: Braunschweig schl\u00e4gt Osnabr\u00fcck im Jubil\u00e4umsspiel", "url": "https://www.tagesschau.de/inland/regional/niedersachsen/ndr-partycrasher-eintracht-braunschweig-schlaegt-osnabrueck-im-jubilaeumsspiel-102.html", "thumbnailUrl": "https://images.tagesschau.de/image/57e84cc2-8de4-429a-b42b-b4d1f756ade1/AAABjvuZ00g/AAABjcWesUg/16x9-512.jpg", "date": "2024-04-20T14:55:00.000+02:00", "lat": 52.291476, "lon": 10.036186, "intensity": 0.8, "source": "Tagesschau"}, {"title": "LGS in Wangen im Allg\u00e4u: Letzte Vorbereitungen laufen", "url": "https://www.tagesschau.de/inland/regional/badenwuerttemberg/swr-lgs-in-wangen-im-allgaeu-letzte-vorbereitungen-laufen-100.html", "thumbnailUrl": "https://images.tagesschau.de/image/f8e61b98-eb30-4c52-bb81-9a8c141ef6b4/AAABjvv6pX4/AAABjcWesUg/16x9-512.jpg", "date": "2024-04-20T14:52:44.000+02:00", "lat": 47.6859, "lon": 9.8204, "intensity": 0.6, "source": "Tagesschau"}, {"title": "SEK-Einsatz: Polizei umstellt Geb\u00e4ude in B\u00f6bingen ", "url": "https://www.tagesschau.de/inland/regional/badenwuerttemberg/swr-sek-einsatz-polizei-umstellt-gebaeude-in-boebingen-100.html", "thumbnailUrl": "https://images.tagesschau.de/image/70497532-a1e0-45aa-ad87-39815c6cafb1/AAABjvt-DKs/AAABjcWesUg/16x9-512.jpg", "date": "2024-04-20T14:41:00.000+02:00", "lat": 48.8302, "lon": 9.8742, "intensity": 0.8, "source": "Tagesschau"}, {"title": "Kiffen an Bahnh\u00f6fen soll verboten werden", "url": "https://www.tagesschau.de/inland/gesellschaft/kiffen-bahnhof-100.html", "thumbnailUrl": "https://images.tagesschau.de/image/22157deb-a96e-43e9-9bd8-f5accdd37e15/AAABjvtvbFI/AAABjcWesUg/16x9-512.jpg", "date": "2024-04-20T14:38:29.775+02:00", "lat": 53.5511, "lon": 9.9937, "intensity": 0.6, "source": "Tagesschau"}, {"title": "Hallescher Holocaust-\u00dcberlebender Max Schwab ist tot", "url": "https://www.tagesschau.de/inland/regional/sachsenanhalt/mdr-hallescher-holocaust-ueberlebender-max-schwab-ist-tot-100.html", "thumbnailUrl": "https://images.tagesschau.de/image/3cb8121f-871b-4440-95c9-a5a75994ec10/AAABjv2yb9w/AAABjcWesUg/16x9-512.jpg", "date": "2024-04-20T14:37:25.000+02:00", "lat": 51.4818, "lon": 11.9771, "intensity": 0.8, "source": "Tagesschau"}, {"title": "Drogenboss aus Belgien nahe Berliner Ku'damm gefasst", "url": "https://www.tagesschau.de/inland/regional/berlin/rbb-charlottenburg-mutmasslicher-drogenboss-aus-belgien-nahe-berliner-kudamm-festgenommen-100.html", "thumbnailUrl": "https://images.tagesschau.de/image/02a54fd8-2fdf-4b6a-b86a-72314537dda7/AAABjvtT8eY/AAABjcWesUg/16x9-512.jpg", "date": "2024-04-20T14:30:54.000+02:00", "lat": 52.5025, "lon": 13.3286, "intensity": 0.8, "source": "Tagesschau"}, {"title": "S-Bahn-Sperrungen am Wochenende - Anreise zum HSV-Spiel erschwert", "url": "https://www.tagesschau.de/inland/regional/hamburg/ndr-s-bahn-sperrungen-am-wochenende-anreise-zum-hsv-spiel-erschwert-102.html", "thumbnailUrl": "https://images.tagesschau.de/image/69479ff0-4748-4bdf-b34d-6c8f30d543c4/AAABjvuXuOU/AAABjcWesUg/16x9-512.jpg", "date": "2024-04-20T14:12:00.000+02:00", "lat": 53.5511, "lon": 9.9937, "intensity": 0.7, "source": "Tagesschau"}, {"title": "Eule aus Ballfangnetz in Hagen befreit", "url": "https://www.tagesschau.de/inland/regional/nordrheinwestfalen/wdr-eule-aus-ballfangnetz-in-hagen-befreit-102.html", "thumbnailUrl": "https://images.tagesschau.de/image/2c209545-e08a-4a63-82b0-14ef06477a7c/AAABjvzD6XI/AAABjcWesUg/16x9-512.jpg", "date": "2024-04-20T14:04:00.000+02:00", "lat": 51.3587, "lon": 7.4727, "intensity": 0.2, "source": "Tagesschau"}, {"title": "Colorido-Verein aus Plauen erh\u00e4lt Theodor-Heuss-Medaille", "url": "https://www.tagesschau.de/inland/regional/sachsen/mdr-colorido-verein-aus-plauen-erhaelt-theodor-heuss-medaille-100.html", "thumbnailUrl": "https://images.tagesschau.de/image/ad158d02-aff3-4c2c-8fd7-596fe253c30b/AAABjv25bMc/AAABjcWesUg/16x9-512.jpg", "date": "2024-04-20T14:00:00.000+02:00", "lat": 50.5039, "lon": 12.1326, "intensity": 0.8, "source": "Tagesschau"}, {"title": "60. Biennale in Venedig er\u00f6ffnet", "url": "https://www.tagesschau.de/ausland/biennale-venedig-162.html", "thumbnailUrl": "https://images.tagesschau.de/image/5249ca2a-c180-4444-8f3a-6ea2a18139dc/AAABjvs1r9U/AAABjcWesUg/16x9-512.jpg", "date": "2024-04-20T13:38:34.307+02:00", "lat": 45.4408, "lon": 12.3155, "intensity": 0.7, "source": "Tagesschau"}, {"title": "F\u00fcr zwei neue Schilder: Sangerhausen soll 181.000 Euro zahlen", "url": "https://www.tagesschau.de/inland/regional/sachsenanhalt/mdr-fuer-zwei-neue-schilder-sangerhausen-soll-181-000-euro-zahlen-100.html", "thumbnailUrl": "https://images.tagesschau.de/image/483d2a8a-dd82-4338-ab37-f305d0c82a80/AAABjv2x-9U/AAABjcWesUg/16x9-512.jpg", "date": "2024-04-20T13:33:39.000+02:00", "lat": 51.4753, "lon": 11.1577, "intensity": 0.7, "source": "Tagesschau"}, {"title": "Wasenparty l\u00e4uft: Das Stuttgarter Fr\u00fchlingsfest 2024 ist er\u00f6ffnet", "url": "https://www.tagesschau.de/inland/regional/badenwuerttemberg/swr-auf-zum-wasen-das-stuttgarter-fruehlingsfest-2024-startet-100.html", "thumbnailUrl": "https://images.tagesschau.de/image/7361f68c-7525-4979-a882-ed9c618ed61f/AAABjvtZXT8/AAABjcWesUg/16x9-512.jpg", "date": "2024-04-20T13:33:00.000+02:00", "lat": 48.7758459, "lon": 9.1829321, "intensity": 0.7, "source": "Tagesschau"}, {"title": "Chefarzt-K\u00fcndigung im Berliner Ma\u00dfregelvollzug: Gesundheitsverwaltung \u00e4u\u00dfert Bedauern", "url": "https://www.tagesschau.de/inland/regional/berlin/rbb-chefarzt-kuendigung-im-berliner-massregelvollzug-gesundheitsverwaltung-aeussert-bedauern-100.html", "thumbnailUrl": "https://images.tagesschau.de/image/b35af100-c831-42fc-a012-3c932e399995/AAABjvtKxhM/AAABjcWesUg/16x9-512.jpg", "date": "2024-04-20T13:32:49.000+02:00", "lat": 52.520008, "lon": 13.404954, "intensity": 0.8, "source": "Tagesschau"}, {"title": "\"Der Winter gibt ein sp\u00e4tes Gastspiel\"", "url": "https://www.tagesschau.de/inland/gesellschaft/schnee-im-april-102.html", "thumbnailUrl": "https://images.tagesschau.de/image/f5875430-1c8a-4f28-b86f-f8d9c0ce5b5d/AAABjvtEAIo/AAABjcWesUg/16x9-512.jpg", "date": "2024-04-20T13:28:41.870+02:00", "lat": 51.1657, "lon": 10.4515, "intensity": 0.6, "source": "Tagesschau"}, {"title": "Hochwasser: Freiberufler und Firmen k\u00f6nnen nun Hilfe beantragen", "url": "https://www.tagesschau.de/inland/regional/niedersachsen/ndr-hochwasser-freiberufler-und-firmen-koennen-nun-hilfe-beantragen-100.html", "thumbnailUrl": "https://images.tagesschau.de/image/41da7bd0-70ed-473a-bdb2-69a92238e8aa/AAABjvtHR00/AAABjcWesUg/16x9-512.jpg", "date": "2024-04-20T13:20:00.000+02:00", "lat": 52.3759, "lon": 9.732, "intensity": 0.7, "source": "Tagesschau"}, {"title": "60.000 Fr\u00fchjahrsbl\u00fcher: Park der G\u00e4rten startet in die Saison", "url": "https://www.tagesschau.de/inland/regional/niedersachsen/ndr-60-000-fruehjahrsblueher-park-der-gaerten-startet-in-die-saison-100.html", "thumbnailUrl": "https://images.tagesschau.de/image/4233c03f-1b3d-4e65-ab5a-c0a2fb5e04e6/AAABjvs4djg/AAABjcWesUg/16x9-512.jpg", "date": "2024-04-20T13:13:00.000+02:00", "lat": 53.1875, "lon": 8.0119, "intensity": 0.3, "source": "Tagesschau"}, {"title": "Gro\u00dfbrand in Chemiefabrik Braunschweig: Feuer ist gel\u00f6scht", "url": "https://www.tagesschau.de/inland/regional/niedersachsen/ndr-explosionsgefahr-in-braunschweig-feuer-in-gewerbegebiet-100.html", "thumbnailUrl": "https://images.tagesschau.de/image/e17c356d-6e17-46e3-8b6d-91be3b6b3d86/AAABjvXtlEA/AAABjcWesUg/16x9-512.jpg", "date": "2024-04-20T13:06:00.000+02:00", "lat": 52.2689, "lon": 10.5277, "intensity": 0.8, "source": "Tagesschau"}, {"title": "W\u00e4hrungsreform in Simbabwe mit Sorge erwartet", "url": "https://www.tagesschau.de/wirtschaft/weltwirtschaft/waehrungschaos-simbabwe-100.html", "thumbnailUrl": "https://images.tagesschau.de/image/6708b4fe-996b-4955-b10c-50100b30b46f/AAABjuvccjM/AAABjcWesUg/16x9-512.jpg", "date": "2024-04-20T13:02:40.725+02:00", "lat": -17.824858, "lon": 31.046051, "intensity": 0.8, "source": "Tagesschau"}, {"title": "Wetter: Skandinavische K\u00e4lte hat Hessen fest im Griff", "url": "https://www.tagesschau.de/inland/regional/hessen/hr-wetter-skandinavische-kaelte-hat-hessen-fest-im-griff-100.html", "thumbnailUrl": "https://images.tagesschau.de/image/f3dcc478-ad35-4432-a035-881458c405b7/AAABjvsr_2Y/AAABjcWesUg/16x9-512.jpg", "date": "2024-04-20T13:01:38.140+02:00", "lat": 50.5443, "lon": 9.6933, "intensity": 0.7, "source": "Tagesschau"}, {"title": "Wie Gie\u00dfen zur Anlaufstelle f\u00fcr hunderttausende DDR-Fl\u00fcchtlinge wurde", "url": "https://www.tagesschau.de/inland/regional/hessen/hr-wie-giessen-zur-anlaufstelle-fuer-hunderttausende-ddr-fluechtlinge-wurde-100.html", "thumbnailUrl": "https://images.tagesschau.de/image/a487e1fc-134b-470f-882d-408cbf96095a/AAABjvsrmtc/AAABjcWesUg/16x9-512.jpg", "date": "2024-04-20T12:59:56.944+02:00", "lat": 50.5833, "lon": 8.6833, "intensity": 0.8, "source": "Tagesschau"}, {"title": "DEL2: Finalserie der Kassel Huskies wird zur Nervenschlacht", "url": "https://www.tagesschau.de/inland/regional/hessen/hr-del2-finalserie-der-kassel-huskies-wird-zur-nervenschlacht-100.html", "thumbnailUrl": "https://images.tagesschau.de/image/0604ee07-f2be-4e23-b404-3db56a42b880/AAABjvsr66c/AAABjcWesUg/16x9-512.jpg", "date": "2024-04-20T12:57:20.226+02:00", "lat": 51.315, "lon": 9.491, "intensity": 0.8, "source": "Tagesschau"}, {"title": "Erlebniswald Trappenkamp: Wie Uhus an die Flugshow gew\u00f6hnt werden", "url": "https://www.tagesschau.de/inland/regional/schleswigholstein/ndr-erlebniswald-trappenkamp-wie-uhus-an-die-flugshow-gewoehnt-werden-100.html", "thumbnailUrl": "https://images.tagesschau.de/image/aef2d501-42b5-4349-a205-ca4637839c57/AAABjvsrvKo/AAABjcWesUg/16x9-512.jpg", "date": "2024-04-20T12:56:00.000+02:00", "lat": 54.0187, "lon": 10.1106, "intensity": 0.4, "source": "Tagesschau"}, {"title": "Hohen Luckow: Strafermittlungen nach M\u00e4hdrescher-Unfall", "url": "https://www.tagesschau.de/inland/regional/mecklenburgvorpommern/ndr-hohen-luckow-strafermittlungen-nach-maehdrescher-unfall-100.html", "thumbnailUrl": "https://images.tagesschau.de/image/f01dc2ce-4536-44f5-a88c-0e536710fd04/AAABjvs0wAc/AAABjcWesUg/16x9-512.jpg", "date": "2024-04-20T12:55:00.000+02:00", "lat": 53.8207, "lon": 12.0221, "intensity": 0.8, "source": "Tagesschau"}, {"title": "Berliner BIM pr\u00fcft Einrichtung von Trainingsst\u00e4tte der Bundespolizei in Bogensee", "url": "https://www.tagesschau.de/inland/regional/berlin/rbb-berliner-bim-prueft-einrichtung-von-trainingsstaette-der-bundespolizei-in-bogensee-100.html", "thumbnailUrl": "https://images.tagesschau.de/image/0316e1d5-0e5f-4b67-9fe2-cbca097fb2d5/AAABjvsezdM/AAABjcWesUg/16x9-512.jpg", "date": "2024-04-20T12:43:57.000+02:00", "lat": 52.6394, "lon": 13.5966, "intensity": 0.7, "source": "Tagesschau"}, {"title": "Blitzermarathon: Brandenburger Polizei registriert mehr als 2.000 Verst\u00f6\u00dfe binnen eines Tages", "url": "https://www.tagesschau.de/inland/regional/brandenburg/rbb-blitzermarathon-brandenburger-polizei-registriert-mehr-als-2-000-verstoesse-binnen-eines-tages-100.html", "thumbnailUrl": "https://images.tagesschau.de/image/dd92413f-4900-49b2-9dc2-f1fe7ca4f950/AAABjvtT9KY/AAABjcWesUg/16x9-512.jpg", "date": "2024-04-20T12:31:27.000+02:00", "lat": 52.3071, "lon": 13.0583, "intensity": 0.8, "source": "Tagesschau"}, {"title": "Effenberg und VR-Bank wollen sich im Streit um K\u00fcndigung einigen", "url": "https://www.tagesschau.de/inland/regional/thueringen/mdr-effenberg-und-vr-bank-wollen-sich-im-streit-um-kuendigung-einigen-100.html", "thumbnailUrl": "https://images.tagesschau.de/image/40408c35-6bb1-47f2-bf41-5164790e52c6/AAABjv3EffU/AAABjcWesUg/16x9-512.jpg", "date": "2024-04-20T12:25:13.000+02:00", "lat": 50.8129, "lon": 10.2254, "intensity": 0.3, "source": "Tagesschau"}, {"title": "Schiedsrichterlegende: Ehemaliger Brandenburger Fu\u00dfball-Verbandspr\u00e4sident Kirschen ist tot", "url": "https://www.tagesschau.de/inland/regional/brandenburg/rbb-schiedsrichterlegende-ehemaliger-brandenburger-fussball-verbandspraesident-kirschen-ist-tot-102.html", "thumbnailUrl": "https://images.tagesschau.de/image/45a12434-04d9-4dc9-9577-7402b478947e/AAABjvsMfQQ/AAABjcWesUg/16x9-512.jpg", "date": "2024-04-20T12:23:40.000+02:00", "lat": 52.4125, "lon": 13.1499, "intensity": 0.7, "source": "Tagesschau"}, {"title": "Kansas City k\u00e4mpft gegen ausufernde Waffengewalt", "url": "https://www.tagesschau.de/ausland/amerika/kansas-city-waffengewalt-100.html", "thumbnailUrl": "https://images.tagesschau.de/image/2c514039-6409-4dcd-ae1b-abaf5e313092/AAABjvsFiI4/AAABjcWesUg/16x9-512.jpg", "date": "2024-04-20T12:20:28.287+02:00", "lat": 39.0997, "lon": -94.5786, "intensity": 0.8, "source": "Tagesschau"}, {"title": "Ein Toter bei Unfall auf B88 \u2013 Frau schwebt in Lebensgefahr", "url": "https://www.tagesschau.de/inland/regional/thueringen/mdr-ein-toter-bei-unfall-auf-b88--frau-schwebt-in-lebensgefahr-100.html", "thumbnailUrl": "https://images.tagesschau.de/image/9b9a8849-6653-4671-b3bb-dd7b1a8d88ad/AAABjv3Ep9c/AAABjcWesUg/16x9-512.jpg", "date": "2024-04-20T12:11:00.000+02:00", "lat": 50.6856, "lon": 10.9009, "intensity": 0.8, "source": "Tagesschau"}, {"title": "Erneut Politiker in Mexiko ermordet", "url": "https://www.tagesschau.de/ausland/amerika/politiker-getoetet-mexiko-100.html", "thumbnailUrl": "https://images.tagesschau.de/image/d838b480-0e4b-4bd8-9ebc-5f9c320084dc/AAABjvwFg6A/AAABjcWesUg/16x9-512.jpg", "date": "2024-04-20T12:01:31.647+02:00", "lat": 23.6345, "lon": -102.5528, "intensity": 0.8, "source": "Tagesschau"}, {"title": "Segler geraten vor Niendorfer Hafen in Seenot", "url": "https://www.tagesschau.de/inland/regional/schleswigholstein/ndr-segler-geraten-vor-niendorfer-hafen-in-seenot-100.html", "thumbnailUrl": "https://images.tagesschau.de/image/f93a7879-8754-4322-a862-3760ed3493c2/AAABjvr6Msw/AAABjcWesUg/16x9-512.jpg", "date": "2024-04-20T11:56:00.000+02:00", "lat": 53.9994, "lon": 10.8341, "intensity": 0.8, "source": "Tagesschau"}, {"title": "Blitzermarathon: So viele Tempos\u00fcnder waren am Freitag in BW unterwegs", "url": "https://www.tagesschau.de/inland/regional/badenwuerttemberg/swr-blitzermarathon-so-viele-temposuender-waren-am-freitag-in-bw-unterwegs-100.html", "thumbnailUrl": "https://images.tagesschau.de/image/45649eca-28fe-485e-b765-3ae2e69e3dde/AAABjvrvKZg/AAABjcWesUg/16x9-512.jpg", "date": "2024-04-20T11:50:21.000+02:00", "lat": 48.6289, "lon": 9.4937, "intensity": 0.7, "source": "Tagesschau"}, {"title": "Landwirtschaftskammer erwartet steigende Preise f\u00fcr Fisch", "url": "https://www.tagesschau.de/inland/regional/niedersachsen/ndr-landwirtschaftskammer-erwartet-steigende-preise-fuer-fisch-100.html", "thumbnailUrl": "https://images.tagesschau.de/image/aa9a5742-41fc-45a7-b650-ab5fec894c22/AAABjvqiWHE/AAABjcWesUg/16x9-512.jpg", "date": "2024-04-20T11:46:00.000+02:00", "lat": 52.3759, "lon": 9.7192, "intensity": 0.6, "source": "Tagesschau"}, {"title": "Seniorendisco in Leer: \"Bewegen, was geht\"", "url": "https://www.tagesschau.de/inland/regional/niedersachsen/ndr-seniorendisco-in-leer-bewegen-was-geht-100.html", "thumbnailUrl": "https://images.tagesschau.de/image/8762d92a-032e-42df-a62b-ff291ebc3454/AAABjvt1JSQ/AAABjcWesUg/16x9-512.jpg", "date": "2024-04-20T11:39:00.000+02:00", "lat": 53.2358, "lon": 7.4594, "intensity": 0.5, "source": "Tagesschau"}, {"title": "Wiener Symphoniker er\u00f6ffnen Musikfestspiele Saar", "url": "https://www.tagesschau.de/inland/regional/saarland/sr-wiener-philharmoniker-eroeffnen-musikfestspiele-saar-100.html", "thumbnailUrl": "https://images.tagesschau.de/image/d06e5b82-b738-408a-9420-b2cc72f140dc/AAABjvtT3N4/AAABjcWesUg/16x9-512.jpg", "date": "2024-04-20T11:34:00.000+02:00", "lat": 49.2354, "lon": 6.9714, "intensity": 0.7, "source": "Tagesschau"}, {"title": "Gelsenkirchener E-Scooter-Verbot: Das machen andere NRW-St\u00e4dte", "url": "https://www.tagesschau.de/inland/regional/nordrheinwestfalen/wdr-gelsenkirchener-e-scooter-verbot-das-machen-andere-nrw-staedte-100.html", "thumbnailUrl": "https://images.tagesschau.de/image/b580ec0f-b67a-4116-a9df-9fea7a62d41e/AAABjvyNBS4/AAABjcWesUg/16x9-512.jpg", "date": "2024-04-20T11:30:00.000+02:00", "lat": 51.5177, "lon": 7.0955, "intensity": 0.7, "source": "Tagesschau"}, {"title": "Ausz\u00e4hlung der Berliner SPD-Mitgliederbefragung zu neuer Parteispitze gestartet", "url": "https://www.tagesschau.de/inland/regional/berlin/rbb-auszaehlung-der-berliner-spd-mitgliederbefragung-zu-neuer-parteispitze-gestartet-100.html", "thumbnailUrl": "https://images.tagesschau.de/image/c1be10a2-2dff-4469-8fdb-0335b78746dd/AAABjvrVjZc/AAABjcWesUg/16x9-512.jpg", "date": "2024-04-20T11:23:14.000+02:00", "lat": 52.520008, "lon": 13.404954, "intensity": 0.8, "source": "Tagesschau"}, {"title": "\u00dcberraschung aus dem Mittelalter in Ulm: Weizen keimt nach 450 Jahren", "url": "https://www.tagesschau.de/inland/regional/badenwuerttemberg/swr-ueberraschung-aus-dem-mittelalter-in-ulm-weizen-keimt-nach-450-jahren-102.html", "thumbnailUrl": "https://images.tagesschau.de/image/eec801c9-61c4-4458-a5b3-c9e2ed4de01a/AAABjvur2IQ/AAABjcWesUg/16x9-512.jpg", "date": "2024-04-20T11:09:15.000+02:00", "lat": 48.401082, "lon": 9.993682, "intensity": 0.6, "source": "Tagesschau"}, {"title": "Bauernhof im Wangerland abgebrannt", "url": "https://www.tagesschau.de/inland/regional/niedersachsen/ndr-bauernhof-im-wangerland-abgebrannt-100.html", "thumbnailUrl": "https://images.tagesschau.de/image/edb8c29b-e7c2-4fef-829b-17a7068ea556/AAABjvrG9ac/AAABjcWesUg/16x9-512.jpg", "date": "2024-04-20T11:07:00.000+02:00", "lat": 53.6821, "lon": 7.907, "intensity": 0.8, "source": "Tagesschau"}, {"title": "Ist die Bremer K\u00f6rperwelten-Ausstellung ethisch vertretbar? ", "url": "https://www.tagesschau.de/inland/regional/bremen/rb-im-bremer-blg-forum-werden-leichen-ausgestellt-100.html", "thumbnailUrl": "https://images.tagesschau.de/image/69db57f7-0cf7-4b46-8e8d-4bb657f6d4e8/AAABjvw-QQ0/AAABjcWesUg/16x9-512.jpg", "date": "2024-04-20T10:58:00.000+02:00", "lat": 53.0793, "lon": 8.8006, "intensity": 0.8, "source": "Tagesschau"}, {"title": "Alkohol und zu schnelles Fahren: Brandenburger Polizei will zum Vatertag verst\u00e4rkt auf Gew\u00e4ssern kontrollieren", "url": "https://www.tagesschau.de/inland/regional/brandenburg/rbb-alkohol-und-zu-schnelles-fahren-brandenburger-polizei-will-zum-vatertag-verstaerkt-auf-gewaessern-kontrollieren-100.html", "thumbnailUrl": "https://images.tagesschau.de/image/d88e47d8-1025-4db4-92f5-259ba77e6433/AAABjvq77LM/AAABjcWesUg/16x9-512.jpg", "date": "2024-04-20T10:56:37.000+02:00", "lat": 52.517, "lon": 13.3358, "intensity": 0.7, "source": "Tagesschau"}, {"title": "Ampel und Union einigen sich auf Veteranentag", "url": "https://www.tagesschau.de/inland/innenpolitik/veteranentag-ampel-100.html", "thumbnailUrl": "https://images.tagesschau.de/image/19589c18-5f90-4e22-9350-ac53a16d8d98/AAABjIoqWtk/AAABjcWesUg/16x9-512.jpg", "date": "2024-04-20T10:50:27.236+02:00", "lat": 52.520008, "lon": 13.404954, "intensity": 0.7, "source": "Tagesschau"}, {"title": "Bericht von NDR und WDR: Panzerfaust in Berliner Wohnung von Ex-RAF-Terroristin war offenbar nur Attrappe", "url": "https://www.tagesschau.de/inland/regional/berlin/rbb-bericht-von-ndr-und-wdr-panzerfaust-in-berliner-wohnung-von-ex-raf-terroristin-war-offenbar-nur-attrappe-100.html", "thumbnailUrl": "https://images.tagesschau.de/image/673f3412-1556-435e-a5b5-2bb7c6b9fa6b/AAABjvqtgpM/AAABjcWesUg/16x9-512.jpg", "date": "2024-04-20T10:41:52.000+02:00", "lat": 52.520008, "lon": 13.404954, "intensity": 0.8, "source": "Tagesschau"}, {"title": "\"Das Schlimmste verhindern\" - VfL Wolfsburg gegen VfL Bochum unter Druck", "url": "https://www.tagesschau.de/inland/regional/niedersachsen/ndr-das-schlimmste-verhindern-vfl-wolfsburg-gegen-vfl-bochum-unter-druck-102.html", "thumbnailUrl": "https://images.tagesschau.de/image/d9700ef3-4f58-4109-83de-17fd35e0da24/AAABjvqifZA/AAABjcWesUg/16x9-512.jpg", "date": "2024-04-20T10:30:00.000+02:00", "lat": 52.4, "lon": 10.75, "intensity": 0.8, "source": "Tagesschau"}, {"title": "VfL Osnabr\u00fcck gegen Eintracht Braunschweig: Jubil\u00e4umsspiel als Endspiel", "url": "https://www.tagesschau.de/inland/regional/niedersachsen/ndr-vfl-osnabrueck-gegen-eintracht-braunschweig-jubilaeumsspiel-als-endspiel-102.html", "thumbnailUrl": "https://images.tagesschau.de/image/b20b020c-f4f2-421e-aa8a-e077c4847ecd/AAABjvsMjj8/AAABjcWesUg/16x9-512.jpg", "date": "2024-04-20T10:29:00.000+02:00", "lat": 52.2799, "lon": 8.0469, "intensity": 0.8, "source": "Tagesschau"}, {"title": "H\u00f6gl fordert attraktive Bedingungen f\u00fcr Soldaten", "url": "https://www.tagesschau.de/inland/innenpolitik/bundeswehr-litauen-hoegl-100.html", "thumbnailUrl": "https://images.tagesschau.de/image/35a608a6-a3d9-42c9-8767-d54f8a4e698b/AAABhnQh7j4/AAABjcWesUg/16x9-512.jpg", "date": "2024-04-20T10:26:54.838+02:00", "lat": 52.520008, "lon": 13.404954, "intensity": 0.6, "source": "Tagesschau"}, {"title": "Innovation aus dem Harz: Entwickler t\u00fcftelt an autonomen Drohnen", "url": "https://www.tagesschau.de/inland/regional/niedersachsen/ndr-innovation-aus-dem-harz-entwickler-tueftelt-an-autonomen-drohnen-100.html", "thumbnailUrl": "https://images.tagesschau.de/image/c3025f07-2b3d-4c90-bb6b-d742a0b5b49e/AAABjvqa-u4/AAABjcWesUg/16x9-512.jpg", "date": "2024-04-20T10:20:00.000+02:00", "lat": 51.965, "lon": 10.5556, "intensity": 0.2, "source": "Tagesschau"}, {"title": "Das \"N\u00fcsschen\" wird 60", "url": "https://www.tagesschau.de/wirtschaft/unternehmen/60-jahre-nutella-100.html", "thumbnailUrl": "https://images.tagesschau.de/image/119b4f40-0f99-4fda-9410-5c6245fe6062/AAABjvXoToY/AAABjcWesUg/16x9-512.jpg", "date": "2024-04-20T10:04:18.193+02:00", "lat": 45.4642, "lon": 9.1914, "intensity": 0.6, "source": "Tagesschau"}, {"title": "Nordkorea testet \"supergro\u00dfen Sprengkopf\"", "url": "https://www.tagesschau.de/ausland/asien/nordkorea-test-sprengkopg-100.html", "thumbnailUrl": "https://images.tagesschau.de/image/37e5a326-9347-4546-ab4d-9e992d6ee8be/AAABjvp_6Kg/AAABjcWesUg/16x9-512.jpg", "date": "2024-04-20T09:54:30.851+02:00", "lat": 40.339852, "lon": 127.510093, "intensity": 0.8, "source": "Tagesschau"}, {"title": "Illegaler Handel mit Exoten im Elsass aufgeflogen", "url": "https://www.tagesschau.de/inland/regional/saarland/sr-illegaler-handel-mit-exoten-im-elsass-aufgeflogen-100.html", "thumbnailUrl": "https://images.tagesschau.de/image/d3f7cb1f-f286-47a1-b1fb-78844d2e35f2/AAABjvp0d-E/AAABjcWesUg/16x9-512.jpg", "date": "2024-04-20T09:40:00.000+02:00", "lat": 48.266277, "lon": 7.448206, "intensity": 0.8, "source": "Tagesschau"}, {"title": "Hauch von Gacinovic und H\u00f6lzenbein: Eintracht feiert Wiedergeburt der Emotionen", "url": "https://www.tagesschau.de/inland/regional/hessen/hr-hauch-von-gacinovic-und-hoelzenbein-eintracht-feiert-wiedergeburt-der-emotionen-102.html", "thumbnailUrl": "https://images.tagesschau.de/image/0bb35db6-70d1-4964-b110-206203048650/AAABjvqVeW8/AAABjcWesUg/16x9-512.jpg", "date": "2024-04-20T09:38:14.831+02:00", "lat": 50.1109, "lon": 8.6821, "intensity": 0.8, "source": "Tagesschau"}, {"title": "Fregatte \"Hessen\" beendet Einsatz im Roten Meer", "url": "https://www.tagesschau.de/inland/regional/niedersachsen/ndr-fregatte-hessen-beendet-einsatz-im-roten-meer-100.html", "thumbnailUrl": "https://images.tagesschau.de/image/f7f97ee3-7371-4aec-be58-e3547177c8e9/AAABjvpvJ2o/AAABjcWesUg/16x9-512.jpg", "date": "2024-04-20T09:33:00.000+02:00", "lat": 52.3732, "lon": 9.9937, "intensity": 0.7, "source": "Tagesschau"}, {"title": "Insekten in der Landwirtschaft: Alles bl\u00fcht, doch wo sind die Bienen?", "url": "https://www.tagesschau.de/inland/regional/brandenburg/rbb-insekten-in-der-landwirtschaft-alles-blueht-doch-wo-sind-die-bienen-100.html", "thumbnailUrl": "https://images.tagesschau.de/image/edc5af87-24d0-4601-b5e3-34e809bfaba7/AAABjvpvBGE/AAABjcWesUg/16x9-512.jpg", "date": "2024-04-20T09:32:07.000+02:00", "lat": 52.4393, "lon": 13.1757, "intensity": 0.6, "source": "Tagesschau"}, {"title": "VW-Arbeiter in USA organisieren sich gewerkschaftlich", "url": "https://www.tagesschau.de/wirtschaft/unternehmen/vw-tennessee-gewerkschaft-100.html", "thumbnailUrl": "https://images.tagesschau.de/image/5400455d-5004-4bd5-bbfb-8a5c75c0cd2b/AAABjvpoXbY/AAABjcWesUg/16x9-512.jpg", "date": "2024-04-20T09:28:47.926+02:00", "lat": 35.0456, "lon": -85.3097, "intensity": 0.8, "source": "Tagesschau"}, {"title": "Mehr rechtsextreme F\u00e4lle an Schulen gemeldet", "url": "https://www.tagesschau.de/inland/gesellschaft/rechtsextremismus-schulen-100.html", "thumbnailUrl": "https://images.tagesschau.de/image/c5cdd803-291e-45be-bf31-8a63bb3f3c42/AAABjvCiEaU/AAABjcWesUg/16x9-512.jpg", "date": "2024-04-20T09:12:29.114+02:00", "lat": 51.3538596, "lon": 12.4963655, "intensity": 0.8, "source": "Tagesschau"}, {"title": "Holzeinschlag im Saarland massiv gestiegen", "url": "https://www.tagesschau.de/inland/regional/saarland/sr-holzeinschlag-im-saarland-massiv-gestiegen-100.html", "thumbnailUrl": "https://images.tagesschau.de/image/2a41d329-582d-498d-85bf-50527429bc5d/AAABjvpMOWY/AAABjcWesUg/16x9-512.jpg", "date": "2024-04-20T08:57:00.000+02:00", "lat": 49.3964, "lon": 7.0, "intensity": 0.8, "source": "Tagesschau"}, {"title": "1. FC Saarbr\u00fccken knackt die 10.000-Mitglieder-Marke", "url": "https://www.tagesschau.de/inland/regional/saarland/sr-1-fc-saarbruecken-knackt-die-10-000-mitglieder-marke-100.html", "thumbnailUrl": "https://images.tagesschau.de/image/7ed88a2f-b1c3-4792-a85f-c165c1667781/AAABjvpGtao/AAABjcWesUg/16x9-512.jpg", "date": "2024-04-20T08:50:00.000+02:00", "lat": 49.2529, "lon": 6.9809, "intensity": 0.8, "source": "Tagesschau"}, {"title": "Fahrradb\u00f6rse in Bremen: Wie erkenne ich ein geklautes Fahrrad?", "url": "https://www.tagesschau.de/inland/regional/bremen/rb-fahrradboerse-in-bremen-wie-erkenne-ich-ein-geklautes-fahrrad-100.html", "thumbnailUrl": "https://images.tagesschau.de/image/ccf0445b-af29-4682-90a2-790879cc17fa/AAABjvpG3g8/AAABjcWesUg/16x9-512.jpg", "date": "2024-04-20T08:50:00.000+02:00", "lat": 53.0793, "lon": 8.8017, "intensity": 0.6, "source": "Tagesschau"}, {"title": "Kommentar: Plattdeutsch ist ein Schatz - Hamburg muss mehr tun", "url": "https://www.tagesschau.de/inland/regional/hamburg/ndr-kommentar-plattdeutsch-ist-ein-schatz-hamburg-muss-mehr-tun-100.html", "thumbnailUrl": "https://images.tagesschau.de/image/7fb89d28-7832-4521-a2f6-4b9858d2f49f/AAABjvpE6VQ/AAABjcWesUg/16x9-512.jpg", "date": "2024-04-20T08:40:00.000+02:00", "lat": 53.55, "lon": 10.0, "intensity": 0.7, "source": "Tagesschau"}, {"title": "Vor 30 Jahren: Als der DFB ein L\u00e4nderspiel an Hitlers Geburtstag im Olympiastadion plante", "url": "https://www.tagesschau.de/inland/regional/berlin/rbb-vor-30-jahren-als-der-dfb-ein-laenderspiel-an-hitlers-geburtstag-im-olympiastadion-plante-102.html", "thumbnailUrl": "https://images.tagesschau.de/image/c9ff5e24-8959-4b84-b6cf-b28bbac74841/AAABjvo7v7o/AAABjcWesUg/16x9-512.jpg", "date": "2024-04-20T08:36:01.000+02:00", "lat": 52.52, "lon": 13.2606, "intensity": 0.8, "source": "Tagesschau"}, {"title": "USA wollen Soldaten aus Niger abziehen", "url": "https://www.tagesschau.de/ausland/afrika/usa-truppenabzug-niger-100.html", "thumbnailUrl": "https://images.tagesschau.de/image/ff80f0c8-68c4-4ca3-b006-547e45e90657/AAABjvox2No/AAABjcWesUg/16x9-512.jpg", "date": "2024-04-20T08:29:14.911+02:00", "lat": 17.6078, "lon": 8.0817, "intensity": 0.8, "source": "Tagesschau"}, {"title": "Norderelbbr\u00fccke: A1-Bauarbeiten behindern Verkehr am Wochenende", "url": "https://www.tagesschau.de/inland/regional/hamburg/ndr-norderelbbruecke-100.html", "thumbnailUrl": "https://images.tagesschau.de/image/2119720b-227d-4b09-8231-ed268c71b979/AAABjvoww1o/AAABjcWesUg/16x9-512.jpg", "date": "2024-04-20T08:26:00.000+02:00", "lat": 53.541556, "lon": 9.999518, "intensity": 0.6, "source": "Tagesschau"}, {"title": "Grabung an geheimnisvoller Burg bei Bad Niedernau", "url": "https://www.tagesschau.de/inland/regional/badenwuerttemberg/swr-grabung-an-geheimnisvoller-burg-bei-bad-niedernau-100.html", "thumbnailUrl": "https://images.tagesschau.de/image/79e5004a-7baf-4757-a362-a453073d020e/AAABjvqpxvk/AAABjcWesUg/16x9-512.jpg", "date": "2024-04-20T08:19:35.000+02:00", "lat": 48.4893, "lon": 8.7205, "intensity": 0.7, "source": "Tagesschau"}, {"title": "Ungekl\u00e4rter Mordfall: Siegelsbacher bewegt das Schicksal von Manuela Kreis", "url": "https://www.tagesschau.de/inland/regional/badenwuerttemberg/swr-ungeklaerter-mordfall-siegelsbacher-bewegt-das-schicksal-von-manuela-kreis-100.html", "thumbnailUrl": "https://images.tagesschau.de/image/7591d8f5-7c9c-429e-b595-85af795c7b4f/AAABjvqtPyo/AAABjcWesUg/16x9-512.jpg", "date": "2024-04-20T08:16:46.000+02:00", "lat": 49.1974, "lon": 9.1237, "intensity": 0.8, "source": "Tagesschau"}, {"title": "Exklusiv | F\u00fcr Hertha-Stadion? Senat will Olympiapark an sich ziehen", "url": "https://www.tagesschau.de/inland/regional/berlin/rbb-exklusiv--fuer-hertha-stadion-senat-will-olympiapark-an-sich-ziehen-102.html", "thumbnailUrl": "https://images.tagesschau.de/image/53419c59-0d3b-4179-8a6d-4242b40f81b0/AAABjvo7w_E/AAABjcWesUg/16x9-512.jpg", "date": "2024-04-20T08:14:07.000+02:00", "lat": 52.5073, "lon": 13.2417, "intensity": 0.8, "source": "Tagesschau"}, {"title": "Fu\u00dfball-EM in Hamburg: Horner Rennbahn wohl doch kein Holland-Camp", "url": "https://www.tagesschau.de/inland/regional/hamburg/ndr-fussball-em-in-hamburg-horner-rennbahn-wohl-doch-kein-holland-camp-100.html", "thumbnailUrl": "https://images.tagesschau.de/image/f0825436-96a8-41f7-93e2-e57280033714/AAABjvoZE8M/AAABjcWesUg/16x9-512.jpg", "date": "2024-04-20T08:00:00.000+02:00", "lat": 53.5634, "lon": 10.0957, "intensity": 0.8, "source": "Tagesschau"}, {"title": "Funde bei mutma\u00dflichem RAF-Mitglied Klette: Panzerfaust war Attrappe", "url": "https://www.tagesschau.de/inland/regional/niedersachsen/ndr-funde-bei-mutmasslichem-raf-mitglied-klette-panzerfaust-war-attrappe-100.html", "thumbnailUrl": "https://images.tagesschau.de/image/677c4603-81fe-4443-b89d-036b4ba58e0e/AAABjvrri1k/AAABjcWesUg/16x9-512.jpg", "date": "2024-04-20T08:00:00.000+02:00", "lat": 52.3759, "lon": 9.7489, "intensity": 0.8, "source": "Tagesschau"}, {"title": "Showdown im US-Kongress", "url": "https://www.tagesschau.de/ausland/amerika/usa-kongress-abstimmung-ukraine-hilfen-100.html", "thumbnailUrl": "https://images.tagesschau.de/image/dd3b318a-323b-44f8-bb5b-a3b758c5f133/AAABjleW_Wo/AAABjcWesUg/16x9-512.jpg", "date": "2024-04-20T07:54:54.660+02:00", "lat": 38.889, "lon": -77.007, "intensity": 0.8, "source": "Tagesschau"}, {"title": "Queen meets L\u00fcneburg: Symphonisches Rockspektakel", "url": "https://www.tagesschau.de/inland/regional/niedersachsen/ndr-queen-meets-lueneburg-symphonisches-rockspektakel-100.html", "thumbnailUrl": "https://images.tagesschau.de/image/1853faae-9486-4f6a-950b-d835df336dd5/AAABjvudQOQ/AAABjcWesUg/16x9-512.jpg", "date": "2024-04-20T07:52:00.000+02:00", "lat": 53.247312, "lon": 10.326174, "intensity": 0.7, "source": "Tagesschau"}, {"title": "Feuerwehr \u00fcbt am Doberaner M\u00fcnster f\u00fcr den Ernstfall", "url": "https://www.tagesschau.de/inland/regional/mecklenburgvorpommern/ndr-feuerwehr-uebt-am-doberaner-muenster-fuer-den-ernstfall-100.html", "thumbnailUrl": "https://images.tagesschau.de/image/192279d4-410f-4f43-912e-fe37c4bd3556/AAABjvopcLM/AAABjcWesUg/16x9-512.jpg", "date": "2024-04-20T07:38:00.000+02:00", "lat": 53.9113, "lon": 11.9068, "intensity": 0.6, "source": "Tagesschau"}, {"title": "eSports: Team aus Karlsruhe ist Favorit bei der EM von League of Legends", "url": "https://www.tagesschau.de/inland/regional/badenwuerttemberg/swr-esports-team-aus-karlsruhe-ist-favorit-bei-der-em-von-league-of-legends-100.html", "thumbnailUrl": "https://images.tagesschau.de/image/49fc28c1-45e6-45a6-a101-9bf9dc4073ef/AAABjvoY8MI/AAABjcWesUg/16x9-512.jpg", "date": "2024-04-20T07:25:06.000+02:00", "lat": 49.0069, "lon": 8.4037, "intensity": 0.8, "source": "Tagesschau"}, {"title": "SC Paderborn: Schall-Anlage soll V\u00f6gel vom Stadion fernhalten", "url": "https://www.tagesschau.de/inland/regional/nordrheinwestfalen/wdr-sc-paderborn-anlage-soll-voegel-vom-stadion-fernhalten-102.html", "thumbnailUrl": "https://images.tagesschau.de/image/ea675e78-22e7-4392-b0f9-bfc7bb60dc64/AAABjvq0kIs/AAABjcWesUg/16x9-512.jpg", "date": "2024-04-20T06:00:00.000+02:00", "lat": 51.7155, "lon": 8.77562, "intensity": 0.7, "source": "Tagesschau"}, {"title": "Artenschutz: Wie \u00d6kologen und Bauern f\u00fcr den Kiebitz in NRW k\u00e4mpfen", "url": "https://www.tagesschau.de/inland/regional/nordrheinwestfalen/wdr-artenschutz-wenn-oekologen-und-bauern-fuer-den-kiebitz-in-nrw-kaempfen-100.html", "thumbnailUrl": "https://images.tagesschau.de/image/de15f22e-96ae-4ca4-9ddd-52c77de63890/AAABjvxB5xo/AAABjcWesUg/16x9-512.jpg", "date": "2024-04-20T05:51:00.000+02:00", "lat": 51.4332, "lon": 7.6261, "intensity": 0.8, "source": "Tagesschau"}, {"title": "Wie Landwirtschaftsminister \u00d6zdemir stabilere Milchpreise f\u00fcr Bauern schaffen will", "url": "https://www.tagesschau.de/inland/regional/badenwuerttemberg/swr-wie-landwirtschaftsminister-oezdemir-stabilere-milchpreise-fuer-bauern-schaffen-will-100.html", "thumbnailUrl": "https://images.tagesschau.de/image/ec632ce2-662b-46eb-a35f-7017ad33ecf3/AAABjvmNzX8/AAABjcWesUg/16x9-512.jpg", "date": "2024-04-20T05:23:22.000+02:00", "lat": 48.6616, "lon": 9.9937, "intensity": 0.7, "source": "Tagesschau"}, {"title": "Social Media-Trend \"Bed Rotting\": Forscher aus SH ist skeptisch", "url": "https://www.tagesschau.de/inland/regional/schleswigholstein/ndr-social-media-trend-bed-rotting-forscher-aus-sh-ist-skeptisch-100.html", "thumbnailUrl": "https://images.tagesschau.de/image/348b41cf-58bd-4858-8e5b-ee18c969466c/AAABjvlyYec/AAABjcWesUg/16x9-512.jpg", "date": "2024-04-20T05:00:00.000+02:00", "lat": 54.5167, "lon": 9.9167, "intensity": 0.6, "source": "Tagesschau"}, {"title": "Der unsichtbare Klimawandel auf den Kapverden", "url": "https://www.tagesschau.de/wissen/klima/klimawandel-kapverden-100.html", "thumbnailUrl": "https://images.tagesschau.de/image/63ab3822-ee8a-4850-86be-21eb91438040/AAABjvXZByg/AAABjcWesUg/16x9-512.jpg", "date": "2024-04-20T04:08:22.916+02:00", "lat": 14.9162, "lon": -23.6052, "intensity": 0.7, "source": "Tagesschau"}, {"title": "Ostdeutsche Fotografien bei Biennale in Venedig", "url": "https://www.tagesschau.de/inland/regional/sachsen/mdr-ostdeutsche-fotografien-bei-biennale-in-venedig-102.html", "thumbnailUrl": "https://images.tagesschau.de/image/4c932a67-6915-4c61-81a2-802ca2d7559f/AAABjv25n4Y/AAABjcWesUg/16x9-512.jpg", "date": "2024-04-20T03:30:00.000+02:00", "lat": 51.3391822, "lon": 12.4963654, "intensity": 0.6, "source": "Tagesschau"}, {"title": "Zwei Menschen bei schwerem Unfall auf B31 bei L\u00f6ffingen gestorben", "url": "https://www.tagesschau.de/inland/regional/badenwuerttemberg/swr-zwei-menschen-bei-schwerem-unfall-auf-b31-bei-loeffingen-gestorben-100.html", "thumbnailUrl": "https://images.tagesschau.de/image/14c7cc7e-5068-4cf9-8638-74c84e642877/AAABjveZ5NA/AAABjcWesUg/16x9-512.jpg", "date": "2024-04-20T01:05:00.000+02:00", "lat": 47.8765, "lon": 8.3566, "intensity": 0.8, "source": "Tagesschau"}, {"title": "US-Repr\u00e4sentantenhaus verabschiedet Milliarden-Hilfe f\u00fcr Ukraine", "url": "https://www.br.de/nachrichten/meldungen/index.html#n1", "thumbnailUrl": null, "date": "2024-04-21T01:43:00+02:00", "lat": 30.0444, "lon": 31.2357, "intensity": 0.8, "source": "Bayrischer Rundfunk"}, {"title": "Tausende Israelis demonstrieren f\u00fcr Geisel-Deal und gegen Regierung", "url": "https://www.br.de/nachrichten/meldungen/index.html#n2", "thumbnailUrl": null, "date": "2024-04-21T01:43:00+02:00", "lat": 33.5138, "lon": 36.2021, "intensity": 0.8, "source": "Bayrischer Rundfunk"}, {"title": "EU kann Gaza-Hilfe per Schiff bald wieder aufnehmen", "url": "https://www.br.de/nachrichten/meldungen/index.html#n3", "thumbnailUrl": null, "date": "2024-04-21T01:43:00+02:00", "lat": 39.9334, "lon": 32.8597, "intensity": 0.8, "source": "Bayrischer Rundfunk"}, {"title": "Bahn untersagt Cannabis-Konsum an Bahnh\u00f6fen", "url": "https://www.br.de/nachrichten/meldungen/index.html#n4", "thumbnailUrl": null, "date": "2024-04-21T01:43:00+02:00", "lat": 52.520008, "lon": 13.404954, "intensity": 0.7, "source": "Bayrischer Rundfunk"}, {"title": "Hacker sp\u00e4hten offenbar von China aus jahrelang Volkswagen aus", "url": "https://www.br.de/nachrichten/meldungen/index.html#n5", "thumbnailUrl": null, "date": "2024-04-21T01:43:00+02:00", "lat": 52.520008, "lon": 13.404954, "intensity": 0.6, "source": "Bayrischer Rundfunk"}, {"title": "Tausende protestieren auf den Kanaren gegen Massentourismus", "url": "https://www.br.de/nachrichten/meldungen/index.html#n6", "thumbnailUrl": null, "date": "2024-04-21T01:43:00+02:00", "lat": 48.135125, "lon": 11.581981, "intensity": 0.6, "source": "Bayrischer Rundfunk"}, {"title": "60. Kunst-Biennale in Venedig ist er\u00f6ffnet", "url": "https://www.br.de/nachrichten/meldungen/index.html#n7", "thumbnailUrl": null, "date": "2024-04-21T01:43:00+02:00", "lat": 50.110922, "lon": 8.682127, "intensity": 0.8, "source": "Bayrischer Rundfunk"}, {"title": "Bayern gewinnt 5:1 gegen Union Berlin", "url": "https://www.br.de/nachrichten/meldungen/index.html#n8", "thumbnailUrl": null, "date": "2024-04-21T01:43:00+02:00", "lat": 47.8684, "lon": 12.6394, "intensity": 0.8, "source": "Bayrischer Rundfunk"}, {"title": "Jan Lennard Struff steht im Finale der BMW Open", "url": "https://www.br.de/nachrichten/meldungen/index.html#n9", "thumbnailUrl": null, "date": "2024-04-21T01:43:00+02:00", "lat": 48.5844, "lon": 13.6722, "intensity": 0.8, "source": "Bayrischer Rundfunk"}, {"title": "Das Wetter: Regen und Schnee, +3 bis -1 Grad", "url": "https://www.br.de/nachrichten/meldungen/index.html#n10", "thumbnailUrl": null, "date": "2024-04-21T01:43:00+02:00", "lat": 53.5396, "lon": 8.5761, "intensity": 0.4, "source": "Bayrischer Rundfunk"}, {"title": "Video | Schul-Neubau geplant: Anwohner fordern Erhalt des Quartiersparks in Berlin-Lichtenberg", "url": "https://www.rbb24.de/panorama/beitrag/av7/video-berlin-lichtenberg-quartierspark-schule-kritik.html", "thumbnailUrl": null, "date": "Sat, 20 Apr 2024 21:05:53 +0200", "lat": 52.5286, "lon": 13.5024, "intensity": 0.7, "source": "RBB"}, {"title": "Video | Sch\u00e4den, Schmutz und Schimmel: Mieter der Wei\u00dfen Siedlung protestieren gegen Adler-Group", "url": "https://www.rbb24.de/panorama/beitrag/av7/video-berlin-weisse-siedlung-adler-group-brandbrief-schaeden.html", "thumbnailUrl": null, "date": "Sat, 20 Apr 2024 21:03:48 +0200", "lat": 52.4531, "lon": 13.4019, "intensity": 0.7, "source": "RBB"}, {"title": "3:1-Heimerfolg: BR Volleys melden sich in der Volleyball-Finalserie gegen Friedrichshafen zur\u00fcck", "url": "https://www.rbb24.de/sport/beitrag/2024/04/volleyball-br-volleys-friedrichshafen-playoffs-finalserie-spiel-drei-spielbericht.html", "thumbnailUrl": null, "date": "Sat, 20 Apr 2024 20:51:00 +0200", "lat": 52.52, "lon": 13.4459, "intensity": 0.6, "source": "RBB"}, {"title": "Propal\u00e4stinensische Demo gegen deutsche Waffenlieferungen an Israel", "url": "https://www.rbb24.de/politik/beitrag/2024/04/pro-palaestina-demo-strafverfahren.html", "thumbnailUrl": null, "date": "Sat, 20 Apr 2024 20:18:44 +0200", "lat": 51.5413, "lon": 7.1518, "intensity": 0.6, "source": "RBB"}, {"title": "Berliner Linke in Erfurt: Inspiration vom Pragmatiker", "url": "https://www.rbb24.de/politik/beitrag/2024/04/berlin-linke-klausur-erfurt-thueringen-landtagswahl-bodo-ramelow-lederer-helm.html", "thumbnailUrl": null, "date": "Sat, 20 Apr 2024 20:11:34 +0200", "lat": 50.9787, "lon": 11.031, "intensity": 0.7, "source": "RBB"}, {"title": "Klatsche f\u00fcr SPD-Landeschef Raed Saleh bei Wahl zu Berliner Parteispitze", "url": "https://www.rbb24.de/politik/beitrag/2024/04/berlin-spd-mitgliederentscheid-landesspitze-raed-saleh-niederlag.html", "thumbnailUrl": null, "date": "Sat, 20 Apr 2024 19:21:00 +0200", "lat": 52.52, "lon": 13.405, "intensity": 0.8, "source": "RBB"}, {"title": "Potsdamerin Pefestorff ist erste Frau an der Spitze des Deutschen Kanuverbands", "url": "https://www.rbb24.de/sport/beitrag/2024/04/kanusport-verbandspraesidentin-erste-frau-pefestorff-potsdamerin.html", "thumbnailUrl": null, "date": "Sat, 20 Apr 2024 18:49:54 +0200", "lat": 52.3906, "lon": 13.0657, "intensity": 0.4, "source": "RBB"}, {"title": "Fu\u00dfball-Regionalliga: Greifswald legt vor im Aufstiegsrennen - Altglienicke nur Unentschieden", "url": "https://www.rbb24.de/sport/beitrag/2024/04/regionalliga-nordost-altglienicke-greifswald-.html", "thumbnailUrl": null, "date": "Sat, 20 Apr 2024 18:06:50 +0200", "lat": 54.09416, "lon": 13.387726, "intensity": 0.6, "source": "RBB"}, {"title": "4.000 Kiffer feiern in Berlin Cannabis-Legalisierung", "url": "https://www.rbb24.de/panorama/beitrag/2024/04/berlin-demonstration-cannabis-smoke-in-brandenburger-tor.html", "thumbnailUrl": null, "date": "Sat, 20 Apr 2024 17:47:00 +0200", "lat": 52.520008, "lon": 13.404954, "intensity": 0.7, "source": "RBB"}, {"title": "Beschluss des Kirchenparlaments: Evangelische Kirche will bestimmte \u00c4mter nicht mehr an AfD-Mitglieder vergeben", "url": "https://www.rbb24.de/politik/beitrag/2024/04/evangelische-kirche-afd-vergabe-aemter.html", "thumbnailUrl": null, "date": "Sat, 20 Apr 2024 17:24:00 +0200", "lat": 51.3397, "lon": 9.9937, "intensity": 0.7, "source": "RBB"}, {"title": "\"Der genetische Unterschied zwischen Hunden und W\u00f6lfen ist sehr gering\"", "url": "https://www.rbb24.de/panorama/beitrag/2024/04/wolf-hund-dna-untersuchungen-senckenberg-institut-interview.html", "thumbnailUrl": null, "date": "Sat, 20 Apr 2024 17:17:47 +0200", "lat": 50.2044, "lon": 9.1859, "intensity": 0.6, "source": "RBB"}, {"title": "Wahl f\u00fcr neue Berliner SPD-Parteispitze: Landeschef Saleh ist aus dem Rennen", "url": "https://www.rbb24.de/politik/beitrag/2024/04/spd-berlin-wahl-parteispitze-saleh-lehmann-gescheitert.html", "thumbnailUrl": null, "date": "Sat, 20 Apr 2024 17:05:00 +0200", "lat": 52.52, "lon": 13.405, "intensity": 0.5, "source": "RBB"}, {"title": "Cannabis-Legalisierung: Deutsche Bahn verbietet Kiffen an Bahnh\u00f6fen", "url": "https://www.rbb24.de/panorama/beitrag/2024/04/cannabis-verbot-bahnhoefe-deutsche-bahn.html", "thumbnailUrl": null, "date": "Sat, 20 Apr 2024 16:09:00 +0200", "lat": 51.1657, "lon": 10.4515, "intensity": 0.6, "source": "RBB"}, {"title": "Gegner der Eisb\u00e4ren in DEL-Finalserie: Aktuelle Saison hat aus Bremerhaven \"Fischtown\" gemacht", "url": "https://www.rbb24.de/sport/beitrag/2024/04/eishockey-finalserie-eisbaeren-gegner-fishtown-pinguins-hype-.html", "thumbnailUrl": null, "date": "Sat, 20 Apr 2024 15:54:00 +0200", "lat": 53.54, "lon": 8.578, "intensity": 0.7, "source": "RBB"}, {"title": "Drogenboss aus Belgien nahe Berliner Ku'damm gefasst", "url": "https://www.rbb24.de/panorama/beitrag/2024/04/berlin-polizei-drogenboss-kudamm-festnahme-charlottenburg-belgien.html", "thumbnailUrl": null, "date": "Sat, 20 Apr 2024 14:30:54 +0200", "lat": 52.5053, "lon": 13.3375, "intensity": 0.8, "source": "RBB"}, {"title": "Chefarzt-K\u00fcndigung im Berliner Ma\u00dfregelvollzug: Gesundheitsverwaltung \u00e4u\u00dfert Bedauern", "url": "https://www.rbb24.de/panorama/beitrag/2024/04/berlin-senatsverwaltung-gesundheit-massregelvollzug-reaktion-kuendigung-chefarzt.html", "thumbnailUrl": null, "date": "Sat, 20 Apr 2024 13:32:00 +0200", "lat": 52.520008, "lon": 13.404954, "intensity": 0.7, "source": "RBB"}, {"title": "Berliner BIM pr\u00fcft Einrichtung von Trainingsst\u00e4tte der Bundespolizei in Bogensee", "url": "https://www.rbb24.de/politik/beitrag/2024/04/plaene-bogensee-wandlitz-goebbels-villa-bim-berlin.html", "thumbnailUrl": null, "date": "Sat, 20 Apr 2024 12:43:00 +0200", "lat": 52.6564, "lon": 13.5254, "intensity": 0.7, "source": "RBB"}, {"title": "Blitzermarathon: Brandenburger Polizei registriert mehr als 2.000 Verst\u00f6\u00dfe binnen eines Tages", "url": "https://www.rbb24.de/panorama/beitrag/2024/04/brandenburg-blitzermarathon-polizei-verstoesse.html", "thumbnailUrl": null, "date": "Sat, 20 Apr 2024 12:31:27 +0200", "lat": 52.3796, "lon": 13.1798, "intensity": 0.8, "source": "RBB"}, {"title": "Schiedsrichterlegende: Ehemaliger Brandenburger Fu\u00dfball-Verbandspr\u00e4sident Kirschen ist tot", "url": "https://www.rbb24.de/sport/beitrag/2024/04/fussballverband-brandenburg-siegfried-kirschen-tot-ehrenpraeside.html", "thumbnailUrl": null, "date": "Sat, 20 Apr 2024 12:23:40 +0200", "lat": 52.4794, "lon": 13.5684, "intensity": 0.7, "source": "RBB"}, {"title": "Alkohol und zu schnelles Fahren: Brandenburger Polizei will zum Vatertag verst\u00e4rkt auf Gew\u00e4ssern kontrollieren", "url": "https://www.rbb24.de/panorama/beitrag/2024/04/brandenburg-himmelfahrt-vatertag-polizei-verstaerkte-kontrollen-alkohol.html", "thumbnailUrl": null, "date": "Sat, 20 Apr 2024 10:56:37 +0200", "lat": 52.4125, "lon": 13.1543, "intensity": 0.7, "source": "RBB"}, {"title": "Bericht von NDR und WDR: Panzerfaust in Berliner Wohnung von Ex-RAF-Terroristin war offenbar nur Attrappe", "url": "https://www.rbb24.de/panorama/beitrag/2024/04/raf-terroristin-klette-wohnung-berlin-panzerfaust-attrappe-ndr-wdr.html", "thumbnailUrl": null, "date": "Sat, 20 Apr 2024 10:41:00 +0200", "lat": 52.520008, "lon": 13.404954, "intensity": 0.6, "source": "RBB"}, {"title": "Insekten in der Landwirtschaft: Alles bl\u00fcht, doch wo sind die Bienen?", "url": "https://www.rbb24.de/panorama/beitrag/2024/04/bienen-bluete-temperaturen-obstbaeume-brandenburg.html", "thumbnailUrl": null, "date": "Sat, 20 Apr 2024 09:32:07 +0200", "lat": 53.551086, "lon": 9.993682, "intensity": 0.6, "source": "RBB"}, {"title": "Vor 30 Jahren: Als der DFB ein L\u00e4nderspiel an Hitlers Geburtstag im Olympiastadion plante", "url": "https://www.rbb24.de/sport/beitrag/2024/04/fussball-laenderspiel-berlin-deutschland-england-20-april-1994.html", "thumbnailUrl": null, "date": "Sat, 20 Apr 2024 08:36:01 +0200", "lat": 52.5075, "lon": 13.2414, "intensity": 0.7, "source": "RBB"}, {"title": "Berliner Senat will Olympiapark an sich ziehen", "url": "https://www.rbb24.de/sport/beitrag/2024/04/berlin-senat-olympiapark-planungsrecht-bezirk-hertha-stadion.html", "thumbnailUrl": null, "date": "Sat, 20 Apr 2024 08:14:00 +0200", "lat": 52.52, "lon": 13.2463, "intensity": 0.7, "source": "RBB"}, {"title": "Video |  Stromversorgung in Brandenburg: Netzengp\u00e4sse in Oranienburg", "url": "https://www.rbb24.de/panorama/beitrag/av7/video-stromversorgung-brandenburg.html", "thumbnailUrl": null, "date": "Fri, 19 Apr 2024 21:24:00 +0200", "lat": 52.7538, "lon": 13.2454, "intensity": 0.8, "source": "RBB"}, {"title": "69:49 gegen Keltern: Albas Basketballerinnen gewinnen erstes Finalspiel", "url": "https://www.rbb24.de/sport/beitrag/2024/04/basketball-frauen-bundesliga-finale-spiel-eins-alba-berlin-keltern.html", "thumbnailUrl": null, "date": "Fri, 19 Apr 2024 21:21:00 +0200", "lat": 48.9869, "lon": 8.5636, "intensity": 0.7, "source": "RBB"}, {"title": "Video | Oderbruch: Theater am Rand beginnt Saison mit einigen Ver\u00e4nderungen", "url": "https://www.rbb24.de/panorama/beitrag/av7/video-theater-am-rand-oderbruch.html", "thumbnailUrl": null, "date": "Fri, 19 Apr 2024 20:58:00 +0200", "lat": 52.6263, "lon": 14.528, "intensity": 0.6, "source": "RBB"}, {"title": "Schwerpunktkontrollen am Freitag: Polizei f\u00fchrt Blitzermarathon an Brandenburger Alleen durch", "url": "https://www.rbb24.de/panorama/beitrag/2024/04/brandenburg-blitzer-marathon-freitag-alleen-polizei-aktionswoche.html", "thumbnailUrl": null, "date": "Fri, 19 Apr 2024 20:51:03 +0200", "lat": 52.517, "lon": 13.3809, "intensity": 0.6, "source": "RBB"}, {"title": "Tote bei Unfall an Bahn\u00fcbergang in Bestensee zweifelsfrei identifiziert", "url": "https://www.rbb24.de/panorama/beitrag/2024/04/bestensee-toedlicher-unfall-bahnuebergang-opfer-identifiziert.html", "thumbnailUrl": null, "date": "Fri, 19 Apr 2024 20:28:00 +0200", "lat": 52.2628, "lon": 13.5957, "intensity": 0.9, "source": "RBB"}, {"title": "Mobilit\u00e4tsforscher zu Berliner Lades\u00e4ulenstrategie: \"Die Ziele sind v\u00f6llig illusorisch\"", "url": "https://www.rbb24.de/politik/beitrag/2024/04/interview-berlin-e-mobilitaet-ladesaeulen-strategie.html", "thumbnailUrl": null, "date": "Fri, 19 Apr 2024 19:56:00 +0200", "lat": 52.520008, "lon": 13.404954, "intensity": 0.8, "source": "RBB"}, {"title": "Elektromobilit\u00e4t: Berlin muss bei den Lades\u00e4ulen f\u00fcr E-Fahrzeuge deutlich zulegen", "url": "https://www.rbb24.de/wirtschaft/beitrag/2024/04/ladesaeulen-berlin-e-fahrzeuge-elektromobilitaet.html", "thumbnailUrl": null, "date": "Fri, 19 Apr 2024 19:47:00 +0200", "lat": 52.520008, "lon": 13.404954, "intensity": 0.8, "source": "RBB"}, {"title": "Schleuse Kannenburg nach sechs Jahren Bauarbeiten offiziell er\u00f6ffnet", "url": "https://www.rbb24.de/panorama/beitrag/2024/04/schleuse-kannenburg-eroeffnet-vollautomatischer-betrieb.html", "thumbnailUrl": null, "date": "Fri, 19 Apr 2024 18:45:00 +0200", "lat": 53.224, "lon": 13.929, "intensity": 0.7, "source": "RBB"}, {"title": "Bei Wandlitz (Barnim): Berlin pr\u00fcft drei Nutzungsvarianten f\u00fcr Bogensee-Areal", "url": "https://www.rbb24.de/politik/beitrag/2024/04/berlin-brandenburg-bogenseeareal-nutzung.html", "thumbnailUrl": null, "date": "Fri, 19 Apr 2024 18:19:00 +0200", "lat": 52.7348, "lon": 13.4586, "intensity": 0.7, "source": "RBB"}, {"title": "Pilotprojekt in der Prignitz: Lieferdrohne startet ab Juni in Wusterhausen/Dosse", "url": "https://www.rbb24.de/wirtschaft/beitrag/2024/04/lieferdrohne-wusterhausen-prignitz.html", "thumbnailUrl": null, "date": "Fri, 19 Apr 2024 17:07:00 +0200", "lat": 52.7924, "lon": 12.3677, "intensity": 0.6, "source": "RBB"}, {"title": "Gas breitet sich in Schule in Falkensee aus: Mehr als zehn Sch\u00fcler im Krankenhaus", "url": "https://www.rbb24.de/panorama/beitrag/2024/04/falkensee-schule-gasaustritt-schueler.html", "thumbnailUrl": null, "date": "Fri, 19 Apr 2024 17:06:40 +0200", "lat": 52.5617, "lon": 13.0813, "intensity": 0.8, "source": "RBB"}, {"title": "Hilfs-Polizeieinsatz in Pflegeheim - nun Untersuchung eines Todesfalls", "url": "https://www.rbb24.de/panorama/beitrag/2024/04/polizeieinsatz-notruf-pflegeheim-lichtenberg-untersuchung-todesfall-berlin.html", "thumbnailUrl": null, "date": "Fri, 19 Apr 2024 16:56:52 +0200", "lat": 50.1109, "lon": 8.6821, "intensity": 0.7, "source": "RBB"}, {"title": "Polizeihochschule in Oranienburg feiert Richtfest f\u00fcr Wohnheim", "url": "https://www.rbb24.de/panorama/beitrag/2024/04/oranienburg-hochschule-der-polizei-wohnheim-richtfest.html", "thumbnailUrl": null, "date": "Fri, 19 Apr 2024 15:54:00 +0200", "lat": 52.7539, "lon": 13.2651, "intensity": 0.3, "source": "RBB"}, {"title": "Polizei will Beschwerdebegr\u00fcndung gegen Tesla-Protestcamp einreichen", "url": "https://www.rbb24.de/politik/beitrag/2024/04/polizei-versammlungsbehoerde-beschwerde-begruendung-tesla-camp.html", "thumbnailUrl": null, "date": "Fri, 19 Apr 2024 15:43:00 +0200", "lat": 52.520008, "lon": 13.404954, "intensity": 0.7, "source": "RBB"}, {"title": "Prenzlauer Berg: Drei Schwerverletzte nach Auseinandersetzung mit politischem Hintergrund", "url": "https://www.rbb24.de/panorama/beitrag/2024/04/polizei-auseinandersetzung-politischer-hintergrund-wichertstrasse-prenzlauer-berg-berlin.html", "thumbnailUrl": null, "date": "Fri, 19 Apr 2024 15:19:10 +0200", "lat": 52.5344, "lon": 13.4225, "intensity": 0.8, "source": "RBB"}, {"title": "M\u00f6gliches Gewaltverbrechen: Tote Person in L\u00fcbbenauer Wohnung gefunden", "url": "https://www.rbb24.de/panorama/beitrag/2024/04/brandenburg-luebbenau-tote-person-wohnung-gefunden-verbrechen.html", "thumbnailUrl": null, "date": "Fri, 19 Apr 2024 15:13:00 +0200", "lat": 51.8697, "lon": 13.9708, "intensity": 0.8, "source": "RBB"}, {"title": "Video | Festspielleiterin Nora Hertlein-Hull - Vorbereitungen f\u00fcr das Theatertreffen in der hei\u00dfen Phase", "url": "https://www.rbb24.de/panorama/beitrag/av7/video-berlin-theatertreffen-neue-leitung-nora-hertlein-hull-haus-der-berliner-festspiele.html", "thumbnailUrl": null, "date": "Thu, 18 Apr 2024 21:24:06 +0200", "lat": 52.51704, "lon": 13.38886, "intensity": 0.5, "source": "RBB"}, {"title": "Video | Hilfe durch Bildungsangebote: Millionen Analphabeten in Deutschland", "url": "https://www.rbb24.de/panorama/beitrag/av7/video-berlin-analphabeten-millionen-betroffene-deutschland-abhilfe-apps-bildung.html", "thumbnailUrl": null, "date": "Thu, 18 Apr 2024 21:19:21 +0200", "lat": 51.1657, "lon": 10.4515, "intensity": 0.8, "source": "RBB"}, {"title": "Video | Kliniken und Brandenburgs Landespolitik in Sorge um Standorte in der Fl\u00e4che", "url": "https://www.rbb24.de/panorama/beitrag/av7/video-brandenburg-lauterbach-krankenhausreform-umbau-gesundheitssystem-diskurs-finanzierung.html", "thumbnailUrl": null, "date": "Thu, 18 Apr 2024 21:14:09 +0200", "lat": 52.52, "lon": 13.4114, "intensity": 0.8, "source": "RBB"}, {"title": "Video | Alte Nationalgalerie: Caspar David Friedrich Ausstellung wird er\u00f6ffnet", "url": "https://www.rbb24.de/panorama/beitrag/av7/video-ausstellung-caspar-david-friedrich-berlin.html", "thumbnailUrl": null, "date": "Wed, 17 Apr 2024 21:44:37 +0200", "lat": 52.52, "lon": 13.4049, "intensity": 0.7, "source": "RBB"}, {"title": "Holstein Kiel unbeirrt Richtung Aufstieg, HSV f\u00e4llt weiter zur\u00fcck", "url": "https://www.ndr.de/sport/fussball/Holstein-Kiel-unbeirrt-Richtung-Aufstieg-HSV-faellt-weiter-zurueck,nordduell1094.html", "thumbnailUrl": "https://www.ndr.de/sport/fussball/zweitebundesliga/hsv28504_v-contentwidescreen.jpg", "date": "2024-04-20T23:49:16.284+02:00", "lat": 54.3263, "lon": 9.9103, "intensity": 0.8, "source": "NDR"}, {"title": "Unter Protest: AfD h\u00e4lt Landesparteitag in Unterl\u00fc\u00df ab", "url": "https://www.ndr.de/nachrichten/niedersachsen/lueneburg_heide_unterelbe/Unter-Protest-AfD-haelt-Landesparteitag-in-Unterluess-ab,afdparteitag134.html", "thumbnailUrl": "https://www.ndr.de/nachrichten/niedersachsen/lueneburg_heide_unterelbe/afd3242_v-contentwidescreen.jpg", "date": "2024-04-20T19:11:33.553+02:00", "lat": 52.9125, "lon": 10.3833, "intensity": 0.8, "source": "NDR"}, {"title": "SSC Schwerin schl\u00e4gt Stuttgart: Meistertitel ganz nah", "url": "https://www.ndr.de/sport/mehr_sport/SSC-Schwerin-schlaegt-Stuttgart-Meistertitel-ganz-nah,ssc1438.html", "thumbnailUrl": "https://www.ndr.de/sport/mehr_sport/ssc1440_v-contentwidescreen.jpg", "date": "2024-04-20T21:02:46.167+02:00", "lat": 53.6297, "lon": 11.4167, "intensity": 0.8, "source": "NDR"}, {"title": "Hochwasser: Freiberufler und Firmen k\u00f6nnen nun Hilfe beantragen", "url": "https://www.ndr.de/nachrichten/niedersachsen/Hochwasser-Freiberufler-und-Firmen-koennen-nun-Hilfe-beantragen,hochwasser6038.html", "thumbnailUrl": "https://www.ndr.de/nachrichten/niedersachsen/hochwasser5628_v-contentwidescreen.jpg", "date": "2024-04-20T13:30:09.315+02:00", "lat": 51.1657, "lon": 10.4515, "intensity": 0.7, "source": "NDR"}, {"title": "Funde bei mutma\u00dflichem RAF-Mitglied Klette: Panzerfaust war Attrappe", "url": "https://www.ndr.de/nachrichten/niedersachsen/Funde-bei-mutmasslichem-RAF-Mitglied-Klette-Panzerfaust-war-Attrappe,klette180.html", "thumbnailUrl": "https://www.ndr.de/fernsehen/klette182_v-contentwidescreen.jpg", "date": "2024-04-20T18:18:50.462+02:00", "lat": 52.51704, "lon": 13.38889, "intensity": 0.9, "source": "NDR"}, {"title": "Gericht entscheidet: Fahrrad-Demo auf A39 verboten", "url": "https://www.ndr.de/nachrichten/niedersachsen/lueneburg_heide_unterelbe/Gericht-entscheidet-Fahrrad-Demo-auf-A39-verboten,aktuelllueneburg10432.html", "thumbnailUrl": "https://www.ndr.de/home/hamburg/justiz133_v-contentwidescreen.jpg", "date": "2024-04-20T16:59:42.961+02:00", "lat": 53.2525, "lon": 10.4643, "intensity": 0.8, "source": "NDR"}, {"title": "Segler geraten vor Niendorfer Hafen in Seenot", "url": "https://www.ndr.de/nachrichten/schleswig-holstein/Segler-geraten-vor-Niendorfer-Hafen-in-Seenot,segler316.html", "thumbnailUrl": "https://www.ndr.de/nachrichten/schleswig-holstein/dgzrs342_v-contentwidescreen.jpg", "date": "2024-04-20T12:05:24.808+02:00", "lat": 53.9948, "lon": 10.7859, "intensity": 0.8, "source": "NDR"}, {"title": "Hohen Luckow: Strafermittlungen nach M\u00e4hdrescher-Unfall", "url": "https://www.ndr.de/nachrichten/mecklenburg-vorpommern/Hohen-Luckow-Strafermittlungen-nach-Maehdrescher-Unfall,kurzmeldungmv15006.html", "thumbnailUrl": "https://www.ndr.de/nachrichten/niedersachsen/justitia156_v-contentwidescreen.jpg", "date": "2024-04-20T13:10:28.265+02:00", "lat": 53.922, "lon": 12.057, "intensity": 0.8, "source": "NDR"}, {"title": "Landwirtschaftskammer erwartet steigende Preise f\u00fcr Fisch", "url": "https://www.ndr.de/nachrichten/niedersachsen/oldenburg_ostfriesland/Landwirtschaftskammer-erwartet-steigende-Preise-fuer-Fisch,fischer1288.html", "thumbnailUrl": "https://www.ndr.de/ratgeber/kochen/warenkunde/seelachs119_v-contentwidescreen.jpg", "date": "2024-04-20T11:46:16.722+02:00", "lat": 53.55, "lon": 8.55, "intensity": 0.7, "source": "NDR"}, {"title": "Feuerwehr \u00fcbt am Doberaner M\u00fcnster f\u00fcr den Ernstfall", "url": "https://www.ndr.de/nachrichten/mecklenburg-vorpommern/Feuerwehr-uebt-am-Doberaner-Muenster-fuer-den-Ernstfall,kurzmeldungmv15004.html", "thumbnailUrl": "https://www.ndr.de/nachrichten/mecklenburg-vorpommern/doberanfeuer102_v-contentwidescreen.jpg", "date": "2024-04-20T08:18:26.050+02:00", "lat": 53.8898, "lon": 11.8717, "intensity": 0.6, "source": "NDR"}, {"title": "Fregatte \"Hessen\" beendet Einsatz im Roten Meer", "url": "https://www.ndr.de/nachrichten/niedersachsen/oldenburg_ostfriesland/Fregatte-Hessen-beendet-Einsatz-im-Roten-Meer,hessen166.html", "thumbnailUrl": "https://www.ndr.de/nachrichten/niedersachsen/oldenburg_ostfriesland/fregatte2072_v-contentwidescreen.jpg", "date": "2024-04-20T09:33:11.447+02:00", "lat": 15.5527, "lon": 42.5544, "intensity": 0.7, "source": "NDR"}, {"title": "Fu\u00dfball-EM in Hamburg: Horner Rennbahn wohl doch kein Holland-Camp", "url": "https://www.ndr.de/nachrichten/hamburg/Fussball-EM-in-Hamburg-Horner-Rennbahn-wohl-doch-kein-Holland-Camp,fussballem230.html", "thumbnailUrl": "https://www.ndr.de/nachrichten/hamburg/horn718_v-contentwidescreen.jpg", "date": "2024-04-20T14:38:48.246+02:00", "lat": 53.5503, "lon": 10.0751, "intensity": 0.6, "source": "NDR"}, {"title": "Norderelbbr\u00fccke: A1-Bauarbeiten behindern Verkehr am Wochenende", "url": "https://www.ndr.de/nachrichten/hamburg/Norderelbbruecke-A1-Bauarbeiten-behindern-Verkehr-am-Wochenende,autobahn3560.html", "thumbnailUrl": "https://www.ndr.de/nachrichten/hamburg/autobahn3558_v-contentwidescreen.jpg", "date": "2024-04-20T08:26:28.965+02:00", "lat": 53.517, "lon": 9.992, "intensity": 0.6, "source": "NDR"}, {"title": "A7 bei Rendsburg erneut gesperrt", "url": "https://www.ndr.de/nachrichten/schleswig-holstein/A7-bei-Rendsburg-an-diesem-Wochenende-erneut-gesperrt,sperrung768.html", "thumbnailUrl": "https://www.ndr.de/nachrichten/schleswig-holstein/sperrung770_v-contentwidescreen.jpg", "date": "2024-04-20T11:35:44.317+02:00", "lat": 54.3069, "lon": 9.6642, "intensity": 0.6, "source": "NDR"}, {"title": "Neuer Sand f\u00fcr die K\u00fcste: Land und Bund stellen \"Rekordsumme\"", "url": "https://www.ndr.de/nachrichten/niedersachsen/oldenburg_ostfriesland/Neuer-Sand-fuer-die-Kueste-Land-und-Bund-stellen-Rekordsumme,kuestenschutz258.html", "thumbnailUrl": "https://www.ndr.de/nachrichten/niedersachsen/oldenburg_ostfriesland/norderney788_v-contentwidescreen.jpg", "date": "2024-04-19T21:46:03.451+02:00", "lat": 53.8763, "lon": 8.6329, "intensity": 0.8, "source": "NDR"}, {"title": "Harz: Freiwillige pflanzen B\u00e4ume gegen Klimawandel", "url": "https://www.ndr.de/fernsehen/sendungen/hallo_niedersachsen/Harz-Freiwillige-pflanzen-Baeume-gegen-Klimawandel,hallonds87050.html", "thumbnailUrl": "https://www.ndr.de/fernsehen/screenshot1736422_v-contentwidescreen.jpg", "date": "2024-04-20T21:01:25.871+02:00", "lat": 51.7882, "lon": 10.5696, "intensity": 0.6, "source": "NDR"}, {"title": "Nahost-Expertin: Vorerst wohl keine weitere Eskalation zwischen Israel und Iran", "url": "https://www.ndr.de/nachrichten/info/sendungen/interviews/Nahost-Expertin-Vorerst-wohl-keine-weitere-Eskalation-zwischen-Israel-und-Iran,audio1618674.html", "thumbnailUrl": "https://www.ndr.de/nachrichten/info/helberg102_v-contentwidescreen.jpg", "date": "2024-04-20T17:45:59.968+02:00", "lat": 31.792, "lon": 35.1354, "intensity": 0.3, "source": "NDR"}, {"title": "Kommentar: Plattdeutsch ein Schatz - Hamburg muss mehr tun", "url": "https://www.ndr.de/903/Kommentar-Plattdeutsch-ein-Schatz-Hamburg-muss-mehr-tun,hamj146242.html", "thumbnailUrl": "https://www.ndr.de/nachrichten/hamburg/hamburgkommentar932_v-contentwidescreen.jpg", "date": "2024-04-20T08:40:10.643+02:00", "lat": 53.5511, "lon": 9.9937, "intensity": 0.3, "source": "NDR"}, {"title": "Toter in Nienburg: Ermittlungen gegen Polizeibeamten", "url": "https://www.ndr.de/fernsehen/sendungen/hallo_niedersachsen/Toter-in-Nienburg-Ermittlungen-gegen-Polizeibeamten,hallonds87028.html", "thumbnailUrl": "https://www.ndr.de/fernsehen/sendungen/hallo_niedersachsen/logo313_v-contentwidescreen.jpg", "date": "2024-04-19T22:09:37.815+02:00", "lat": 52.6408, "lon": 9.2125, "intensity": 0.8, "source": "NDR"}, {"title": "Ein Jahr Skywalk auf R\u00fcgen: Eine Erfolgsgeschichte", "url": "https://www.ndr.de/fernsehen/sendungen/nordmagazin/Ein-Jahr-Skywalk-auf-Ruegen-Eine-Erfolgsgeschichte,nordmagazin117400.html", "thumbnailUrl": "https://www.ndr.de/fernsehen/sendungen/nordmagazin/logo188_v-contentwidescreen.jpg", "date": "2024-04-20T10:34:50.686+02:00", "lat": 54.5291, "lon": 13.5884, "intensity": 0.8, "source": "NDR"}, {"title": "Die \"Liste Links\" an der Uni Hamburg - Sekte oder Sozialisten?", "url": "https://www.ndr.de/nachrichten/info/Die-Liste-Links-an-der-Uni-Hamburg-Sekte-oder-Sozialisten,audio1618500.html", "thumbnailUrl": "https://www.ndr.de/nachrichten/hamburg/unihamburg168_v-contentwidescreen.jpg", "date": "2024-04-20T09:34:06.311+02:00", "lat": 53.5669, "lon": 9.984, "intensity": 0.8, "source": "NDR"}, {"title": "Milder Winter: Gefahr von Zecken steigt in Norddeutschland", "url": "https://www.ndr.de/nachrichten/info/Milder-Winter-Gefahr-von-Zecken-steigt-in-Norddeutschland,ndrinfo58858.html", "thumbnailUrl": "https://www.ndr.de/fernsehen/screenshot1735984_v-contentwidescreen.jpg", "date": "2024-04-19T22:49:17.328+02:00", "lat": 54.4583, "lon": 9.5569, "intensity": 0.7, "source": "NDR"}, {"title": "Jetzt anmelden: Workshops zum Tag der Pressefreiheit", "url": "https://www.ndr.de/ratgeber/medienkompetenz/Jetzt-anmelden-Workshops-zum-Tag-der-Pressefreiheit,tdpressefreiheit100.html", "thumbnailUrl": "https://www.ndr.de/ratgeber/medienkompetenz/pressefreiheit418_v-contentwidescreen.jpg", "date": "2024-04-18T15:25:01.210+02:00", "lat": 53.5511, "lon": 10.0103, "intensity": 0.3, "source": "NDR"}, {"title": "Relaunch der vier NDR L\u00e4nder-Apps: Nachrichten aus Ihrer Region!", "url": "https://www.ndr.de/Relaunch-der-vier-NDR-Laender-Apps-Nachrichten-aus-Ihrer-Region,laenderapprelaunch100.html", "thumbnailUrl": "https://www.ndr.de/laenderapprelaunch102_v-contentwidescreen.jpg", "date": "2024-03-19T09:22:34.719+01:00", "lat": 53.8659, "lon": 9.8606, "intensity": 0.4, "source": "NDR"}, {"title": "Gaspreis Dashboard", "url": "https://www.ndr.de/home/gaspreis176.html", "thumbnailUrl": null, "date": "2023-04-06T14:49:06.409+02:00", "lat": 51.3426, "lon": 9.9976, "intensity": 0.7, "source": "NDR"}, {"title": "NDR Radioprogramme", "url": "https://www.ndr.de/radio/radiologobox100.html", "thumbnailUrl": null, "date": "2020-12-01T14:04:26.700+01:00", "lat": 53.5511, "lon": 9.9937, "intensity": 0.3, "source": "NDR"}, {"title": "Krieg und Terror - Die Lage im Nahen Osten und in der Ukraine", "url": "https://www.ndr.de/nachrichten/info/podcast5342.html", "thumbnailUrl": "https://www.ndr.de/nachrichten/info/podcastbild412_v-contentwidescreen.jpg", "date": "2024-04-20T21:52:12.262+02:00", "lat": 46.79651, "lon": 30.739834, "intensity": 0.8, "source": "NDR"}, {"title": "Unsere Comedy \"Die Kur-Oase\"!", "url": "https://www.ndr.de/ndr2/podcasts/podcast5816.html", "thumbnailUrl": "https://www.ndr.de/ndr2/podcasts/podcast5812_v-contentwidescreen.jpg", "date": "2024-04-19T07:15:08.225+02:00", "lat": 54.9069, "lon": 8.7386, "intensity": 0.2, "source": "NDR"}, {"title": "eat.READ.sleep. B\u00fccher f\u00fcr dich", "url": "https://www.ndr.de/kultur/sendungen/eat_read_sleep/index.html", "thumbnailUrl": "https://www.ndr.de/mediathek/podcastbild434_v-contentwidescreen.jpg", "date": "2024-04-12T06:00:31.991+02:00", "lat": 53.5511, "lon": 9.9937, "intensity": 0.2, "source": "NDR"}, {"title": "Die Ern\u00e4hrungs-Docs - Essen als Medizin", "url": "https://www.ndr.de/fernsehen/sendungen/die-ernaehrungsdocs/audio-podcast/index.html", "thumbnailUrl": "https://www.ndr.de/fernsehen/sendungen/die-ernaehrungsdocs/podcastbild338_v-contentwidescreen.jpg", "date": "2024-04-19T14:29:34.944+02:00", "lat": 53.5511, "lon": 9.9876, "intensity": 0.3, "source": "NDR"}, {"title": "Streitkr\u00e4fte und Strategien", "url": "https://www.ndr.de/nachrichten/info/podcast2998.html", "thumbnailUrl": "https://www.ndr.de/mediathek/mediathekbild652_v-contentwidescreen.jpg", "date": "2024-04-19T16:42:59.605+02:00", "lat": 53.5511, "lon": 9.9937, "intensity": 0.8, "source": "NDR"}, {"title": "Standpunkte", "url": "https://www.ndr.de/nachrichten/info/podcast4700.html", "thumbnailUrl": "https://www.ndr.de/mediathek/podcast5332_v-contentwidescreen.jpg", "date": "2024-04-20T00:00:14.486+02:00", "lat": 53.5511, "lon": 9.9937, "intensity": 0.5, "source": "NDR"}, {"title": "Mein Einsatz - der Feuerwehr-Podcast von NDR Niedersachsen", "url": "https://www.ndr.de/ndr1niedersachsen/podcast5774.html", "thumbnailUrl": "https://www.ndr.de/ndr1niedersachsen/podcasts/podcastbild364_v-contentwidescreen.jpg", "date": "2024-04-11T04:00:07.819+02:00", "lat": 52.3759, "lon": 9.7345, "intensity": 0.7, "source": "NDR"}, {"title": "\"Feel Hamburg\" - alle Folgen", "url": "https://www.ndr.de/903/podcasts/podcast5108.html", "thumbnailUrl": "https://www.ndr.de/mediathek/mediathekbild514_v-contentwidescreen.jpg", "date": "2024-04-17T05:00:09.432+02:00", "lat": 53.55, "lon": 10.0, "intensity": 0.4, "source": "NDR"}, {"title": "Intensiv-Station - Satire von NDR Info", "url": "https://www.ndr.de/nachrichten/info/podcast4274.html", "thumbnailUrl": "https://www.ndr.de/nachrichten/info/programm/intensivstation3272_v-contentwidescreen.jpg", "date": "2024-04-15T20:31:27.934+02:00", "lat": 54.3706, "lon": 10.5038, "intensity": 0.8, "source": "NDR"},