[{"title": "Britisches Parlament genehmigt Abschiebungen nach Ruanda", "url": "https://www.tagesschau.de/ausland/grossbritannien-ruanda-abschiebegesetz-abstimmung-100.html", "thumbnailUrl": "https://images.tagesschau.de/image/3dac494c-ad81-40a6-8e30-e55906c79c3a/AAABjwhbg0A/AAABjcWesUg/16x9-512.jpg", "date": "2024-04-23T02:32:46.339+02:00", "lat": 51.5074, "lon": -0.1276, "intensity": 0.8, "source": "Tagesschau"}, {"title": "Auto prallt gegen Oberleitungsmast - Bahnstrecke Stuttgart-Singen wieder normal befahrbar", "url": "https://www.tagesschau.de/inland/regional/badenwuerttemberg/swr-autofahrer-rammt-in-eutingen-im-gaeu-einen-oberleitungsmasten-100.html", "thumbnailUrl": "https://images.tagesschau.de/image/693b4b7a-e853-4ac4-a23f-02f106c2d6e9/AAABjwgAfwI/AAABjcWesUg/16x9-512.jpg", "date": "2024-04-23T00:41:00.000+02:00", "lat": 48.4919, "lon": 8.615, "intensity": 0.7, "source": "Tagesschau"}, {"title": "\"Die Leute im Ahrtal haben guten Grund, w\u00fctend zu sein\"", "url": "https://www.tagesschau.de/inland/regional/rheinlandpfalz/swr-keine-anklage-nach-flut-im-ahrtal-swr-podiumsdiskussion-in-dernau-100.html", "thumbnailUrl": "https://images.tagesschau.de/image/f68d1ba9-c889-4406-a0d9-4250ed3804c0/AAABjwdHlRg/AAABjcWesUg/16x9-512.jpg", "date": "2024-04-22T23:46:00.000+02:00", "lat": 50.3735, "lon": 7.2586, "intensity": 0.8, "source": "Tagesschau"}, {"title": "Eintracht: +++ heimspiel! blickt auf Crunshtime der Eintracht +++ Neue Folge FUSSBALL2000 +++ Nacho Ferri verletzt sich bei U21 +++", "url": "https://www.tagesschau.de/inland/regional/hessen/hr--eintracht-wohl-mit-chaibi-einig--glasner-fast-nur-kolo-muani-der-tore-erzielt--bericht-eintracht-sagt-aouar-ab-100.html", "thumbnailUrl": "https://images.tagesschau.de/image/11a619f2-9582-4cfd-b1bb-34851d0cff1d/AAABjwem0EQ/AAABjcWesUg/16x9-512.jpg", "date": "2024-04-22T23:10:45.442+02:00", "lat": 50.110922, "lon": 8.682127, "intensity": 0.6, "source": "Tagesschau"}, {"title": "Schorndorf-Miedelsbach: Feuer in Lagerhalle von Spielwaren-Hersteller ", "url": "https://www.tagesschau.de/inland/regional/badenwuerttemberg/swr-schorndorf-miedelsbach-lagerhalle-von-spielwaren-hersteller-brennt-100.html", "thumbnailUrl": "https://images.tagesschau.de/image/fd25d779-e7be-47cc-860a-ff955a517097/AAABjwdhMn0/AAABjcWesUg/16x9-512.jpg", "date": "2024-04-22T22:51:00.000+02:00", "lat": 48.8022, "lon": 9.4833, "intensity": 0.8, "source": "Tagesschau"}, {"title": "++ Fernsehturm in Charkiw nach Angriff eingest\u00fcrzt ++", "url": "https://www.tagesschau.de/newsticker/liveblog-ukraine-montag-360.html", "thumbnailUrl": "https://images.tagesschau.de/image/2aa2598d-cdcd-418d-a747-b0ac2f4a5acc/AAABjwbrktk/AAABjcWesUg/16x9-512.jpg", "date": "2024-04-22T22:48:41.044+02:00", "lat": 49.9935, "lon": 36.230383, "intensity": 0.9, "source": "Tagesschau"}, {"title": "++ EU treibt Pl\u00e4ne f\u00fcr neue Iran-Sanktionen voran ++", "url": "https://www.tagesschau.de/newsticker/liveblog-nahost-montag-132.html", "thumbnailUrl": "https://images.tagesschau.de/image/4468e314-ec00-49f2-9c16-ac41ce086a81/AAABjtO1EpA/AAABjcWesUg/16x9-512.jpg", "date": "2024-04-22T22:45:37.982+02:00", "lat": 34.8021, "lon": 38.9853, "intensity": 0.8, "source": "Tagesschau"}, {"title": "Wall Street macht Boden gut", "url": "https://www.tagesschau.de/wirtschaft/finanzen/marktberichte/marktbericht-dax-dow-geldanlage-zinsen-fed-ezb-rendite-aktien-100.html", "thumbnailUrl": "https://images.tagesschau.de/image/78ef3137-877b-45df-b296-bdea22012734/AAABiFmbt4M/AAABjcWesUg/16x9-512.jpg", "date": "2024-04-22T22:34:31.719+02:00", "lat": 40.7128, "lon": -74.007, "intensity": 0.6, "source": "Tagesschau"}, {"title": "Seenotretter helfen Seglern bei Norderney aus Lebensgefahr", "url": "https://www.tagesschau.de/inland/regional/niedersachsen/ndr-seenotretter-helfen-seglern-bei-norderney-aus-lebensgefahr-100.html", "thumbnailUrl": "https://images.tagesschau.de/image/8540598d-bb4d-41f1-b222-0b44d8024ce5/AAABjwb44g0/AAABjcWesUg/16x9-512.jpg", "date": "2024-04-22T22:27:00.000+02:00", "lat": 53.7069, "lon": 7.1408, "intensity": 0.8, "source": "Tagesschau"}, {"title": "Auto prallt gegen Wohnmobil - ein Toter und vier Schwerverletzte", "url": "https://www.tagesschau.de/inland/regional/badenwuerttemberg/swr-auto-prallt-gegen-wohnmobil-ein-toter-und-vier-schwerverletzte-100.html", "thumbnailUrl": "https://images.tagesschau.de/image/fa0dd889-4a14-4bb2-ad72-17277f5155e1/AAABjwd-lTE/AAABjcWesUg/16x9-512.jpg", "date": "2024-04-22T22:26:42.000+02:00", "lat": 47.8077, "lon": 9.5018, "intensity": 0.8, "source": "Tagesschau"}, {"title": "18-J\u00e4hrigen mit Messer \u00fcberfallen? Zwei Jugendlichen droht U-Haft", "url": "https://www.tagesschau.de/inland/regional/niedersachsen/ndr-18-jaehrigen-mit-messer-ueberfallen-zwei-jugendlichen-droht-u-haft-100.html", "thumbnailUrl": "https://images.tagesschau.de/image/f9927396-7cda-456f-9f87-aa73601c8622/AAABjweAa74/AAABjcWesUg/16x9-512.jpg", "date": "2024-04-22T22:22:00.000+02:00", "lat": 52.1525, "lon": 9.9512, "intensity": 0.7, "source": "Tagesschau"}, {"title": "Special Olympics-Wettk\u00e4mpfe auch in Merzig und Homburg ", "url": "https://www.tagesschau.de/inland/regional/saarland/sr-special-olympics-wettkaempfe-auch-in-merzig-und-homburg-100.html", "thumbnailUrl": "https://images.tagesschau.de/image/a57b883f-9117-40fe-a74a-1a89203c0ef9/AAABjwdxqig/AAABjcWesUg/16x9-512.jpg", "date": "2024-04-22T22:01:00.000+02:00", "lat": 49.3074, "lon": 7.1713, "intensity": 0.6, "source": "Tagesschau"}, {"title": "Zusammensto\u00df mit Tram: Radfahrer stirbt nach Unfall in Berlin-Wei\u00dfensee", "url": "https://www.tagesschau.de/inland/regional/berlin/rbb-zusammenstoss-mit-tram-radfahrer-stirbt-nach-unfall-in-berlin-weissensee-100.html", "thumbnailUrl": "https://images.tagesschau.de/image/87b818d7-2ab9-4766-9d92-ba6812be5650/AAABjwdk6OU/AAABjcWesUg/16x9-512.jpg", "date": "2024-04-22T21:57:53.000+02:00", "lat": 52.5523, "lon": 13.4574, "intensity": 0.8, "source": "Tagesschau"}, {"title": "Veltins-Sohn will Teil vom Millionen-Erbe", "url": "https://www.tagesschau.de/inland/regional/nordrheinwestfalen/wdr-veltins-sohn-will-teil-vom-millionen-erbe-108.html", "thumbnailUrl": "https://images.tagesschau.de/image/b6fa6367-d3e4-42f6-a25c-08b528c06aff/AAABjwdmsJU/AAABjcWesUg/16x9-512.jpg", "date": "2024-04-22T21:47:00.000+02:00", "lat": 51.4808, "lon": 7.9631, "intensity": 0.6, "source": "Tagesschau"}, {"title": "Reizgas im KaDeWe verspr\u00fcht - mehrere Menschen erleiden Atemwegsreizungen", "url": "https://www.tagesschau.de/inland/regional/berlin/rbb-reizgas-im-kadewe-versprueht-mehrere-menschen-erleiden-atemwegsreizungen-100.html", "thumbnailUrl": "https://images.tagesschau.de/image/ee1b7035-dbde-4f70-be6a-95b1248b3380/AAABjwc8nl8/AAABjcWesUg/16x9-512.jpg", "date": "2024-04-22T21:11:05.000+02:00", "lat": 52.5034, "lon": 13.3372, "intensity": 0.8, "source": "Tagesschau"}, {"title": "Lauterbach will Nierenspenden erleichtern", "url": "https://www.tagesschau.de/inland/nierenspenden-aenderung-100.html", "thumbnailUrl": "https://images.tagesschau.de/image/49072a70-bb2a-42c0-bdb6-939f1c7e9159/AAABjwcdgpk/AAABjcWesUg/16x9-512.jpg", "date": "2024-04-22T21:03:23.588+02:00", "lat": 50.6353, "lon": 9.3982, "intensity": 0.8, "source": "Tagesschau"}, {"title": "Bei Ludwigsfelde: A10 nach Lkw-Unfall gesperrt - Diesel auf 600 Metern ausgelaufen", "url": "https://www.tagesschau.de/inland/regional/berlin/rbb-bei-ludwigsfelde-a10-nach-lkw-unfall-gesperrt-diesel-auf-600-metern-ausgelaufen-100.html", "thumbnailUrl": "https://images.tagesschau.de/image/81e10b4b-5ed5-4810-b1f5-80234773d414/AAABjwa-ZSE/AAABjcWesUg/16x9-512.jpg", "date": "2024-04-22T21:02:34.000+02:00", "lat": 52.1604, "lon": 13.2406, "intensity": 0.7, "source": "Tagesschau"}, {"title": "Senat will laut Wegner \"unertr\u00e4gliche Situation\" im Ma\u00dfregelvollzug verbessern", "url": "https://www.tagesschau.de/inland/regional/berlin/rbb-senat-will-laut-wegner-unertraegliche-situation-im-massregelvollzug-verbessern-102.html", "thumbnailUrl": "https://images.tagesschau.de/image/6a962763-e89b-4aa7-9aac-de0abbdc7345/AAABjwcuL_E/AAABjcWesUg/16x9-512.jpg", "date": "2024-04-22T20:57:26.000+02:00", "lat": 52.520008, "lon": 13.404954, "intensity": 0.8, "source": "Tagesschau"}, {"title": "Metallplatten auf Gleise gelegt: Metronom-Zug besch\u00e4digt", "url": "https://www.tagesschau.de/inland/regional/niedersachsen/ndr-metallteile-auf-gleise-bei-rotenburg-gelegt-metronom-zug-beschaedigt-100.html", "thumbnailUrl": "https://images.tagesschau.de/image/4c65773e-e29c-40c3-b280-db7ff76aade6/AAABjwcuSKE/AAABjcWesUg/16x9-512.jpg", "date": "2024-04-22T20:55:00.000+02:00", "lat": 53.1147, "lon": 9.407, "intensity": 0.8, "source": "Tagesschau"}, {"title": "Polizei-Aff\u00e4re: Gewerkschafts-Chef kritisiert Bef\u00f6rderungspraxis bei BW-Polizei", "url": "https://www.tagesschau.de/inland/regional/badenwuerttemberg/swr-polizei-affaere-gewerkschafts-chef-kritisiert-befoerderungspraxis-bei-bw-polizei-100.html", "thumbnailUrl": "https://images.tagesschau.de/image/89648795-a40d-4e3a-8c8e-c1f2d4e24d67/AAABjwZvilw/AAABjcWesUg/16x9-512.jpg", "date": "2024-04-22T20:47:00.000+02:00", "lat": 48.7758, "lon": 9.7827, "intensity": 0.7, "source": "Tagesschau"}, {"title": "Hamburger Hafen: Rekordzahl bei Kreuzfahrtpassagieren", "url": "https://www.tagesschau.de/inland/regional/hamburg/ndr-hamburger-hafen-rekordzahl-bei-kreuzfahrtpassagieren-100.html", "thumbnailUrl": "https://images.tagesschau.de/image/0723834f-1336-43a0-afd0-6f5c879cad5c/AAABjwYOfgk/AAABjcWesUg/16x9-512.jpg", "date": "2024-04-22T20:42:00.000+02:00", "lat": 53.5511, "lon": 9.9937, "intensity": 0.7, "source": "Tagesschau"}, {"title": "Brand in Lohbr\u00fcgge: Hamburger Feuerwehr rettet rund 50 Menschen", "url": "https://www.tagesschau.de/inland/regional/hamburg/ndr-brand-in-lohbruegge-hamburger-feuerwehr-rettet-rund-50-menschen-100.html", "thumbnailUrl": "https://images.tagesschau.de/image/6467cbeb-17ad-4e70-9d7f-555e9a40436a/AAABjwWFX4c/AAABjcWesUg/16x9-512.jpg", "date": "2024-04-22T20:33:00.000+02:00", "lat": 53.515, "lon": 10.187, "intensity": 0.8, "source": "Tagesschau"}, {"title": "Festo will Millionen in Standort Rohrbach investieren", "url": "https://www.tagesschau.de/inland/regional/saarland/sr-festo-will-millionen-in-standort-rohrbach-investieren-100.html", "thumbnailUrl": "https://images.tagesschau.de/image/93637e59-cec5-4f78-a7a2-6ef391796043/AAABjwcbnB8/AAABjcWesUg/16x9-512.jpg", "date": "2024-04-22T20:33:00.000+02:00", "lat": 49.2961, "lon": 7.1848, "intensity": 0.8, "source": "Tagesschau"}, {"title": "\"Hessengeld\" f\u00fcr Hausbauer soll in Raten \u00fcber zehn Jahre ausgezahlt werden", "url": "https://www.tagesschau.de/inland/regional/hessen/hr-hessengeld-fuer-hausbauer-soll-in-raten-ueber-zehn-jahre-ausgezahlt-werden-100.html", "thumbnailUrl": "https://images.tagesschau.de/image/28850d06-f612-42cf-8a78-f2d186899168/AAABjwcLK9k/AAABjcWesUg/16x9-512.jpg", "date": "2024-04-22T20:20:58.361+02:00", "lat": 50.585, "lon": 9.692, "intensity": 0.6, "source": "Tagesschau"}, {"title": "250 Mitarbeiter verlassen zum Monatsende Ford-Werk in Saarlouis", "url": "https://www.tagesschau.de/inland/regional/saarland/sr-250-mitarbeiter-verlassen-zum-monatsende-ford-werk-in-saarlouis-100.html", "thumbnailUrl": "https://images.tagesschau.de/image/f67a8b7a-39fa-45d3-ae86-a13ef3f948ca/AAABjwcbzVA/AAABjcWesUg/16x9-512.jpg", "date": "2024-04-22T20:16:00.000+02:00", "lat": 49.3106, "lon": 6.7524, "intensity": 0.8, "source": "Tagesschau"}, {"title": "Hamburgs B\u00fcrgermeister Tschentscher trifft Klitschko in Kiew", "url": "https://www.tagesschau.de/inland/regional/hamburg/ndr-hamburgs-buergermeister-tschentscher-trifft-klitschko-in-kiew-100.html", "thumbnailUrl": "https://images.tagesschau.de/image/2f7d79ea-bfe1-466d-9f3e-cc069dea3d19/AAABjwXFWWk/AAABjcWesUg/16x9-512.jpg", "date": "2024-04-22T20:15:00.000+02:00", "lat": 50.4501, "lon": 30.5234, "intensity": 0.6, "source": "Tagesschau"}, {"title": "Unfall auf A27 bei Bremen: Mehrere Pkw kollidieren, f\u00fcnf Verletzte", "url": "https://www.tagesschau.de/inland/regional/niedersachsen/ndr-unfall-auf-a27-bei-bremen-mehrere-pkw-kollidieren-fuenf-verletzte-100.html", "thumbnailUrl": "https://images.tagesschau.de/image/04f185bb-e2e8-4bbd-9dcd-a075b091aa30/AAABjwcCCl0/AAABjcWesUg/16x9-512.jpg", "date": "2024-04-22T20:09:00.000+02:00", "lat": 53.0793, "lon": 8.7875, "intensity": 0.8, "source": "Tagesschau"}, {"title": "Brandenburg: Datenschutzbeauftragte beklagt schludrigen Umgang mit sensiblen Daten", "url": "https://www.tagesschau.de/inland/regional/brandenburg/rbb-brandenburg-datenschutzbeauftragte-beklagt-schludrigen-umgang-mit-sensiblen-daten-100.html", "thumbnailUrl": "https://images.tagesschau.de/image/73ad8f61-6f25-4b6c-9adb-d98724e1efca/AAABjwb6t2o/AAABjcWesUg/16x9-512.jpg", "date": "2024-04-22T20:00:13.000+02:00", "lat": 52.42265, "lon": 13.340758, "intensity": 0.6, "source": "Tagesschau"}, {"title": "Wetterlage und Temperaturen", "url": "https://www.tagesschau.de/wetter/europa-welt", "thumbnailUrl": "https://images.tagesschau.de/image/6e7d3b16-79c8-4308-822b-20c3035236b5/AAABjwbtT6Y/AAABjcWesUg/16x9-512.jpg", "date": "2024-04-22T19:50:01.221+02:00", "lat": 51.1657, "lon": 10.4515, "intensity": 0.3, "source": "Tagesschau"}, {"title": "Verantwortung f\u00fcr einen \"schwarzen Tag\"", "url": "https://www.tagesschau.de/ausland/asien/israel-ruecktritt-geheimdienstchef-102.html", "thumbnailUrl": "https://images.tagesschau.de/image/fec9944d-18a6-4548-bdb7-1b7a758b5925/AAABi8zUVgo/AAABjcWesUg/16x9-512.jpg", "date": "2024-04-22T19:37:21.875+02:00", "lat": 32.085299, "lon": 34.781768, "intensity": 0.7, "source": "Tagesschau"}, {"title": "Neues Album von Max Clouth: Hessischer Jazzmusiker begeistert Indien ", "url": "https://www.tagesschau.de/inland/regional/hessen/hr-neues-album-von-max-clouth-hessischer-jazzmusiker-begeistert-indien-100.html", "thumbnailUrl": "https://images.tagesschau.de/image/6baf180a-4b89-44f9-a2cf-df6e37c43a40/AAABjwbdab4/AAABjcWesUg/16x9-512.jpg", "date": "2024-04-22T19:31:18.969+02:00", "lat": 50.1109, "lon": 8.6821, "intensity": 0.7, "source": "Tagesschau"}, {"title": "\"BW-Journal\": Post von der AfD sorgt f\u00fcr Irritationen in Freiburg", "url": "https://www.tagesschau.de/inland/regional/badenwuerttemberg/swr-bw-journal-post-von-der-afd-sorgt-fuer-irritationen-in-freiburg-100.html", "thumbnailUrl": "https://images.tagesschau.de/image/1bc3de10-b8ec-4357-833a-b2db7d57f9e5/AAABjwc498k/AAABjcWesUg/16x9-512.jpg", "date": "2024-04-22T19:22:59.000+02:00", "lat": 47.996, "lon": 7.849, "intensity": 0.3, "source": "Tagesschau"}, {"title": "Mutma\u00dflicher China-Spion aus Bad Homburg in U-Haft", "url": "https://www.tagesschau.de/inland/regional/hessen/hr-verrat-von-militaertechnik-mutmasslicher-chinesischer-spion-in-bad-homburg-verhaftet-100.html", "thumbnailUrl": "https://images.tagesschau.de/image/573b4589-b4d7-40c3-b1b1-dfdf692c693e/AAABjwbWFtY/AAABjcWesUg/16x9-512.jpg", "date": "2024-04-22T19:22:49.287+02:00", "lat": 50.2261, "lon": 8.6195, "intensity": 0.8, "source": "Tagesschau"}, {"title": "Hertha-DJ \"Ferry\" im Interview: \"\"Zuletzt habe ich auch privat f\u00fcr Pal Dardai aufgelegt\"", "url": "https://www.tagesschau.de/inland/regional/berlin/rbb-hertha-dj-ferry-im-interview-zuletzt-habe-ich-auch-privat-fuer-pal-dardai-aufgelegt-102.html", "thumbnailUrl": "https://images.tagesschau.de/image/8fa991c3-fc7d-4833-a5d2-439af23d1ec4/AAABjwbOzBg/AAABjcWesUg/16x9-512.jpg", "date": "2024-04-22T19:15:06.000+02:00", "lat": 52.52, "lon": 13.405, "intensity": 0.6, "source": "Tagesschau"}, {"title": "Mehr Wasser gegen mehr Sicherheit", "url": "https://www.tagesschau.de/ausland/asien/tuerkei-irak-104.html", "thumbnailUrl": "https://images.tagesschau.de/image/0010cf45-8b56-4cb8-bafd-10a2e569b469/AAABjwbFcIY/AAABjcWesUg/16x9-512.jpg", "date": "2024-04-22T19:05:54.133+02:00", "lat": 39.0, "lon": 39.0, "intensity": 0.8, "source": "Tagesschau"}, {"title": "Nach t\u00f6dlichen Sch\u00fcssen in Borgfelde: Mordurteil f\u00fcr 20-J\u00e4hrigen", "url": "https://www.tagesschau.de/inland/regional/hamburg/ndr-nach-toedlichen-schuessen-in-borgfelde-mordurteil-fuer-20-jaehrigen-100.html", "thumbnailUrl": "https://images.tagesschau.de/image/1e7af14f-79f7-43d7-a458-6d3d7df54043/AAABjwa-Ss0/AAABjcWesUg/16x9-512.jpg", "date": "2024-04-22T18:56:00.000+02:00", "lat": 53.5534, "lon": 10.0274, "intensity": 0.8, "source": "Tagesschau"}, {"title": "Rechtes Geheimtreffen in Potsdam: Ex-Bauunternehmer Kopp best\u00e4tigt Teilnahme", "url": "https://www.tagesschau.de/inland/regional/badenwuerttemberg/swr-rechtes-geheimtreffen-in-potsdam-ex-bauunternehmer-kopp-bestaetigt-teilnahme-100.html", "thumbnailUrl": "https://images.tagesschau.de/image/c747a840-2db0-4ac9-a232-b1ad976ecd08/AAABjwZzL3o/AAABjcWesUg/16x9-512.jpg", "date": "2024-04-22T18:40:00.000+02:00", "lat": 52.3906, "lon": 13.0645, "intensity": 0.8, "source": "Tagesschau"}, {"title": "Startschuss f\u00fcr Gleisausbau Hanau - Gelnhausen: 1,6 Milliarden Euro f\u00fcr 23 Kilometer", "url": "https://www.tagesschau.de/inland/regional/hessen/hr-startschuss-fuer-gleisausbau-hanau-gelnhausen-16-milliarden-euro-fuer-23-kilometer-100.html", "thumbnailUrl": "https://images.tagesschau.de/image/973d859d-d2d4-492c-b856-6b39907bb9a7/AAABjwaqJ-Y/AAABjcWesUg/16x9-512.jpg", "date": "2024-04-22T18:34:51.816+02:00", "lat": 50.1333, "lon": 9.1685, "intensity": 0.8, "source": "Tagesschau"}, {"title": "Mehrere Menschen bei Auseinandersetzung an Cottbuser Oberschule verletzt", "url": "https://www.tagesschau.de/inland/regional/brandenburg/rbb-mehrere-menschen-bei-auseinandersetzung-an-cottbuser-oberschule-verletzt-100.html", "thumbnailUrl": "https://images.tagesschau.de/image/d09f2032-67dc-4672-9c50-6ba24426486c/AAABjwar9_g/AAABjcWesUg/16x9-512.jpg", "date": "2024-04-22T18:34:50.000+02:00", "lat": 51.7562, "lon": 13.4127, "intensity": 0.8, "source": "Tagesschau"}, {"title": "Barenboim sagt krankheitsbedingt mehrere Konzerte mit den Philharmonikern ab", "url": "https://www.tagesschau.de/inland/regional/berlin/rbb-barenboim-sagt-krankheitsbedingt-mehrere-konzerte-mit-den-philharmonikern-ab-100.html", "thumbnailUrl": "https://images.tagesschau.de/image/04e3e64b-87c7-46e9-8f9d-be5597211593/AAABjwasBP4/AAABjcWesUg/16x9-512.jpg", "date": "2024-04-22T18:34:39.000+02:00", "lat": 52.520008, "lon": 13.404954, "intensity": 0.6, "source": "Tagesschau"}, {"title": "Gifhorn: B\u00f6ller an Schule explodiert - mehrere Sch\u00fcler in Klinik", "url": "https://www.tagesschau.de/inland/regional/niedersachsen/ndr-knallkoerper-an-schule-explodiert-mehrere-schueler-in-klinik-100.html", "thumbnailUrl": "https://images.tagesschau.de/image/c3b33c93-1cac-41df-8bdb-542e881f16a6/AAABjwafV1s/AAABjcWesUg/16x9-512.jpg", "date": "2024-04-22T18:23:00.000+02:00", "lat": 52.4863, "lon": 10.5427, "intensity": 0.8, "source": "Tagesschau"}, {"title": "Nachhaltige Energie: Wie man mit Bakterien Wasserstoff speichert", "url": "https://www.tagesschau.de/inland/regional/badenwuerttemberg/swr-nachhaltige-energie-wie-man-mit-bakterien-wasserstoff-speichert-100.html", "thumbnailUrl": "https://images.tagesschau.de/image/d5b8cccf-2062-4859-b1a8-cdc1e2997de7/AAABjwct_Yw/AAABjcWesUg/16x9-512.jpg", "date": "2024-04-22T18:22:00.000+02:00", "lat": 48.6617, "lon": 9.7356, "intensity": 0.8, "source": "Tagesschau"}, {"title": "Koalitionspartner wollen Long-Covid-Patienten in MV besser unterst\u00fctzen ", "url": "https://www.tagesschau.de/inland/regional/mecklenburgvorpommern/ndr-koalitionspartner-wollen-long-covid-patienten-in-mv-besser-unterstuetzen-100.html", "thumbnailUrl": "https://images.tagesschau.de/image/d9d4d4f0-25c4-44f7-af9b-a44906c5741e/AAABjwatw0A/AAABjcWesUg/16x9-512.jpg", "date": "2024-04-22T18:21:00.000+02:00", "lat": 53.6127, "lon": 12.5665, "intensity": 0.8, "source": "Tagesschau"}, {"title": "Hamburg pr\u00e4sentiert Kulturprogramm zur Fu\u00dfball-EM", "url": "https://www.tagesschau.de/inland/regional/hamburg/ndr-hamburg-praesentiert-kulturprogramm-zur-fussball-em-100.html", "thumbnailUrl": "https://images.tagesschau.de/image/45295617-30fc-4473-b391-7769b838674c/AAABjwXFgZU/AAABjcWesUg/16x9-512.jpg", "date": "2024-04-22T18:21:00.000+02:00", "lat": 53.5511, "lon": 9.9937, "intensity": 0.4, "source": "Tagesschau"}, {"title": "Raser erh\u00e4lt neun Jahre Haft wegen Mordes", "url": "https://www.tagesschau.de/inland/regional/badenwuerttemberg/heilbronn-raser-prozess-100.html", "thumbnailUrl": "https://images.tagesschau.de/image/8e3133fd-1249-41c3-b61f-cb4271eaa2e1/AAABjwYtwhE/AAABjcWesUg/16x9-512.jpg", "date": "2024-04-22T18:20:00.000+02:00", "lat": 49.1417, "lon": 9.2223, "intensity": 1, "source": "Tagesschau"}, {"title": "Zoll stellt knapp 200.000 unversteuerte Zigaretten sicher", "url": "https://www.tagesschau.de/inland/regional/niedersachsen/ndr-zoll-stellt-knapp-200-000-unversteuerte-zigaretten-sicher-100.html", "thumbnailUrl": "https://images.tagesschau.de/image/df25bdc7-be2b-489e-8b53-85c02e73b487/AAABjwY8bWw/AAABjcWesUg/16x9-512.jpg", "date": "2024-04-22T18:13:00.000+02:00", "lat": 52.8443, "lon": 7.9403, "intensity": 0.7, "source": "Tagesschau"}, {"title": "M\u00f6glicher Frost bereitet Obstbauern im Raum Bodensee-Oberschwaben Sorge", "url": "https://www.tagesschau.de/inland/regional/badenwuerttemberg/swr-moeglicher-frost-bereitet-obstbauern-im-raum-bodensee-oberschwaben-sorge-100.html", "thumbnailUrl": "https://images.tagesschau.de/image/b6b0fda3-1ef1-41a4-8198-459ab7239240/AAABjwdLPV4/AAABjcWesUg/16x9-512.jpg", "date": "2024-04-22T18:08:00.000+02:00", "lat": 47.6963, "lon": 9.6908, "intensity": 0.8, "source": "Tagesschau"}, {"title": "Probewahlen in Brandenburg: Neue Wahlsoftware wird mehrmals im Land getestet", "url": "https://www.tagesschau.de/inland/regional/brandenburg/rbb-probewahlen-in-brandenburg-neue-wahlsoftware-wird-mehrmals-im-land-getestet-100.html", "thumbnailUrl": "https://images.tagesschau.de/image/008a8804-6692-4eb6-8b80-ae19703cb262/AAABjwaQgP4/AAABjcWesUg/16x9-512.jpg", "date": "2024-04-22T18:04:44.000+02:00", "lat": 52.3009, "lon": 13.2167, "intensity": 0.6, "source": "Tagesschau"}, {"title": "Meyer Werft will keine B\u00fcrgschaft vom Land Niedersachsen", "url": "https://www.tagesschau.de/inland/regional/niedersachsen/ndr-meyer-werft-will-keine-buergschaft-vom-land-niedersachsen-100.html", "thumbnailUrl": "https://images.tagesschau.de/image/3b4a2003-a99f-4566-9359-ac5c1a2f8621/AAABjwaNBHo/AAABjcWesUg/16x9-512.jpg", "date": "2024-04-22T17:57:00.000+02:00", "lat": 52.373, "lon": 7.2276, "intensity": 0.8, "source": "Tagesschau"}, {"title": "Sp\u00e4ter Nachtfrost in Hessen l\u00e4sst Obstbauern und Winzer zittern", "url": "https://www.tagesschau.de/inland/regional/hessen/hr-spaeter-nachtfrost-in-hessen-laesst-obstbauern-und-winzer-zittern-100.html", "thumbnailUrl": "https://images.tagesschau.de/image/5a1243c7-e1d1-4ea3-ae91-ce238a3a640c/AAABjwaDrnM/AAABjcWesUg/16x9-512.jpg", "date": "2024-04-22T17:53:03.619+02:00", "lat": 50.7667, "lon": 9.0167, "intensity": 0.8, "source": "Tagesschau"}, {"title": "Biden ver\u00e4rgert Papua-Neuguinea mit Kannibalen-Story", "url": "https://www.tagesschau.de/ausland/amerika/biden-kontroverse-papua-neuguinea-kannibalismus-100.html", "thumbnailUrl": "https://images.tagesschau.de/image/8677c6e8-8dcc-4ff7-93b4-bfd506ec852a/AAABjwaBuVU/AAABjcWesUg/16x9-512.jpg", "date": "2024-04-22T17:51:56.289+02:00", "lat": -9.4438, "lon": 147.180267, "intensity": 0.6, "source": "Tagesschau"}, {"title": "Vier Spiele vor Saisonende: 5 Dinge, die sich bei Union \u00e4ndern m\u00fcssen, um den Abstieg zu verhindern", "url": "https://www.tagesschau.de/inland/regional/berlin/rbb-vier-spiele-vor-saisonende-5-dinge-die-sich-bei-union-aendern-muessen-um-den-abstieg-zu-verhindern-102.html", "thumbnailUrl": "https://images.tagesschau.de/image/b8d1d4be-0d23-4aae-93d9-147061f15a91/AAABjwYzGgY/AAABjcWesUg/16x9-512.jpg", "date": "2024-04-22T17:51:07.000+02:00", "lat": 52.52, "lon": 13.4073, "intensity": 0.8, "source": "Tagesschau"}, {"title": "Keine Einigung \u00fcber 50 Euro-Bezahlkarte f\u00fcr Gefl\u00fcchtete in Brandenburg erzielt", "url": "https://www.tagesschau.de/inland/regional/brandenburg/rbb-keine-einigung-ueber-50-euro-bezahlkarte-fuer-gefluechtete-in-brandenburg-erzielt-100.html", "thumbnailUrl": "https://images.tagesschau.de/image/4cca4fa5-6a37-489d-92aa-b5a8e991e2c1/AAABjwaCQpc/AAABjcWesUg/16x9-512.jpg", "date": "2024-04-22T17:46:41.000+02:00", "lat": 52.4125, "lon": 13.1673, "intensity": 0.7, "source": "Tagesschau"}, {"title": "K\u00e4nguru-Nachwuchs im Vogelpark Marlow: Albino im Beutel", "url": "https://www.tagesschau.de/inland/regional/mecklenburgvorpommern/ndr-kaenguru-nachwuchs-im-vogelpark-marlow-albino-im-beutel-100.html", "thumbnailUrl": "https://images.tagesschau.de/image/e139c6ba-8e09-48c3-a3c3-3742e0d2ccf6/AAABjwaB5ig/AAABjcWesUg/16x9-512.jpg", "date": "2024-04-22T17:38:00.000+02:00", "lat": 54.1018, "lon": 12.8364, "intensity": 0.7, "source": "Tagesschau"}, {"title": "Hamburger Sparkasse: Server-Panne bei Aktion \"25 Jahre HaspaJoker\"", "url": "https://www.tagesschau.de/inland/regional/hamburg/ndr-hamburger-sparkasse-server-panne-bei-aktion-25-jahre-haspajoker-100.html", "thumbnailUrl": "https://images.tagesschau.de/image/80245399-a5f5-47e1-bdf1-4f54fbf958f1/AAABjwZtuTQ/AAABjcWesUg/16x9-512.jpg", "date": "2024-04-22T17:37:00.000+02:00", "lat": 53.5511, "lon": 10.0003, "intensity": 0.4, "source": "Tagesschau"}, {"title": "Prozess gegen 25-J\u00e4hrigen nach Messerattacke vor Saarbr\u00fccker Disco gestartet ", "url": "https://www.tagesschau.de/inland/regional/saarland/sr-prozess-gegen-25-jaehrigen-nach-messerattacke-vor-saarbruecker-disco-gestartet-100.html", "thumbnailUrl": "https://images.tagesschau.de/image/5ca58990-d183-46fc-ac9f-d5b8dcee02ac/AAABjwZ20Is/AAABjcWesUg/16x9-512.jpg", "date": "2024-04-22T17:35:00.000+02:00", "lat": 49.240157, "lon": 7.009457, "intensity": 0.8, "source": "Tagesschau"}, {"title": "Amtsgericht: Mieter muss nach 84 Jahren Wohnung in Berlin-Reinickendorf r\u00e4umen", "url": "https://www.tagesschau.de/inland/regional/berlin/rbb-amtsgericht-mieter-muss-nach-84-jahren-wohnung-in-berlin-reinickendorf-raeumen-100.html", "thumbnailUrl": "https://images.tagesschau.de/image/dc63a95b-984d-49b7-b046-0e6faba0c034/AAABjwZzS9g/AAABjcWesUg/16x9-512.jpg", "date": "2024-04-22T17:33:00.000+02:00", "lat": 52.6043, "lon": 13.2944, "intensity": 0.8, "source": "Tagesschau"}, {"title": "Das meiste Bier geht nach Russland - Brauereien unter wirtschaftlichem Druck", "url": "https://www.tagesschau.de/inland/regional/badenwuerttemberg/swr-das-meiste-bier-geht-nach-russland-brauereien-unter-wirtschaftlichem-druck-100.html", "thumbnailUrl": "https://images.tagesschau.de/image/b9ba039f-ece8-4fd5-98bb-a424f4190b86/AAABjwZzXAU/AAABjcWesUg/16x9-512.jpg", "date": "2024-04-22T17:32:12.000+02:00", "lat": 48.7758, "lon": 9.7064, "intensity": 0.7, "source": "Tagesschau"}, {"title": "Eine Woche nach Notruf: Pflegeheim in Berlin-Lichtenberg hat neue Leitung", "url": "https://www.tagesschau.de/inland/regional/berlin/rbb-pflegeheim-betreiber-setzt-eine-woche-nach-notruf-neue-leitung-fuer-heim-in-berlin-lichtenberg-ein-100.html", "thumbnailUrl": "https://images.tagesschau.de/image/042357d4-36a2-4944-85fd-ab4a819aa27e/AAABjwY8UJE/AAABjcWesUg/16x9-512.jpg", "date": "2024-04-22T17:27:06.000+02:00", "lat": 52.5113, "lon": 13.4895, "intensity": 0.6, "source": "Tagesschau"}, {"title": "Arbeiter st\u00fcrzt auf Schiff f\u00fcnf Meter in die Tiefe", "url": "https://www.tagesschau.de/inland/regional/niedersachsen/ndr-43-jaehriger-stuerzt-auf-schiff-fuenf-meter-in-die-tiefe-100.html", "thumbnailUrl": "https://images.tagesschau.de/image/a61bc875-56cf-47db-891e-080de35c5c6b/AAABjwaABjU/AAABjcWesUg/16x9-512.jpg", "date": "2024-04-22T17:25:00.000+02:00", "lat": 53.539584, "lon": 8.57659, "intensity": 0.8, "source": "Tagesschau"}, {"title": "Ludwigshafen: Warum sich Kinder an der Gr\u00e4fenauschule so schwer tun ", "url": "https://www.tagesschau.de/inland/regional/rheinlandpfalz/swr-ludwigshafen-warum-sich-kinder-an-der-graefenauschule-so-schwer-tun-100.html", "thumbnailUrl": "https://images.tagesschau.de/image/6e4f6e54-0e25-4873-8bb5-b86b72f42ffa/AAABjwaV-2M/AAABjcWesUg/16x9-512.jpg", "date": "2024-04-22T17:24:45.000+02:00", "lat": 49.48121, "lon": 8.44332, "intensity": 0.7, "source": "Tagesschau"}, {"title": "Unbekannte sprengen Geldautomaten in Schenefeld", "url": "https://www.tagesschau.de/inland/regional/schleswigholstein/ndr-unbekannte-sprengen-geldautomaten-in-schenefeld-100.html", "thumbnailUrl": "https://images.tagesschau.de/image/1192afb6-45c7-4b00-96f2-e5612dbb6847/AAABjwU2bc8/AAABjcWesUg/16x9-512.jpg", "date": "2024-04-22T17:23:00.000+02:00", "lat": 53.611, "lon": 9.8156, "intensity": 0.7, "source": "Tagesschau"}, {"title": "Voraussichtlich 44 Sitzenbleiber in der Ludwigshafener Gr\u00e4fenauschule", "url": "https://www.tagesschau.de/inland/regional/rheinlandpfalz/swr-wieder-viele-sitzenbleiber-an-graefenauschule-in-ludwigshafen-100.html", "thumbnailUrl": "https://images.tagesschau.de/image/f5377c0d-106c-4baa-839e-818b19e23561/AAABjwaV-WM/AAABjcWesUg/16x9-512.jpg", "date": "2024-04-22T17:07:00.000+02:00", "lat": 49.4845, "lon": 8.455, "intensity": 0.6, "source": "Tagesschau"}, {"title": "Chirurgen in Trier implantieren neues Kunstherz", "url": "https://www.tagesschau.de/inland/regional/rheinlandpfalz/swr-chirurgen-in-trier-implantieren-neues-kunstherz-100.html", "thumbnailUrl": "https://images.tagesschau.de/image/5a1853a8-0cbd-4925-b93c-5f759cb6d3a2/AAABjwZr3zg/AAABjcWesUg/16x9-512.jpg", "date": "2024-04-22T17:02:14.000+02:00", "lat": 49.7596, "lon": 6.6417, "intensity": 0.8, "source": "Tagesschau"}, {"title": "Deutsche Bahn: Kostenlose Wohnungen f\u00fcr Azubis in Leipzig", "url": "https://www.tagesschau.de/inland/regional/sachsen/mdr-deutsche-bahn-kostenlose-wohnungen-fuer-azubis-in-leipzig-100.html", "thumbnailUrl": "https://images.tagesschau.de/image/88dfda4a-13cb-4323-870b-f390e1f832b0/AAABjwf1ixE/AAABjcWesUg/16x9-512.jpg", "date": "2024-04-22T16:58:21.000+02:00", "lat": 51.3436, "lon": 12.3872, "intensity": 0.6, "source": "Tagesschau"}, {"title": "Nach Clan-Tumulten in Essen: Freispruch f\u00fcr Angeklagten", "url": "https://www.tagesschau.de/inland/regional/nordrheinwestfalen/wdr-nach-clan-tumulten-in-essen-freispruch-fuer-angeklagten-100.html", "thumbnailUrl": "https://images.tagesschau.de/image/0e7ca094-012e-4e68-8e2b-f0c44313ade0/AAABjwcdeM4/AAABjcWesUg/16x9-512.jpg", "date": "2024-04-22T16:58:00.000+02:00", "lat": 51.4556, "lon": 7.0106, "intensity": 0.3, "source": "Tagesschau"}, {"title": "Echte Mehlbeere (Baum des Jahres) in Beisein von Baumk\u00f6nigin in Chorin gepflanzt", "url": "https://www.tagesschau.de/inland/regional/brandenburg/rbb-echte-mehlbeere-baum-des-jahres-in-beisein-von-baumkoenigin-in-chorin-gepflanzt-100.html", "thumbnailUrl": "https://images.tagesschau.de/image/1055a7e8-1a4a-4814-8021-622587f903a5/AAABjwaQiEo/AAABjcWesUg/16x9-512.jpg", "date": "2024-04-22T16:54:06.000+02:00", "lat": 53.093082, "lon": 13.898857, "intensity": 0.7, "source": "Tagesschau"}, {"title": "Wintereinbruch im April mit Folgen f\u00fcr Mensch und Natur", "url": "https://www.tagesschau.de/inland/regional/nordrheinwestfalen/wdr-wetter-in-nrw-viel-regen-und-kaum-sonne-am-wochenende-100.html", "thumbnailUrl": "https://images.tagesschau.de/image/d6f507e8-c8a4-4e1a-85af-8bdc1895f4c5/AAABjwdFuNY/AAABjcWesUg/16x9-512.jpg", "date": "2024-04-22T16:53:00.000+02:00", "lat": 51.9607, "lon": 7.6169, "intensity": 0.6, "source": "Tagesschau"}, {"title": "Verein Hamburger Spediteure klagt \u00fcber sinkende Ums\u00e4tze", "url": "https://www.tagesschau.de/inland/regional/hamburg/ndr-verein-hamburger-spediteure-klagt-ueber-sinkende-umsaetze-100.html", "thumbnailUrl": "https://images.tagesschau.de/image/c11525aa-ce85-46ee-9d54-63b6f8b0d7ec/AAABjwZBwdU/AAABjcWesUg/16x9-512.jpg", "date": "2024-04-22T16:50:00.000+02:00", "lat": 53.55, "lon": 10.0, "intensity": 0.8, "source": "Tagesschau"}, {"title": "SPD will unabh\u00e4ngigen Antirassismusbeauftragten f\u00fcr das Saarland", "url": "https://www.tagesschau.de/inland/regional/saarland/sr-spd-will-unabhaengigen-anti-rassismus-beauftragten-fuer-das-saarland-100.html", "thumbnailUrl": "https://images.tagesschau.de/image/d7ee27e6-d1dd-41af-92ac-c5adcbb453c3/AAABjwavkzw/AAABjcWesUg/16x9-512.jpg", "date": "2024-04-22T16:49:00.000+02:00", "lat": 49.3964, "lon": 6.9934, "intensity": 0.6, "source": "Tagesschau"}, {"title": "Toter in A2-Baustelle gefunden - Polizei sucht Unfallverursacher", "url": "https://www.tagesschau.de/inland/regional/niedersachsen/ndr-leiche-in-a2-baustelle-polizei-sucht-unfallverursacher-100.html", "thumbnailUrl": "https://images.tagesschau.de/image/ee96c967-f538-4359-8e04-7d0f2ef4c09e/AAABjwYmin4/AAABjcWesUg/16x9-512.jpg", "date": "2024-04-22T16:48:00.000+02:00", "lat": 52.1112, "lon": 10.6413, "intensity": 0.8, "source": "Tagesschau"}, {"title": "Steinmeier w\u00fcrdigt Beitrag der T\u00fcrken in Deutschland", "url": "https://www.tagesschau.de/ausland/europa/steinmeier-tuerkei-122.html", "thumbnailUrl": "https://images.tagesschau.de/image/72377b50-fe8f-4580-b308-35c415303fb8/AAABjwZFp_c/AAABjcWesUg/16x9-512.jpg", "date": "2024-04-22T16:46:19.781+02:00", "lat": 38.9637, "lon": 35.2433, "intensity": 0.7, "source": "Tagesschau"}, {"title": "Gl\u00e4tte und Schneeschauer: Kalter Start in die Woche", "url": "https://www.tagesschau.de/inland/regional/mecklenburgvorpommern/ndr-glaette-und-schneeschauer-die-woche-startet-kalt-102.html", "thumbnailUrl": "https://images.tagesschau.de/image/ffe6a5a2-a744-47dc-80c9-91e36be4454a/AAABjwdLhAk/AAABjcWesUg/16x9-512.jpg", "date": "2024-04-22T16:41:00.000+02:00", "lat": 53.5511, "lon": 10.328, "intensity": 0.7, "source": "Tagesschau"}, {"title": "Essen angebrannt: Vier Menschen im mittels\u00e4chsischen Zettlitz verletzt", "url": "https://www.tagesschau.de/inland/regional/sachsen/mdr-essen-angebrannt-vier-menschen-im-mittelsaechsischen-zettlitz-verletzt-100.html", "thumbnailUrl": "https://images.tagesschau.de/image/e8fbe99a-afd2-4008-81b6-ec8701a3c216/AAABjwf1ufc/AAABjcWesUg/16x9-512.jpg", "date": "2024-04-22T16:34:39.000+02:00", "lat": 51.1883, "lon": 13.2586, "intensity": 0.6, "source": "Tagesschau"}, {"title": "Neue Medizin-Universit\u00e4t in Cottbus: Wissenschaftsrat des Bundes spricht sich f\u00fcr Projekt aus", "url": "https://www.tagesschau.de/inland/regional/brandenburg/rbb-neue-medizin-universitaet-in-cottbus-wissenschaftsrat-des-bundes-spricht-sich-fuer-projekt-aus-100.html", "thumbnailUrl": "https://images.tagesschau.de/image/c7343341-f421-4c0b-b5ed-1861a51b5ef5/AAABjwY4pQY/AAABjcWesUg/16x9-512.jpg", "date": "2024-04-22T16:28:06.000+02:00", "lat": 51.7562, "lon": 13.1502, "intensity": 0.8, "source": "Tagesschau"}, {"title": "Drei Spione f\u00fcr China?", "url": "https://www.tagesschau.de/inland/festnahmen-spionage-china-100.html", "thumbnailUrl": "https://images.tagesschau.de/image/b3d30307-ffdf-4d86-8a99-50d84983da80/AAABju_wubM/AAABjcWesUg/16x9-512.jpg", "date": "2024-04-22T16:22:26.727+02:00", "lat": 50.5831, "lon": 9.1625, "intensity": 0.8, "source": "Tagesschau"}, {"title": "Frost in der Nacht: Verfr\u00fchte Eisheilige lassen Bl\u00fcten erzittern", "url": "https://www.tagesschau.de/inland/regional/berlin/rbb-frost-in-der-nacht-verfruehte-eisheilige-lassen-blueten-erzittern-100.html", "thumbnailUrl": "https://images.tagesschau.de/image/657579f3-5508-4cbc-b9d6-7b2e2280ea71/AAABjwYr73U/AAABjcWesUg/16x9-512.jpg", "date": "2024-04-22T16:17:00.000+02:00", "lat": 52.520008, "lon": 13.404954, "intensity": 0.8, "source": "Tagesschau"}, {"title": "Protest gegen geplante Schlie\u00dfung der K\u00e4serei in Dargun", "url": "https://www.tagesschau.de/inland/regional/mecklenburgvorpommern/ndr-protest-gegen-geplante-schliessung-der-kaeserei-in-dargun-100.html", "thumbnailUrl": "https://images.tagesschau.de/image/d45ea2e3-b62a-4411-9bc9-1fcc0ab3c473/AAABjwZmWQg/AAABjcWesUg/16x9-512.jpg", "date": "2024-04-22T16:14:00.000+02:00", "lat": 53.8887, "lon": 12.8228, "intensity": 0.7, "source": "Tagesschau"}, {"title": "Chemnitz - Leipzig: Keine neuen Akku-Z\u00fcge zur Kulturhauptstadt", "url": "https://www.tagesschau.de/inland/regional/sachsen/mdr-chemnitz-leipzig-keine-neuen-akku-zuege-zur-kulturhauptstadt-100.html", "thumbnailUrl": "https://images.tagesschau.de/image/b8114f88-8017-46fb-a1c5-16630e78e351/AAABjwf10M4/AAABjcWesUg/16x9-512.jpg", "date": "2024-04-22T16:13:08.000+02:00", "lat": 51.3397, "lon": 12.9254, "intensity": 0.5, "source": "Tagesschau"}, {"title": "Wohnheim am Kieler Blocksberg wird nicht geschlossen", "url": "https://www.tagesschau.de/inland/regional/schleswigholstein/ndr-wohnheim-am-kieler-blocksberg-wird-nicht-geschlossen-100.html", "thumbnailUrl": "https://images.tagesschau.de/image/b471c4ac-55bf-47c2-8c28-f0e6c7622d3f/AAABjwaM5nA/AAABjcWesUg/16x9-512.jpg", "date": "2024-04-22T15:56:00.000+02:00", "lat": 54.3234, "lon": 10.1234, "intensity": 0.5, "source": "Tagesschau"}, {"title": "Kritik an Biosph\u00e4rengebiet Allg\u00e4u-Oberschwaben wird lauter", "url": "https://www.tagesschau.de/inland/regional/badenwuerttemberg/swr-kritik-an-biosphaerengebiet-allgaeu-oberschwaben-wird-lauter-100.html", "thumbnailUrl": "https://images.tagesschau.de/image/7b2a0174-5165-4446-8bbb-eb3a5d9d61df/AAABjwUtVVE/AAABjcWesUg/16x9-512.jpg", "date": "2024-04-22T15:54:00.000+02:00", "lat": 47.6667, "lon": 9.5667, "intensity": 0.8, "source": "Tagesschau"}, {"title": "So stehen die Saar-Fraktionen zum 12-Punkte-Plan der FDP", "url": "https://www.tagesschau.de/inland/regional/saarland/sr-so-stehen-die-saar-fraktionen-zum-12-punkte-plan-der-fdp-100.html", "thumbnailUrl": "https://images.tagesschau.de/image/baaf1790-f38a-4e37-937a-9cbda5e0cf71/AAABjwZK3d8/AAABjcWesUg/16x9-512.jpg", "date": "2024-04-22T15:53:00.000+02:00", "lat": 49.2463, "lon": 6.9811, "intensity": 0.7, "source": "Tagesschau"}, {"title": "In diesen Branchen ist NRW von China abh\u00e4ngig", "url": "https://www.tagesschau.de/inland/regional/nordrheinwestfalen/wdr-in-diesen-branchen-ist-nrw-von-china-abhaengig-100.html", "thumbnailUrl": "https://images.tagesschau.de/image/3aafd351-a11d-4c65-b02c-53191112980f/AAABjwYXneE/AAABjcWesUg/16x9-512.jpg", "date": "2024-04-22T15:52:00.000+02:00", "lat": 51.4818, "lon": 7.6261, "intensity": 0.8, "source": "Tagesschau"}, {"title": "Hannover Messe gestartet: KI, Energie und Olaf Scholz", "url": "https://www.tagesschau.de/inland/regional/niedersachsen/ndr-hannover-messe-2024-ki-als-chance-fuer-die-industrie-100.html", "thumbnailUrl": "https://images.tagesschau.de/image/acccb452-42c3-4554-bef3-c06c19918b6a/AAABjwYV3Tg/AAABjcWesUg/16x9-512.jpg", "date": "2024-04-22T15:52:00.000+02:00", "lat": 52.3759, "lon": 9.7332, "intensity": 0.7, "source": "Tagesschau"}, {"title": "Baustart f\u00fcr erstes CO2-neutrales Zementwerk in Norddeutschland", "url": "https://www.tagesschau.de/inland/regional/schleswigholstein/ndr-baustart-fuer-erstes-co2-neutrales-zementwerk-in-norddeutschland-100.html", "thumbnailUrl": "https://images.tagesschau.de/image/b9c3c34b-93d5-4289-bdf1-7aed26bea022/AAABjwYMrgo/AAABjcWesUg/16x9-512.jpg", "date": "2024-04-22T15:41:00.000+02:00", "lat": 54.3794, "lon": 9.9882, "intensity": 0.8, "source": "Tagesschau"}, {"title": "Jungbulle b\u00fcxt aus und l\u00e4uft mit Pferden \u00fcber Bundesstra\u00dfe", "url": "https://www.tagesschau.de/inland/regional/niedersachsen/ndr-jungbulle-buext-aus-und-laeuft-mit-pferden-ueber-bundesstrasse-100.html", "thumbnailUrl": "https://images.tagesschau.de/image/d3e908a9-85ac-428f-8a59-f7281acc9f73/AAABjwYMu3c/AAABjcWesUg/16x9-512.jpg", "date": "2024-04-22T15:41:00.000+02:00", "lat": 52.37392, "lon": 9.73201, "intensity": 0.7, "source": "Tagesschau"}, {"title": "Tausende ukrainische Sch\u00fcler kommen bald in regul\u00e4re Klassen", "url": "https://www.tagesschau.de/inland/regional/nordrheinwestfalen/wdr-tausende-ukrainische-schueler-muessen-schule-wechseln-100.html", "thumbnailUrl": "https://images.tagesschau.de/image/2b86ae55-5c57-4f07-abda-845469897394/AAABjwa8Zac/AAABjcWesUg/16x9-512.jpg", "date": "2024-04-22T15:40:00.000+02:00", "lat": 51.1657, "lon": 7.6261, "intensity": 0.4, "source": "Tagesschau"}, {"title": "\"Unnachahmlich\": Viertes U-Boot f\u00fcr Singapur in Kiel getauft", "url": "https://www.tagesschau.de/inland/regional/schleswigholstein/ndr-unverwechselbar-viertes-u-boot-fuer-singapur-in-kiel-getauft-100.html", "thumbnailUrl": "https://images.tagesschau.de/image/e775f914-057b-43ba-ab88-e283acf9e1c2/AAABjwYQVyY/AAABjcWesUg/16x9-512.jpg", "date": "2024-04-22T15:37:00.000+02:00", "lat": 54.3233, "lon": 10.1228, "intensity": 0.8, "source": "Tagesschau"}, {"title": "Asiatische Hornisse in Konstanz entdeckt", "url": "https://www.tagesschau.de/inland/regional/badenwuerttemberg/swr-asiatische-hornisse-in-konstanz-entdeckt-100.html", "thumbnailUrl": "https://images.tagesschau.de/image/60446325-32cd-4b4f-821d-5948c1b45f66/AAABjwYHMzM/AAABjcWesUg/16x9-512.jpg", "date": "2024-04-22T15:34:09.000+02:00", "lat": 47.6609, "lon": 9.17, "intensity": 0.8, "source": "Tagesschau"}, {"title": "Banken besorgt \u00fcber wirtschaftliche Aussichten", "url": "https://www.tagesschau.de/wirtschaft/banken-konjunktur-sorgen-100.html", "thumbnailUrl": "https://images.tagesschau.de/image/e7d0ad3f-1ce5-44c8-bb4d-75a5ab7fefc1/AAABjwYBgQ8/AAABjcWesUg/16x9-512.jpg", "date": "2024-04-22T15:32:12.438+02:00", "lat": 51.1657, "lon": 9.9862, "intensity": 0.6, "source": "Tagesschau"}, {"title": "Wolf illegal erschossen? Wanderer findet totes Tier in Graben", "url": "https://www.tagesschau.de/inland/regional/niedersachsen/ndr-wanderer-findet-erschossenen-wolf-in-lauenbrueck-100.html", "thumbnailUrl": "https://images.tagesschau.de/image/dd14df6b-dcd1-4781-8077-0aad1d66c41a/AAABjwYDg8k/AAABjcWesUg/16x9-512.jpg", "date": "2024-04-22T15:31:00.000+02:00", "lat": 53.1502, "lon": 9.5345, "intensity": 0.8, "source": "Tagesschau"}, {"title": "Mann durch Stromschlag verletzt - Stromkasten f\u00e4ngt Feuer", "url": "https://www.tagesschau.de/inland/regional/niedersachsen/ndr-mann-durch-stromschlag-verletzt-stromkasten-faengt-feuer-100.html", "thumbnailUrl": "https://images.tagesschau.de/image/b99fde26-e00b-46b4-8dfd-ba9a24a4ff4b/AAABjwX_37c/AAABjcWesUg/16x9-512.jpg", "date": "2024-04-22T15:29:00.000+02:00", "lat": 52.3759, "lon": 9.732, "intensity": 0.8, "source": "Tagesschau"}, {"title": "Kultur: +++ Playmobil trifft Gem\u00e4ldegalerie +++ Lesefestival \"Frankfurt liest ein Buch\" startet +++ Lichter Filmfest in Frankfurt endet +++ ", "url": "https://www.tagesschau.de/inland/regional/hessen/hr--schauspiel-frankfurt-bringt-putin-und-macbeth-zusammen--die-filmfestival-saison-2023-startet--lichter-filmfest-zum-thema-liebe-startet-am-dienstag-100.html", "thumbnailUrl": "https://images.tagesschau.de/image/332dfe87-803a-45c3-8d12-d2e39350d56a/AAABjwX8P1s/AAABjcWesUg/16x9-512.jpg", "date": "2024-04-22T15:25:22.082+02:00", "lat": 50.110922, "lon": 8.682127, "intensity": 0.7, "source": "Tagesschau"}, {"title": "Wegen Erdrutsch: Zugausf\u00e4lle zwischen Meckesheim und Neckargem\u00fcnd", "url": "https://www.tagesschau.de/inland/regional/badenwuerttemberg/swr-wegen-erdrutsch-zugausfaelle-zwischen-meckesheim-und-neckargemuend-100.html", "thumbnailUrl": "https://images.tagesschau.de/image/73d92b4c-d11d-4556-806b-21546449039b/AAABjwYBrRY/AAABjcWesUg/16x9-512.jpg", "date": "2024-04-22T15:24:00.000+02:00", "lat": 49.3878, "lon": 8.7628, "intensity": 0.8, "source": "Tagesschau"}, {"title": "Bolsonaros verzweifelte Machtdemonstration", "url": "https://www.tagesschau.de/ausland/amerika/brasilien-bolsonaro-massendemo-100.html", "thumbnailUrl": "https://images.tagesschau.de/image/e097fe85-1c4a-4b7f-bab8-90ed8fa1ae5a/AAABjwX1388/AAABjcWesUg/16x9-512.jpg", "date": "2024-04-22T15:19:11.177+02:00", "lat": -15.7801, "lon": -47.9292, "intensity": 0.8, "source": "Tagesschau"}, {"title": "Widerstand gegen private Wasserkonzerne", "url": "https://www.tagesschau.de/ausland/europa/england-wasser-verschmutzung-100.html", "thumbnailUrl": "https://images.tagesschau.de/image/bcb09ca2-6395-4a17-8f60-bbc5e0ec04cb/AAABjwYDJWM/AAABjcWesUg/16x9-512.jpg", "date": "2024-04-22T15:18:06.777+02:00", "lat": 51.5073219, "lon": -0.1276474, "intensity": 0.8, "source": "Tagesschau"}, {"title": "Schwedt (Uckermark): Besch\u00e4digtes Auto mit Blutspuren aufgefunden", "url": "https://www.tagesschau.de/inland/regional/brandenburg/rbb-schwedt-uckermark-beschaedigtes-auto-mit-blutspuren-aufgefunden-100.html", "thumbnailUrl": "https://images.tagesschau.de/image/66ff0041-ca60-447c-983b-594eee874aa6/AAABjwaQhJw/AAABjcWesUg/16x9-512.jpg", "date": "2024-04-22T15:17:08.000+02:00", "lat": 53.07516, "lon": 14.26104, "intensity": 0.7, "source": "Tagesschau"}, {"title": "Meinung zum B\u00f6llerwurf-Urteil: Ein richtiges Signal", "url": "https://www.tagesschau.de/inland/regional/badenwuerttemberg/swr-meinung-zum-boellerwurf-urteil-ein-richtiges-signal-106.html", "thumbnailUrl": "https://images.tagesschau.de/image/c8439ea7-f036-4817-8c6a-4db85fc6cfb2/AAABjwY4leo/AAABjcWesUg/16x9-512.jpg", "date": "2024-04-22T15:15:08.000+02:00", "lat": 48.3717, "lon": 10.8978, "intensity": 0.8, "source": "Tagesschau"}, {"title": "Maskierte \u00fcberfallen Juweliergesch\u00e4ft in Saarlouis und verletzen Inhaber schwer", "url": "https://www.tagesschau.de/inland/regional/saarland/sr-maskierte-ueberfallen-juweliergeschaeft-in-saarlouis-und-verletzten-inhaber-schwer-100.html", "thumbnailUrl": "https://images.tagesschau.de/image/78a99a7e-e9d6-4f3b-929f-6b6c9a0ddaa9/AAABjwcoa28/AAABjcWesUg/16x9-512.jpg", "date": "2024-04-22T15:10:00.000+02:00", "lat": 49.3131, "lon": 6.7521, "intensity": 0.8, "source": "Tagesschau"}, {"title": "Duda offen f\u00fcr Atomwaffenstationierung in Polen", "url": "https://www.tagesschau.de/ausland/europa/polen-nato-atomwaffen-100.html", "thumbnailUrl": "https://images.tagesschau.de/image/e1c92fba-fc3a-44a8-a4a2-f1c7206f5e80/AAABjwXaZvk/AAABjcWesUg/16x9-512.jpg", "date": "2024-04-22T15:06:12.403+02:00", "lat": 51.9194, "lon": 19.1451, "intensity": 0.8, "source": "Tagesschau"}, {"title": "Vier Frauen bei Verkehrsunfall auf A10 bei Birkenwerder teils schwer verletzt", "url": "https://www.tagesschau.de/inland/regional/brandenburg/rbb-vier-frauen-bei-verkehrsunfall-auf-a10-bei-birkenwerder-teils-schwer-verletzt-100.html", "thumbnailUrl": "https://images.tagesschau.de/image/eb3a488f-2eae-46f0-9162-0357b0776e29/AAABjwX4lJw/AAABjcWesUg/16x9-512.jpg", "date": "2024-04-22T15:05:28.000+02:00", "lat": 52.6631, "lon": 13.3167, "intensity": 0.8, "source": "Tagesschau"}, {"title": "Hanseatisches Oberlandesgericht: Prozessauftakt um Terrorunterst\u00fctzung", "url": "https://www.tagesschau.de/inland/regional/hamburg/ndr-hanseatisches-oberlandesgericht-prozessauftakt-um-terrorunterstuetzung-100.html", "thumbnailUrl": "https://images.tagesschau.de/image/87eda555-eea5-449c-b2f3-0683f6eb1db4/AAABjwXoQHY/AAABjcWesUg/16x9-512.jpg", "date": "2024-04-22T15:02:00.000+02:00", "lat": 53.5511, "lon": 9.9937, "intensity": 0.8, "source": "Tagesschau"}, {"title": "Fu\u00dfballfan muss wegen B\u00f6llerwurf ins Gef\u00e4ngnis", "url": "https://www.br.de/nachrichten/bayern/boeller-explosion-im-stadion-gericht-spricht-hartes-urteil,UANzhZ9", "thumbnailUrl": "https://images.tagesschau.de/image/0bbc6112-1433-4904-90be-489d0f98eebe/AAABjwXlkyM/AAABjcWesUg/16x9-512.jpg", "date": "2024-04-22T15:01:23.028+02:00", "lat": 48.3705, "lon": 10.8978, "intensity": 0.8, "source": "Tagesschau"}, {"title": "T\u00f6tungsdelikt Waldbronn: 39-j\u00e4hriger Mann festgenommen ", "url": "https://www.tagesschau.de/inland/regional/badenwuerttemberg/swr-leiche-einer-69-jaehrigen-in-waldbronn-gefunden-vermutlich-toetungsdelikt-100.html", "thumbnailUrl": "https://images.tagesschau.de/image/8c8ad894-4831-489b-863e-79a2132b8ceb/AAABjwWexok/AAABjcWesUg/16x9-512.jpg", "date": "2024-04-22T15:00:00.000+02:00", "lat": 48.9145, "lon": 8.4391, "intensity": 0.8, "source": "Tagesschau"}, {"title": "Hallescher Holocaust\u00fcberlebender Max Schwab ist tot", "url": "https://www.tagesschau.de/inland/regional/sachsenanhalt/mdr-hallescher-holocaust-ueberlebender-max-schwab-ist-tot-100.html", "thumbnailUrl": "https://images.tagesschau.de/image/24f4f667-5245-43f8-8ef5-58233e8d50ff/AAABjwXdDqo/AAABjcWesUg/16x9-512.jpg", "date": "2024-04-22T14:51:42.000+02:00", "lat": 51.4818, "lon": 11.9771, "intensity": 0.8, "source": "Tagesschau"}, {"title": "Wie schlimm steht es um die deutsche Industrie?", "url": "https://www.tagesschau.de/wirtschaft/konjunktur/deutsche-industrie-konjunktur-bdi-ezb-zinsen-chemie-energie-100.html", "thumbnailUrl": "https://images.tagesschau.de/image/c86ef2ee-7d1d-47ff-a9d3-642229a1e134/AAABjwWO1oo/AAABjcWesUg/16x9-512.jpg", "date": "2024-04-22T14:49:00.595+02:00", "lat": 51.163, "lon": 9.998, "intensity": 0.5, "source": "Tagesschau"}, {"title": "Obstexperte: N\u00e4chtlicher Frost keine Gefahr f\u00fcr Apfelernte in MV", "url": "https://www.tagesschau.de/inland/regional/mecklenburgvorpommern/ndr-obstexperte-naechtlicher-frost-keine-gefahr-fuer-apfelernte-100.html", "thumbnailUrl": "https://images.tagesschau.de/image/ae261073-9ef9-4cb9-91cc-a5eee42b29a1/AAABjwaMy88/AAABjcWesUg/16x9-512.jpg", "date": "2024-04-22T14:45:00.000+02:00", "lat": 53.6127, "lon": 13.1995, "intensity": 0.3, "source": "Tagesschau"}, {"title": "Die invasive Quagga-Muschel erobert die Mosel", "url": "https://www.tagesschau.de/inland/regional/rheinlandpfalz/swr-die-invasive-quagga-muschel-erobert-die-mosel-102.html", "thumbnailUrl": "https://images.tagesschau.de/image/aaf8053b-0b2d-492e-8818-194c14302d5e/AAABjwXZW4I/AAABjcWesUg/16x9-512.jpg", "date": "2024-04-22T14:44:00.000+02:00", "lat": 49.9194, "lon": 7.3155, "intensity": 0.8, "source": "Tagesschau"}, {"title": "Kurzbesuch des Olympischen Feuers im Saarland zahlt Frankreich", "url": "https://www.tagesschau.de/inland/regional/saarland/sr-kurzbesuch-des-olympischen-feuers-im-saarland-zahlt-frankreich-100.html", "thumbnailUrl": "https://images.tagesschau.de/image/3e57e7bf-b883-48da-a066-731c894b7c5e/AAABjwX4eV0/AAABjcWesUg/16x9-512.jpg", "date": "2024-04-22T14:44:00.000+02:00", "lat": 49.3964, "lon": 6.9603, "intensity": 0.4, "source": "Tagesschau"}, {"title": "Hohen Neuendorf (Oberhavel): Haus nach Brand nicht mehr bewohnbar", "url": "https://www.tagesschau.de/inland/regional/brandenburg/rbb-hohen-neuendorf-oberhavel-haus-nach-brand-nicht-mehr-bewohnbar-100.html", "thumbnailUrl": "https://images.tagesschau.de/image/936aa3d5-7111-4fcf-b3d4-4a9458dbda5c/AAABjwXZe84/AAABjcWesUg/16x9-512.jpg", "date": "2024-04-22T14:41:20.000+02:00", "lat": 52.6772, "lon": 13.2363, "intensity": 0.7, "source": "Tagesschau"}, {"title": "Junge Frau gesteht, ihr Baby aus dem Fenster fallen gelassen zu haben", "url": "https://www.tagesschau.de/inland/regional/badenwuerttemberg/swr-junge-frau-gesteht-ihr-baby-aus-dem-fenster-fallen-gelassen-zu-haben-100.html", "thumbnailUrl": "https://images.tagesschau.de/image/2ad97348-9ee7-44e2-93d4-8a19f4a87987/AAABjwaCLOE/AAABjcWesUg/16x9-512.jpg", "date": "2024-04-22T14:40:22.000+02:00", "lat": 48.6616, "lon": 9.3105, "intensity": 0.8, "source": "Tagesschau"}, {"title": "Urteil im B\u00f6llerwurf-Prozess: Hoffenheim-Fan muss ins Gef\u00e4ngnis", "url": "https://www.tagesschau.de/inland/regional/badenwuerttemberg/swr-fuer-boellerwurf-staatsanwaltschaft-fordert-fast-fuenf-jahre-haft-102.html", "thumbnailUrl": "https://images.tagesschau.de/image/ca51822e-2fd7-40b3-b950-37f0f2a4aeca/AAABjwXKxPM/AAABjcWesUg/16x9-512.jpg", "date": "2024-04-22T14:30:00.000+02:00", "lat": 49.1203, "lon": 9.9561, "intensity": 0.8, "source": "Tagesschau"}, {"title": "Sunak will abschieben - \"ohne Wenn und Aber\"", "url": "https://www.tagesschau.de/ausland/europa/grossbritannien-abschiebungen-sunak-100.html", "thumbnailUrl": "https://images.tagesschau.de/image/2b0150df-10c6-4d8a-9ead-daaeb65d6214/AAABjwXMXSA/AAABjcWesUg/16x9-512.jpg", "date": "2024-04-22T14:29:24.977+02:00", "lat": 51.5074, "lon": 0.1276, "intensity": 0.8, "source": "Tagesschau"}, {"title": "So kann es der 1. FC Saarbr\u00fccken noch auf den Relegationsplatz schaffen ", "url": "https://www.tagesschau.de/inland/regional/saarland/sr-so-kann-es-der-1-fc-saarbruecken-noch-auf-den-relegationsplatz-schaffen-102.html", "thumbnailUrl": "https://images.tagesschau.de/image/9a42449d-c5bb-4d19-9b31-fa017049f5c2/AAABjwXMhY8/AAABjcWesUg/16x9-512.jpg", "date": "2024-04-22T14:25:00.000+02:00", "lat": 49.2402, "lon": 6.9724, "intensity": 0.8, "source": "Tagesschau"}, {"title": "Knauf beendet Russland-Engagement", "url": "https://www.tagesschau.de/wirtschaft/unternehmen/knauf-russland-rueckzug-100.html", "thumbnailUrl": "https://images.tagesschau.de/image/195dfd90-7f39-4650-8757-4814f5c4dd58/AAABjwVJpP0/AAABjcWesUg/16x9-512.jpg", "date": "2024-04-22T14:24:29.561+02:00", "lat": 55.7558, "lon": 37.6176, "intensity": 0.8, "source": "Tagesschau"}, {"title": "Experiment in Kassel: Mehr Polizeipr\u00e4senz f\u00fchrt nicht zu einem h\u00f6heren Sicherheitsgef\u00fchl", "url": "https://www.tagesschau.de/inland/regional/hessen/hr-experiment-in-kassel-erhoehtes-sicherheitsgefuehl-durch-mehr-polizeipraesenz-100.html", "thumbnailUrl": "https://images.tagesschau.de/image/0363ee49-7894-4652-bd3c-02dfcd25db95/AAABjwXBkdw/AAABjcWesUg/16x9-512.jpg", "date": "2024-04-22T14:20:35.809+02:00", "lat": 51.315, "lon": 9.493, "intensity": 0.6, "source": "Tagesschau"}, {"title": "Die Sanktionen wirken - und nutzen dennoch wenig", "url": "https://www.tagesschau.de/faktenfinder/kontext/russland-sanktionen-eu-114.html", "thumbnailUrl": "https://images.tagesschau.de/image/774cd37f-d4a5-49c2-9ac0-7ea4bf73c3a8/AAABjwXAMqA/AAABjcWesUg/16x9-512.jpg", "date": "2024-04-22T14:20:33.329+02:00", "lat": 55.7558, "lon": 37.6176, "intensity": 0.7, "source": "Tagesschau"}, {"title": "Bew\u00e4hrungsstrafen im Prozess um ertrunkenes Kleinkind in R\u00fcsselsheim", "url": "https://www.tagesschau.de/inland/regional/hessen/hr-bewaehrungsstrafe-im-prozess-um-ertrunkenes-kleinkind-in-ruesselsheim-100.html", "thumbnailUrl": "https://images.tagesschau.de/image/882dd755-a84a-4070-ac40-7ec210c88046/AAABjwW_uQM/AAABjcWesUg/16x9-512.jpg", "date": "2024-04-22T14:16:03.804+02:00", "lat": 49.9929, "lon": 8.4148, "intensity": 0.8, "source": "Tagesschau"}, {"title": "Europawahl: Landesregierung wirbt digital um junge W\u00e4hler", "url": "https://www.tagesschau.de/inland/regional/schleswigholstein/ndr-europawahl-landesregierung-wirbt-digital-um-junge-waehler-100.html", "thumbnailUrl": "https://images.tagesschau.de/image/6a4a770b-4d78-4019-8099-b8690d659e4f/AAABjwZ4tW4/AAABjcWesUg/16x9-512.jpg", "date": "2024-04-22T14:03:00.000+02:00", "lat": 54.3233, "lon": 9.9833, "intensity": 0.6, "source": "Tagesschau"}, {"title": "Sieben Tiere tot: Sch\u00e4fer vermutet erneuten Wolfsangriff", "url": "https://www.tagesschau.de/inland/regional/mecklenburgvorpommern/ndr-sieben-tiere-tot-schaefer-vermutet-erneuten-wolfsangriff-100.html", "thumbnailUrl": "https://images.tagesschau.de/image/f3ed7626-8ad1-4af3-9920-43865686368e/AAABjwXI5NI/AAABjcWesUg/16x9-512.jpg", "date": "2024-04-22T13:58:00.000+02:00", "lat": 54.1284, "lon": 12.1799, "intensity": 0.8, "source": "Tagesschau"}, {"title": "Sohn verpr\u00fcgelt Vater - Bundespolizisten greifen ein", "url": "https://www.tagesschau.de/inland/regional/niedersachsen/ndr-sohn-verpruegelt-vater-bundespolizisten-greifen-ein-100.html", "thumbnailUrl": "https://images.tagesschau.de/image/0c0538cd-b7bc-4e59-8769-92e2447ba503/AAABjwWpyp0/AAABjcWesUg/16x9-512.jpg", "date": "2024-04-22T13:54:00.000+02:00", "lat": 52.3759, "lon": 9.7332, "intensity": 0.8, "source": "Tagesschau"}, {"title": "\"Kein Anlass\": Staatsregierung gibt Corona-Akten nicht raus", "url": "https://www.tagesschau.de/inland/regional/bayern/br-kein-anlass-staatsregierung-gibt-corona-akten-nicht-raus-102.html", "thumbnailUrl": "https://images.tagesschau.de/image/2de9630e-3a21-44f8-b64b-42e879283c6a/AAABjwEdPIg/AAABjcWesUg/16x9-512.jpg", "date": "2024-04-22T13:43:11.802+02:00", "lat": 48.7706, "lon": 11.4979, "intensity": 0.5, "source": "Tagesschau"}, {"title": "Edeka-Markt in Bexbach-Frankenholz schlie\u00dft im Mai", "url": "https://www.tagesschau.de/inland/regional/saarland/sr-edeka-markt-in-bexbach-frankenholz-schliesst-im-mai-100.html", "thumbnailUrl": "https://images.tagesschau.de/image/9af06a54-2c8d-4190-be81-7a12383d8fb5/AAABjwXFNCI/AAABjcWesUg/16x9-512.jpg", "date": "2024-04-22T13:43:00.000+02:00", "lat": 49.3035, "lon": 7.179, "intensity": 0.6, "source": "Tagesschau"}, {"title": "Israel plante wohl gr\u00f6\u00dferen Angriff gegen den Iran", "url": "https://www.tagesschau.de/ausland/europa/israel-angriff-iran-100.html", "thumbnailUrl": "https://images.tagesschau.de/image/af56b00e-3b92-4082-a49e-c88c7a79abe4/AAABjvXwLkA/AAABjcWesUg/16x9-512.jpg", "date": "2024-04-22T13:38:52.599+02:00", "lat": 31.7683, "lon": 35.2137, "intensity": 0.8, "source": "Tagesschau"}, {"title": "Mit W\u00e4rme aus Flusswasser heizen: So gro\u00df ist Bayerns Potenzial", "url": "https://www.tagesschau.de/inland/regional/bayern/br-mit-waerme-aus-flusswasser-heizen-so-gross-ist-bayerns-potenzial-104.html", "thumbnailUrl": "https://images.tagesschau.de/image/a56f7061-0075-4b6b-a3ce-8e5800d84702/AAABjwWXdrk/AAABjcWesUg/16x9-512.jpg", "date": "2024-04-22T13:35:40.120+02:00", "lat": 48.135125, "lon": 11.581981, "intensity": 0.8, "source": "Tagesschau"}, {"title": "Interview | \"Hotel Lunik\" in Eisenh\u00fcttenstadt: \"Hier sind sich Leute begegnet, die nicht zusammen sein durften\"", "url": "https://www.tagesschau.de/inland/regional/brandenburg/rbb-interview--hotel-lunik-in-eisenhuettenstadt-hier-sind-sich-leute-begegnet-die-nicht-zusammen-sein-durften-100.html", "thumbnailUrl": "https://images.tagesschau.de/image/0b81fcf8-9440-4897-836b-e60fe6b0f7d6/AAABjwWtdHg/AAABjcWesUg/16x9-512.jpg", "date": "2024-04-22T13:32:35.000+02:00", "lat": 52.1484, "lon": 14.6445, "intensity": 0.5, "source": "Tagesschau"}, {"title": "Kinder und Eltern protestieren gegen geplante Schul- und Kitaschlie\u00dfungen in Kleinmachnow", "url": "https://www.tagesschau.de/inland/regional/brandenburg/rbb-kinder-und-eltern-protestieren-gegen-geplante-schul-und-kitaschliessungen-in-kleinmachnow-102.html", "thumbnailUrl": "https://images.tagesschau.de/image/86e18edd-8d2c-4adb-8b13-361cff293f05/AAABjwWVvqk/AAABjcWesUg/16x9-512.jpg", "date": "2024-04-22T13:25:00.000+02:00", "lat": 52.3883, "lon": 13.2102, "intensity": 0.8, "source": "Tagesschau"}, {"title": "Sch\u00fcsse in R\u00fcsselsheim: Mann lebensgef\u00e4hrlich verletzt aufgefunden \u2013 Polizei fahndet nach T\u00e4ter", "url": "https://www.tagesschau.de/inland/regional/hessen/hr-schuesse-in-ruesselsheim-mann-auf-offener-strasse-lebensgefaehrlich-verletzt-aufgefunden-100.html", "thumbnailUrl": "https://images.tagesschau.de/image/ac304305-e2f4-44ec-b1c8-ddd66daa7bfd/AAABjwczeXQ/AAABjcWesUg/16x9-512.jpg", "date": "2024-04-22T13:24:18.932+02:00", "lat": 49.9929, "lon": 8.4173, "intensity": 0.8, "source": "Tagesschau"}, {"title": "Berlin-Zehlendorf: Geldautomat in der Clayallee gesprengt - Statik des Geb\u00e4udes gepr\u00fcft", "url": "https://www.tagesschau.de/inland/regional/berlin/rbb-berlin-zehlendorf-geldautomat-in-der-clayallee-gesprengt-statik-des-gebaeudes-geprueft-100.html", "thumbnailUrl": "https://images.tagesschau.de/image/d98308ab-436a-45fd-8299-42d62642b859/AAABjwWMeeU/AAABjcWesUg/16x9-512.jpg", "date": "2024-04-22T13:18:41.000+02:00", "lat": 52.4341, "lon": 13.2574, "intensity": 0.8, "source": "Tagesschau"}, {"title": "Anwohner in Freiburg schlagen Alarm: \"Die Ratten sind \u00fcberall!\"", "url": "https://www.tagesschau.de/inland/regional/badenwuerttemberg/swr-anwohner-in-freiburg-schlagen-alarm-die-ratten-sind-ueberall-102.html", "thumbnailUrl": "https://images.tagesschau.de/image/6e5ae36e-6fef-49db-8e44-972abfc09fe1/AAABjwW4clU/AAABjcWesUg/16x9-512.jpg", "date": "2024-04-22T13:15:00.000+02:00", "lat": 47.996, "lon": 7.852, "intensity": 0.8, "source": "Tagesschau"}, {"title": "Sch\u00fcsse aus Autokorso in Nordenham - Polizei ermittelt", "url": "https://www.tagesschau.de/inland/regional/niedersachsen/ndr-schuesse-aus-autokorso-in-nordenham-polizei-ermittelt-100.html", "thumbnailUrl": "https://images.tagesschau.de/image/53a614c6-5d70-4e52-811d-6f91f10de0ee/AAABjwWihnY/AAABjcWesUg/16x9-512.jpg", "date": "2024-04-22T13:12:00.000+02:00", "lat": 53.495833, "lon": 8.476111, "intensity": 0.7, "source": "Tagesschau"}, {"title": "Neues Offshore-Schiff soll drei Meter Wellengang abfedern k\u00f6nnen", "url": "https://www.tagesschau.de/inland/regional/schleswigholstein/ndr-neues-offshore-schiff-soll-drei-meter-wellengang-abfedern-koennen-100.html", "thumbnailUrl": "https://images.tagesschau.de/image/d4ab5ea5-378c-4bae-a394-2d3a09aa7186/AAABjwV6RHw/AAABjcWesUg/16x9-512.jpg", "date": "2024-04-22T12:58:00.000+02:00", "lat": 54.6384, "lon": 9.9468, "intensity": 0.6, "source": "Tagesschau"}, {"title": "Dank Bodenhaftung auf Bundesliga-Kurs: So steigt Holstein Kiel auf", "url": "https://www.tagesschau.de/inland/regional/schleswigholstein/ndr-dank-bodenhaftung-auf-bundesliga-kurs-so-steigt-holstein-kiel-auf-102.html", "thumbnailUrl": "https://images.tagesschau.de/image/5a23aa5c-25d0-4c65-95ea-9e6f72f42f35/AAABjwV0sFY/AAABjcWesUg/16x9-512.jpg", "date": "2024-04-22T12:56:00.000+02:00", "lat": 54.3233, "lon": 10.1228, "intensity": 0.8, "source": "Tagesschau"}, {"title": "Waschb\u00e4r in Kanalrohr gerutscht und aus Notlage gerettet", "url": "https://www.tagesschau.de/inland/regional/niedersachsen/ndr-waschbaer-in-kanalrohr-gerutscht-und-aus-notlage-gerettet-100.html", "thumbnailUrl": "https://images.tagesschau.de/image/6f67f6ed-25fd-489c-974c-18d17df2a5c9/AAABjwVy6Lg/AAABjcWesUg/16x9-512.jpg", "date": "2024-04-22T12:54:00.000+02:00", "lat": 52.268, "lon": 10.526, "intensity": 0.4, "source": "Tagesschau"}, {"title": "Druck auf die EU f\u00fcr mehr Ukraine-Hilfe steigt", "url": "https://www.tagesschau.de/ausland/europa/eu-gipfel-luxemburg-100.html", "thumbnailUrl": "https://images.tagesschau.de/image/1b91edf5-7e61-401e-ae2a-8cb09488a305/AAABjwVh4ls/AAABjcWesUg/16x9-512.jpg", "date": "2024-04-22T12:49:02.290+02:00", "lat": 49.6116, "lon": 6.1319, "intensity": 0.8, "source": "Tagesschau"}, {"title": "Gefahr von Anschl\u00e4gen durch Nahost-Konflikt gestiegen", "url": "https://www.tagesschau.de/inland/innenpolitik/haldenwag-morgenmagazin-ard-100.html", "thumbnailUrl": "https://images.tagesschau.de/image/7cb61432-cd19-41f9-b369-2d6423191647/AAABjwVpP7U/AAABjcWesUg/16x9-512.jpg", "date": "2024-04-22T12:45:35.170+02:00", "lat": 48.7758, "lon": 9.1833, "intensity": 0.8, "source": "Tagesschau"}, {"title": "Stichwahl-Ergebnis: Marzena Slodownik wird neue B\u00fcrgermeisterin von Slubice", "url": "https://www.tagesschau.de/inland/regional/brandenburg/rbb-stichwahl-ergebnis-marzena-slodownik-wird-neue-buergermeisterin-von-slubice-100.html", "thumbnailUrl": "https://images.tagesschau.de/image/8f8e0e9b-04db-4daf-a86a-8d8cbfc8999e/AAABjwVmA50/AAABjcWesUg/16x9-512.jpg", "date": "2024-04-22T12:39:27.000+02:00", "lat": 52.3509, "lon": 14.5604, "intensity": 0.8, "source": "Tagesschau"}, {"title": "Bremer Polizei verhaftet mutma\u00dflichen Goldketten-R\u00e4uber", "url": "https://www.tagesschau.de/inland/regional/bremen/rb-bremer-polizei-verhaftet-mutmasslichen-goldketten-raeuber-100.html", "thumbnailUrl": "https://images.tagesschau.de/image/93f704aa-fdcf-47cd-b3a2-3d3d74b981ff/AAABjwVpsr0/AAABjcWesUg/16x9-512.jpg", "date": "2024-04-22T12:36:00.000+02:00", "lat": 53.0793, "lon": 8.8017, "intensity": 0.8, "source": "Tagesschau"}, {"title": "Mehrere Verletzte: Wildunf\u00e4lle in MV h\u00e4ufen sich", "url": "https://www.tagesschau.de/inland/regional/mecklenburgvorpommern/ndr-mehrere-verletzte-wildunfaelle-in-mv-haeufen-sich-100.html", "thumbnailUrl": "https://images.tagesschau.de/image/cd0277d5-b36f-4047-8cd8-cbb65c8226dc/AAABjwVes9Q/AAABjcWesUg/16x9-512.jpg", "date": "2024-04-22T12:36:00.000+02:00", "lat": 53.6127, "lon": 12.6505, "intensity": 0.6, "source": "Tagesschau"}, {"title": "Immer mehr Ratten in Pirmasens: Stadt legt K\u00f6der aus", "url": "https://www.tagesschau.de/inland/regional/rheinlandpfalz/swr-immer-mehr-ratten-in-pirmasens-stadt-legt-koeder-aus-100.html", "thumbnailUrl": "https://images.tagesschau.de/image/570bd687-695e-4f25-a61e-91732a8f560b/AAABjwW4btA/AAABjcWesUg/16x9-512.jpg", "date": "2024-04-22T12:33:58.000+02:00", "lat": 49.198387, "lon": 7.610047, "intensity": 0.6, "source": "Tagesschau"}, {"title": "27 Verletzte: Sch\u00fcler aus Marburg nach Reisebus-Unfall auf A45 unter Schock", "url": "https://www.tagesschau.de/inland/regional/hessen/hr-27-verletzte-marburger-schueler-nach-reisebus-unfall-unter-schock-100.html", "thumbnailUrl": "https://images.tagesschau.de/image/a837e1bf-6224-48c0-9ff9-65ba0a23a9d7/AAABjwVMaFk/AAABjcWesUg/16x9-512.jpg", "date": "2024-04-22T12:13:06.561+02:00", "lat": 50.802, "lon": 8.769, "intensity": 0.8, "source": "Tagesschau"}, {"title": "Chef des Milit\u00e4rgeheimdienstes tritt zur\u00fcck", "url": "https://www.tagesschau.de/ausland/asien/israel-ruecktritt-geheimdienstchef-100.html", "thumbnailUrl": "https://images.tagesschau.de/image/7d167d83-8ca1-4552-9741-f929fe32fa43/AAABjwUwi_Y/AAABjcWesUg/16x9-512.jpg", "date": "2024-04-22T12:10:57.316+02:00", "lat": 31.2872, "lon": 34.2654, "intensity": 0.8, "source": "Tagesschau"}, {"title": "Polizei reicht fristgerecht Beschwerdebegr\u00fcndung gegen Tesla-Protestcamp ein", "url": "https://www.tagesschau.de/inland/regional/brandenburg/rbb-polizei-reicht-fristgerecht-beschwerdebegruendung-gegen-tesla-protestcamp-ein-100.html", "thumbnailUrl": "https://images.tagesschau.de/image/dd372c3c-456b-45c5-9e24-7f709e4daa9c/AAABjwZOvao/AAABjcWesUg/16x9-512.jpg", "date": "2024-04-22T12:10:28.000+02:00", "lat": 52.3386, "lon": 13.5852, "intensity": 0.6, "source": "Tagesschau"}, {"title": "Rund 20.000 Besucher bei Heilig-Rock-Tagen in Trier ", "url": "https://www.tagesschau.de/inland/regional/saarland/sr-rund-20-000-besucher-bei-heilig-rock-tagen-in-trier-100.html", "thumbnailUrl": "https://images.tagesschau.de/image/f726b991-288a-432f-8954-f1fd55f5ba82/AAABjwVIsO0/AAABjcWesUg/16x9-512.jpg", "date": "2024-04-22T12:08:00.000+02:00", "lat": 49.7596, "lon": 6.6431, "intensity": 0.7, "source": "Tagesschau"}, {"title": "Mietreport des DGB: Zahl der Sozialwohnungen in RLP stark gesunken", "url": "https://www.tagesschau.de/inland/regional/rheinlandpfalz/swr-mietreport-des-dgb-steigende-mieten-wenig-neubauten-100.html", "thumbnailUrl": "https://images.tagesschau.de/image/43bd310f-5137-4d39-ab7d-0a2b254c45ce/AAABjwXVsoE/AAABjcWesUg/16x9-512.jpg", "date": "2024-04-22T12:07:52.000+02:00", "lat": 49.8059, "lon": 7.0028, "intensity": 0.8, "source": "Tagesschau"}, {"title": "Harzer Wandernadel mit neuen Stempelstellen", "url": "https://www.tagesschau.de/inland/regional/sachsenanhalt/mdr-harzer-wandernadel-mit-neuen-stempelstellen-100.html", "thumbnailUrl": "https://images.tagesschau.de/image/cf7b5db9-dc7b-44d5-b212-1a02862626a7/AAABjwU6JBU/AAABjcWesUg/16x9-512.jpg", "date": "2024-04-22T11:53:01.000+02:00", "lat": 51.717, "lon": 11.1149, "intensity": 0.4, "source": "Tagesschau"}, {"title": "Unbekannter saarl\u00e4ndischer Tipper gewinnt halbe Million Euro", "url": "https://www.tagesschau.de/inland/regional/saarland/sr-unbekannter-saarlaendischer-tipper-gewinnt-halbe-millionen-euro-100.html", "thumbnailUrl": "https://images.tagesschau.de/image/0d82cff6-402c-4859-8338-49d5c8f107d5/AAABjwUytzk/AAABjcWesUg/16x9-512.jpg", "date": "2024-04-22T11:41:00.000+02:00", "lat": 49.3964, "lon": 7.0, "intensity": 0.8, "source": "Tagesschau"}, {"title": "Nach \u00dcberfall auf Uhrengesch\u00e4ft: Verd\u00e4chtiger festgenommen", "url": "https://www.tagesschau.de/inland/regional/niedersachsen/ndr-ueberfall-auf-uhrengeschaeft-ermittler-suchen-mit-videos-nach-taeter-100.html", "thumbnailUrl": "https://images.tagesschau.de/image/f901a0cd-28aa-4821-8ca7-37a8f1828e89/AAABjwUw_G8/AAABjcWesUg/16x9-512.jpg", "date": "2024-04-22T11:37:00.000+02:00", "lat": 51.1657, "lon": 10.4264, "intensity": 0.8, "source": "Tagesschau"}, {"title": "Rems-Murr-Kreis: Mehr als 4.000 Geb\u00e4ude von Hochwasser gef\u00e4hrdet", "url": "https://www.tagesschau.de/inland/regional/badenwuerttemberg/swr-rems-murr-kreis-mehr-als-4-000-gebaeude-von-hochwasser-gefaehrdet-100.html", "thumbnailUrl": "https://images.tagesschau.de/image/34394eb5-1144-44f6-82b0-4a95c238b9cb/AAABjwVvJUY/AAABjcWesUg/16x9-512.jpg", "date": "2024-04-22T11:35:45.000+02:00", "lat": 48.9051, "lon": 9.3206, "intensity": 0.9, "source": "Tagesschau"}, {"title": "Mann \u00fcberf\u00e4llt Spielhalle in Stade - Polizei sucht Zeugen", "url": "https://www.tagesschau.de/inland/regional/niedersachsen/ndr-mann-ueberfaellt-spielhalle-in-stade-polizei-sucht-zeugen-100.html", "thumbnailUrl": "https://images.tagesschau.de/image/97c72692-65b2-4228-816e-b2f9d56a4a57/AAABjwUiUtk/AAABjcWesUg/16x9-512.jpg", "date": "2024-04-22T11:22:00.000+02:00", "lat": 53.6083, "lon": 9.4752, "intensity": 0.7, "source": "Tagesschau"}, {"title": "BaFin verh\u00e4ngt Bu\u00dfgeld gegen Commerzbank", "url": "https://www.tagesschau.de/wirtschaft/unternehmen/commerzbank-bussgeld-bafin-100.html", "thumbnailUrl": "https://images.tagesschau.de/image/51f8b56e-dab8-402d-92f0-47dc05dbe204/AAABicCRbyI/AAABjcWesUg/16x9-512.jpg", "date": "2024-04-22T11:21:45.867+02:00", "lat": 50.1155, "lon": 8.367, "intensity": 0.8, "source": "Tagesschau"}, {"title": "Zahlen f\u00fcr 2023: Geburtenr\u00fcckgang in Berlin weiter verst\u00e4rkt", "url": "https://www.tagesschau.de/inland/regional/berlin/rbb-zahlen-fuer-2023-geburtenrueckgang-in-berlin-weiter-verstaerkt-100.html", "thumbnailUrl": "https://images.tagesschau.de/image/b705e60a-b1b9-4c43-8894-c9d8221a747e/AAABjwUen7M/AAABjcWesUg/16x9-512.jpg", "date": "2024-04-22T11:15:59.000+02:00", "lat": 52.520008, "lon": 13.404954, "intensity": 0.7, "source": "Tagesschau"}, {"title": "Theaterkritik | FIND-Festival an der Schaub\u00fchne: Braucht es Gewalt, um Faschisten zu t\u00f6ten?", "url": "https://www.tagesschau.de/inland/regional/berlin/rbb-theaterkritik--find-festival-an-der-schaubuehne-von-der-schoenheit-faschisten-zu-toeten-100.html", "thumbnailUrl": "https://images.tagesschau.de/image/0c06737f-5779-462e-bd94-fd8e0532a6a3/AAABjwTemQw/AAABjcWesUg/16x9-512.jpg", "date": "2024-04-22T11:08:11.000+02:00", "lat": 52.5093, "lon": 13.3318, "intensity": 0.8, "source": "Tagesschau"}, {"title": "Metronom mit 600 Passagieren muss Vollbremsung machen", "url": "https://www.tagesschau.de/inland/regional/bremen/rb-unbekannte-legen-gegenstaende-auf-gleise-zwischen-bremen-und-hamburg-100.html", "thumbnailUrl": "https://images.tagesschau.de/image/794e58d7-03df-4878-9d92-b2ec4b550c94/AAABjwVQCcc/AAABjcWesUg/16x9-512.jpg", "date": "2024-04-22T10:57:00.000+02:00", "lat": 53.0793, "lon": 8.8017, "intensity": 0.8, "source": "Tagesschau"}, {"title": "Darmstadt 98: +++ Leihgabe Stojilkovic beim FCK au\u00dfen vor +++ Lilien-Sieg im Highlight-Video +++ Beckenprellung bei Gjasula +++", "url": "https://www.tagesschau.de/inland/regional/hessen/hr--tietz-vermisst-fehlende-gier--lilien-fans-liefern-sich-raststaetten-pruegelei--die-niederlage-der-lilien-in-der-video-zusammenfassung-102.html", "thumbnailUrl": "https://images.tagesschau.de/image/7db53f73-4914-4c02-9bf9-57a17643e532/AAABjwTxS7g/AAABjcWesUg/16x9-512.jpg", "date": "2024-04-22T10:32:59.339+02:00", "lat": 49.878, "lon": 8.6536, "intensity": 0.6, "source": "Tagesschau"}, {"title": "Invasive Quagga-Muschel bereitet Schifffahrt auf der Mosel Probleme", "url": "https://www.tagesschau.de/inland/regional/saarland/sr-invasive-quaggamuschel-bereitet-schifffahrt-auf-der-mosel-probleme-100.html", "thumbnailUrl": "https://images.tagesschau.de/image/c24d5224-d1e2-461b-af6c-3165003ed756/AAABjwUImMA/AAABjcWesUg/16x9-512.jpg", "date": "2024-04-22T10:32:00.000+02:00", "lat": 49.786, "lon": 6.825, "intensity": 0.7, "source": "Tagesschau"}, {"title": "Deutschland hinkt bei gr\u00fcnem Wasserstoff hinterher", "url": "https://www.tagesschau.de/wirtschaft/weltwirtschaft/gruener-wasserstoff-klimaziele-deutschland-eu-100.html", "thumbnailUrl": "https://images.tagesschau.de/image/5612f078-c9c8-46e7-9e1d-b7926b7c9bcd/AAABjwSc6zo/AAABjcWesUg/16x9-512.jpg", "date": "2024-04-22T10:27:51.812+02:00", "lat": 51.1657, "lon": 10.4515, "intensity": 0.7, "source": "Tagesschau"}, {"title": "Unbekannte entsorgen Eternitplatten auf Feldweg", "url": "https://www.tagesschau.de/inland/regional/niedersachsen/ndr-unbekannte-entsorgen-eternitplatten-auf-feldweg-100.html", "thumbnailUrl": "https://images.tagesschau.de/image/19a5f698-fed5-4318-8816-9bf2a8378052/AAABjwTn7Vs/AAABjcWesUg/16x9-512.jpg", "date": "2024-04-22T10:24:00.000+02:00", "lat": 52.37392, "lon": 9.683496, "intensity": 0.3, "source": "Tagesschau"}, {"title": "Hessen am Morgen: +++ H\u00f6henretter bergen gest\u00fcrzten Wanderer +++ Huskies entlassen Trainer w\u00e4hrend Finalserie +++ Wasserleiche aus Nidda geborgen +++ ", "url": "https://www.tagesschau.de/inland/regional/hessen/hr-hessen-am-morgen--drei-verletzte-bei-hausbrand-in-hohenahr-100.html", "thumbnailUrl": "https://images.tagesschau.de/image/177c8f31-7dd5-482b-b8fc-95f1a16e3708/AAABjwXgs8A/AAABjcWesUg/16x9-512.jpg", "date": "2024-04-22T10:05:57.686+02:00", "lat": 50.1109, "lon": 8.6673, "intensity": 0.7, "source": "Tagesschau"}, {"title": "BW-Newsticker am Morgen: Nach Unfall Einschr\u00e4nkungen auf der G\u00e4ubahn, Polizei ermittelt wegen Leichenfund in Waldbronn, Pessach-Fest beginnt", "url": "https://www.tagesschau.de/inland/regional/badenwuerttemberg/swr-bw-newsticker-am-morgen-nach-unfall-einschraenkungen-auf-der-gaeubahn-polizei-ermittelt-wegen-leichenfund-in-waldbronn-pessach-fest-beginnt-100.html", "thumbnailUrl": "https://images.tagesschau.de/image/f23c993c-e998-4603-9c8b-208486102d45/AAABjwP5wXE/AAABjcWesUg/16x9-512.jpg", "date": "2024-04-22T10:00:00.000+02:00", "lat": 48.9, "lon": 8.5, "intensity": 0.7, "source": "Tagesschau"}, {"title": "Schlafender Lkw-Fahrer an A48 schwer verletzt, Polizeieinsatz Mainz , Mietreport", "url": "https://www.tagesschau.de/inland/regional/rheinlandpfalz/swr-nasse-schnee-flocken-bis-ins-tal-100.html", "thumbnailUrl": "https://images.tagesschau.de/image/407ddf40-a84b-4682-aa55-ffdb10ca5af1/AAABjwTkJw8/AAABjcWesUg/16x9-512.jpg", "date": "2024-04-22T10:00:00.000+02:00", "lat": 49.992862, "lon": 8.239761, "intensity": 0.8, "source": "Tagesschau"}, {"title": "Explosion in Wohnhaus mit Asylsuchenden im Saalekreis", "url": "https://www.tagesschau.de/inland/regional/sachsenanhalt/mdr-explosion-in-wohnhaus-mit-asylsuchenden-100.html", "thumbnailUrl": "https://images.tagesschau.de/image/5dff5188-7398-4c22-8cb4-7e3aca34c6c0/AAABjwS_lMQ/AAABjcWesUg/16x9-512.jpg", "date": "2024-04-22T09:39:47.000+02:00", "lat": 51.36, "lon": 11.81, "intensity": 0.8, "source": "Tagesschau"}, {"title": "W\u00e4hrend DEL2-Finalserie: Kassel Huskies schmei\u00dfen Trainer Stewart raus", "url": "https://www.tagesschau.de/inland/regional/hessen/hr-waehrend-del2-finalserie-kassel-huskies-schmeissen-trainer-stewart-raus-102.html", "thumbnailUrl": "https://images.tagesschau.de/image/fa7d33d0-be6f-4437-84f3-ea4b336898b8/AAABjwU6ENg/AAABjcWesUg/16x9-512.jpg", "date": "2024-04-22T09:31:52.434+02:00", "lat": 51.3122, "lon": 9.4792, "intensity": 0.8, "source": "Tagesschau"}, {"title": "Meyer Werft: Kreuzfahrtschiff \"Silver Ray\" liegt jetzt in Eemshaven", "url": "https://www.tagesschau.de/inland/regional/niedersachsen/ndr-meyer-werft-ueberfuehrt-ultra-luxus-kreuzfahrtschiff-silver-ray-100.html", "thumbnailUrl": "https://images.tagesschau.de/image/248d1f9e-80d3-4533-85d1-1167ddea88e9/AAABjwaNDyE/AAABjcWesUg/16x9-512.jpg", "date": "2024-04-22T09:24:00.000+02:00", "lat": 53.1438, "lon": 7.18333, "intensity": 0.6, "source": "Tagesschau"}, {"title": "Erste pflegebed\u00fcrftige Obdachlose kommen nach Niendorf", "url": "https://www.tagesschau.de/inland/regional/hamburg/ndr-erste-pflegebeduerftige-obdachlose-kommen-nach-niendorf-100.html", "thumbnailUrl": "https://images.tagesschau.de/image/4791ee66-dfd8-4ccd-a790-c112192b082d/AAABjwFQj8k/AAABjcWesUg/16x9-512.jpg", "date": "2024-04-22T09:23:00.000+02:00", "lat": 53.6532, "lon": 9.9542, "intensity": 0.7, "source": "Tagesschau"}, {"title": "Dachsbau im Kreis Heinsberg blockiert Bahnverkehr", "url": "https://www.tagesschau.de/inland/regional/nordrheinwestfalen/wdr-dachsbau-im-kreis-heinsberg-blockiert-bahnverkehr-100.html", "thumbnailUrl": "https://images.tagesschau.de/image/80234029-9786-4ccd-a657-fec09b199478/AAABjwTVXKo/AAABjcWesUg/16x9-512.jpg", "date": "2024-04-22T09:15:00.000+02:00", "lat": 51.0644, "lon": 6.2102, "intensity": 0.5, "source": "Tagesschau"}, {"title": "Zwischen Unschuldsvermutung und Parteiausschluss", "url": "https://www.tagesschau.de/inland/innenpolitik/miosga-krah-100.html", "thumbnailUrl": "https://images.tagesschau.de/image/73b57a64-27e9-4061-968f-f52a1baf9ec1/AAABjwSkzH0/AAABjcWesUg/16x9-512.jpg", "date": "2024-04-22T09:10:29.802+02:00", "lat": 53.5511, "lon": 9.9937, "intensity": 0.8, "source": "Tagesschau"}, {"title": "Antifaschistischer Slogan verursacht Konflikt in Berliner Dart-Szene - Verband droht mit Ausschluss", "url": "https://www.tagesschau.de/inland/regional/berlin/rbb-dartista-dartista-antifascista-wie-ein-antifaschistischer-slogan-fuer-einen-konflikt-in-der-berliner-dart-szene-sorgt-102.html", "thumbnailUrl": "https://images.tagesschau.de/image/4bb22b03-43e5-4cfa-bc9d-b64271251670/AAABjwTepx8/AAABjcWesUg/16x9-512.jpg", "date": "2024-04-22T09:00:29.000+02:00", "lat": 52.520008, "lon": 13.404954, "intensity": 0.7, "source": "Tagesschau"}, {"title": "Die Th\u00fcringer \"Waldb\u00fcrger-Initiative\": Zwischen Umweltengagement und rechtsextremer Agitation", "url": "https://www.tagesschau.de/inland/regional/thueringen/mdr-die-thueringer-waldbuerger-initiative-zwischen-umweltengagement-und-rechtsextremer-agitation-100.html", "thumbnailUrl": "https://images.tagesschau.de/image/3832bdd1-145b-4360-bdce-7f0a28c84277/AAABjwTphSM/AAABjcWesUg/16x9-512.jpg", "date": "2024-04-22T09:00:00.000+02:00", "lat": 50.9787, "lon": 11.3032, "intensity": 0.4, "source": "Tagesschau"}, {"title": "Second-Hand-Mode ist Fluch und Segen", "url": "https://www.tagesschau.de/wirtschaft/weltwirtschaft/second-hand-kleidung-kenia-altkleider-100.html", "thumbnailUrl": "https://images.tagesschau.de/image/a36f098d-e6e8-43ac-baf9-948d4c76c2a1/AAABjvWljnY/AAABjcWesUg/16x9-512.jpg", "date": "2024-04-22T08:59:49.465+02:00", "lat": 0.0236, "lon": 37.9062, "intensity": 0.7, "source": "Tagesschau"}, {"title": "Stadtautobahn gesperrt: Hunderte Menschen protestieren auf der A100 gegen Weiterbau", "url": "https://www.tagesschau.de/inland/regional/berlin/rbb-ab-14-uhr-buendnis-ruft-zu-protest-gegen-weiterbau-der-stadtautobahn-a100-auf-100.html", "thumbnailUrl": "https://images.tagesschau.de/image/f23611af-e73b-4fe8-9c4c-0e2013d1918d/AAABjwEg7vg/AAABjcWesUg/16x9-512.jpg", "date": "2024-04-22T08:51:08.000+02:00", "lat": 52.518611, "lon": 13.448464, "intensity": 0.7, "source": "Tagesschau"}, {"title": "Jusos fordern Neuanfang: Saleh will Berliner SPD-Fraktionschef bleiben", "url": "https://www.tagesschau.de/inland/regional/berlin/rbb-berliner-abgeordnetenhaus-saleh-will-spd-fraktionschef-bleiben-100.html", "thumbnailUrl": "https://images.tagesschau.de/image/57d2b029-92b5-400c-bb2a-41f042f62b18/AAABjwSRu4A/AAABjcWesUg/16x9-512.jpg", "date": "2024-04-22T08:47:40.000+02:00", "lat": 52.52437, "lon": 13.41053, "intensity": 0.6, "source": "Tagesschau"}, {"title": "Russlanddeutsche und Spionage: Nicht \"Putins f\u00fcnfte Kolonne\"", "url": "https://www.tagesschau.de/inland/regional/bayern/br-russlanddeutsche-und-spionage-nicht-putins-fuenfte-kolonne-102.html", "thumbnailUrl": "https://images.tagesschau.de/image/934974e3-2d87-4d2d-af29-c63ef4ed3e93/AAABjwSMIKc/AAABjcWesUg/16x9-512.jpg", "date": "2024-04-22T08:43:05.597+02:00", "lat": 48.7771, "lon": 11.5019, "intensity": 0.6, "source": "Tagesschau"}, {"title": "Wie Wilderer die Fische in der Isar bedrohen", "url": "https://www.tagesschau.de/inland/regional/bayern/br-wie-wilderer-die-fische-in-der-isar-bedrohen-102.html", "thumbnailUrl": "https://images.tagesschau.de/image/044dfaef-ca34-4895-b811-79a13ff5bff1/AAABjwSKZxw/AAABjcWesUg/16x9-512.jpg", "date": "2024-04-22T08:40:38.461+02:00", "lat": 48.1351, "lon": 11.5761, "intensity": 0.8, "source": "Tagesschau"}, {"title": "China verbannt WhatsApp, Signal und Telegram", "url": "https://www.tagesschau.de/ausland/asien/china-messenger-100.html", "thumbnailUrl": "https://images.tagesschau.de/image/41789b92-b131-4191-acf0-402d8fe79068/AAABjwSI1Wk/AAABjcWesUg/16x9-512.jpg", "date": "2024-04-22T08:40:27.763+02:00", "lat": 35.86166, "lon": 104.195397, "intensity": 0.8, "source": "Tagesschau"}, {"title": "Ecuadorianer wollen mehr H\u00e4rte gegen Bandengewalt", "url": "https://www.tagesschau.de/ausland/amerika/ecuador-referendum-bandengewalt-100.html", "thumbnailUrl": "https://images.tagesschau.de/image/7b960beb-d0b5-4af9-bee5-eb4f3de63391/AAABjwSB5pM/AAABjcWesUg/16x9-512.jpg", "date": "2024-04-22T08:32:53.907+02:00", "lat": -1.831239, "lon": -78.183406, "intensity": 0.8, "source": "Tagesschau"}, {"title": "H\u00f6here Mehrwertsteuer: Wie geht es der Gastronomie in Bayern?", "url": "https://www.tagesschau.de/inland/regional/bayern/br-hoehere-mehrwertsteuer-wie-geht-es-der-gastronomie-in-bayern-102.html", "thumbnailUrl": "https://images.tagesschau.de/image/acbd5c36-0ca6-4369-b240-4d21cd4afa6b/AAABjwR9mSk/AAABjcWesUg/16x9-512.jpg", "date": "2024-04-22T08:26:21.892+02:00", "lat": 48.1351, "lon": 11.552, "intensity": 0.8, "source": "Tagesschau"}, {"title": "Islamismus: Brandenburger Verfassungsschutz warnt vor Radikalisierung durch Tiktok", "url": "https://www.tagesschau.de/inland/regional/brandenburg/rbb-islamismus-brandenburger-verfassungsschutz-warnt-vor-radikalisierung-durch-tiktok-100.html", "thumbnailUrl": "https://images.tagesschau.de/image/a4bdb34c-ad26-4f62-84ef-d495faea3442/AAABjwSE0yM/AAABjcWesUg/16x9-512.jpg", "date": "2024-04-22T08:24:03.000+02:00", "lat": 52.4007, "lon": 13.0583, "intensity": 0.6, "source": "Tagesschau"}, {"title": "Gericht pr\u00fcft Schuldf\u00e4higkeit des ehemaligen Vize-B\u00fcrgermeisters aus L\u00fcnen", "url": "https://www.tagesschau.de/inland/regional/nordrheinwestfalen/wdr-gericht-prueft-schuldfaehigkeit-des-ehemaligen-vize-buergermeisters-aus-luenen-100.html", "thumbnailUrl": "https://images.tagesschau.de/image/2fa04ff9-3c35-4960-a854-6bbcddcfcd0b/AAABjwTnrNo/AAABjcWesUg/16x9-512.jpg", "date": "2024-04-22T08:22:00.000+02:00", "lat": 51.6216, "lon": 7.5168, "intensity": 0.8, "source": "Tagesschau"}, {"title": "Bemerkenswerter Auftritt vom Eintracht-Boss: Hellmann zieht die Schrauben an", "url": "https://www.tagesschau.de/inland/regional/hessen/hr-bemerkenswerter-auftritt-vom-eintracht-boss-hellmann-zieht-die-schrauben-an-102.html", "thumbnailUrl": "https://images.tagesschau.de/image/d15148a8-b095-45a1-bcb9-46a024193f0d/AAABjwSRzkY/AAABjcWesUg/16x9-512.jpg", "date": "2024-04-22T08:21:30.952+02:00", "lat": 50.1167, "lon": 8.6833, "intensity": 0.8, "source": "Tagesschau"}, {"title": "Umweltminister trifft Landr\u00e4te: Austausch zum Wolf in Uelzen", "url": "https://www.tagesschau.de/inland/regional/niedersachsen/ndr-umweltminister-trifft-landraete-austausch-zum-wolf-in-uelzen-100.html", "thumbnailUrl": "https://images.tagesschau.de/image/b261e8b2-42e0-4127-aa5c-5a871854f294/AAABjwYDiuM/AAABjcWesUg/16x9-512.jpg", "date": "2024-04-22T08:17:00.000+02:00", "lat": 52.9651, "lon": 10.5561, "intensity": 0.8, "source": "Tagesschau"}, {"title": "J\u00fcdisches Fest im Zeichen des Krieges", "url": "https://www.tagesschau.de/ausland/asien/luftangriffe-gaza-pessach-rafah-100.html", "thumbnailUrl": "https://images.tagesschau.de/image/893a9931-a8d5-4cd6-9e4a-f238555e2549/AAABjwRmlJc/AAABjcWesUg/16x9-512.jpg", "date": "2024-04-22T08:03:03.020+02:00", "lat": 31.7683, "lon": 35.2137, "intensity": 0.8, "source": "Tagesschau"}, {"title": "Mann mit Softair-Waffe: Polizeieinsatz in Bad Salzdetfurth", "url": "https://www.tagesschau.de/inland/regional/niedersachsen/ndr-mann-mit-softair-waffe-polizeieinsatz-in-bad-salzdetfurth-100.html", "thumbnailUrl": "https://images.tagesschau.de/image/ac794c64-ea20-4021-8cd6-13363262db68/AAABjwRrRcE/AAABjcWesUg/16x9-512.jpg", "date": "2024-04-22T08:03:00.000+02:00", "lat": 52.0011, "lon": 10.0427, "intensity": 0.5, "source": "Tagesschau"}, {"title": "Hilfe f\u00fcr die Menschen in der Ukraine", "url": "https://www.tagesschau.de/spendenkonten/spendenkonten-133.html", "thumbnailUrl": "https://images.tagesschau.de/image/af005073-bb3d-428a-b6f8-a685c725811f/AAABh4VRChA/AAABjcWesUg/16x9-512.jpg", "date": "2024-04-22T08:00:38.965+02:00", "lat": 50.4501, "lon": 30.5234, "intensity": 0.8, "source": "Tagesschau"}, {"title": "Zusammensto\u00df beim \u00dcberholen: F\u00fcnf Verletzte bei Unfall in Riepe", "url": "https://www.tagesschau.de/inland/regional/niedersachsen/ndr-zusammenstoss-beim-ueberholen-fuenf-verletzte-bei-unfall-in-riepe-100.html", "thumbnailUrl": "https://images.tagesschau.de/image/13640ee7-8888-4ff3-8ae8-7ae4e019b4d9/AAABjwRlv8Q/AAABjcWesUg/16x9-512.jpg", "date": "2024-04-22T07:59:00.000+02:00", "lat": 53.3246, "lon": 7.6686, "intensity": 0.8, "source": "Tagesschau"}, {"title": "Das Spiel mit dem Feuer", "url": "https://www.tagesschau.de/faktenfinder/tempel-institut-opfer-kuh-100.html", "thumbnailUrl": "https://images.tagesschau.de/image/eb55a8e3-6eb2-411f-841f-45e16e62b476/AAABjwRxMRo/AAABjcWesUg/16x9-512.jpg", "date": "2024-04-22T07:53:43.081+02:00", "lat": 31.7767, "lon": 35.2304, "intensity": 0.8, "source": "Tagesschau"}, {"title": "Historischer Erfolg f\u00fcr Separatisten im Baskenland", "url": "https://www.tagesschau.de/ausland/europa/wahl-spanien-separatisten-100.html", "thumbnailUrl": "https://images.tagesschau.de/image/0eff2968-140e-472c-9e4e-5d486e33446a/AAABjwRK6T8/AAABjcWesUg/16x9-512.jpg", "date": "2024-04-22T07:52:54.500+02:00", "lat": 43.263, "lon": -2.4904, "intensity": 0.8, "source": "Tagesschau"}, {"title": "K\u00fcnftig auch kleinere Polizisten im Saarland?", "url": "https://www.tagesschau.de/inland/regional/saarland/sr-kuenftig-auch-kleinere-polizisten-im-saarland-100.html", "thumbnailUrl": "https://images.tagesschau.de/image/b58e1039-d419-4ddd-bf4b-832f93e32a15/AAABjwReUGg/AAABjcWesUg/16x9-512.jpg", "date": "2024-04-22T07:51:00.000+02:00", "lat": 49.3964, "lon": 7.0, "intensity": 0.6, "source": "Tagesschau"}, {"title": "Polizei verhindert Attacke von Werder-Fans auf Stuttgart-Anh\u00e4nger", "url": "https://www.tagesschau.de/inland/regional/bremen/rb-polizei-verhindert-attacke-von-werder-fans-auf-stuttgart-anhaenger-100.html", "thumbnailUrl": "https://images.tagesschau.de/image/ea1da915-be17-4436-a364-5f817cd60a10/AAABjwRXDGI/AAABjcWesUg/16x9-512.jpg", "date": "2024-04-22T07:41:00.000+02:00", "lat": 53.0793, "lon": 8.8017, "intensity": 0.8, "source": "Tagesschau"}, {"title": "Streit eskaliert: Autofahrer schubst Mann vom Fahrrad", "url": "https://www.tagesschau.de/inland/regional/niedersachsen/ndr-streit-eskaliert-autofahrer-schubst-mann-vom-fahrrad-100.html", "thumbnailUrl": "https://images.tagesschau.de/image/e09faf36-0f51-4bf8-816f-2c0555b17689/AAABjwRgOwM/AAABjcWesUg/16x9-512.jpg", "date": "2024-04-22T07:35:00.000+02:00", "lat": 52.52, "lon": 9.3852, "intensity": 0.7, "source": "Tagesschau"}, {"title": "Ein Jahr schwarz-rote Verkehrspolitik in Berlin: Das Rad zur\u00fcckgedreht?  ", "url": "https://www.tagesschau.de/inland/regional/berlin/rbb-ein-jahr-verkehrspolitik-von-schwarz-rot-das-rad-zurueckgedreht-100.html", "thumbnailUrl": "https://images.tagesschau.de/image/6b579f8d-1678-48da-a405-d06832e31edf/AAABjwRMMp8/AAABjcWesUg/16x9-512.jpg", "date": "2024-04-22T07:29:33.000+02:00", "lat": 52.52, "lon": 13.4049, "intensity": 0.6, "source": "Tagesschau"}, {"title": "Wetter in Niedersachsen: Bis Mittwoch bleibt es k\u00fchl und frostig", "url": "https://www.tagesschau.de/inland/regional/niedersachsen/ndr-wetter-in-niedersachsen-bis-mittwoch-bleibt-es-kuehl-und-frostig-100.html", "thumbnailUrl": "https://images.tagesschau.de/image/ffe6a5a2-a744-47dc-80c9-91e36be4454a/AAABjwdLhAk/AAABjcWesUg/16x9-512.jpg", "date": "2024-04-22T07:10:00.000+02:00", "lat": 52.3732, "lon": 9.7356, "intensity": 0.5, "source": "Tagesschau"}, {"title": "Wie der Kreis Germersheim sich vor Hochwasser sch\u00fctzen will", "url": "https://www.tagesschau.de/inland/regional/rheinlandpfalz/swr-wie-der-kreis-germersheim-sich-vor-hochwasser-schuetzen-will-100.html", "thumbnailUrl": "https://images.tagesschau.de/image/a36626ea-f7b2-44d5-b4f7-03d6895cd6f4/AAABjwStJYc/AAABjcWesUg/16x9-512.jpg", "date": "2024-04-22T07:05:17.000+02:00", "lat": 49.2061, "lon": 8.2619, "intensity": 0.7, "source": "Tagesschau"}, {"title": "Drohnen st\u00f6ren immer h\u00e4ufiger Betrieb am Flughafen Frankfurt", "url": "https://www.tagesschau.de/inland/regional/hessen/hr-flughafen-frankfurt-drohnen-sorgen-an-zehn-tagen-fuer-behinderungen-100.html", "thumbnailUrl": "https://images.tagesschau.de/image/6dfd563b-fe42-4bc8-b8ae-e4273537259a/AAABjwWrlQU/AAABjcWesUg/16x9-512.jpg", "date": "2024-04-22T06:59:08.784+02:00", "lat": 50.0333, "lon": 8.5709, "intensity": 0.8, "source": "Tagesschau"}, {"title": "Guten Morgen, NRW!", "url": "https://www.tagesschau.de/inland/regional/nordrheinwestfalen/wdr-guten-morgen-nrw-454.html", "thumbnailUrl": "https://images.tagesschau.de/image/c2024e18-af3c-45d6-a7aa-3f8c5dfcee89/AAABjwQ0NVY/AAABjcWesUg/16x9-512.jpg", "date": "2024-04-22T06:58:00.000+02:00", "lat": 51.455643, "lon": 7.588576, "intensity": 0.8, "source": "Tagesschau"}, {"title": "Abitur 2024: In Mecklenburg-Vorpommern beginnen die Pr\u00fcfungen", "url": "https://www.tagesschau.de/inland/regional/mecklenburgvorpommern/ndr-abitur-2024-pruefungen-starten-in-mecklenburg-vorpommern-100.html", "thumbnailUrl": "https://images.tagesschau.de/image/d906a560-8f9a-47b1-aedf-d3e05d64f70d/AAABjwU74UU/AAABjcWesUg/16x9-512.jpg", "date": "2024-04-22T06:43:00.000+02:00", "lat": 53.6127, "lon": 13.055, "intensity": 0.6, "source": "Tagesschau"}, {"title": "Hannover Messe gestartet - auch saarl\u00e4ndische Aussteller dabei", "url": "https://www.tagesschau.de/inland/regional/saarland/sr-hannover-messe-gestartet-auch-saarlaendische-aussteller-dabei-100.html", "thumbnailUrl": "https://images.tagesschau.de/image/50c3b423-b7cd-49ae-afa8-0a83a261aae5/AAABjwQgDjY/AAABjcWesUg/16x9-512.jpg", "date": "2024-04-22T06:41:00.000+02:00", "lat": 52.3759, "lon": 9.7316, "intensity": 0.7, "source": "Tagesschau"}, {"title": "Personalmangel: Hamburg will Fachkraftquote in Pflegeheimen senken", "url": "https://www.tagesschau.de/inland/regional/hamburg/ndr-personalmangel-hamburg-will-fachkraftquote-in-pflegeheimen-senken-100.html", "thumbnailUrl": "https://images.tagesschau.de/image/c0225c0f-cd07-4629-a4af-469b242ab293/AAABjwQPrj0/AAABjcWesUg/16x9-512.jpg", "date": "2024-04-22T06:25:00.000+02:00", "lat": 53.55, "lon": 10.0, "intensity": 0.8, "source": "Tagesschau"}, {"title": "A27 bei Bremerhaven ab heute tagelang nur einspurig befahrbar", "url": "https://www.tagesschau.de/inland/regional/bremen/rb-a27-bei-bremerhaven-ab-heute-tagelang-nur-einspurig-befahrbar-102.html", "thumbnailUrl": "https://images.tagesschau.de/image/ee476b0f-e327-4f12-b09a-3fb224dba3a5/AAABjwYmW88/AAABjcWesUg/16x9-512.jpg", "date": "2024-04-22T06:16:00.000+02:00", "lat": 53.5444, "lon": 8.5822, "intensity": 0.6, "source": "Tagesschau"}, {"title": "Im Haushalt, im Garten und auf Reisen: Tipps zum Wassersparen", "url": "https://www.tagesschau.de/inland/regional/brandenburg/rbb-im-haushalt-im-garten-und-auf-reisen-tipps-zum-wassersparen-100.html", "thumbnailUrl": "https://images.tagesschau.de/image/ee88c312-6a65-48ba-afc3-007404ed1983/AAABjwYr8o0/AAABjcWesUg/16x9-512.jpg", "date": "2024-04-22T06:06:33.000+02:00", "lat": 52.520008, "lon": 13.404954, "intensity": 0.3, "source": "Tagesschau"}, {"title": "Neue Kinderfu\u00dfball-Regeln: Eine Diskussion ums Verlieren und den Spa\u00df am Sport", "url": "https://www.tagesschau.de/inland/regional/nordrheinwestfalen/wdr-neue-kinderfussball-regeln-eine-diskussion-ums-verlieren-und-den-spass-am-sport-100.html", "thumbnailUrl": "https://images.tagesschau.de/image/562b246b-6255-4a87-8042-671113bf8ee9/AAABjwVn0p0/AAABjcWesUg/16x9-512.jpg", "date": "2024-04-22T06:00:00.000+02:00", "lat": 51.4923, "lon": 7.6261, "intensity": 0.5, "source": "Tagesschau"}, {"title": "Staatstheater Schwerin: Gro\u00dfes Haus schlie\u00dft 2025 wegen Bauarbeiten", "url": "https://www.tagesschau.de/inland/regional/mecklenburgvorpommern/ndr-staatstheater-schwerin-grosses-haus-schliesst-2025-wegen-bauarbeiten-100.html", "thumbnailUrl": "https://images.tagesschau.de/image/4bea5f35-88f2-4a92-8408-68672bf3c6bd/AAABjwQC6TY/AAABjcWesUg/16x9-512.jpg", "date": "2024-04-22T06:00:00.000+02:00", "lat": 53.6291, "lon": 11.4013, "intensity": 0.5, "source": "Tagesschau"}, {"title": "Welche Strategie verfolgt der Staatsanwalt?", "url": "https://www.tagesschau.de/ausland/amerika/alan-bragg-prozess-trump-100.html", "thumbnailUrl": "https://images.tagesschau.de/image/b63db269-a6d3-4dd9-8a05-9e2d48c5c25a/AAABjwMrqD0/AAABjcWesUg/16x9-512.jpg", "date": "2024-04-22T02:19:04.162+02:00", "lat": 37.0902, "lon": -95.7129, "intensity": 0.7, "source": "Tagesschau"}, {"title": "Zehntausende protestieren gegen Pr\u00e4sident Petro", "url": "https://www.tagesschau.de/ausland/amerika/kolumbien-demo-petro-100.html", "thumbnailUrl": "https://images.tagesschau.de/image/2a6b47c6-9408-442e-9948-6f7c56a41e7e/AAABjwMSoIE/AAABjcWesUg/16x9-512.jpg", "date": "2024-04-22T02:15:56.059+02:00", "lat": 4.710989, "lon": -74.081749, "intensity": 0.8, "source": "Tagesschau"}, {"title": "Linker Petro gewinnt Pr\u00e4sidentenwahl", "url": "https://www.tagesschau.de/ausland/amerika/kolumbien-wahl-praesident-103.html", "thumbnailUrl": "https://images.tagesschau.de/image/a0bbf2b2-f67c-4a1c-9fbc-d75318d567cc/AAABhnQ2Pjo/AAABjcWesUg/16x9-512.jpg", "date": "2024-04-22T02:15:55.537+02:00", "lat": 4.711, "lon": -74.0758, "intensity": 0.8, "source": "Tagesschau"}, {"title": "Vor 30 Jahren: Kaufhaus-Erpresser \"Dagobert\" wird geschnappt", "url": "https://www.tagesschau.de/inland/regional/hamburg/ndr-vor-30-jahren-kaufhaus-erpresser-dagobert-wird-geschnappt-100.html", "thumbnailUrl": "https://images.tagesschau.de/image/41ebce72-119b-47e4-a6ef-9c2ddeaeca9f/AAABjwSXJFw/AAABjcWesUg/16x9-512.jpg", "date": "2024-04-22T00:00:00.000+02:00", "lat": 53.5503, "lon": 10.0003, "intensity": 0.8, "source": "Tagesschau"}, {"title": "Britisches Parlament billigt Abschiebungen nach Ruanda", "url": "https://www.br.de/nachrichten/meldungen/index.html#n1", "thumbnailUrl": null, "date": "2024-04-23T03:12:47+02:00", "lat": 30.0444, "lon": 31.2357, "intensity": 0.8, "source": "Bayrischer Rundfunk"}, {"title": "FDP will laut Lindner nicht aus Ampel-Koalition aussteigen", "url": "https://www.br.de/nachrichten/meldungen/index.html#n2", "thumbnailUrl": null, "date": "2024-04-23T03:12:47+02:00", "lat": 33.5138, "lon": 36.2021, "intensity": 0.8, "source": "Bayrischer Rundfunk"}, {"title": "China weist Spionage-Vorwurf aus Deutschland zur\u00fcck", "url": "https://www.br.de/nachrichten/meldungen/index.html#n3", "thumbnailUrl": null, "date": "2024-04-23T03:12:47+02:00", "lat": 39.9334, "lon": 32.8597, "intensity": 0.8, "source": "Bayrischer Rundfunk"}, {"title": "Selenskyj fordert mehr Systeme zur Flugabwehr", "url": "https://www.br.de/nachrichten/meldungen/index.html#n4", "thumbnailUrl": null, "date": "2024-04-23T03:12:47+02:00", "lat": 52.520008, "lon": 13.404954, "intensity": 0.7, "source": "Bayrischer Rundfunk"}, {"title": "EU weitet Sanktionen gegen Iran aus", "url": "https://www.br.de/nachrichten/meldungen/index.html#n5", "thumbnailUrl": null, "date": "2024-04-23T03:12:47+02:00", "lat": 52.520008, "lon": 13.404954, "intensity": 0.6, "source": "Bayrischer Rundfunk"}, {"title": "In Taiwan bebt wieder die Erde - ohne gr\u00f6\u00dfere Folgen", "url": "https://www.br.de/nachrichten/meldungen/index.html#n6", "thumbnailUrl": null, "date": "2024-04-23T03:12:47+02:00", "lat": 48.135125, "lon": 11.581981, "intensity": 0.6, "source": "Bayrischer Rundfunk"}, {"title": "Lauterbach will Nierenspenden erleichtern", "url": "https://www.br.de/nachrichten/meldungen/index.html#n7", "thumbnailUrl": null, "date": "2024-04-23T03:12:47+02:00", "lat": 50.110922, "lon": 8.682127, "intensity": 0.8, "source": "Bayrischer Rundfunk"}, {"title": "Unicef beklagt katastrophale Zust\u00e4nde in Haiti", "url": "https://www.br.de/nachrichten/meldungen/index.html#n8", "thumbnailUrl": null, "date": "2024-04-23T03:12:47+02:00", "lat": 47.8684, "lon": 12.6394, "intensity": 0.8, "source": "Bayrischer Rundfunk"}, {"title": "Br\u00fcssel leitet weiteres Verfahren gegen TikTok ein", "url": "https://www.br.de/nachrichten/meldungen/index.html#n9", "thumbnailUrl": null, "date": "2024-04-23T03:12:47+02:00", "lat": 48.5844, "lon": 13.6722, "intensity": 0.8, "source": "Bayrischer Rundfunk"}, {"title": "Das Wetter: Viele Wolken und wenig Sonne, bis 11 Grad", "url": "https://www.br.de/nachrichten/meldungen/index.html#n10", "thumbnailUrl": null, "date": "2024-04-23T03:12:47+02:00", "lat": 53.5396, "lon": 8.5761, "intensity": 0.4, "source": "Bayrischer Rundfunk"}, {"title": "Zusammensto\u00df mit Tram: Radfahrer stirbt nach Unfall in Berlin-Wei\u00dfensee", "url": "https://www.rbb24.de/panorama/beitrag/2024/04/berlin-weissensee-radfahrer-unfall-getoetet.html", "thumbnailUrl": null, "date": "Mon, 22 Apr 2024 21:57:53 +0200", "lat": 52.5495, "lon": 13.4585, "intensity": 0.8, "source": "RBB"}, {"title": "Video | Kai Wegner im Studiogespr\u00e4ch: Keine schnelle Entlastung des Ma\u00dfregelvollzugs", "url": "https://www.rbb24.de/panorama/beitrag/av7/video-berlin-massregelvollzug-verwaltung-keine-schnelle-entlastung-moeglich.html", "thumbnailUrl": null, "date": "Mon, 22 Apr 2024 21:24:56 +0200", "lat": 52.414, "lon": 9.509, "intensity": 0.3, "source": "RBB"}, {"title": "Video | Bindungszulage f\u00fcr Lehrkr\u00e4fte: Kampf gegen Lehrermangel", "url": "https://www.rbb24.de/panorama/beitrag/av7/video-brandenburg-zulage-kampf-gegen-lehermangel-politik-bildungssystem.html", "thumbnailUrl": null, "date": "Mon, 22 Apr 2024 21:17:14 +0200", "lat": 53.5511, "lon": 9.9937, "intensity": 0.7, "source": "RBB"}, {"title": "Reizgas im KaDeWe verspr\u00fcht - mehrere Menschen erleiden Atemwegsreizungen", "url": "https://www.rbb24.de/panorama/beitrag/2024/04/kadewe-berlin-reizgas-versprueht-atemwegsreizungen.html", "thumbnailUrl": null, "date": "Mon, 22 Apr 2024 21:11:05 +0200", "lat": 52.5029, "lon": 13.3376, "intensity": 0.8, "source": "RBB"}, {"title": "Bei Ludwigsfelde: A10 nach Lkw-Unfall gesperrt - Diesel auf 600 Metern ausgelaufen", "url": "https://www.rbb24.de/panorama/beitrag/2024/04/berlin-brandenburg-a10-gesperrt-unfall-verletzte-dreieck-nuthethal.html", "thumbnailUrl": null, "date": "Mon, 22 Apr 2024 21:02:34 +0200", "lat": 52.2944, "lon": 13.2533, "intensity": 0.8, "source": "RBB"}, {"title": "Senat will laut Wegner \"unertr\u00e4gliche Situation\" im Ma\u00dfregelvollzug verbessern", "url": "https://www.rbb24.de/politik/beitrag/2024/04/berlin-regierender-kai-wegner-senat-situation-massregelvollzug.html", "thumbnailUrl": null, "date": "Mon, 22 Apr 2024 20:57:00 +0200", "lat": 52.5065, "lon": 13.3154, "intensity": 0.7, "source": "RBB"}, {"title": "Sepp-Herberger-Awards: Union-Spieler Robin Gosens f\u00fcr soziales Engagement geehrt", "url": "https://www.rbb24.de/sport/beitrag/2024/04/berlin-union-robin-gosens-preis.html", "thumbnailUrl": null, "date": "Mon, 22 Apr 2024 20:52:52 +0200", "lat": 52.5192, "lon": 13.4074, "intensity": 0.7, "source": "RBB"},