[{"title": "++ USA bekr\u00e4ftigen m\u00f6glichen Waffen-Stopp ++", "url": "https://www.tagesschau.de/newsticker/liveblog-nahost-freitag-134.html", "thumbnailUrl": "https://images.tagesschau.de/image/da260665-135b-41e5-badd-077af8be6158/AAABj2ALQXE/AAABjwnlKNc/16x9-512.jpg", "date": "2024-05-10T03:16:40.391+02:00", "lat": 31.7961, "lon": 35.2433, "intensity": 0.8, "source": "Tagesschau"}, {"title": "Ab 7 Uhr live: Der Blutritt in Weingarten", "url": "https://www.tagesschau.de/inland/regional/badenwuerttemberg/swr-auftakt-zum-blutritt-in-weingarten-100.html", "thumbnailUrl": "https://images.tagesschau.de/image/d1a56d0d-6c22-4dd6-ad1c-cec2ca6c1520/AAABj10eE_E/AAABjwnlKNc/16x9-512.jpg", "date": "2024-05-10T03:09:00.000+02:00", "lat": 47.8085, "lon": 9.6295, "intensity": 0.8, "source": "Tagesschau"}, {"title": "ESC in Malm\u00f6: Israel trotz Protesten im Finale", "url": "https://www.tagesschau.de/inland/regional/nordrheinwestfalen/wdr-esc-halbfinale-in-malmoe-warum-demos-gegen-den-israel-auftritt-erwartet-werden-100.html", "thumbnailUrl": "https://images.tagesschau.de/image/bdc4c91d-779b-4481-a421-32d39a742460/AAABj1_Xrrs/AAABjwnlKNc/16x9-512.jpg", "date": "2024-05-10T02:09:00.000+02:00", "lat": 55.6044, "lon": 13.1038, "intensity": 0.8, "source": "Tagesschau"}, {"title": "Xi und Orban vereinbaren \"strategische Partnerschaft\"", "url": "https://www.tagesschau.de/ausland/europa/xi-orban-ungarn-100.html", "thumbnailUrl": "https://images.tagesschau.de/image/5b8c95a1-7cb1-4448-927b-d9bf298089b8/AAABj19zOmc/AAABjwnlKNc/16x9-512.jpg", "date": "2024-05-10T00:22:18.501+02:00", "lat": 47.4979, "lon": 19.0402, "intensity": 0.8, "source": "Tagesschau"}, {"title": "Israel steht im ESC-Finale", "url": "https://www.tagesschau.de/ausland/europa/demonstrationen-schweden-esc-israel-102.html", "thumbnailUrl": "https://images.tagesschau.de/image/723919bc-385d-44d4-b29d-07b4e7ad2a4d/AAABj19mSHI/AAABjwnlKNc/16x9-512.jpg", "date": "2024-05-10T00:08:53.746+02:00", "lat": 55.703, "lon": 13.0878, "intensity": 0.8, "source": "Tagesschau"}, {"title": "++ Netanyahu will zur Not auch alleine k\u00e4mpfen ++", "url": "https://www.tagesschau.de/newsticker/liveblog-nahost-donnerstag-134.html", "thumbnailUrl": "https://images.tagesschau.de/image/548876ff-bf1d-4855-a0f9-09e8d8b36fa3/AAABjuKUAp8/AAABjwnlKNc/16x9-512.jpg", "date": "2024-05-09T23:31:00.895+02:00", "lat": 31.7683, "lon": 35.2137, "intensity": 0.8, "source": "Tagesschau"}, {"title": "++ Selenskyj entl\u00e4sst Chef der Leibwache ++", "url": "https://www.tagesschau.de/newsticker/liveblog-ukraine-donnerstag-340.html", "thumbnailUrl": "https://images.tagesschau.de/image/645f3586-0d52-44e8-b0e2-653314540ee3/AAABj0PIY8c/AAABjwnlKNc/16x9-512.jpg", "date": "2024-05-09T23:30:10.349+02:00", "lat": 50.4501, "lon": 30.5234, "intensity": 0.8, "source": "Tagesschau"}, {"title": "Leverkusen gelingt Einzug in Europa-League-Finale", "url": "https://www.tagesschau.de/sport/europa-league-leverkusen-104.html", "thumbnailUrl": "https://images.tagesschau.de/image/3d2899aa-3402-466d-a352-a68bd2d2f2b4/AAABj185xF8/AAABjwnlKNc/16x9-512.jpg", "date": "2024-05-09T23:21:15.424+02:00", "lat": 50.9384, "lon": 6.9884, "intensity": 0.8, "source": "Tagesschau"}, {"title": "Drei t\u00f6dliche Motorradunf\u00e4lle am Vatertag in der N\u00e4he der Mosel", "url": "https://www.tagesschau.de/inland/regional/rheinlandpfalz/swr-zwei-toedliche-motorradunfaelle-an-vatertag-in-der-naehe-der-mosel-100.html", "thumbnailUrl": "https://images.tagesschau.de/image/22a98327-758c-47d7-90e7-3ab4cb58c2e5/AAABj15a2SA/AAABjwnlKNc/16x9-512.jpg", "date": "2024-05-09T22:21:00.000+02:00", "lat": 49.8153, "lon": 7.27, "intensity": 0.8, "source": "Tagesschau"}, {"title": "Kultur: +++ documenta: Ex-Oberb\u00fcrgermeister warnen vor B\u00fcrokratisierung +++ Techno-Party am Herkules +++  Preis \"Kulturlichter\" wird in Frankfurt vergeben +++ ", "url": "https://www.tagesschau.de/inland/regional/hessen/hr--schauspiel-frankfurt-bringt-putin-und-macbeth-zusammen--die-filmfestival-saison-2023-startet--lichter-filmfest-zum-thema-liebe-startet-am-dienstag-100.html", "thumbnailUrl": "https://images.tagesschau.de/image/69d3583c-f5d7-4e22-a412-56199a6b2a5b/AAABj1ipgGY/AAABjwnlKNc/16x9-512.jpg", "date": "2024-05-09T22:08:26.996+02:00", "lat": 50.1109, "lon": 8.5683, "intensity": 0.4, "source": "Tagesschau"}, {"title": "Drei HIMARS-Raketenwerfer f\u00fcr die Ukraine", "url": "https://www.tagesschau.de/ausland/amerika/pistorius-usa-himars-ukraine-100.html", "thumbnailUrl": "https://images.tagesschau.de/image/f51ffa13-3e99-4176-8686-57f6eeb34975/AAABj19CYR0/AAABjwnlKNc/16x9-512.jpg", "date": "2024-05-09T21:45:59.559+02:00", "lat": 50.4501, "lon": 30.5234, "intensity": 0.8, "source": "Tagesschau"}, {"title": "Hoher Schaden nach Gro\u00dfbrand in Bitburger Industriegebiet", "url": "https://www.tagesschau.de/inland/regional/rheinlandpfalz/swr-grossbrand-in-bitburger-industriegebiet-102.html", "thumbnailUrl": "https://images.tagesschau.de/image/8ff81a65-cca4-4aa5-96e6-ef1ad186d1d7/AAABj17n0Jc/AAABjwnlKNc/16x9-512.jpg", "date": "2024-05-09T21:37:00.000+02:00", "lat": 49.9675, "lon": 6.5292, "intensity": 0.8, "source": "Tagesschau"}, {"title": "\"Maxton Hall\" bei Prime: Serie zum Roman \"Save Me\" von Mona Kasten", "url": "https://www.tagesschau.de/inland/regional/hamburg/ndr-maxton-hall-bei-prime-serie-zum-roman-save-me-von-mona-kasten-100.html", "thumbnailUrl": "https://images.tagesschau.de/image/c79e7c81-da04-4b55-bc31-36c4c06e8105/AAABj15P4PQ/AAABjwnlKNc/16x9-512.jpg", "date": "2024-05-09T21:31:00.000+02:00", "lat": 53.5511, "lon": 9.9937, "intensity": 0.6, "source": "Tagesschau"}, {"title": "Fl\u00fcchtige Rinder aus Ober-M\u00f6rlen eingefangen", "url": "https://www.tagesschau.de/inland/regional/hessen/hr-fluechtige-rinder-aus-ober-moerlen-entdeckt-fangversuch-am-donnerstag-100.html", "thumbnailUrl": "https://images.tagesschau.de/image/6293a192-f669-4f41-a3eb-5c19ba035613/AAABj17TwxM/AAABjwnlKNc/16x9-512.jpg", "date": "2024-05-09T21:26:07.022+02:00", "lat": 50.3756, "lon": 8.7304, "intensity": 0.5, "source": "Tagesschau"}, {"title": "Hamburger Hafengeburtstag 2024 mit Einlaufparade gestartet", "url": "https://www.tagesschau.de/inland/regional/hamburg/ndr-hamburger-hafengeburtstag-2024-heute-auftakt-mit-einlaufparade-100.html", "thumbnailUrl": "https://images.tagesschau.de/image/5c7c6ca0-7e59-47bd-8a0a-9691f0d09273/AAABj16GzXI/AAABjwnlKNc/16x9-512.jpg", "date": "2024-05-09T20:59:00.000+02:00", "lat": 53.5511, "lon": 9.9937, "intensity": 0.8, "source": "Tagesschau"}, {"title": "Live: Leverkusen gegen AS Rom", "url": "https://www.sportschau.de/live-und-ergebnisse/fussball/uefa-europa-league/ma10158818/bayer-leverkusen_as-rom/liveticker/", "thumbnailUrl": "https://images.tagesschau.de/image/157ced03-085c-445e-a360-2a672a4d2fad/AAABj0TdIuI/AAABjwnlKNc/16x9-512.jpg", "date": "2024-05-09T20:43:07.283+02:00", "lat": 51.045, "lon": 7.0364, "intensity": 0.7, "source": "Tagesschau"}, {"title": "Reiseverkehr in NRW: Staugefahr und volle Z\u00fcge am langen Wochenende", "url": "https://www.tagesschau.de/inland/regional/nordrheinwestfalen/wdr-reiseverkehr-in-nrw-viele-staus-und-volle-zuege-zu-christi-himmelfahrt-102.html", "thumbnailUrl": "https://images.tagesschau.de/image/839dae1e-5d9a-431d-813f-1d88a2c40c60/AAABj160ilc/AAABjwnlKNc/16x9-512.jpg", "date": "2024-05-09T20:43:00.000+02:00", "lat": 51.8133, "lon": 7.6261, "intensity": 0.6, "source": "Tagesschau"}, {"title": "Frankfurts Ex-OB Petra Roth: Ehrenprofessur des Landes Hessen zum 80. Geburtstag", "url": "https://www.tagesschau.de/inland/regional/hessen/hr-frankfurts-ex-ob-petra-roth-ehrenprofessur-des-landes-hessen-zum-80-geburtstag-100.html", "thumbnailUrl": "https://images.tagesschau.de/image/b3962180-68a6-4318-ba80-b8c8ee518fdc/AAABj16kFeo/AAABjwnlKNc/16x9-512.jpg", "date": "2024-05-09T20:35:04.723+02:00", "lat": 50.1109, "lon": 8.6821, "intensity": 0.7, "source": "Tagesschau"}, {"title": "Ein Katastrophe - auch f\u00fcr die Kultur", "url": "https://www.tagesschau.de/ausland/amerika/brasilien-hochwasser-uerberschwemmungen-100.html", "thumbnailUrl": "https://images.tagesschau.de/image/b05af744-fa1d-4d30-94fe-381c7fbcec21/AAABj16cqYE/AAABjwnlKNc/16x9-512.jpg", "date": "2024-05-09T20:35:02.266+02:00", "lat": -15.7801, "lon": -47.9292, "intensity": 0.9, "source": "Tagesschau"}, {"title": "Hamburger Feuerwehr l\u00f6scht Tankstellenbrand in Hammerbrook", "url": "https://www.tagesschau.de/inland/regional/hamburg/ndr-hamburger-feuerwehr-loescht-tankstellenbrand-in-hammerbrook-100.html", "thumbnailUrl": "https://images.tagesschau.de/image/b9bf57ac-1208-47dc-92eb-765649a85fd5/AAABj1zPaDg/AAABjwnlKNc/16x9-512.jpg", "date": "2024-05-09T20:18:00.000+02:00", "lat": 53.5436, "lon": 10.0128, "intensity": 0.8, "source": "Tagesschau"}, {"title": "Zehnter DFB-Pokal-Titel in Serie: Wolfsburgs Frauen bezwingen Bayern M\u00fcnchen", "url": "https://www.tagesschau.de/inland/regional/niedersachsen/ndr-zehnter-dfb-pokal-titel-in-serie-wolfsburgs-frauen-bezwingen-bayern-muenchen-102.html", "thumbnailUrl": "https://images.tagesschau.de/image/a9caa5f5-0886-4250-9cef-4a9874676f3d/AAABj155_p4/AAABjwnlKNc/16x9-512.jpg", "date": "2024-05-09T20:03:00.000+02:00", "lat": 52.3759, "lon": 10.7393, "intensity": 0.8, "source": "Tagesschau"}, {"title": "Protest gegen israelische Teilnahme am ESC", "url": "https://www.tagesschau.de/ausland/europa/demonstrationen-schweden-esc-israel-100.html", "thumbnailUrl": "https://images.tagesschau.de/image/816cf9c5-1cb3-437a-ac05-78b31ada13a5/AAABj16Fs5E/AAABjwnlKNc/16x9-512.jpg", "date": "2024-05-09T20:02:52.267+02:00", "lat": 55.8615, "lon": 13.0878, "intensity": 0.8, "source": "Tagesschau"}, {"title": "Kind bei Unfall auf Campingplatz schwer verletzt", "url": "https://www.tagesschau.de/inland/regional/niedersachsen/ndr-kind-bei-unfall-auf-campingplatz-schwer-verletzt-100.html", "thumbnailUrl": "https://images.tagesschau.de/image/f9927396-7cda-456f-9f87-aa73601c8622/AAABj15_fA0/AAABjwnlKNc/16x9-512.jpg", "date": "2024-05-09T19:42:00.000+02:00", "lat": 52.4849, "lon": 7.0481, "intensity": 0.8, "source": "Tagesschau"}, {"title": "documenta: Ex-Oberb\u00fcrgermeister warnen vor zunehmender B\u00fcrokratie", "url": "https://www.tagesschau.de/inland/regional/hessen/hr-documenta-ex-oberbuergermeister-warnen-vor-zunehmender-buerokratie-100.html", "thumbnailUrl": "https://images.tagesschau.de/image/2f91803f-e53d-436b-9efa-f0d577b51d58/AAABj16Rw9k/AAABjwnlKNc/16x9-512.jpg", "date": "2024-05-09T19:33:33.211+02:00", "lat": 51.3127, "lon": 9.4969, "intensity": 0.6, "source": "Tagesschau"}, {"title": "W\u00e4hlen ab 16 Jahren: Ein Besuch in der Europaschule Worms", "url": "https://www.tagesschau.de/inland/regional/rheinlandpfalz/swr-waehlen-ab-16-jahren-ein-besuch-in-der-europaschule-worms-102.html", "thumbnailUrl": "https://images.tagesschau.de/image/7dd58949-2e63-486b-b69d-9bddc7c18767/AAABj15lzpA/AAABjwnlKNc/16x9-512.jpg", "date": "2024-05-09T19:18:37.000+02:00", "lat": 49.6337, "lon": 8.3554, "intensity": 0.5, "source": "Tagesschau"}, {"title": "75 Jahre Grundgesetz: Bundeswehr-Rekruten legen Gel\u00f6bnis vor Berliner Abgeordnetenhaus ab", "url": "https://www.tagesschau.de/inland/regional/berlin/rbb-75-jahre-grundgesetz-bundeswehr-rekruten-legen-geloebnis-vor-berliner-abgeordnetenhaus-ab-100.html", "thumbnailUrl": "https://images.tagesschau.de/image/ee05ff3e-7c18-4251-af66-bb52e7431eb8/AAABj15a7GA/AAABjwnlKNc/16x9-512.jpg", "date": "2024-05-09T19:11:53.000+02:00", "lat": 52.5166, "lon": 13.3769, "intensity": 0.7, "source": "Tagesschau"}, {"title": "Vatertag 2024: Viel Alkohol, aber keine gr\u00f6\u00dferen Zwischenf\u00e4lle", "url": "https://www.tagesschau.de/inland/regional/niedersachsen/ndr-vatertag-2024-in-niedersachsen-appell-an-eltern-und-jugendliche-102.html", "thumbnailUrl": "https://images.tagesschau.de/image/c99b29c4-8973-4fbe-8de0-93644fe7669e/AAABj15ZD18/AAABjwnlKNc/16x9-512.jpg", "date": "2024-05-09T19:11:00.000+02:00", "lat": 51.71308, "lon": 9.73201, "intensity": 0.3, "source": "Tagesschau"}, {"title": "Erste Frau an der Kanu-Verbandsspitze: \"Ich m\u00f6chte das weibliche Bild immer gleichwertig mit in den Vordergrund r\u00fccken\"", "url": "https://www.tagesschau.de/inland/regional/brandenburg/rbb-erste-frau-an-der-kanu-verbandsspitze-ich-moechte-das-weibliche-bild-immer-gleichwertig-mit-in-den-vordergrund-ruecken-102.html", "thumbnailUrl": "https://images.tagesschau.de/image/5140ba3f-dcb9-4e87-a28d-1fc976503fe5/AAABj15Mfcg/AAABjwnlKNc/16x9-512.jpg", "date": "2024-05-09T19:05:32.000+02:00", "lat": 52.3906, "lon": 13.0645, "intensity": 0.8, "source": "Tagesschau"}, {"title": "MV-Trend: AfD trotz Verlusten Nummer 1 - BSW auf Anhieb zweistellig", "url": "https://www.tagesschau.de/inland/regional/mecklenburgvorpommern/ndr-mv-trend-afd-trotz-verlusten-nummer-1-bsw-auf-anhieb-zweistellig-100.html", "thumbnailUrl": "https://images.tagesschau.de/image/39e1685d-bf91-4c07-8e8b-cf6a5c4ec97b/AAABj15MLwY/AAABjwnlKNc/16x9-512.jpg", "date": "2024-05-09T19:00:00.000+02:00", "lat": 53.6127, "lon": 13.2847, "intensity": 0.7, "source": "Tagesschau"}, {"title": "Camping in Sachsen bundesweit der Renner", "url": "https://www.tagesschau.de/inland/regional/sachsen/mdr-camping-in-sachsen-bundesweit-der-renner-100.html", "thumbnailUrl": "https://images.tagesschau.de/image/6dc6091b-ad58-4c7d-ac56-93a1804e4fb5/AAABj1897I8/AAABjwnlKNc/16x9-512.jpg", "date": "2024-05-09T18:40:09.000+02:00", "lat": 51.0795, "lon": 13.7373, "intensity": 0.6, "source": "Tagesschau"}, {"title": "Haseloff gegen Pflichtbesuche f\u00fcr Sch\u00fcler in KZ-Gedenkst\u00e4tten", "url": "https://www.tagesschau.de/inland/regional/sachsenanhalt/mdr-haseloff-gegen-pflichtbesuche-fuer-schueler-in-kz-gedenkstaetten-102.html", "thumbnailUrl": "https://images.tagesschau.de/image/a30ce08a-5c1d-44fe-8f9e-4305381ed094/AAABj18_wcc/AAABjwnlKNc/16x9-512.jpg", "date": "2024-05-09T18:24:03.000+02:00", "lat": 52.1316, "lon": 11.5843, "intensity": 0.8, "source": "Tagesschau"}, {"title": "Eintracht: +++ Chaibi deutlich: \"Wichtigste Spiel der Saison\" +++ Nur van de Beek fehlt +++ Ex-Frankfurter Joselu schie\u00dft Real ins CL-Finale +++", "url": "https://www.tagesschau.de/inland/regional/hessen/hr--eintracht-wohl-mit-chaibi-einig--glasner-fast-nur-kolo-muani-der-tore-erzielt--bericht-eintracht-sagt-aouar-ab-100.html", "thumbnailUrl": "https://images.tagesschau.de/image/4d921e4e-2eb2-4208-8983-ae80889f525b/AAABj14lw-Y/AAABjwnlKNc/16x9-512.jpg", "date": "2024-05-09T18:17:44.490+02:00", "lat": 50.110922, "lon": 8.682127, "intensity": 0.6, "source": "Tagesschau"}, {"title": "Wolfsburger Fu\u00dfballerinnen gewinnen den DFB-Pokal", "url": "https://www.tagesschau.de/sport/fussball-frauen-wolfsburg-bayern-100.html", "thumbnailUrl": "https://images.tagesschau.de/image/e37cd4e4-5a6e-49e4-89b0-153ea10576c4/AAABj14bZck/AAABjwnlKNc/16x9-512.jpg", "date": "2024-05-09T18:06:45.274+02:00", "lat": 52.4226, "lon": 10.7755, "intensity": 0.8, "source": "Tagesschau"}, {"title": "Frauen der SV Elversberg holen den Saarlandpokal ", "url": "https://www.tagesschau.de/inland/regional/saarland/sr-frauen-der-sv-elversberg-holen-den-saarlandpokal-102.html", "thumbnailUrl": "https://images.tagesschau.de/image/a5126103-af11-433d-8fa6-c8d8db933231/AAABj14eY2Y/AAABjwnlKNc/16x9-512.jpg", "date": "2024-05-09T18:06:00.000+02:00", "lat": 49.3328, "lon": 7.0888, "intensity": 0.6, "source": "Tagesschau"}, {"title": "\"Immer internationaler\": Neuharlingersiel l\u00e4dt zur Bo\u00dfel-EM", "url": "https://www.tagesschau.de/inland/regional/niedersachsen/ndr-immer-internationaler-neuharlingersiel-laedt-zur-bossel-em-100.html", "thumbnailUrl": "https://images.tagesschau.de/image/1c9ecb75-484c-43c9-93ba-c4e8a4b12cf1/AAABj14coSs/AAABjwnlKNc/16x9-512.jpg", "date": "2024-05-09T18:03:00.000+02:00", "lat": 53.688245, "lon": 7.573791, "intensity": 0.3, "source": "Tagesschau"}, {"title": "\"Tuning World Bodensee\" in Friedrichshafen: Polizei stoppt Autos", "url": "https://www.tagesschau.de/inland/regional/badenwuerttemberg/swr-tuning-world-bodensee-in-friedrichshafen-polizei-stoppt-autos-100.html", "thumbnailUrl": "https://images.tagesschau.de/image/5f93b881-85b9-400a-8cb1-5f44486f2ba1/AAABj1y3iG4/AAABjwnlKNc/16x9-512.jpg", "date": "2024-05-09T17:58:00.000+02:00", "lat": 47.65423, "lon": 9.47444, "intensity": 0.7, "source": "Tagesschau"}, {"title": "Heringstage mit Plattdeutsch-Gala, Loktrekken und SUP-Rennen", "url": "https://www.tagesschau.de/inland/regional/schleswigholstein/ndr-heringstage-mit-plattdeutsch-gala-loktrekken-und-sup-rennen-100.html", "thumbnailUrl": "https://images.tagesschau.de/image/4e82f36a-ca4f-4342-959e-9678f77015f1/AAABj14RnsM/AAABjwnlKNc/16x9-512.jpg", "date": "2024-05-09T17:54:00.000+02:00", "lat": 54.6568, "lon": 9.5652, "intensity": 0.6, "source": "Tagesschau"}, {"title": "Kommunalwahl in Rostock: Die B\u00fcrgerschaft der Hansestadt", "url": "https://www.tagesschau.de/inland/regional/mecklenburgvorpommern/ndr-kommunalwahl-in-rostock-die-buergerschaft-der-hansestadt-102.html", "thumbnailUrl": "https://images.tagesschau.de/image/d0d0b1ae-74d7-4f2a-a58a-adeba0d028c7/AAABj14Ic6c/AAABjwnlKNc/16x9-512.jpg", "date": "2024-05-09T17:40:00.000+02:00", "lat": 54.083, "lon": 12.099, "intensity": 0.6, "source": "Tagesschau"}, {"title": "Erneut Generalstreik gegen Mileis Sparkurs", "url": "https://www.tagesschau.de/ausland/amerika/argentinien-generalstreik-106.html", "thumbnailUrl": "https://images.tagesschau.de/image/9b7d4958-f9f5-434c-bd95-67fc7eb9b250/AAABj16_IKQ/AAABjwnlKNc/16x9-512.jpg", "date": "2024-05-09T17:33:18.227+02:00", "lat": -38.4161, "lon": -63.6167, "intensity": 0.8, "source": "Tagesschau"}, {"title": "Viel los zu Himmelfahrt auf den norddeutschen Autobahnen", "url": "https://www.tagesschau.de/inland/regional/niedersachsen/ndr-himmelfahrt-adac-rechnet-mit-vielen-staus-am-mittwoch-100.html", "thumbnailUrl": "https://images.tagesschau.de/image/030b6ff1-e40c-4ea5-a3c9-288299ff6758/AAABj15Vbn8/AAABjwnlKNc/16x9-512.jpg", "date": "2024-05-09T17:19:00.000+02:00", "lat": 52.6367, "lon": 10.3819, "intensity": 0.8, "source": "Tagesschau"}, {"title": "36 Jahre nach Grubenungl\u00fcck in Borken: Rettungsgondel auf M\u00fclldeponie entdeckt", "url": "https://www.tagesschau.de/inland/regional/hessen/hr-36-jahre-nach-grubenunglueck-rettungsgondel-von-stolzenbach-wieder-aufgetaucht-100.html", "thumbnailUrl": "https://images.tagesschau.de/image/8a6aceda-1f81-47ea-9436-360c3b58cc2c/AAABj13rKxQ/AAABjwnlKNc/16x9-512.jpg", "date": "2024-05-09T17:13:39.697+02:00", "lat": 51.0347, "lon": 9.2944, "intensity": 0.8, "source": "Tagesschau"}, {"title": "Angriff auf AfD-Abgeordnete vor Landtag in Stuttgart: Zwei Politiker leicht verletzt ", "url": "https://www.tagesschau.de/inland/regional/badenwuerttemberg/swr-afd-politiker-vor-stuttgarter-landtag-leicht-verletzt-100.html", "thumbnailUrl": "https://images.tagesschau.de/image/4c6d129f-e7cf-4ae4-bd6f-2c7a36f0eced/AAABj1zjc4U/AAABjwnlKNc/16x9-512.jpg", "date": "2024-05-09T17:12:00.000+02:00", "lat": 48.7758, "lon": 9.177, "intensity": 0.7, "source": "Tagesschau"}, {"title": "Die Gefahren werden komplexer", "url": "https://www.tagesschau.de/inland/innenpolitik/wehrpflicht-112.html", "thumbnailUrl": "https://images.tagesschau.de/image/c392ceb4-eb40-454d-b63f-b6d41df95d5c/AAABjxXMOq8/AAABjwnlKNc/16x9-512.jpg", "date": "2024-05-09T17:11:46.709+02:00", "lat": 51.5413, "lon": 9.9876, "intensity": 0.8, "source": "Tagesschau"}, {"title": "Himmelfahrt: Wie wird das Wetter im Norden am langen Wochenende?", "url": "https://www.tagesschau.de/inland/regional/niedersachsen/ndr-himmelfahrt-wie-wird-das-wetter-im-norden-am-langen-wochenende-100.html", "thumbnailUrl": "https://images.tagesschau.de/image/42f6ca4c-e9d2-4786-87dc-45f1163b8c02/AAABj15VabM/AAABjwnlKNc/16x9-512.jpg", "date": "2024-05-09T16:52:00.000+02:00", "lat": 52.4, "lon": 9.7, "intensity": 0.4, "source": "Tagesschau"}, {"title": "Oder-Abzweig: Viele tote Fische im Gleiwitzer Kanal in Polen entdeckt", "url": "https://www.tagesschau.de/inland/regional/brandenburg/rbb-oder-abzweig-viele-tote-fische-im-gleiwitzer-kanal-in-polen-entdeckt-100.html", "thumbnailUrl": "https://images.tagesschau.de/image/0f3090fa-bb6c-4fbb-8b23-75fcdac53537/AAABj13Y4Jk/AAABjwnlKNc/16x9-512.jpg", "date": "2024-05-09T16:48:59.000+02:00", "lat": 50.3, "lon": 18.6667, "intensity": 0.8, "source": "Tagesschau"}, {"title": "Erwischt: Mit Haftbefehl gesuchter Mann f\u00e4hrt betrunken Auto", "url": "https://www.tagesschau.de/inland/regional/niedersachsen/ndr-erwischt-mit-haftbefehl-gesuchter-mann-faehrt-betrunken-auto-100.html", "thumbnailUrl": "https://images.tagesschau.de/image/40a6dbc7-389e-4d46-800e-378c33a13349/AAABj13XEks/AAABjwnlKNc/16x9-512.jpg", "date": "2024-05-09T16:47:00.000+02:00", "lat": 53.3294, "lon": 8.4806, "intensity": 0.7, "source": "Tagesschau"}, {"title": "Wetterlage und Temperaturen", "url": "https://www.tagesschau.de/wetter/europa-welt", "thumbnailUrl": "https://images.tagesschau.de/image/6e7d3b16-79c8-4308-822b-20c3035236b5/AAABj13MXVY/AAABjwnlKNc/16x9-512.jpg", "date": "2024-05-09T16:46:01.406+02:00", "lat": 51.1657, "lon": 10.4515, "intensity": 0.3, "source": "Tagesschau"}, {"title": "Zehn Verletzte bei Unfall einer Boeing im Senegal", "url": "https://www.tagesschau.de/ausland/afrika/boeing-unfall-senegal-100.html", "thumbnailUrl": "https://images.tagesschau.de/image/7f82c3bd-94fa-40fe-aee9-b1c68d1929db/AAABj14PJ_M/AAABjwnlKNc/16x9-512.jpg", "date": "2024-05-09T16:31:10.854+02:00", "lat": 14.6928, "lon": -17.4439, "intensity": 0.8, "source": "Tagesschau"}, {"title": "Freiwillige h\u00e4keln Kuschelkraken f\u00fcr Fr\u00fchchen", "url": "https://www.tagesschau.de/inland/regional/sachsenanhalt/mdr-freiwillige-haekeln-kuschelkraken-fuer-fruehchen-100.html", "thumbnailUrl": "https://images.tagesschau.de/image/96eb6d14-b6b9-403f-a664-be2800c5b287/AAABj19AINU/AAABjwnlKNc/16x9-512.jpg", "date": "2024-05-09T16:27:31.000+02:00", "lat": 51.482, "lon": 11.587, "intensity": 0.5, "source": "Tagesschau"}, {"title": "Jung, qualifiziert, arbeitslos", "url": "https://www.tagesschau.de/wirtschaft/arbeitsmarkt/italien-jugendarbeitslosigkeit-100.html", "thumbnailUrl": "https://images.tagesschau.de/image/4857fa63-b664-4336-862e-86d078363b82/AAABj02BDBc/AAABjwnlKNc/16x9-512.jpg", "date": "2024-05-09T16:22:46.918+02:00", "lat": 41.8719, "lon": 12.5674, "intensity": 0.8, "source": "Tagesschau"}, {"title": "Vorderreifen platzt: Boeing-Flugzeug aus K\u00f6ln/Bonn landet in T\u00fcrkei", "url": "https://www.tagesschau.de/inland/regional/nordrheinwestfalen/wdr-vorderreifen-platzt-boeing-flugzeug-aus-koelnbonn-landet-in-tuerkei-100.html", "thumbnailUrl": "https://images.tagesschau.de/image/f8ee0e01-a2d2-48b9-af04-1ea09b64f0ff/AAABj129cHI/AAABjwnlKNc/16x9-512.jpg", "date": "2024-05-09T16:20:00.000+02:00", "lat": 36.544439, "lon": 31.795865, "intensity": 0.8, "source": "Tagesschau"}, {"title": "Gr\u00fcnheide (Oder-Spree): Mehrere hundert Menschen demonstrieren gegen Ausbau von Tesla-Fabrik", "url": "https://www.tagesschau.de/inland/regional/brandenburg/rbb-gruenheide-oder-spree-mehrere-hundert-menschen-demonstrieren-gegen-ausbau-von-tesla-fabrik-100.html", "thumbnailUrl": "https://images.tagesschau.de/image/41c009f4-0413-4591-a39e-4784462ae656/AAABj120OOw/AAABjwnlKNc/16x9-512.jpg", "date": "2024-05-09T16:08:52.000+02:00", "lat": 52.3611, "lon": 13.8472, "intensity": 0.6, "source": "Tagesschau"}, {"title": "Deutsches Derby lockt Reitelite nach Hamburg-Klein Flottbek", "url": "https://www.tagesschau.de/inland/regional/hamburg/ndr-deutsches-derby-lockt-reitelite-nach-hamburg-klein-flottbek-102.html", "thumbnailUrl": "https://images.tagesschau.de/image/0f1b258f-eaf2-4b21-be36-7c53cc34ccc6/AAABj13iEuM/AAABjwnlKNc/16x9-512.jpg", "date": "2024-05-09T16:08:00.000+02:00", "lat": 53.5796, "lon": 9.8963, "intensity": 0.8, "source": "Tagesschau"}, {"title": "Klein Flottbek: David Will siegt im Championat von Hamburg", "url": "https://www.tagesschau.de/inland/regional/hamburg/ndr-klein-flottbek-david-will-triumphiert-im-championat-von-hamburg-104.html", "thumbnailUrl": "https://images.tagesschau.de/image/11703884-2ef2-4844-a7a9-29f282aee782/AAABj13yezw/AAABjwnlKNc/16x9-512.jpg", "date": "2024-05-09T16:03:00.000+02:00", "lat": 53.566929, "lon": 9.889575, "intensity": 0.7, "source": "Tagesschau"}, {"title": "Mit Lust und Ehrgeiz: 83-j\u00e4hriger Rettungsschwimmer tritt bei Deutschen Meisterschaften an", "url": "https://www.tagesschau.de/inland/regional/thueringen/mdr-mit-lust-und-ehrgeiz-83-jaehriger-rettungsschwimmer-tritt-bei-deutschen-meisterschaften-an-100.html", "thumbnailUrl": "https://images.tagesschau.de/image/2b7973a1-05f6-4fb7-ac1c-d2a74d72221d/AAABj188dqs/AAABjwnlKNc/16x9-512.jpg", "date": "2024-05-09T16:00:30.000+02:00", "lat": 51.1657, "lon": 10.5686, "intensity": 0.8, "source": "Tagesschau"}, {"title": "Eintracht-Offensive lahmt: Chaibi und Marmoush schw\u00e4cheln", "url": "https://www.tagesschau.de/inland/regional/hessen/hr-eintracht-offensive-lahmt-chaibi-und-marmoush-schwaecheln-102.html", "thumbnailUrl": "https://images.tagesschau.de/image/9c46660e-84b9-43f8-b7ff-c4c21d8d2fd4/AAABj1237oo/AAABjwnlKNc/16x9-512.jpg", "date": "2024-05-09T15:55:09.776+02:00", "lat": 50.1109, "lon": 8.6821, "intensity": 0.6, "source": "Tagesschau"}, {"title": "Anwalt: Haft und Peitschenhiebe f\u00fcr Berlinale-Gewinner Rassulof", "url": "https://www.tagesschau.de/inland/regional/berlin/rbb-anwalt-haft-und-peitschenhiebe-fuer-berlinale-gewinner-rassulof-100.html", "thumbnailUrl": "https://images.tagesschau.de/image/d01e1ecf-4519-4ef6-88cb-3174cc64863c/AAABj12iAos/AAABjwnlKNc/16x9-512.jpg", "date": "2024-05-09T15:48:15.000+02:00", "lat": 52.520008, "lon": 13.404954, "intensity": 0.7, "source": "Tagesschau"}, {"title": "Wegen VIP-Tickets: Disziplinarverfahren gegen Potsdams OB Schubert eingeleitet", "url": "https://www.tagesschau.de/inland/regional/brandenburg/rbb-wegen-vip-tickets-disziplinarverfahren-gegen-potsdams-ob-schubert-eingeleitet-100.html", "thumbnailUrl": "https://images.tagesschau.de/image/6d959196-7c2e-4b20-bb8a-568d0b2548a4/AAABj12h6J8/AAABjwnlKNc/16x9-512.jpg", "date": "2024-05-09T15:46:37.000+02:00", "lat": 52.3906, "lon": 13.0645, "intensity": 0.7, "source": "Tagesschau"}, {"title": "Verdacht der Brandstiftung: Rathaus Tiergarten durch Feuer und Schmierereien besch\u00e4digt", "url": "https://www.tagesschau.de/inland/regional/berlin/rbb-verdacht-der-brandstiftung-rathaus-tiergarten-durch-feuer-und-schmierereien-beschaedigt-100.html", "thumbnailUrl": "https://images.tagesschau.de/image/db3528eb-d7c1-4e31-adec-b483ab8e6a04/AAABj12alKY/AAABjwnlKNc/16x9-512.jpg", "date": "2024-05-09T15:42:32.000+02:00", "lat": 52.5166, "lon": 13.3586, "intensity": 0.7, "source": "Tagesschau"}, {"title": "Kriegsende-Gedenken mit russischem Botschafter und \"Nachtw\u00f6lfen\"", "url": "https://www.tagesschau.de/inland/regional/berlin/rbb-russischer-botschafter-besucht-gedenkveranstaltungen-zum-kriegsende-100.html", "thumbnailUrl": "https://images.tagesschau.de/image/a376a308-62e5-4443-8390-cef127d047f3/AAABj12YxZY/AAABjwnlKNc/16x9-512.jpg", "date": "2024-05-09T15:40:51.000+02:00", "lat": 52.5166, "lon": 13.3777, "intensity": 0.5, "source": "Tagesschau"}, {"title": "\"Grenze \u00fcberschritten\": Sanit\u00e4ter bei Einsatz angegriffen", "url": "https://www.tagesschau.de/inland/regional/niedersachsen/ndr-grenze-ueberschritten-sanitaeter-bei-einsatz-angegriffen-100.html", "thumbnailUrl": "https://images.tagesschau.de/image/3b8774c1-e180-4014-9d5e-ff3a75a1507d/AAABj12W-TE/AAABjwnlKNc/16x9-512.jpg", "date": "2024-05-09T15:36:00.000+02:00", "lat": 52.2595, "lon": 10.8143, "intensity": 0.7, "source": "Tagesschau"}, {"title": "L\u00fcbecker Bootshaus gerettet: Abrissbude wird Ausflugsziel", "url": "https://www.tagesschau.de/inland/regional/schleswigholstein/ndr-luebecker-bootshaus-gerettet-abrissbude-wird-ausflugsziel-100.html", "thumbnailUrl": "https://images.tagesschau.de/image/3a10c583-93d1-43d8-bcc0-312539a81c98/AAABj12PoFQ/AAABjwnlKNc/16x9-512.jpg", "date": "2024-05-09T15:30:00.000+02:00", "lat": 53.865467, "lon": 10.688559, "intensity": 0.7, "source": "Tagesschau"}, {"title": "Fast 10.000 Vermisste in Deutschland", "url": "https://www.tagesschau.de/inland/gesellschaft/vermisste-deutschland-100.html", "thumbnailUrl": "https://images.tagesschau.de/image/a160d288-d7cb-4421-9598-d68c6480ccb5/AAABj11vzjM/AAABjwnlKNc/16x9-512.jpg", "date": "2024-05-09T15:18:40.595+02:00", "lat": 51.1657, "lon": 10.4515, "intensity": 0.8, "source": "Tagesschau"}, {"title": "HSV will mit Sieg in Paderborn Druck auf D\u00fcsseldorf erh\u00f6hen", "url": "https://www.tagesschau.de/inland/regional/hamburg/ndr-hsv-will-mit-sieg-in-paderborn-druck-auf-duesseldorf-erhoehen-102.html", "thumbnailUrl": "https://images.tagesschau.de/image/03e9c1bb-9cec-44ee-8a61-626bbeeb4d2a/AAABj116WXc/AAABjwnlKNc/16x9-512.jpg", "date": "2024-05-09T15:07:00.000+02:00", "lat": 51.7126, "lon": 9.7453, "intensity": 0.7, "source": "Tagesschau"}, {"title": "Live-Blog 2. Liga: News zum Auf- und Abstiegsrennen", "url": "https://www.tagesschau.de/inland/regional/hamburg/ndr-live-blog-2-liga-hsv-oder-st-pauli-wer-gewinnt-das-stadtderby-102.html", "thumbnailUrl": "https://images.tagesschau.de/image/6adfd257-1697-4060-9565-93363d202367/AAABj116Xmk/AAABjwnlKNc/16x9-512.jpg", "date": "2024-05-09T14:55:00.000+02:00", "lat": 53.5511, "lon": 9.9937, "intensity": 0.7, "source": "Tagesschau"}, {"title": "Bidens Drohung l\u00f6st heftige Reaktionen aus", "url": "https://www.tagesschau.de/ausland/asien/israel-usa-waffenlieferungen-100.html", "thumbnailUrl": "https://images.tagesschau.de/image/51ea61c2-c051-474e-9d42-7d76cd71af73/AAABhpge7TA/AAABjwnlKNc/16x9-512.jpg", "date": "2024-05-09T14:54:43.242+02:00", "lat": 32.0853, "lon": 34.781767, "intensity": 0.7, "source": "Tagesschau"}, {"title": "Erweiterung von Designer Outlet abgelehnt: Stadt Soltau klagt ", "url": "https://www.tagesschau.de/inland/regional/niedersachsen/ndr-outlet-center-soltau-darf-nicht-erweitert-werden-100.html", "thumbnailUrl": "https://images.tagesschau.de/image/55ee27b3-830c-43e4-92a9-a28c94b9592e/AAABj11lhMo/AAABjwnlKNc/16x9-512.jpg", "date": "2024-05-09T14:43:00.000+02:00", "lat": 52.9864, "lon": 9.8252, "intensity": 0.7, "source": "Tagesschau"}, {"title": "Messe OMR in Hamburg: Stinkbombe bei Auftritt von Lindner", "url": "https://www.tagesschau.de/inland/regional/hamburg/ndr-stars-bei-der-digitalmesse-zehntausende-kommen-zur-omr-100.html", "thumbnailUrl": "https://images.tagesschau.de/image/7c09e393-a247-48bc-b807-27b543911566/AAABj1kvEgs/AAABjwnlKNc/16x9-512.jpg", "date": "2024-05-09T14:28:00.000+02:00", "lat": 53.5511, "lon": 9.9937, "intensity": 0.8, "source": "Tagesschau"}, {"title": "Wie sehen die Verkehrsflugzeuge der Zukunft aus?", "url": "https://www.tagesschau.de/inland/regional/hamburg/ndr-wie-sehen-die-verkehrsflugzeuge-der-zukunft-aus-100.html", "thumbnailUrl": "https://images.tagesschau.de/image/a20c53c6-c656-4f7e-a1de-0a4b28bd807c/AAABj11RXMU/AAABjwnlKNc/16x9-512.jpg", "date": "2024-05-09T14:16:00.000+02:00", "lat": 53.5511, "lon": 9.9937, "intensity": 0.7, "source": "Tagesschau"}, {"title": "Flensburger Rumregatta startet", "url": "https://www.tagesschau.de/inland/regional/schleswigholstein/ndr-flensburger-rumregatta-muss-nordwaerts-ziehen-100.html", "thumbnailUrl": "https://images.tagesschau.de/image/fab1daa3-f693-4f1d-b2f0-da8e79010de5/AAABj107YNc/AAABjwnlKNc/16x9-512.jpg", "date": "2024-05-09T14:00:00.000+02:00", "lat": 54.86, "lon": 9.4319, "intensity": 0.5, "source": "Tagesschau"}, {"title": "Wohnen in der Hamburger Hafencity: Richtfest im Quartier Neuhavn", "url": "https://www.tagesschau.de/inland/regional/hamburg/ndr-wohnen-in-der-hafencity-quartier-neuhavn-feiert-richtfest-100.html", "thumbnailUrl": "https://images.tagesschau.de/image/2dcf9d91-59fb-4a7c-b6df-e883d8805c25/AAABj105kNs/AAABjwnlKNc/16x9-512.jpg", "date": "2024-05-09T13:59:00.000+02:00", "lat": 53.5413, "lon": 9.9977, "intensity": 0.5, "source": "Tagesschau"}, {"title": "Ungew\u00f6hnliches Fluchtfahrzeug: Dieb steigt in Linienbus", "url": "https://www.tagesschau.de/inland/regional/niedersachsen/ndr-ungewoehnliches-fluchtfahrzeug-dieb-steigt-in-linienbus-100.html", "thumbnailUrl": "https://images.tagesschau.de/image/39ae1398-a800-4adf-82f7-b31371c27bb7/AAABj11A7yA/AAABjwnlKNc/16x9-512.jpg", "date": "2024-05-09T13:54:00.000+02:00", "lat": 52.9731, "lon": 9.8275, "intensity": 0.7, "source": "Tagesschau"}, {"title": "Himmelfahrt: Hier will die Polizei in SH verst\u00e4rkt kontrollieren", "url": "https://www.tagesschau.de/inland/regional/schleswigholstein/ndr-himmelfahrt-hier-will-die-polizei-in-sh-verstaerkt-kontrollieren-100.html", "thumbnailUrl": "https://images.tagesschau.de/image/0393cb41-87e1-4f68-bd2c-5193f36b385b/AAABj1fpIVY/AAABjwnlKNc/16x9-512.jpg", "date": "2024-05-09T13:53:00.000+02:00", "lat": 54.4667, "lon": 9.5569, "intensity": 0.7, "source": "Tagesschau"}, {"title": "Neunkircher Feuerwehrmann w\u00e4hrend Einsatz angegriffen", "url": "https://www.tagesschau.de/inland/regional/saarland/sr-neunkircher-feuerwehrmann-waehrend-einsatz-angegriffen-100.html", "thumbnailUrl": "https://images.tagesschau.de/image/56b4f311-1975-4f71-afa1-034a8783ba56/AAABj10ugzQ/AAABjwnlKNc/16x9-512.jpg", "date": "2024-05-09T13:46:00.000+02:00", "lat": 49.3408, "lon": 7.1833, "intensity": 0.8, "source": "Tagesschau"}, {"title": "Karlspreis f\u00fcr obersten j\u00fcdischen Geistlichen in Europa", "url": "https://www1.wdr.de/nachrichten/rheinland/karlspreis-verleihung-aachen-102.html", "thumbnailUrl": "https://images.tagesschau.de/image/bc390559-3c59-4b33-a868-0ee4a3e2620b/AAABj10kB14/AAABjwnlKNc/16x9-512.jpg", "date": "2024-05-09T13:36:33.648+02:00", "lat": 50.7753, "lon": 6.0834, "intensity": 0.7, "source": "Tagesschau"}, {"title": "Handel-Tarifeinigung mit Signalwirkung f\u00fcrs Saarland?", "url": "https://www.tagesschau.de/inland/regional/saarland/sr-handel-tarifeinigung-mit-signalwirkung-fuers-saarland-100.html", "thumbnailUrl": "https://images.tagesschau.de/image/d29dc5e9-5f51-45b8-9f04-f08091bc402c/AAABj10pBss/AAABjwnlKNc/16x9-512.jpg", "date": "2024-05-09T13:36:00.000+02:00", "lat": 49.3964, "lon": 7.0, "intensity": 0.6, "source": "Tagesschau"}, {"title": "Putins Parade - Putins Propaganda", "url": "https://www.tagesschau.de/ausland/militaerparade-moskau-102.html", "thumbnailUrl": "https://images.tagesschau.de/image/aa4645c7-d16f-4db1-ace5-1b910fa7135b/AAABj10hqkU/AAABjwnlKNc/16x9-512.jpg", "date": "2024-05-09T13:33:58.752+02:00", "lat": 55.7558, "lon": 37.6176, "intensity": 0.8, "source": "Tagesschau"}, {"title": "Am Krankenhaus Wei\u00dfwasser drohen neue Streiks", "url": "https://www.tagesschau.de/inland/regional/sachsen/mdr-am-krankenhaus-weisswasser-drohen-neue-streiks-100.html", "thumbnailUrl": "https://images.tagesschau.de/image/7316485f-1b86-433f-b8c1-d332e2733f03/AAABj18-DTs/AAABjwnlKNc/16x9-512.jpg", "date": "2024-05-09T13:28:39.000+02:00", "lat": 51.5128, "lon": 14.6448, "intensity": 0.7, "source": "Tagesschau"}, {"title": "Regionalliga Nordost: Feiert Energie Cottbus am Sonntag den Drittliga-Aufstieg?", "url": "https://www.tagesschau.de/inland/regional/brandenburg/rbb-regionalliga-nordost-feiert-energie-cottbus-am-sonntag-den-drittliga-aufstieg-102.html", "thumbnailUrl": "https://images.tagesschau.de/image/46468ee1-8fc5-4ae6-ab40-ef1d09e050c3/AAABj10f_jc/AAABjwnlKNc/16x9-512.jpg", "date": "2024-05-09T13:28:00.000+02:00", "lat": 51.7691, "lon": 14.3395, "intensity": 0.7, "source": "Tagesschau"}, {"title": "Favorit, \u00dcbertragung, Fans: Das Wichtigste zum Hessenpokal-Finale ", "url": "https://www.tagesschau.de/inland/regional/hessen/hr-favorit-uebertragung-fans-das-wichtigste-zum-hessenpokal-finale-102.html", "thumbnailUrl": "https://images.tagesschau.de/image/f89797a2-2a22-46d0-b83e-761d442884f9/AAABj10f8QU/AAABjwnlKNc/16x9-512.jpg", "date": "2024-05-09T13:27:09.903+02:00", "lat": 50.30222, "lon": 8.76667, "intensity": 0.7, "source": "Tagesschau"}, {"title": "Wetter wie Bolle am Vatertags-Wochenende", "url": "https://www.tagesschau.de/inland/regional/hessen/hr-sommerwetter-in-hessen-am-langen-wochenende-100.html", "thumbnailUrl": "https://images.tagesschau.de/image/05c32f7d-bf3f-4c4e-95a6-c2eec3f2f6be/AAABj10TFuI/AAABjwnlKNc/16x9-512.jpg", "date": "2024-05-09T13:16:48.746+02:00", "lat": 50.8278, "lon": 9.035, "intensity": 0.5, "source": "Tagesschau"}, {"title": "Brauereien in Ulm und Ehingen: Das Gesch\u00e4ft mit alkoholfreiem Bier boomt", "url": "https://www.tagesschau.de/inland/regional/badenwuerttemberg/swr-brauereien-in-ulm-und-ehingen-das-geschaeft-mit-alkoholfreiem-bier-boomt-100.html", "thumbnailUrl": "https://images.tagesschau.de/image/67413b0c-28e4-4561-b0ae-53c334f18360/AAABj10aa6U/AAABjwnlKNc/16x9-512.jpg", "date": "2024-05-09T13:05:00.000+02:00", "lat": 48.401082, "lon": 9.993682, "intensity": 0.7, "source": "Tagesschau"}, {"title": "Nicaragua entzieht Konsortium Lizenz f\u00fcr Kanalbau", "url": "https://www.tagesschau.de/wirtschaft/weltwirtschaft/nicaragua-kanal-china-100.html", "thumbnailUrl": "https://images.tagesschau.de/image/cd8a556e-a1bc-4aaf-9543-8f2fad8e928b/AAABj1zhoSs/AAABjwnlKNc/16x9-512.jpg", "date": "2024-05-09T12:45:43.711+02:00", "lat": 12.865416, "lon": -85.207229, "intensity": 0.7, "source": "Tagesschau"}, {"title": "Seltene Geburt: Pferd in Melle bringt Zwillingsfohlen zur Welt", "url": "https://www.tagesschau.de/inland/regional/niedersachsen/ndr-seltene-geburt-pferd-in-melle-bringt-zwillingsfohlen-zur-welt-100.html", "thumbnailUrl": "https://images.tagesschau.de/image/66dff6aa-b71e-4b70-a825-ce7ff76ebc8f/AAABj1zwV8E/AAABjwnlKNc/16x9-512.jpg", "date": "2024-05-09T12:35:00.000+02:00", "lat": 52.2025, "lon": 8.2722, "intensity": 0.6, "source": "Tagesschau"}, {"title": "Millionenschaden: Brand in Fensterfirma in M\u00fclheim an der Mosel", "url": "https://www.tagesschau.de/inland/regional/rheinlandpfalz/swr-brand-in-fensterfirma-in-muehlheim-an-der-mosel-100.html", "thumbnailUrl": "https://images.tagesschau.de/image/637c2bff-0747-425c-9b7c-b0536ef361a8/AAABj1xm8oM/AAABjwnlKNc/16x9-512.jpg", "date": "2024-05-09T12:30:00.000+02:00", "lat": 49.8794, "lon": 7.0919, "intensity": 0.8, "source": "Tagesschau"}, {"title": "Vertrag f\u00fcr DNT Weimar unterzeichnet: Generalsanierung des Theaters kann beginnen", "url": "https://www.tagesschau.de/inland/regional/thueringen/mdr-vertrag-fuer-dnt-weimar-unterzeichnet-generalsanierung-des-theaters-kann-beginnen-100.html", "thumbnailUrl": "https://images.tagesschau.de/image/cb37940b-207c-4dd8-a644-eac43efa3594/AAABj188PQA/AAABjwnlKNc/16x9-512.jpg", "date": "2024-05-09T12:18:14.000+02:00", "lat": 50.9795, "lon": 11.3295, "intensity": 0.8, "source": "Tagesschau"}, {"title": "T\u00f6dlicher Unfall bei Schmelz", "url": "https://www.tagesschau.de/inland/regional/saarland/sr-toedlicher-unfall-bei-schmelz-100.html", "thumbnailUrl": "https://images.tagesschau.de/image/a03d7a79-ff84-4620-a4ef-fbc3e4f6ef1f/AAABj10uhYo/AAABjwnlKNc/16x9-512.jpg", "date": "2024-05-09T12:17:00.000+02:00", "lat": 49.4381, "lon": 6.8654, "intensity": 0.8, "source": "Tagesschau"}, {"title": "Hundesteuer: So gro\u00df sind die Unterschiede im Saarland", "url": "https://www.tagesschau.de/inland/regional/saarland/sr-hundesteuer-so-gross-sind-die-unterschiede-im-saarland-100.html", "thumbnailUrl": "https://images.tagesschau.de/image/dffe8098-6836-49b0-a8e4-3dd83360919f/AAABj1zUzPk/AAABjwnlKNc/16x9-512.jpg", "date": "2024-05-09T12:05:00.000+02:00", "lat": 49.3964, "lon": 7.0, "intensity": 0.4, "source": "Tagesschau"}, {"title": "Wahllokale in Raguhn verwechselt", "url": "https://www.tagesschau.de/inland/regional/sachsenanhalt/mdr-wahllokale-in-raguhn-verwechselt-100.html", "thumbnailUrl": "https://images.tagesschau.de/image/8c53f943-6784-4db4-baa8-66dd16447813/AAABj18_7YY/AAABjwnlKNc/16x9-512.jpg", "date": "2024-05-09T11:58:46.000+02:00", "lat": 51.6677, "lon": 12.3279, "intensity": 0.7, "source": "Tagesschau"}, {"title": "Wie Russland ukrainische Kinder umerzieht", "url": "https://www.tagesschau.de/ausland/europa/ukraine-kinder-umerziehung-100.html", "thumbnailUrl": "https://images.tagesschau.de/image/d301a7a2-5670-46ad-92ae-97dd857fa921/AAABj12KN1M/AAABjwnlKNc/16x9-512.jpg", "date": "2024-05-09T11:32:45.212+02:00", "lat": 55.7558, "lon": 37.6176, "intensity": 0.8, "source": "Tagesschau"}, {"title": "Halbzeit bei der Spargelernte: Gute Qualit\u00e4t, schlechte Stimmung ", "url": "https://www.tagesschau.de/inland/regional/mecklenburgvorpommern/ndr-halbzeit-bei-der-spargelernte-gute-qualitaet-schlechte-stimmung-100.html", "thumbnailUrl": "https://images.tagesschau.de/image/12893b5f-1b63-456f-bbb5-1d2d4dae2971/AAABj1y-2OA/AAABjwnlKNc/16x9-512.jpg", "date": "2024-05-09T11:30:00.000+02:00", "lat": 53.6127, "lon": 11.6869, "intensity": 0.6, "source": "Tagesschau"}, {"title": "Keine Hoffnung f\u00fcr das Waikiki: Betreiber Stadtwerke vor Insolvenzantrag", "url": "https://www.tagesschau.de/inland/regional/thueringen/mdr-keine-hoffnung-fuer-das-waikiki-betreiber-stadtwerke-vor-insolvenzantrag-100.html", "thumbnailUrl": "https://images.tagesschau.de/image/e0f89359-0595-4c51-ab44-1e0ec2963f72/AAABj188Efw/AAABjwnlKNc/16x9-512.jpg", "date": "2024-05-09T11:12:51.000+02:00", "lat": 50.6536, "lon": 11.9016, "intensity": 0.8, "source": "Tagesschau"}, {"title": "Mehr als die H\u00e4lfte der \u00dcberstunden 2023 unbezahlt", "url": "https://www.tagesschau.de/wirtschaft/arbeitsmarkt/arbeit-deutschland-ueberstunden-100.html", "thumbnailUrl": "https://images.tagesschau.de/image/79166407-56e8-47c1-b051-12f68c773629/AAABidlSYDg/AAABjwnlKNc/16x9-512.jpg", "date": "2024-05-09T11:11:03.579+02:00", "lat": 51.1657, "lon": 10.4515, "intensity": 0.8, "source": "Tagesschau"}, {"title": "Beschwerden wegen L\u00e4rm: Frankfurter Gastronomen f\u00fcrchten \"Sperrstunde\" f\u00fcr Au\u00dfenbereiche", "url": "https://www.tagesschau.de/inland/regional/hessen/hr-beschwerden-wegen-laerm-frankfurter-gastronome-fuerchten-sperrstunde-fuer-aussenbereiche-100.html", "thumbnailUrl": "https://images.tagesschau.de/image/8c608ae1-b057-4aff-bebc-8219714e4955/AAABj1yhmVs/AAABjwnlKNc/16x9-512.jpg", "date": "2024-05-09T11:11:00.502+02:00", "lat": 50.1109, "lon": 8.6821, "intensity": 0.7, "source": "Tagesschau"}, {"title": "Unterst\u00fctzung f\u00fcr Pro-Pal\u00e4stina-Camp: Stark-Watzinger \"fassungslos\" \u00fcber Brief von Uni-Lehrkr\u00e4ften - Kritik auch von Wegner", "url": "https://www.tagesschau.de/inland/regional/berlin/rbb-unterstuetzung-fuer-pro-palaestina-camp-stark-watzinger-fassungslos-ueber-brief-von-uni-lehrkraeften-kritik-auch-von-wegner-100.html", "thumbnailUrl": "https://images.tagesschau.de/image/5f62ddcb-3f8e-43e0-917b-486054120c38/AAABj1yYbPE/AAABjwnlKNc/16x9-512.jpg", "date": "2024-05-09T11:01:49.000+02:00", "lat": 52.520008, "lon": 13.404954, "intensity": 0.8, "source": "Tagesschau"}, {"title": "Auto erfasst Elfj\u00e4hrigen - Junge muss notoperiert werden", "url": "https://www.tagesschau.de/inland/regional/niedersachsen/ndr-auto-erfasst-elfjaehrigen-junge-muss-notoperiert-werden-100.html", "thumbnailUrl": "https://images.tagesschau.de/image/0f297812-a2b6-451c-a108-609bfa1a6476/AAABj1fTKGo/AAABjwnlKNc/16x9-512.jpg", "date": "2024-05-09T10:43:00.000+02:00", "lat": 52.3261, "lon": 9.6488, "intensity": 0.8, "source": "Tagesschau"}, {"title": "Theaterkritik Riesenhaft in Mittelerde: \"Ich bin nicht so der Fantasy-Fan\"", "url": "https://www.tagesschau.de/inland/regional/berlin/rbb-theaterkritik-riesenhaft-in-mittelerde-ich-bin-nicht-so-der-fantasy-fan-100.html", "thumbnailUrl": "https://images.tagesschau.de/image/07227b1a-70e5-4a80-99be-f08916964275/AAABj1yCcVo/AAABjwnlKNc/16x9-512.jpg", "date": "2024-05-09T10:36:00.000+02:00", "lat": 52.520008, "lon": 13.404954, "intensity": 0.8, "source": "Tagesschau"}, {"title": "Eine Eisb\u00e4ren-Achse zwischen Meisterfeier in Berlin und Weltmeisterschaft in Tschechien", "url": "https://www.tagesschau.de/inland/regional/berlin/rbb-eine-eisbaeren-achse-zwischen-meisterfeier-in-berlin-und-weltmeisterschaft-in-tschechien-102.html", "thumbnailUrl": "https://images.tagesschau.de/image/704ede6c-d244-4ba2-81f6-8c6f9a19edca/AAABj1x89NI/AAABjwnlKNc/16x9-512.jpg", "date": "2024-05-09T10:30:53.000+02:00", "lat": 52.520008, "lon": 13.404954, "intensity": 0.7, "source": "Tagesschau"}, {"title": "73 Orte, 1.000 Veranstaltungen: Kulturelle Landpartie startet", "url": "https://www.tagesschau.de/inland/regional/niedersachsen/ndr-73-orte-1-000-veranstaltungen-kulturelle-landpartie-startet-100.html", "thumbnailUrl": "https://images.tagesschau.de/image/b187ecd4-4abb-440c-8bfc-e8267667d3ff/AAABj1x-2Gg/AAABjwnlKNc/16x9-512.jpg", "date": "2024-05-09T10:24:00.000+02:00", "lat": 52.8881, "lon": 11.2077, "intensity": 0.8, "source": "Tagesschau"}, {"title": "Kind soll Feuerwerk im Auto gez\u00fcndet haben - Fahrzeug brennt auf A8", "url": "https://www.tagesschau.de/inland/regional/badenwuerttemberg/swr-kind-soll-feuerwerk-im-auto-gezuendet-haben-fahrzeug-brennt-auf-a8-100.html", "thumbnailUrl": "https://images.tagesschau.de/image/3dede50a-97c9-46a4-865f-8849398cd156/AAABj1xfohg/AAABjwnlKNc/16x9-512.jpg", "date": "2024-05-09T09:53:39.000+02:00", "lat": 48.727253, "lon": 8.048269, "intensity": 0.7, "source": "Tagesschau"}, {"title": "Candida auris breitet sich immer mehr aus", "url": "https://www.tagesschau.de/wissen/gesundheit/candida-auris-pilzkrankheit-100.html", "thumbnailUrl": "https://images.tagesschau.de/image/f23b4789-8f89-4eb2-a39f-2319ef911ead/AAABj1d8daw/AAABjwnlKNc/16x9-512.jpg", "date": "2024-05-09T09:52:19.891+02:00", "lat": 51.1657, "lon": 10.4515, "intensity": 0.8, "source": "Tagesschau"}, {"title": "Darmstadt 98: +++ Zukunft von Skarke noch unklar +++ Lilien reduzieren Ticket-Preise +++ Bericht: Vertrags-Gespr\u00e4che mit St\u00fcrmer Marseiler +++", "url": "https://www.tagesschau.de/inland/regional/hessen/hr--tietz-vermisst-fehlende-gier--lilien-fans-liefern-sich-raststaetten-pruegelei--die-niederlage-der-lilien-in-der-video-zusammenfassung-102.html", "thumbnailUrl": "https://images.tagesschau.de/image/a4f7a676-0489-491c-97c7-5ed2d88f8e36/AAABj1xRCg8/AAABjwnlKNc/16x9-512.jpg", "date": "2024-05-09T09:43:34.106+02:00", "lat": 49.8717, "lon": 8.6553, "intensity": 0.5, "source": "Tagesschau"}, {"title": "Legitimer Protest oder \"Tiefpunkt f\u00fcr die Wissenschaft\"?", "url": "https://www.tagesschau.de/inland/innenpolitik/universitaeten-proteste-nahost-100.html", "thumbnailUrl": "https://images.tagesschau.de/image/d3ec26e6-ae20-4d0c-b99d-e3d811d4a38d/AAABj1w6I6o/AAABjwnlKNc/16x9-512.jpg", "date": "2024-05-09T09:21:06.447+02:00", "lat": 37.0902, "lon": -95.7129, "intensity": 0.7, "source": "Tagesschau"}, {"title": "Einigung im Tarifkonflikt im Hamburger Einzelhandel erzielt", "url": "https://www.tagesschau.de/inland/regional/hamburg/ndr-einigung-im-tarifkonflikt-im-hamburger-einzelhandel-erzielt-100.html", "thumbnailUrl": "https://images.tagesschau.de/image/a5efd8cb-5da3-4350-b390-5460c8ce4d74/AAABj1w5Mco/AAABjwnlKNc/16x9-512.jpg", "date": "2024-05-09T09:18:00.000+02:00", "lat": 53.551086, "lon": 9.993682, "intensity": 0.8, "source": "Tagesschau"}, {"title": "Gro\u00dfes Festival im Dreil\u00e4ndereck", "url": "https://www.tagesschau.de/inland/regional/saarland/sr-grosses-festival-im-dreilaendereck-100.html", "thumbnailUrl": "https://images.tagesschau.de/image/42b6a027-2df9-4d7e-a81d-f24408e04522/AAABj1wm274/AAABjwnlKNc/16x9-512.jpg", "date": "2024-05-09T08:53:00.000+02:00", "lat": 49.4824, "lon": 6.3636, "intensity": 0.8, "source": "Tagesschau"}, {"title": "Neuer Zeppelin hebt regelm\u00e4\u00dfig im Ruhrgebiet ab", "url": "https://www.tagesschau.de/inland/regional/nordrheinwestfalen/wdr-neuer-zeppelin-hebt-regelmaessig-im-ruhrgebiet-ab-100.html", "thumbnailUrl": "https://images.tagesschau.de/image/d8f18f0b-2c26-4950-b1ec-bf327e50e75d/AAABj10J54E/AAABjwnlKNc/16x9-512.jpg", "date": "2024-05-09T08:35:00.000+02:00", "lat": 51.4026, "lon": 7.0154, "intensity": 0.5, "source": "Tagesschau"}, {"title": "Kino-Doku \"Teaches of Peaches\": \"Ich will alles raush\u00e4ngen lassen, ist mir doch egal\"", "url": "https://www.tagesschau.de/inland/regional/berlin/rbb-kino-doku-teaches-of-peaches-ich-will-alles-raushaengen-lassen-ist-mir-doch-egal-100.html", "thumbnailUrl": "https://images.tagesschau.de/image/ea9b06e4-4452-4c68-a899-2aa3d1d497a0/AAABj1wLweA/AAABjwnlKNc/16x9-512.jpg", "date": "2024-05-09T08:25:14.000+02:00", "lat": 52.520008, "lon": 13.404954, "intensity": 0.3, "source": "Tagesschau"}, {"title": "Fragen und Antworten zum Rennwochenende der Formel E auf dem Tempelhofer Feld", "url": "https://www.tagesschau.de/inland/regional/berlin/rbb-fragen-und-antworten-zum-rennwochenende-der-formel-e-auf-dem-tempelhofer-feld-102.html", "thumbnailUrl": "https://images.tagesschau.de/image/7171aec5-a609-43b3-ad0f-024754e47fce/AAABj1wLr7M/AAABjwnlKNc/16x9-512.jpg", "date": "2024-05-09T08:23:34.000+02:00", "lat": 52.4857, "lon": 13.4074, "intensity": 0.8, "source": "Tagesschau"}, {"title": "Interview | Verein Neustart: \"Die ukrainischen M\u00e4nner im Krieg wissen nicht, dass sich ihre Frauen hier prostituieren\"", "url": "https://www.tagesschau.de/inland/regional/berlin/rbb-interview--verein-neustart-die-ukrainischen-maenner-im-krieg-wissen-nicht-dass-sich-ihre-frauen-hier-prostituieren-100.html", "thumbnailUrl": "https://images.tagesschau.de/image/a6de90c4-1fe6-4814-909f-1c68818fb837/AAABj1wLns4/AAABjwnlKNc/16x9-512.jpg", "date": "2024-05-09T08:22:45.000+02:00", "lat": 52.520008, "lon": 13.404954, "intensity": 0.8, "source": "Tagesschau"}, {"title": "Vatertag: Himmelfahrt zwischen Besinnung und Besinnungslosigkeit", "url": "https://www.tagesschau.de/inland/regional/brandenburg/rbb-vatertag-himmelfahrt-zwischen-besinnung-und-besinnungslosigkeit-100.html", "thumbnailUrl": "https://images.tagesschau.de/image/b9c045ab-54a5-4d0e-9299-28ebbfb01799/AAABj1wLiT4/AAABjwnlKNc/16x9-512.jpg", "date": "2024-05-09T08:22:38.000+02:00", "lat": 52.520008, "lon": 13.404954, "intensity": 0.5, "source": "Tagesschau"}, {"title": "Den Preis zahlt Argentiniens Mittelschicht", "url": "https://www.tagesschau.de/wirtschaft/weltwirtschaft/argentinien-milei-wirtschaftspolitik-100.html", "thumbnailUrl": "https://images.tagesschau.de/image/4b165c31-efbf-4ae9-a3f7-71074dd6c2e2/AAABjzi6GfQ/AAABjwnlKNc/16x9-512.jpg", "date": "2024-05-09T08:14:52.551+02:00", "lat": -34.6037, "lon": -58.4383, "intensity": 0.8, "source": "Tagesschau"}, {"title": "F\u00fcr sicheren Heimweg: Gie\u00dfen macht Taxis f\u00fcr Frauen nachts g\u00fcnstiger", "url": "https://www.tagesschau.de/inland/regional/hessen/hr-fuer-sicheren-heimweg-giessen-macht-taxis-fuer-frauen-nachts-guenstiger-100.html", "thumbnailUrl": "https://images.tagesschau.de/image/783f9c99-bd5c-4606-b935-c9c513221a7d/AAABj1v5JGo/AAABjwnlKNc/16x9-512.jpg", "date": "2024-05-09T08:08:58.060+02:00", "lat": 50.58342, "lon": 8.673265, "intensity": 0.8, "source": "Tagesschau"}, {"title": "Pokalfinale VfL Wolfsburg - FC Bayern: Dauersieger will Double-J\u00e4gerinnen stoppen", "url": "https://www.tagesschau.de/inland/regional/niedersachsen/ndr-pokalfinale-vfl-wolfsburg-fc-bayern-dauersieger-will-double-jaegerinnen-stoppen-102.html", "thumbnailUrl": "https://images.tagesschau.de/image/3d6b4a14-f402-4d22-bbc6-9fa7cba4a8e1/AAABj1vzo0E/AAABjwnlKNc/16x9-512.jpg", "date": "2024-05-09T08:02:00.000+02:00", "lat": 52.42265, "lon": 10.789186, "intensity": 0.9, "source": "Tagesschau"}, {"title": "Nach R\u00e4umung des Protestcamps bleibt es an der Bremer Uni ruhig", "url": "https://www.tagesschau.de/inland/regional/bremen/rb-nach-raeumung-des-protestcamps-bleibt-es-an-der-bremer-uni-ruhig-102.html", "thumbnailUrl": "https://images.tagesschau.de/image/604538d1-3f70-4f9a-a931-1803e04ecabc/AAABj1vxw_E/AAABjwnlKNc/16x9-512.jpg", "date": "2024-05-09T07:54:00.000+02:00", "lat": 53.0793, "lon": 8.8017, "intensity": 0.3, "source": "Tagesschau"}, {"title": "Hasspostings vor der Wahl: Polizei in BW auf Streife im Internet", "url": "https://www.tagesschau.de/inland/regional/badenwuerttemberg/swr-hasspostings-vor-der-wahl-polizei-in-bw-auf-streife-im-internet-100.html", "thumbnailUrl": "https://images.tagesschau.de/image/fc2a9af0-6164-4be5-a62b-cfe1a45b3cf9/AAABj1vbzzk/AAABjwnlKNc/16x9-512.jpg", "date": "2024-05-09T07:35:28.000+02:00", "lat": 48.6616, "lon": 9.4895, "intensity": 0.8, "source": "Tagesschau"}, {"title": "Demo gegen \"Trauermarsch\" von Rechtsextremen in Demmin", "url": "https://www.tagesschau.de/inland/regional/mecklenburgvorpommern/ndr-demo-gegen-trauermarsch-von-rechtsextremen-in-demmin-102.html", "thumbnailUrl": "https://images.tagesschau.de/image/f9096de0-902a-4f1f-b60b-8385952a4bc4/AAABj1vmwxU/AAABjwnlKNc/16x9-512.jpg", "date": "2024-05-09T07:30:00.000+02:00", "lat": 53.9071, "lon": 13.0416, "intensity": 0.8, "source": "Tagesschau"}, {"title": "Offenbar Haftstrafe f\u00fcr Berlinale-Gewinner im Iran ", "url": "https://www.tagesschau.de/ausland/asien/rassulof-102.html", "thumbnailUrl": "https://images.tagesschau.de/image/77b15fd2-6805-4c22-9544-3f41b7ec31f8/AAABh-anQho/AAABjwnlKNc/16x9-512.jpg", "date": "2024-05-09T07:12:59.496+02:00", "lat": 35.689197, "lon": 51.388973, "intensity": 0.8, "source": "Tagesschau"}, {"title": "Wie alt werden M\u00e4nner und Frauen in Bremen und Bremerhaven?", "url": "https://www.tagesschau.de/inland/regional/bremen/rb-wie-alt-werden-maenner-und-frauen-in-bremen-und-bremerhaven-102.html", "thumbnailUrl": "https://images.tagesschau.de/image/cb4ae9a4-8853-4564-b149-544f01f1bdd2/AAABj1vLXDA/AAABjwnlKNc/16x9-512.jpg", "date": "2024-05-09T07:04:00.000+02:00", "lat": 53.0793, "lon": 8.8017, "intensity": 0.6, "source": "Tagesschau"}, {"title": "Gro\u00dfbrand in Techentin: Feuer zerst\u00f6rt Dachstuhl von Mehrfamilienhaus", "url": "https://www.tagesschau.de/inland/regional/mecklenburgvorpommern/ndr-grossbrand-in-techentin-feuer-zerstoert-dachstuhl-von-mehrfamilienhaus-100.html", "thumbnailUrl": "https://images.tagesschau.de/image/1a4f0cd9-cffe-4ab1-89d4-404f123d06ce/AAABj1u8p4s/AAABjwnlKNc/16x9-512.jpg", "date": "2024-05-09T06:45:00.000+02:00", "lat": 53.6486, "lon": 12.0296, "intensity": 0.8, "source": "Tagesschau"}, {"title": "Tatverd\u00e4chtiger nach Tritten gegen den Kopf verhaftet", "url": "https://www.tagesschau.de/inland/regional/bremen/rb-tatverdaechtiger-nach-tritten-gegen-den-kopf-verhaftet-102.html", "thumbnailUrl": "https://images.tagesschau.de/image/cf1990c7-04d6-401d-bd68-ef46a0781d28/AAABj1u8tr0/AAABjwnlKNc/16x9-512.jpg", "date": "2024-05-09T06:39:00.000+02:00", "lat": 53.0793, "lon": 8.8017, "intensity": 0.6, "source": "Tagesschau"}, {"title": "Warum in Bremen heute mehr Polizisten als sonst im Einsatz sind", "url": "https://www.tagesschau.de/inland/regional/bremen/rb-warum-in-bremen-heute-mehr-polizisten-als-sonst-im-einsatz-sind-100.html", "thumbnailUrl": "https://images.tagesschau.de/image/f931eaa6-e1d3-4ee3-8c4f-599282418fde/AAABj1ums7M/AAABjwnlKNc/16x9-512.jpg", "date": "2024-05-09T06:27:00.000+02:00", "lat": 53.0793, "lon": 8.8017, "intensity": 0.7, "source": "Tagesschau"}, {"title": "An Himmelfahrt ist Vatertag: Warum heute die Papas gefeiert werden", "url": "https://www.tagesschau.de/inland/regional/nordrheinwestfalen/wdr-an-himmelfahrt-ist-vatertag-warum-heute-die-papas-gefeiert-werden-100.html", "thumbnailUrl": "https://images.tagesschau.de/image/3bb08281-ff10-4684-a254-f06f76212e3c/AAABj16ekDA/AAABjwnlKNc/16x9-512.jpg", "date": "2024-05-09T06:03:00.000+02:00", "lat": 51.1657, "lon": 7.4474, "intensity": 0.5, "source": "Tagesschau"}, {"title": "Experten: Wahlplakate erreichen mehr Menschen als Instagram und Facebook", "url": "https://www.tagesschau.de/inland/regional/badenwuerttemberg/swr-experten-wahlplakate-erreichen-mehr-menschen-als-instagram-und-facebook-100.html", "thumbnailUrl": "https://images.tagesschau.de/image/52ac5080-8831-4427-b04d-2ee0e3f9cc5d/AAABj1xNVk8/AAABjwnlKNc/16x9-512.jpg", "date": "2024-05-09T05:36:42.000+02:00", "lat": 48.6617, "lon": 9.1652, "intensity": 0.7, "source": "Tagesschau"}, {"title": "Motorradclub nur f\u00fcr Frauen startet in die Saison", "url": "https://www.tagesschau.de/inland/regional/schleswigholstein/ndr-motorradclub-nur-fuer-frauen-startet-in-die-saison-100.html", "thumbnailUrl": "https://images.tagesschau.de/image/8f69924b-bb9f-4981-8f13-87be029dee09/AAABj1tM_us/AAABjwnlKNc/16x9-512.jpg", "date": "2024-05-09T05:00:00.000+02:00", "lat": 54.3327, "lon": 9.6967, "intensity": 0.3, "source": "Tagesschau"}, {"title": "Mehrfach Sch\u00fcsse in Wittenberg: Neues Rathaus besch\u00e4digt", "url": "https://www.tagesschau.de/inland/regional/sachsenanhalt/mdr-offenbar-schuesse-auf-rathaus-in-wittenberg-100.html", "thumbnailUrl": "https://images.tagesschau.de/image/2ec622f3-35d3-4348-b189-21468ecc69ec/AAABj1svuAE/AAABjwnlKNc/16x9-512.jpg", "date": "2024-05-09T04:29:15.000+02:00", "lat": 51.8667, "lon": 12.6444, "intensity": 0.8, "source": "Tagesschau"}, {"title": "Bei Neuhausen: Alkoholisierter Fahrer ger\u00e4t in Gegenverkehr - drei Verletzte", "url": "https://www.tagesschau.de/inland/regional/badenwuerttemberg/swr-neuhausen-alkoholisierter-fahrer-geraet-in-gegenverkehr-drei-verletzte-100.html", "thumbnailUrl": "https://images.tagesschau.de/image/3f7c76c1-2994-4cbf-9a1e-bdb7303663c5/AAABj1ssBCc/AAABjwnlKNc/16x9-512.jpg", "date": "2024-05-09T04:22:58.000+02:00", "lat": 47.4272, "lon": 8.5818, "intensity": 0.8, "source": "Tagesschau"}, {"title": "\"Wir lernen hier direkt an der Front\"", "url": "https://www.tagesschau.de/ausland/europa/frontbesuch-ukraine-100.html", "thumbnailUrl": "https://images.tagesschau.de/image/c7ff3bdd-18c9-439e-918d-88714e113333/AAABj1skANM/AAABjwnlKNc/16x9-512.jpg", "date": "2024-05-09T04:17:17.542+02:00", "lat": 48.3794, "lon": 37.6156, "intensity": 0.8, "source": "Tagesschau"}, {"title": "Rechte Opposition feiert Machtwechsel ", "url": "https://www.tagesschau.de/ausland/europa/nordmaazedonien-wahl-100.html", "thumbnailUrl": "https://images.tagesschau.de/image/4177f5b9-602c-49b1-b1c7-6e4349df90f8/AAABj1sN97Y/AAABjwnlKNc/16x9-512.jpg", "date": "2024-05-09T03:54:03.564+02:00", "lat": 41.6086, "lon": 21.7453, "intensity": 0.8, "source": "Tagesschau"}, {"title": "USA wollen keine Waffen f\u00fcr Gro\u00dfangriff auf Rafah liefern", "url": "https://www.tagesschau.de/ausland/amerika/biden-usa-waffenlieferungen-israel-100.html", "thumbnailUrl": "https://images.tagesschau.de/image/70e5eece-a020-4edb-8bff-e861e8910dad/AAABj1rnLjw/AAABjwnlKNc/16x9-512.jpg", "date": "2024-05-09T03:36:45.995+02:00", "lat": 31.4167, "lon": 34.2988, "intensity": 0.65, "source": "Tagesschau"}, {"title": "Es wird deutlich sonniger und w\u00e4rmer in Baden-W\u00fcrttemberg", "url": "https://www.tagesschau.de/inland/regional/badenwuerttemberg/swr-schoenes-wetter-am-vatertag-in-baden-wuerttemberg-100.html", "thumbnailUrl": "https://images.tagesschau.de/image/4894ddc8-e589-438f-89bf-f074a68b5b4c/AAABj1qzJUg/AAABjwnlKNc/16x9-512.jpg", "date": "2024-05-09T02:01:00.000+02:00", "lat": 48.6616, "lon": 9.0107, "intensity": 0.2, "source": "Tagesschau"}, {"title": "80.000 Menschen sind laut UN aus Rafah geflohen", "url": "https://www.br.de/nachrichten/meldungen/index.html#n1", "thumbnailUrl": null, "date": "2024-05-10T01:12:31+02:00", "lat": 30.0444, "lon": 31.2357, "intensity": 0.8, "source": "Bayrischer Rundfunk"}, {"title": "Geplanter Vormarsch in Rafah sorgt weiter f\u00fcr Kritik", "url": "https://www.br.de/nachrichten/meldungen/index.html#n2", "thumbnailUrl": null, "date": "2024-05-10T01:12:31+02:00", "lat": 33.5138, "lon": 36.2021, "intensity": 0.8, "source": "Bayrischer Rundfunk"}, {"title": "Tausende demonstrieren gegen Israel beim Eurovision Song Contest", "url": "https://www.br.de/nachrichten/meldungen/index.html#n3", "thumbnailUrl": null, "date": "2024-05-10T01:12:31+02:00", "lat": 39.9334, "lon": 32.8597, "intensity": 0.8, "source": "Bayrischer Rundfunk"}, {"title": "Neuer Tr\u00e4ger des Karlspreises warnt vor Judenhass", "url": "https://www.br.de/nachrichten/meldungen/index.html#n4", "thumbnailUrl": null, "date": "2024-05-10T01:12:31+02:00", "lat": 52.520008, "lon": 13.404954, "intensity": 0.7, "source": "Bayrischer Rundfunk"}, {"title": "Selenskyj entl\u00e4sst Chef seiner Leibwache nach vereiteltem Mordanschlag", "url": "https://www.br.de/nachrichten/meldungen/index.html#n5", "thumbnailUrl": null, "date": "2024-05-10T01:12:31+02:00", "lat": 52.520008, "lon": 13.404954, "intensity": 0.6, "source": "Bayrischer Rundfunk"}, {"title": "Mehr als 100 Tote bei \u00dcberschwemmungen in Brasilien", "url": "https://www.br.de/nachrichten/meldungen/index.html#n6", "thumbnailUrl": null, "date": "2024-05-10T01:12:31+02:00", "lat": 48.135125, "lon": 11.581981, "intensity": 0.6, "source": "Bayrischer Rundfunk"}, {"title": "14 Verletzte bei Fahrt auf einem Planwagen in Th\u00fcringen", "url": "https://www.br.de/nachrichten/meldungen/index.html#n7", "thumbnailUrl": null, "date": "2024-05-10T01:12:31+02:00", "lat": 50.110922, "lon": 8.682127, "intensity": 0.8, "source": "Bayrischer Rundfunk"}, {"title": "Fliegerbombe in Landshut wurde erfolgreich entsch\u00e4rft", "url": "https://www.br.de/nachrichten/meldungen/index.html#n8", "thumbnailUrl": null, "date": "2024-05-10T01:12:31+02:00", "lat": 47.8684, "lon": 12.6394, "intensity": 0.8, "source": "Bayrischer Rundfunk"}, {"title": "Leverkusen erreicht Finale der Europa League", "url": "https://www.br.de/nachrichten/meldungen/index.html#n9", "thumbnailUrl": null, "date": "2024-05-10T01:12:31+02:00", "lat": 48.5844, "lon": 13.6722, "intensity": 0.8, "source": "Bayrischer Rundfunk"}, {"title": "Wolfsburger Fu\u00dfballerinnen gewinnen Pokal-Finale gegen FC Bayern", "url": "https://www.br.de/nachrichten/meldungen/index.html#n10", "thumbnailUrl": null, "date": "2024-05-10T01:12:31+02:00", "lat": 53.5396, "lon": 8.5761, "intensity": 0.4, "source": "Bayrischer Rundfunk"}, {"title": "Das Wetter in Bayern: Nachts \u00fcberwiegend klar, Abk\u00fchlung auf 8 bis 5 Grad", "url": "https://www.br.de/nachrichten/meldungen/index.html#n11", "thumbnailUrl": null, "date": "2024-05-10T01:12:31+02:00", "lat": 48.1351, "lon": 11.582, "intensity": 0.3, "source": "Bayrischer Rundfunk"}, {"title": "Video | \"Herrentag\": Himmelfahrt an dem Cottbuser Ostsee", "url": "https://www.rbb24.de/panorama/beitrag/av7/video-christi-himmelfahrt-herrentag-cottbus-ostsee.html", "thumbnailUrl": null, "date": "Thu, 09 May 2024 20:30:32 +0200", "lat": 51.762, "lon": 14.422, "intensity": 0.3, "source": "RBB"}, {"title": "Video | Krieg in der Ukraine: Kriegsverletzte ukrainische Soldaten bekommen Prothesen in Berlin", "url": "https://www.rbb24.de/panorama/beitrag/av7/video-ukraine-krieg-kriegsverletzt-prothese.html", "thumbnailUrl": null, "date": "Thu, 09 May 2024 20:26:29 +0200", "lat": 52.520008, "lon": 13.404954, "intensity": 0.8, "source": "RBB"}, {"title": "75 Jahre Grundgesetz: Bundeswehr-Rekruten legen Gel\u00f6bnis vor Berliner Abgeordnetenhaus ab", "url": "https://www.rbb24.de/panorama/beitrag/2024/05/75-jahre-grundgesetz-geloebnis-vorberliner-abgeordnetenhaus-agh.html", "thumbnailUrl": null, "date": "Thu, 09 May 2024 19:11:53 +0200", "lat": 52.5166, "lon": 13.3777, "intensity": 0.7, "source": "RBB"}, {"title": "Erste Frau an der Kanu-Verbandsspitze: \"Ich m\u00f6chte das weibliche Bild immer gleichwertig mit in den Vordergrund r\u00fccken\"", "url": "https://www.rbb24.de/sport/beitrag/2024/05/interview-dajana-pefestorff-deutscher-kanu-verband-praesidentin-frau-historisch-gleichberechtigung-modernisierung.html", "thumbnailUrl": null, "date": "Thu, 09 May 2024 19:05:32 +0200", "lat": 52.3906, "lon": 13.0645, "intensity": 0.8, "source": "RBB"}, {"title": "Oder-Abzweig: Viele tote Fische im Gleiwitzer Kanal in Polen entdeckt", "url": "https://www.rbb24.de/panorama/beitrag/2024/05/tote-fische-polen-gleiwitzer-kanal.html", "thumbnailUrl": null, "date": "Thu, 09 May 2024 16:48:59 +0200", "lat": 54.352, "lon": 18.6281, "intensity": 0.8, "source": "RBB"}, {"title": "Gr\u00fcnheide (Oder-Spree): Mehrere hundert Menschen demonstrieren gegen Ausbau von Tesla-Fabrik", "url": "https://www.rbb24.de/wirtschaft/beitrag/2024/05/demonstrationen-gegen-tesla-werk-ausbau-gruenheide.html", "thumbnailUrl": null, "date": "Thu, 09 May 2024 16:08:00 +0200", "lat": 52.408, "lon": 13.943, "intensity": 0.7, "source": "RBB"}, {"title": "Anwalt: Haft und Peitschenhiebe f\u00fcr Berlinale-Gewinner Rasoulof", "url": "https://www.rbb24.de/kultur/beitrag/2024/05/berlinale-gewinner-verurteilt-haft-peitschenhiebe.html", "thumbnailUrl": null, "date": "Thu, 09 May 2024 15:48:00 +0200", "lat": 52.520008, "lon": 13.404954, "intensity": 0.8, "source": "RBB"}, {"title": "Brandenburger Innenministerium hat Disziplinarverfahren gegen Potsdams OB Schubert eingeleitet", "url": "https://www.rbb24.de/politik/beitrag/2024/05/potsdam-disziplinarverfahren-gegen-schubert-eingeleitet.html", "thumbnailUrl": null, "date": "Thu, 09 May 2024 15:46:00 +0200", "lat": 52.3906, "lon": 13.0645, "intensity": 0.6, "source": "RBB"}, {"title": "Verdacht der Brandstiftung: Rathaus Tiergarten durch Feuer und Schmierereien besch\u00e4digt", "url": "https://www.rbb24.de/panorama/beitrag/2024/05/berlin-rathaus-tiergarten-feuer-schmierereien-brand-gaza.html", "thumbnailUrl": null, "date": "Thu, 09 May 2024 15:42:32 +0200", "lat": 52.5194, "lon": 13.3524, "intensity": 0.8, "source": "RBB"}, {"title": "Kriegsende-Gedenken mit russischem Botschafter und \"Nachtw\u00f6lfen\"", "url": "https://www.rbb24.de/politik/beitrag/2024/05/berlin-gedenkveranstaltung-kriegsende-botschafter-russland-treptower-park.html", "thumbnailUrl": null, "date": "Thu, 09 May 2024 15:40:00 +0200", "lat": 52.52, "lon": 13.4125, "intensity": 0.6, "source": "RBB"}, {"title": "Unterst\u00fctzung f\u00fcr Pro-Pal\u00e4stina-Camp: Stark-Watzinger \"fassungslos\" \u00fcber Brief von Uni-Lehrkr\u00e4ften - Kritik auch von Wegner", "url": "https://www.rbb24.de/panorama/beitrag/2024/05/berlin-pro-palaestina-brief-dozenten-empoerung-kritik-raeumung-fu.html", "thumbnailUrl": null, "date": "Thu, 09 May 2024 11:01:00 +0200", "lat": 52.457, "lon": 13.298, "intensity": 0.7, "source": "RBB"}, {"title": "Theaterkritik Riesenhaft in Mittelerde: \"Ich bin nicht so der Fantasy-Fan\"", "url": "https://www.rbb24.de/kultur/beitrag/2024/05/theaterkritik-theatertreffen-berlin-riesenhaft-mittelerde-stemann-zuerich.html", "thumbnailUrl": null, "date": "Thu, 09 May 2024 10:36:00 +0200", "lat": 52.520008, "lon": 13.404954, "intensity": 0.7, "source": "RBB"}, {"title": "Eine Eisb\u00e4ren-Achse zwischen Meisterfeier in Berlin und Weltmeisterschaft in Tschechien", "url": "https://www.rbb24.de/sport/beitrag/2024/05/eishockey-wm-vorbericht-pfoederl-aubin-eisbaeren-tschechien-vize-weltmeister.html", "thumbnailUrl": null, "date": "Thu, 09 May 2024 10:30:00 +0200", "lat": 52.52, "lon": 13.405, "intensity": 0.8, "source": "RBB"}, {"title": "Fragen und Antworten zum Rennwochenende der Formel E auf dem Tempelhofer Feld", "url": "https://www.rbb24.de/sport/beitrag/2024/05/motorsport-formel-e-rennen-berlin-tempelhofer-feld-fragen-antworten.html", "thumbnailUrl": null, "date": "Thu, 09 May 2024 08:23:34 +0200", "lat": 52.482, "lon": 13.403, "intensity": 0.8, "source": "RBB"}, {"title": "Interview | Verein Neustart: \"Die ukrainischen M\u00e4nner im Krieg wissen nicht, dass sich ihre Frauen hier prostituieren\"", "url": "https://www.rbb24.de/panorama/beitrag/2024/05/interview-prostitution-ukrainische-frauen-in-berlin.html", "thumbnailUrl": null, "date": "Thu, 09 May 2024 08:22:45 +0200", "lat": 52.52, "lon": 13.405, "intensity": 0.8, "source": "RBB"}, {"title": "Basketball-Bundesliga: Alba Berlin feiert souver\u00e4nen 90:69-Heimsieg gegen Bonn", "url": "https://www.rbb24.de/sport/beitrag/2024/05/basketball-bundesliga-alba-berlin-bonn-spielbericht.html", "thumbnailUrl": null, "date": "Wed, 08 May 2024 22:04:00 +0200", "lat": 52.5192, "lon": 13.4571, "intensity": 0.8, "source": "RBB"}, {"title": "Nach Elfmeter-Krimi: Hertha BSC schl\u00e4gt Union und ist Berlin-Pokalsieger der A-Junioren", "url": "https://www.rbb24.de/sport/beitrag/2024/05/fussball-nachwuchs-u19-berlin-pokal-finale-union-hertha-bsc-spielbericht.html", "thumbnailUrl": null, "date": "Wed, 08 May 2024 21:47:37 +0200", "lat": 52.52, "lon": 13.3813, "intensity": 0.8, "source": "RBB"}, {"title": "Erker abgest\u00fctzt: Mieter d\u00fcrfen in einsturzgef\u00e4hrdetes Wohnhaus in Sch\u00f6neberg zur\u00fcck", "url": "https://www.rbb24.de/panorama/beitrag/2024/05/berlin-schoeneberg-einsturzgefaehrdetes-wohnhaus-mieter-duerfe-zurueck.html", "thumbnailUrl": null, "date": "Wed, 08 May 2024 20:27:00 +0200", "lat": 52.4844, "lon": 13.3521, "intensity": 0.7, "source": "RBB"}, {"title": "Video | Social Media Wie weiter nach \"Ohnmachts-Challenge\" in Kreuzberger Grundschule?", "url": "https://www.rbb24.de/panorama/beitrag/av7/video-tiktok-ohnmacht-challenge-kreuzberger-grundschule.html", "thumbnailUrl": null, "date": "Wed, 08 May 2024 20:26:00 +0200", "lat": 52.4986, "lon": 13.4196, "intensity": 0.7, "source": "RBB"}, {"title": "Kommunalwahlen in Brandenburg: Mehr Kandidierende - aber immer weniger von Parteien", "url": "https://www.rbb24.de/politik/wahl/kommunalwahlen/2024/brandenburg-kommunalwahlen-mehr-kandidierende-weniger-parteien.html", "thumbnailUrl": null, "date": "Wed, 08 May 2024 20:15:07 +0200", "lat": 52.520008, "lon": 13.404954, "intensity": 0.6, "source": "RBB"}, {"title": "Pro-pal\u00e4stinensische Proteste: Polizei ermittelt nach R\u00e4umung von FU-Gel\u00e4nde", "url": "https://www.rbb24.de/politik/beitrag/2024/05/berlin-fu-proteste-palaestina-polizei-bilanz-dozenten.html", "thumbnailUrl": null, "date": "Wed, 08 May 2024 19:05:42 +0200", "lat": 52.4522, "lon": 13.3044, "intensity": 0.7, "source": "RBB"}, {"title": "Bilanz f\u00fcr 2023 vorgestellt: Flughafen BER vergr\u00f6\u00dfert seine Verluste", "url": "https://www.rbb24.de/wirtschaft/beitrag/2024/05/berlin-brandenburg-flughafen-ber-groessere-verluste-bilanz.html", "thumbnailUrl": null, "date": "Wed, 08 May 2024 17:43:00 +0200", "lat": 52.366, "lon": 13.503, "intensity": 0.8, "source": "RBB"}, {"title": "Tag der Befreiung: Brandenburgs Ministerpr\u00e4sident Woidke erinnert an Weltkriegsende", "url": "https://www.rbb24.de/panorama/beitrag/2024/05/brandenburgs-ministerpraesident-woidke-erinnert-an-weltkriegsende.html", "thumbnailUrl": null, "date": "Wed, 08 May 2024 17:17:00 +0200", "lat": 52.52, "lon": 13.758, "intensity": 0.7, "source": "RBB"}, {"title": "Besuch des Brandenburger Kulturausschusses: Gedenkst\u00e4tte Lager Jamlitz soll ausgebaut werden", "url": "https://www.rbb24.de/panorama/beitrag/2024/05/gedenkstaette-lieberose-jamlitz-lager-ende-zweiter-weltkrieg-kulturausschuss.html", "thumbnailUrl": null, "date": "Wed, 08 May 2024 16:45:00 +0200", "lat": 51.9053, "lon": 13.8861, "intensity": 0.7, "source": "RBB"}, {"title": "Einbruch ins Gr\u00fcne Gew\u00f6lbe - Angeklagter freigesprochen", "url": "https://www.rbb24.de/panorama/beitrag/2024/05/einbruch-gruenes-gewoelbe-dresden-angeklagter-freigesprochen.html", "thumbnailUrl": null, "date": "Wed, 08 May 2024 16:36:00 +0200", "lat": 51.051812, "lon": 13.737042, "intensity": 0.8, "source": "RBB"}, {"title": "Treffen in L\u00fcbbenau: Deutscher Landkreistag fordert schnellere Urteile nach Angriffen auf Politiker", "url": "https://www.rbb24.de/panorama/beitrag/2024/05/deutscher-landkreistag-treffen-luebbenau-angriffe-politiker.html", "thumbnailUrl": null, "date": "Wed, 08 May 2024 15:22:00 +0200", "lat": 51.8708, "lon": 13.9756, "intensity": 0.6, "source": "RBB"}, {"title": "Hanning-Nachfolger: Emir Kurtagic wird den 1. VfL Potsdam in der Handball-Bundesliga trainieren", "url": "https://www.rbb24.de/sport/beitrag/2024/05/handball-1--vfl-potsdam-trainer-bob-hanning-emir-kurtagic.html", "thumbnailUrl": null, "date": "Wed, 08 May 2024 14:23:25 +0200", "lat": 52.3989, "lon": 13.0645, "intensity": 0.3, "source": "RBB"}, {"title": "Prorussische Bikergruppe \"Nachtw\u00f6lfe\" in Potsdam angekommen", "url": "https://www.rbb24.de/panorama/beitrag/2024/05/russische-rockerbande-nachwoelfe-potsdam.html", "thumbnailUrl": null, "date": "Wed, 08 May 2024 13:51:57 +0200", "lat": 52.3958, "lon": 13.0645, "intensity": 0.7, "source": "RBB"}, {"title": "Zugverkehr auf der Bahnlinie RB24 zwischen Berlin und Eberswalde bis Mitte Mai eingeschr\u00e4nkt", "url": "https://www.rbb24.de/panorama/beitrag/2024/05/rb-24-zug-ausfaelle-eberswalde-berlin-mai.html", "thumbnailUrl": null, "date": "Wed, 08 May 2024 13:16:00 +0200", "lat": 52.52, "lon": 13.485, "intensity": 0.7, "source": "RBB"}, {"title": "Eishockey-Meister: Goalie Jake Hildebrand bleibt bei Eisb\u00e4ren Berlin", "url": "https://www.rbb24.de/sport/beitrag/2024/05/eishockey-del-eisbaeren-berlin-vertrag-abgaenge-richer.html", "thumbnailUrl": null, "date": "Wed, 08 May 2024 11:50:26 +0200", "lat": 52.5074, "lon": 13.4132, "intensity": 0.3, "source": "RBB"}, {"title": "Berlin-Mitte - Mann im Park hinter BND-Geb\u00e4ude get\u00f6tet", "url": "https://www.rbb24.de/panorama/beitrag/2024/05/berlin-mitte-toetung-chausseestrasse-suedpankepark-mann.html", "thumbnailUrl": null, "date": "Wed, 08 May 2024 10:49:38 +0200", "lat": 52.52, "lon": 13.3667, "intensity": 0.8, "source": "RBB"}, {"title": "Agrarlandschaftsforschung: Bundespr\u00e4sident Steinmeier besucht das Leibniz-Zentrum in M\u00fcncheberg", "url": "https://www.rbb24.de/politik/beitrag/av7/video-brandenburg-steinmeier-ost-tour-zalf-Agrarlandschaftsforschung.html", "thumbnailUrl": null, "date": "Tue, 07 May 2024 21:44:25 +0200", "lat": 52.526, "lon": 13.902, "intensity": 0.5, "source": "RBB"}, {"title": "Video | Geothermie und Solarenergie: Wie die Gasag vom Gas wegkommen will", "url": "https://www.rbb24.de/panorama/beitrag/av7/video-berlin-geothermie-gasthermie-gasag-abschied-vom-gas-neubau-umstellung.html", "thumbnailUrl": null, "date": "Tue, 07 May 2024 21:44:22 +0200", "lat": 52.5170365, "lon": 13.3795729, "intensity": 0.6, "source": "RBB"}, {"title": "Video | Pressekonferenz: Union-Pr\u00e4sident Zingler spricht \u00fcber Entlassung von Trainer Bjelica", "url": "https://www.rbb24.de/sport/beitrag/av7/fussball-bundesliga-union-berlin-dirk-zingler-trainer-entlassung-nenad-bjelica.html", "thumbnailUrl": null, "date": "Tue, 07 May 2024 19:18:19 +0200", "lat": 52.5145, "lon": 13.4643, "intensity": 0.75, "source": "RBB"}, {"title": "Tag der Befreiung: Berliner Polizei verbietet russische Symbole an Sowjetischen Ehrenmalen", "url": "https://www.rbb24.de/panorama/beitrag/2024/05/berlin-polizei-verbot-russische-flaggen-tag-der-befreiung-tag-des-sieges-sowjetische-ehrenmale-treptow-schoenholz.html", "thumbnailUrl": null, "date": "Tue, 07 May 2024 19:12:06 +0200", "lat": 52.5166, "lon": 13.3777, "intensity": 0.8, "source": "RBB"}, {"title": "Gedenken Ende Zweiter Weltkrieg: Russlandtreue \"Nachtw\u00f6lfe\"-Gruppe besucht Seelower H\u00f6hen", "url": "https://www.rbb24.de/panorama/beitrag/2024/05/brandenburg-maerkisch-oderland-seelow-russlandtreue-nachtwoelfe-besuchen-gedenkstaette.html", "thumbnailUrl": null, "date": "Tue, 07 May 2024 18:12:00 +0200", "lat": 52.498, "lon": 14.4323, "intensity": 0.6, "source": "RBB"}, {"title": "Abwahlverfahren gegen Potsdamer Oberb\u00fcrgermeister Schubert wird er\u00f6ffnet", "url": "https://www.rbb24.de/politik/beitrag/2024/05/brandenburg-potsdam-svv-abwahl-verfahren-oberbuergermeister-schubert.html", "thumbnailUrl": null, "date": "Tue, 07 May 2024 18:02:00 +0200", "lat": 52.3915, "lon": 13.0645, "intensity": 0.8, "source": "RBB"}, {"title": "Oder-Havel-Kanal: Probleme bei Br\u00fcckenabriss in Oderberg legen Schiffsverkehr lahm", "url": "https://www.rbb24.de/panorama/beitrag/2024/05/brandenburg-oder-havel-wasserstrasse-brueckenbau-berufsschiffer-sitzen-fest.html", "thumbnailUrl": null, "date": "Tue, 07 May 2024 17:42:03 +0200", "lat": 52.8224, "lon": 14.0413, "intensity": 0.8, "source": "RBB"}, {"title": "Berlin will Religionsunterricht als Wahlpflichtfach bis Ende 2026", "url": "https://www.rbb24.de/panorama/beitrag/2024/05/berlin-kai-wegner-buergermeister-will-bis-2026-religionsunterricht-als-wahlpflichtfach-schule-bildung.html", "thumbnailUrl": null, "date": "Tue, 07 May 2024 17:40:00 +0200", "lat": 52.520008, "lon": 13.404954, "intensity": 0.6, "source": "RBB"}, {"title": "Video | Gedenkst\u00e4tte Sachsenhausen: G\u00e4steb\u00fccher voll mit antisemitischen und Hasskommentaren", "url": "https://www.rbb24.de/panorama/beitrag/av7/gedenkstaetten-gaestebuecher-voll-mit-hasskommentaren1.html", "thumbnailUrl": null, "date": "Mon, 06 May 2024 21:31:00 +0200", "lat": 52.7661, "lon": 13.2247, "intensity": 0.8, "source": "RBB"}, {"title": "MV-Trend: AfD trotz Verlusten Nummer 1 - BSW auf Anhieb zweistellig", "url": "https://www.ndr.de/nachrichten/mecklenburg-vorpommern/MV-Trend-AfD-trotz-Verlusten-Nummer-1-BSW-auf-Anhieb-zweistellig,mvtrend144.html", "thumbnailUrl": "https://www.ndr.de/nachrichten/mecklenburg-vorpommern/sonntagsfrage138_v-contentwidescreen.jpg", "date": "2024-05-09T22:47:30.532+02:00", "lat": 53.6127, "lon": 12.6244, "intensity": 0.5, "source": "NDR"}, {"title": "Hamburger Hafengeburtstag 2024 mit Einlaufparade gestartet", "url": "https://www.ndr.de/nachrichten/hamburg/Hamburger-Hafengeburtstag-2024-mit-Einlaufparade-gestartet,hafengeburtstag3786.html", "thumbnailUrl": "https://www.ndr.de/nachrichten/hamburg/hafengeburtstag3808_v-contentwidescreen.jpg", "date": "2024-05-09T21:19:39.435+02:00", "lat": 53.5511, "lon": 9.9937, "intensity": 0.8, "source": "NDR"}, {"title": "Zehnter DFB-Pokal-Titel in Serie: Wolfsburgs Frauen bezwingen FCB", "url": "https://www.ndr.de/sport/fussball/Zehnter-DFB-Pokal-Titel-in-Serie-Wolfsburgs-Frauen-bezwingen-Bayern-Muenchen,wolfsburg19740.html", "thumbnailUrl": "https://www.ndr.de/sport/fussball/wolfsburg19744_v-contentwidescreen.jpg", "date": "2024-05-09T22:20:03.234+02:00", "lat": 52.422, "lon": 10.759, "intensity": 0.8, "source": "NDR"}, {"title": "Vatertag 2024: Viel Alkohol, aber keine gr\u00f6\u00dferen Zwischenf\u00e4lle", "url": "https://www.ndr.de/nachrichten/niedersachsen/Vatertag-2024-Viel-Alkohol-aber-keine-groesseren-Zwischenfaelle,vatertag514.html", "thumbnailUrl": "https://www.ndr.de/nachrichten/niedersachsen/hannover_weser-leinegebiet/himmelfahrt232_v-contentwidescreen.jpg", "date": "2024-05-09T19:19:37.803+02:00", "lat": 51.9687, "lon": 9.5552, "intensity": 0.5, "source": "NDR"}, {"title": "Heute live: \"Alles Eurovision\" aus Malm\u00f6", "url": "https://www.eurovision.de/news/ESC-2024-Alles-Eurovision-mit-Alina-Stiegler-und-Consi-live-aus-Malmoe,alleseurovision164.html", "thumbnailUrl": "https://www.eurovision.de/alleseurovision184_v-contentwidescreen.jpg", "date": "2024-05-10T00:06:56.143+02:00", "lat": 55.605, "lon": 13.0878, "intensity": 0.3, "source": "NDR"}, {"title": "\"Grenze \u00fcberschritten\": Sanit\u00e4ter bei Einsatz angegriffen", "url": "https://www.ndr.de/nachrichten/niedersachsen/braunschweig_harz_goettingen/Grenze-ueberschritten-Sanitaeter-bei-Einsatz-angegriffen,sanitaeter166.html", "thumbnailUrl": "https://www.ndr.de/nachrichten/schleswig-holstein/unfall16970_v-contentwidescreen.jpg", "date": "2024-05-09T16:10:34.029+02:00", "lat": 52.2546, "lon": 10.4659, "intensity": 0.8, "source": "NDR"}, {"title": "Halbzeit bei der Spargelernte: Gute Qualit\u00e4t, schlechte Stimmung", "url": "https://www.ndr.de/nachrichten/mecklenburg-vorpommern/Halbzeit-bei-der-Spargelernte-Gute-Qualitaet-schlechte-Stimmung-,spargelernte224.html", "thumbnailUrl": "https://www.ndr.de/nachrichten/niedersachsen/oldenburg_ostfriesland/spargel1680_v-contentwidescreen.jpg", "date": "2024-05-09T21:07:41.410+02:00", "lat": 53.61265, "lon": 12.767917, "intensity": 0.6, "source": "NDR"}, {"title": "Viel los zu Himmelfahrt auf den norddeutschen Autobahnen", "url": "https://www.ndr.de/nachrichten/niedersachsen/Viel-los-zu-Himmelfahrt-auf-norddeutschen-Autobahnen,verkehr1284.html", "thumbnailUrl": "https://www.ndr.de/fernsehen/sendungen/markt/stau1206_v-contentwidescreen.jpg", "date": "2024-05-09T17:19:33.635+02:00", "lat": 53.5511, "lon": 9.9937, "intensity": 0.7, "source": "NDR"}, {"title": "Himmelfahrt: Wie wird das Wetter im Norden am langen Wochenende?", "url": "https://www.ndr.de/nachrichten/niedersachsen/Himmelfahrt-Wie-ist-Wetter-im-Norden-am-langen-Wochenende,wetter8890.html", "thumbnailUrl": "https://www.ndr.de/nachrichten/info/wetter3912_v-contentwidescreen.jpg", "date": "2024-05-09T19:09:24.906+02:00", "lat": 53.0793, "lon": 9.8153, "intensity": 0.3, "source": "NDR"}, {"title": "Hamburger Feuerwehr l\u00f6scht Tankstellenbrand in Hammerbrook", "url": "https://www.ndr.de/nachrichten/hamburg/Hamburger-Feuerwehr-loescht-Tankstellenbrand-in-Hammerbrook,feuer5980.html", "thumbnailUrl": "https://www.ndr.de/nachrichten/hamburg/feuer5988_v-contentwidescreen.jpg", "date": "2024-05-09T20:18:35.879+02:00", "lat": 53.5417, "lon": 10.0191, "intensity": 0.8, "source": "NDR"}, {"title": "Schleswig will sich besser vor Hochwasser sch\u00fctzen", "url": "https://www.ndr.de/nachrichten/schleswig-holstein/Schleswig-will-sich-besser-vor-Hochwasser-schuetzen,hochwasser6040.html", "thumbnailUrl": "https://www.ndr.de/nachrichten/schleswig-holstein/hochwasserschutz206_v-contentwidescreen.jpg", "date": "2024-05-08T19:43:58.316+02:00", "lat": 54.5053, "lon": 9.5512, "intensity": 0.8, "source": "NDR"}, {"title": "Einigung im Tarifkonflikt im Hamburger Einzelhandel erzielt", "url": "https://www.ndr.de/nachrichten/hamburg/Einigung-im-Tarifkonflikt-im-Hamburger-Einzelhandel-erzielt,einzelhandel548.html", "thumbnailUrl": "https://www.ndr.de/nachrichten/niedersachsen/verdi510_v-contentwidescreen.jpg", "date": "2024-05-09T09:28:17.393+02:00", "lat": 53.5511, "lon": 9.9936, "intensity": 0.8, "source": "NDR"}, {"title": "Wohnen in der Hamburger Hafencity: Richtfest im Quartier Neuhavn", "url": "https://www.ndr.de/nachrichten/hamburg/Wohnen-in-der-Hamburger-Hafencity-Richtfest-im-Quartier-Neuhavn,hafencity888.html", "thumbnailUrl": "https://www.ndr.de/nachrichten/hamburg/hafencity890_v-contentwidescreen.jpg", "date": "2024-05-09T20:43:29.221+02:00", "lat": 53.5432, "lon": 9.9977, "intensity": 0.7, "source": "NDR"}, {"title": "Gro\u00dfbrand in Hamburg: Tankstelle ausgebrannt", "url": "https://www.ndr.de/nachrichten/info/Grossbrand-in-Hamburg-Tankstelle-ausgebrannt,ndrinfo59548.html", "thumbnailUrl": "https://www.ndr.de/fernsehen/screenshot1746394_v-contentwidescreen.jpg", "date": "2024-05-09T22:56:29.614+02:00", "lat": 53.5753, "lon": 10.0009, "intensity": 0.8, "source": "NDR"}, {"title": "V\u00e4terurlaub: Wo bleibt die Familienstartzeit?", "url": "https://www.ndr.de/nachrichten/info/Vaeterurlaub-Wo-bleibt-die-Familienstartzeit,ndrinfo59546.html", "thumbnailUrl": "https://www.ndr.de/fernsehen/screenshot1746382_v-contentwidescreen.jpg", "date": "2024-05-09T22:56:28.139+02:00", "lat": 48.135125, "lon": 11.58198, "intensity": 0.7, "source": "NDR"}, {"title": "Ausverkauf bei der Emdener St. Michael Kirche", "url": "https://www.ndr.de/nachrichten/info/Ausverkauf-bei-der-Emdener-St-Michael-Kirche,ndrinfo59552.html", "thumbnailUrl": "https://www.ndr.de/fernsehen/screenshot1746410_v-contentwidescreen.jpg", "date": "2024-05-09T22:56:37.610+02:00", "lat": 53.3684, "lon": 7.2059, "intensity": 0.7, "source": "NDR"}, {"title": "Europawahl: Alle Informationen f\u00fcr den Norden", "url": "https://www.ndr.de/nachrichten/info/Europawahl-Alle-Informationen-fuer-Norddeutschland,europawahlindex104.html", "thumbnailUrl": "https://www.ndr.de/nachrichten/info/europawahl932_v-contentwidescreen.jpg", "date": "2024-05-07T15:10:53.385+02:00", "lat": 53.5511, "lon": 9.9937, "intensity": 0.8, "source": "NDR"}, {"title": "Gaspreis Dashboard", "url": "https://www.ndr.de/home/gaspreis176.html", "thumbnailUrl": null, "date": "2023-04-06T14:49:06.409+02:00", "lat": 51.3426, "lon": 9.9976, "intensity": 0.7, "source": "NDR"}, {"title": "NDR Radioprogramme", "url": "https://www.ndr.de/radio/radiologobox100.html", "thumbnailUrl": null, "date": "2020-12-01T14:04:26.700+01:00", "lat": 53.5511, "lon": 9.9937, "intensity": 0.3, "source": "NDR"}, {"title": "Podcast: \"Wir Weltmeister\" - Auf der Suche nach 2014", "url": "https://www.ardaudiothek.de/sendung/wir-weltmeister-auf-der-suche-nach-2014/13360445/", "thumbnailUrl": "https://www.ndr.de/sport/fussball/fifawm2014/wirweltmeister108_v-contentwidescreen.jpg", "date": "2024-05-06T22:39:08.340+02:00", "lat": 53.5511, "lon": 9.9876, "intensity": 0.4, "source": "NDR"}, {"title": "Streitkr\u00e4fte und Strategien", "url": "https://www.ndr.de/nachrichten/info/podcast2998.html", "thumbnailUrl": "https://www.ndr.de/mediathek/mediathekbild652_v-contentwidescreen.jpg", "date": "2024-05-07T15:20:09.317+02:00", "lat": 53.5511, "lon": 9.9937, "intensity": 0.8, "source": "NDR"}, {"title": "Raus aus der Depression", "url": "https://www.ndr.de/nachrichten/info/podcast5110.html", "thumbnailUrl": "https://www.ndr.de/mediathek/podcast5112_v-contentwidescreen.jpg", "date": "2024-05-06T05:00:11.696+02:00", "lat": 53.5511, "lon": 9.9937, "intensity": 0.8, "source": "NDR"}, {"title": "Unsere Comedy \"Die Kur-Oase\"!", "url": "https://www.ndr.de/ndr2/podcasts/podcast5816.html", "thumbnailUrl": "https://www.ndr.de/ndr2/podcasts/podcast5812_v-contentwidescreen.jpg", "date": "2024-05-08T07:15:08.744+02:00", "lat": 54.9069, "lon": 8.7386, "intensity": 0.2, "source": "NDR"}, {"title": "Podcast: \"Gerichtssaal 237. True Crime aus dem Strafgericht\"", "url": "https://www.ndr.de/podcast/Podcast-Gerichtssaal-237-True-Crime-aus-dem-Strafgericht,gerichtssaalzweidreisieben104.html", "thumbnailUrl": "https://www.ndr.de/podcast/gerichtssaalzweidreisieben100_v-contentwidescreen.jpg", "date": "2024-05-08T08:30:02.362+02:00", "lat": 53.550341, "lon": 10.000348, "intensity": 0.3, "source": "NDR"}, {"title": "Krieg und Terror - Die Lage im Nahen Osten und in der Ukraine", "url": "https://www.ndr.de/nachrichten/info/podcast5342.html", "thumbnailUrl": "https://www.ndr.de/nachrichten/info/podcastbild412_v-contentwidescreen.jpg", "date": "2024-05-09T18:21:47.076+02:00", "lat": 46.79651, "lon": 30.739834, "intensity": 0.8, "source": "NDR"}, {"title": "Standpunkte", "url": "https://www.ndr.de/nachrichten/info/podcast4700.html", "thumbnailUrl": "https://www.ndr.de/mediathek/podcast5332_v-contentwidescreen.jpg", "date": "2024-05-10T00:03:14.352+02:00", "lat": 53.5511, "lon": 9.9937, "intensity": 0.5, "source": "NDR"}, {"title": "eat.READ.sleep. B\u00fccher f\u00fcr dich", "url": "https://www.ndr.de/kultur/sendungen/eat_read_sleep/index.html", "thumbnailUrl": "https://www.ndr.de/mediathek/podcastbild434_v-contentwidescreen.jpg", "date": "2024-05-08T16:27:25.120+02:00", "lat": 53.5511, "lon": 9.9937, "intensity": 0.2, "source": "NDR"}, {"title": "Die Ern\u00e4hrungs-Docs - Essen als Medizin", "url": "https://www.ndr.de/fernsehen/sendungen/die-ernaehrungsdocs/audio-podcast/index.html", "thumbnailUrl": "https://www.ndr.de/fernsehen/sendungen/die-ernaehrungsdocs/podcastbild338_v-contentwidescreen.jpg", "date": "2024-05-08T08:00:10.109+02:00", "lat": 53.5511, "lon": 9.9876, "intensity": 0.3, "source": "NDR"}, {"title": "Mein Einsatz - der Feuerwehr-Podcast von NDR Niedersachsen", "url": "https://www.ndr.de/ndr1niedersachsen/podcast5774.html", "thumbnailUrl": "https://www.ndr.de/ndr1niedersachsen/podcasts/podcastbild364_v-contentwidescreen.jpg", "date": "2024-05-09T04:00:08.209+02:00", "lat": 52.3759, "lon": 9.7345, "intensity": 0.7, "source": "NDR"}, {"title": "\"Feel Hamburg\" - alle Folgen", "url": "https://www.ndr.de/903/podcasts/podcast5108.html", "thumbnailUrl": "https://www.ndr.de/mediathek/mediathekbild514_v-contentwidescreen.jpg", "date": "2024-04-23T16:10:34.282+02:00", "lat": 53.55, "lon": 10.0, "intensity": 0.4, "source": "NDR"}, {"title": "Intensiv-Station - Satire von NDR Info", "url": "https://www.ndr.de/nachrichten/info/podcast4274.html", "thumbnailUrl": "https://www.ndr.de/nachrichten/info/programm/intensivstation3272_v-contentwidescreen.jpg", "date": "2024-04-29T21:03:04.134+02:00", "lat": 54.3706, "lon": 10.5038, "intensity": 0.8, "source": "NDR"}, {"title": "Amerika, wir m\u00fcssen reden!", "url": "https://www.ndr.de/nachrichten/info/podcast4932.html", "thumbnailUrl": "https://www.ndr.de/nachrichten/info/podcastbild488_v-contentwidescreen.jpg", "date": "2024-04-29T20:25:57.775+02:00", "lat": 39.78373, "lon": -100.445882, "intensity": 0.7, "source": "NDR"}, {"title": "Pinchas Goldschmidt bekommt Aachener Karlspreis", "url": "https://www1.wdr.de/nachrichten/rheinland/karlspreis-verleihung-aachen-102.html", "thumbnailUrl": null, "date": "2024-05-09T17:57:34Z", "lat": 50.7753, "lon": 6.0836, "intensity": 0.7, "source": "WDR"}, {"title": "ESC in Malm\u00f6: Israel trotz Protesten im Finale", "url": "https://www1.wdr.de/nachrichten/esc-malmoe-halbfinale-israel-hurricane-100.html", "thumbnailUrl": null, "date": "2024-05-10T00:10:07Z", "lat": 55.604, "lon": 13.0878, "intensity": 0.7, "source": "WDR"}, {"title": "NACHRICHTEN", "url": "https://reportage.wdr.de/das-macht-fans-von-taylor-swift-besonders", "thumbnailUrl": null, "date": "2024-05-09T14:05:04Z", "lat": 51.5177, "lon": 7.071, "intensity": 0.6, "source": "WDR"}, {"title": "Reiseverkehr in NRW: Staugefahr und volle Z\u00fcge am langen Wochenende", "url": "https://www1.wdr.de/verkehr/nrw/verkehrsthemen/verkehrslage-christi-himmelfahrt-100.html", "thumbnailUrl": null, "date": "2024-05-09T18:56:38Z", "lat": 51.8134, "lon": 7.6261, "intensity": 0.7, "source": "WDR"}, {"title": "CDU-Parteichef Merz im WDR-Interview: \"Wir leben in einer neuen Zeit\"", "url": "https://www1.wdr.de/nachrichten/friedrich-merz-interview-cdu-parteitag-100.html", "thumbnailUrl": null, "date": "2024-05-08T18:16:13Z", "lat": 51.481845, "lon": 7.588576, "intensity": 0.6, "source": "WDR"}, {"title": "Wahl-O-Mat zur Europawahl ist online: Wen soll ich w\u00e4hlen?", "url": "https://www1.wdr.de/nachrichten/europawahl-2024/wahlomat-eu-wahl-100.html", "thumbnailUrl": null, "date": "2024-05-07T09:23:25Z", "lat": 52.52, "lon": 13.4002, "intensity": 0.6, "source": "WDR"}, {"title": "Nach Angriffen: Mehr Polizeischutz f\u00fcr Politiker?", "url": "https://www1.wdr.de/nachrichten/reul-polizeischutz-politiker-wahlkampf-angriffe-nrw-100.html", "thumbnailUrl": null, "date": "2024-05-07T12:38:12Z", "lat": 51.4556, "lon": 7.589, "intensity": 0.8, "source": "WDR"}, {"title": "\u00dcbersicht: Europawahl 2024 in NRW", "url": "https://www1.wdr.de/nachrichten/europawahl-2024/europawahl-2024-uebersicht-100.html", "thumbnailUrl": null, "date": "2024-05-08T05:25:04Z", "lat": 51.4818, "lon": 7.6261, "intensity": 0.3, "source": "WDR"}, {"title": "Listen auf den Wahlzetteln: Diese 35 Parteien treten in Deutschland an", "url": "https://www.tagesschau.de/europawahl/parteien_und_programme/europawahl-2024-parteien-100.html", "thumbnailUrl": null, "date": "2024-05-07T08:51:57Z", "lat": 51.2183, "lon": 9.9937, "intensity": 0.3, "source": "WDR"}, {"title": "Mord und Raub\u00fcberfall: Mann in Hamm festgenommen", "url": "https://www1.wdr.de/nachrichten/hamm-raubueberfall-frauen-100.html", "thumbnailUrl": null, "date": "2024-05-09T18:22:55Z", "lat": 51.6739, "lon": 7.8114, "intensity": 0.8, "source": "WDR"}, {"title": "Vorderreifen platzt: Boeing-Flugzeug aus K\u00f6ln/Bonn landet in T\u00fcrkei", "url": "https://www1.wdr.de/nachrichten/boeing-koeln-tuerkei-100.html", "thumbnailUrl": null, "date": "2024-05-09T18:21:05Z", "lat": 36.5438, "lon": 31.7986, "intensity": 0.6, "source": "WDR"}, {"title": "Neuer Zeppelin hebt regelm\u00e4\u00dfig im Ruhrgebiet ab", "url": "https://www1.wdr.de/nachrichten/ruhrgebiet/luftschiff-zeppelin-essen-muelheim-100.html", "thumbnailUrl": null, "date": "2024-05-09T11:07:03Z", "lat": 51.4534, "lon": 6.9873, "intensity": 0.5, "source": "WDR"}, {"title": "Luxus-Schleuser spendeten mehr als 50.000 Euro an die CDU", "url": "https://www1.wdr.de/nachrichten/luxus-schleuser-durchsuchungen-cdu-parteispende-100.html", "thumbnailUrl": null, "date": "2024-05-09T17:17:38Z", "lat": 51.0303, "lon": 6.8451, "intensity": 0.7, "source": "WDR"}, {"title": "Nahost-Krieg: Nahost-Liveblog: ++ Netanyahu will zur Not auch alleine k\u00e4mpfen ++", "url": "https://www.tagesschau.de/newsticker/liveblog-nahost-donnerstag-134.html", "thumbnailUrl": null, "date": "2024-05-09T21:33:02Z", "lat": 31.0461, "lon": 34.8516, "intensity": 0.8, "source": "WDR"}, {"title": "Milit\u00e4roperation in S\u00fcdgaza: Israels Armee r\u00fcckt auf Rafah vor", "url": "https://www.tagesschau.de/ausland/asien/israel-rafah-104.html", "thumbnailUrl": null, "date": "2024-05-07T07:30:01Z", "lat": 31.31, "lon": 34.25, "intensity": 0.8, "source": "WDR"}, {"title": "Israel untersagt Betrieb: Scharfe Kritik an Al-Jazeera-Schlie\u00dfung in Israel", "url": "https://www.tagesschau.de/ausland/israel-schliessung-aldschasira-kritik-100.html", "thumbnailUrl": null, "date": "2024-05-06T08:57:01Z", "lat": 32.0853, "lon": 34.781768, "intensity": 0.8, "source": "WDR"}, {"title": "Krieg in Nahost: Hamas stimmt Vorschlag f\u00fcr Feuerpause zu", "url": "https://www.tagesschau.de/eilmeldung/hamas-feuerpause-gazakrieg-100.html", "thumbnailUrl": null, "date": "2024-05-06T20:00:06Z", "lat": 31.7683, "lon": 35.2137, "intensity": 0.8, "source": "WDR"}, {"title": "Gr\u00fcnen-Politiker in Essen angegriffen: Polizei ver\u00f6ffentlicht neue Details", "url": "https://www1.wdr.de/nachrichten/ruhrgebiet/gruenen-politiker-in-essen-angegriffen-100.html", "thumbnailUrl": null, "date": "2024-05-08T18:33:14Z", "lat": 51.4556, "lon": 7.0106, "intensity": 0.8, "source": "WDR"}, {"title": "F\u00fcr die Einb\u00fcrgerung: Termine zum Verkauf f\u00fcr 250 Euro in Bochum", "url": "https://www1.wdr.de/nachrichten/bochum-einbuergerung-100.html", "thumbnailUrl": null, "date": "2024-05-08T18:17:28Z", "lat": 51.481845, "lon": 7.216236, "intensity": 0.8, "source": "WDR"}, {"title": "Drei mutma\u00dfliche Mafia-Mitglieder aus Siegen angeklagt", "url": "https://www1.wdr.de/nachrichten/westfalen-lippe/eisdiele-siegen-mafia-geldwaesche-anklage-100.html", "thumbnailUrl": null, "date": "2024-05-08T16:26:15Z", "lat": 50.874, "lon": 8.025, "intensity": 0.8, "source": "WDR"}, {"title": "Dortmund will weniger Altkleidercontainer zulassen", "url": "https://www1.wdr.de/nachrichten/ruhrgebiet/altkleider-dortmund-container-100.html", "thumbnailUrl": null, "date": "2024-05-08T11:29:07Z", "lat": 51.5136, "lon": 7.4683, "intensity": 0.6, "source": "WDR"}, {"title": "Transporter f\u00e4hrt in Aachener Schreibwarengesch\u00e4ft", "url": "https://www1.wdr.de/nachrichten/rheinland/aachen-walheim-blitzeinbruch-schreibwarenladen-100.html", "thumbnailUrl": null, "date": "2024-05-08T15:18:17Z", "lat": 50.7958, "lon": 6.1714, "intensity": 0.7, "source": "WDR"}, {"title": "Nach Verdacht auf Gruppenvergewaltigung: Jugendliche in Solingen auf freiem Fu\u00df", "url": "https://www1.wdr.de/nachrichten/rheinland/hausdurchsuchungen-solingen-jugendliche-100.html", "thumbnailUrl": null, "date": "2024-05-08T08:44:12Z", "lat": 51.163935, "lon": 7.083644, "intensity": 0.8, "source": "WDR"}, {"title": "NRW-St\u00e4dtetag: Bochums Oberb\u00fcrgermeister neuer Vorsitzender", "url": "https://www1.wdr.de/nachrichten/landespolitik/staedtetag-nrw-neuer-vorsitzender-bochums-ob-eiskirch-100.html", "thumbnailUrl": null, "date": "2024-05-08T15:28:39Z", "lat": 51.481845, "lon": 7.216236, "intensity": 0.8, "source": "WDR"}, {"title": "Beschwerde aus der Justiz: In NRW fehlen mehr als 400 Staatsanw\u00e4lte", "url": "https://www1.wdr.de/nachrichten/landespolitik/juristen-brandbrief-wuest-100.html", "thumbnailUrl": null, "date": "2024-05-07T17:08:25Z", "lat": 51.9607, "lon": 7.6261, "intensity": 0.8, "source": "WDR"}, {"title": "Bestenauslese oder Vetternwirtschaft: Opposition will Untersuchungsausschuss im Fall Limbach", "url": "https://www1.wdr.de/nachrichten/landespolitik/untersuchungsausschuss-limbach-100.html", "thumbnailUrl": null, "date": "2024-05-07T13:14:31Z", "lat": 51.4614, "lon": 7.5986, "intensity": 0.8, "source": "WDR"}, {"title": "\"Ich w\u00e4hle euch nicht, aber es ist wichtig, dass ihr hier steht\"", "url": "https://www1.wdr.de/nachrichten/ruhrgebiet/stimmung-angriff-politiker-wahlkampf-100.html", "thumbnailUrl": null, "date": "2024-05-06T20:11:07Z", "lat": 51.481845, "lon": 7.216236, "intensity": 0.8, "source": "WDR"}, {"title": "Merz als CDU-Chef wiedergew\u00e4hlt \u2013 mit rund 90 Prozent", "url": "https://www1.wdr.de/nachrichten/merz-als-cdu-chef-wiedergewaehlt--mit-rund-90-prozent-100.html", "thumbnailUrl": null, "date": "2024-05-06T18:40:41Z", "lat": 52.520008, "lon": 13.404954, "intensity": 0.8, "source": "WDR"}, {"title": "Krieg gegen die Ukraine: Ukraine-Liveblog: ++ Selenskyj entl\u00e4sst Chef der Leibwache ++", "url": "https://www.tagesschau.de/newsticker/liveblog-ukraine-donnerstag-340.html", "thumbnailUrl": null, "date": "2024-05-09T21:33:02Z", "lat": 50.4501, "lon": 30.5234, "intensity": 0.8, "source": "WDR"}, {"title": "Vereidigung in Moskau: Putin tritt offiziell seine f\u00fcnfte Amtszeit als Pr\u00e4sident an", "url": "https://www.tagesschau.de/ausland/europa/putin-amtszeit-offiziell-102.html", "thumbnailUrl": null, "date": "2024-05-07T11:57:01Z", "lat": 55.7558, "lon": 37.6176, "intensity": 0.8, "source": "WDR"}, {"title": "Lage der Ukraine: Darf die Ukraine westliche Waffen gegen Russland einsetzen?", "url": "https://www.tagesschau.de/ausland/europa/ukraine-westen-waffen-krieg-100.html", "thumbnailUrl": null, "date": "2024-05-06T04:57:01Z", "lat": 50.4501, "lon": 30.5234, "intensity": 0.8, "source": "WDR"}, {"title": "Karlspreisvergabe in Aachen: Zuerst sind die Studierenden dran", "url": "https://www1.wdr.de/nachrichten/rheinland/karlspreis-aachen-goldschmidt-100.html", "thumbnailUrl": null, "date": "2024-05-09T08:40:33Z", "lat": 50.7753, "lon": 6.083, "intensity": 0.7, "source": "WDR"}, {"title": "Verwahrloste Kinder in M\u00f6nchengladbach: Vater zu Haftstrafe verurteilt", "url": "https://www1.wdr.de/nachrichten/rheinland/prozess-moenchengladbach-verwahrlost-kinder-vater-amtsgericht100.html", "thumbnailUrl": null, "date": "2024-05-08T17:21:50Z", "lat": 51.1805, "lon": 6.4353, "intensity": 0.8, "source": "WDR"}, {"title": "W\u00fcrselener Lehrer unterrichtet im Hitler-Hemd", "url": "https://www1.wdr.de/nachrichten/rheinland/lehrer-wuerselen-hitler-hemd-100.html", "thumbnailUrl": null, "date": "2024-05-08T12:07:37Z", "lat": 50.8236, "lon": 6.1383, "intensity": 0.8, "source": "WDR"}, {"title": "Nach BVB-Sieg: Dortmund feiert Champions League-Finale", "url": "https://www1.wdr.de/nachrichten/ruhrgebiet/bvb-dortmund-feier-champions-league-finale-100.html", "thumbnailUrl": null, "date": "2024-05-08T11:07:19Z", "lat": 51.5136, "lon": 7.4556, "intensity": 0.8, "source": "WDR"}, {"title": "Jubel in Dortmund: BVB-Fans feiern Champions-League-Finale", "url": "https://www1.wdr.de/nachrichten/ruhrgebiet/bvb-sieg-champions-league-stimmung-dortmund-100.html", "thumbnailUrl": null, "date": "2024-05-08T19:00:37Z", "lat": 51.5136, "lon": 7.4481, "intensity": 0.8, "source": "WDR"}, {"title": "A1 bei Kamen wieder freigegeben", "url": "https://www1.wdr.de/nachrichten/ruhrgebiet/autobahn-eins-unfall-kamen-unna-gesperrt-100.html", "thumbnailUrl": null, "date": "2024-05-08T10:20:04Z", "lat": 51.6102, "lon": 7.6529, "intensity": 0.8, "source": "WDR"}, {"title": "Zug rammt Wohnwagen auf Bahn\u00fcbergang in Arnsberg", "url": "https://www1.wdr.de/nachrichten/westfalen-lippe/zug-unfall-wohnwagen-arnsberg-100.html", "thumbnailUrl": null, "date": "2024-05-08T15:12:14Z", "lat": 51.3966, "lon": 8.07, "intensity": 0.8, "source": "WDR"}, {"title": "Urteil: IS-Terroristin aus Detmold muss nicht ins Gef\u00e4ngnis", "url": "https://www1.wdr.de/nachrichten/westfalen-lippe/urteil-is-mitgliedschaft-detmold-100.html", "thumbnailUrl": null, "date": "2024-05-08T15:19:35Z", "lat": 51.8934, "lon": 8.8779, "intensity": 0.7, "source": "WDR"},