[{"title": "++ Khamenei droht Israel mit Vergeltung ++", "url": "https://www.tagesschau.de/newsticker/liveblog-nahost-dienstag-124.html", "thumbnailUrl": "https://images.tagesschau.de/image/e15030ba-32f7-428d-96cc-beceee8b1b2c/AAABjp5uICQ/AAABjcWesUg/16x9-512.jpg", "date": "2024-04-02T13:00:24.710+02:00", "lat": 31.4611, "lon": 35.0036, "intensity": 0.7, "source": "Tagesschau"}, {"title": "Nach langem Streit: Baustart des neuen BMW-Werks in Niederbayern", "url": "https://www.tagesschau.de/inland/regional/bayern/br-nach-langem-streit-baustart-des-neuen-bmw-werks-in-niederbayern-104.html", "thumbnailUrl": "https://images.tagesschau.de/image/62f2426a-bf01-49da-87d8-14221a4028b4/AAABjp53ugU/AAABjcWesUg/16x9-512.jpg", "date": "2024-04-02T12:59:31.973+02:00", "lat": 48.833333, "lon": 12.883333, "intensity": 0.8, "source": "Tagesschau"}, {"title": "Kind nach Sch\u00fcssen an Schule gestorben", "url": "https://www.tagesschau.de/ausland/europa/finnland-schuesse-schule-102.html", "thumbnailUrl": "https://images.tagesschau.de/image/7673ea72-26de-4b4f-a97b-886616869c82/AAABjp5smn4/AAABjcWesUg/16x9-512.jpg", "date": "2024-04-02T12:48:21.650+02:00", "lat": 60.3116, "lon": 24.9384, "intensity": 0.9, "source": "Tagesschau"}, {"title": "Tesla-Fabrik: Zugshuttle zwischen Berlin und Gr\u00fcnheide gestartet", "url": "https://www.tagesschau.de/inland/regional/berlin/rbb-tesla-fabrik-zugshuttle-zwischen-berlin-und-gruenheide-gestartet-100.html", "thumbnailUrl": "https://images.tagesschau.de/image/faacb1d3-3a29-4c45-b064-3a73208cac53/AAABjp5uTYk/AAABjcWesUg/16x9-512.jpg", "date": "2024-04-02T12:46:28.000+02:00", "lat": 52.390569, "lon": 13.616546, "intensity": 0.6, "source": "Tagesschau"}, {"title": "Anleger warten auf Inflationsdaten", "url": "https://www.tagesschau.de/wirtschaft/finanzen/marktberichte/marktbericht-dow-dax-geldanlage-boerse-aktien-100.html", "thumbnailUrl": "https://images.tagesschau.de/image/85918134-74fc-42bf-b695-1f93756f4f76/AAABjBWqlMk/AAABjcWesUg/16x9-512.jpg", "date": "2024-04-02T12:44:39.592+02:00", "lat": 51.4728, "lon": 9.9937, "intensity": 0.6, "source": "Tagesschau"}, {"title": "B241 gesperrt: 300 Liter Diesel aus Lkw ausgelaufen", "url": "https://www.tagesschau.de/inland/regional/niedersachsen/ndr-b241-gesperrt-300-liter-diesel-aus-lkw-ausgelaufen-100.html", "thumbnailUrl": "https://images.tagesschau.de/image/53a614c6-5d70-4e52-811d-6f91f10de0ee/AAABjp5nQWM/AAABjcWesUg/16x9-512.jpg", "date": "2024-04-02T12:37:00.000+02:00", "lat": 51.9036, "lon": 10.4291, "intensity": 0.8, "source": "Tagesschau"}, {"title": "Fachleute: Erster Sommertag steht BW am Wochenende bevor", "url": "https://www.tagesschau.de/inland/regional/badenwuerttemberg/swr-stau-sonne-sahara-staub-das-erwartet-die-menschen-in-bw-an-ostern-100.html", "thumbnailUrl": "https://images.tagesschau.de/image/e9ac3cba-39a1-4455-9d86-6cb45044ab73/AAABjpEVbu8/AAABjcWesUg/16x9-512.jpg", "date": "2024-04-02T12:34:00.000+02:00", "lat": 48.6616, "lon": 9.0878, "intensity": 0.6, "source": "Tagesschau"}, {"title": "Winternotprogramm f\u00fcr Obdachlose in Hamburg endet", "url": "https://www.tagesschau.de/inland/regional/hamburg/ndr-winternotprogramm-in-hamburg-endet-100.html", "thumbnailUrl": "https://images.tagesschau.de/image/d720793b-31b9-4516-85a1-560b7f1f1ba6/AAABjp4GFp4/AAABjcWesUg/16x9-512.jpg", "date": "2024-04-02T12:34:00.000+02:00", "lat": 53.55, "lon": 10.0, "intensity": 0.8, "source": "Tagesschau"}, {"title": "\"Reichsb\u00fcrger\"-Netzwerk: Prozess gegen Malsack-Winkemann und acht weitere Angeklagte startet im Mai", "url": "https://www.tagesschau.de/inland/regional/berlin/rbb-reichsbuerger-netzwerk-prozess-gegen-malsack-winkemann-und-acht-weitere-angeklagte-startet-im-mai-100.html", "thumbnailUrl": "https://images.tagesschau.de/image/f8ff0b62-0f31-42f0-8123-6f079aa1fcc2/AAABjp4ug9k/AAABjcWesUg/16x9-512.jpg", "date": "2024-04-02T12:32:40.000+02:00", "lat": 52.520008, "lon": 13.404954, "intensity": 0.8, "source": "Tagesschau"}, {"title": "Trotz Warnstreiks bei Lidl und Kaufland in Berlin und Brandenburg sind keine Filialschlie\u00dfungen zu erwarten", "url": "https://www.tagesschau.de/inland/regional/brandenburg/rbb-trotz-warnstreiks-bei-lidl-und-kaufland-in-berlin-und-brandenburg-sind-keine-filialschliessungen-zu-erwarten-100.html", "thumbnailUrl": "https://images.tagesschau.de/image/c8ea9a2f-103a-4ec6-a848-2e7539f24525/AAABjp5eDmY/AAABjcWesUg/16x9-512.jpg", "date": "2024-04-02T12:29:59.000+02:00", "lat": 52.520008, "lon": 13.404954, "intensity": 0.6, "source": "Tagesschau"}, {"title": "Burg im Spreewald: 22-J\u00e4hriger von Vermummten attackiert - Sch\u00e4delbruch", "url": "https://www.tagesschau.de/inland/regional/brandenburg/rbb-burg-im-spreewald-22-jaehriger-von-vermummten-attackiert-schaedelbruch-100.html", "thumbnailUrl": "https://images.tagesschau.de/image/5412691c-6a77-4547-82cb-da47280fde5a/AAABjp5cBSM/AAABjcWesUg/16x9-512.jpg", "date": "2024-04-02T12:23:18.000+02:00", "lat": 51.8254, "lon": 14.1159, "intensity": 0.8, "source": "Tagesschau"}, {"title": "Regenmengen", "url": "https://www.tagesschau.de/wetter/wetterthema/2024-04-02-regenmengen-102.html", "thumbnailUrl": "https://images.tagesschau.de/image/a4063c29-f003-427e-828d-96ad8a411a1e/AAABjp5QR3c/AAABjcWesUg/16x9-512.jpg", "date": "2024-04-02T12:19:37.292+02:00", "lat": 51.1657, "lon": 10.4515, "intensity": 0.7, "source": "Tagesschau"}, {"title": "Bilanz Winterhalbjahr: So viel Regen gab es in NRW noch nie", "url": "https://www.tagesschau.de/inland/regional/nordrheinwestfalen/wdr-bilanz-winterhalbjahr-so-viel-regen-gab-es-in-nrw-noch-nie-100.html", "thumbnailUrl": "https://images.tagesschau.de/image/370be890-be55-4059-9585-19f89d2993ff/AAABjp5zn70/AAABjcWesUg/16x9-512.jpg", "date": "2024-04-02T12:17:00.000+02:00", "lat": 51.4818, "lon": 7.6261, "intensity": 0.8, "source": "Tagesschau"}, {"title": "Wirtschaftskriminalit\u00e4t in Deutschland steigt", "url": "https://www.tagesschau.de/wirtschaft/wirtschaftskriminalitaet-deutschland-steigt-100.html", "thumbnailUrl": "https://images.tagesschau.de/image/e957f2e4-434d-493c-9ebc-ebd7c2f2f1b5/AAABjp5ACbY/AAABjcWesUg/16x9-512.jpg", "date": "2024-04-02T12:12:13.058+02:00", "lat": 51.1657, "lon": 10.4515, "intensity": 0.8, "source": "Tagesschau"}, {"title": "Prozess gegen Reichsb\u00fcrger-Gruppe um Prinz Reu\u00df ab 21. Mai in Frankfurt ", "url": "https://www.tagesschau.de/inland/regional/hessen/hr-prozess-gegen-reichsbuerger-gruppe-um-prinz-reuss-ab-21-mai-in-frankfurt-100.html", "thumbnailUrl": "https://images.tagesschau.de/image/d401bff0-e593-414d-8ae0-c108ab2d75a3/AAABjp5LpAA/AAABjcWesUg/16x9-512.jpg", "date": "2024-04-02T12:11:52.381+02:00", "lat": 50.1109, "lon": 8.6821, "intensity": 0.6, "source": "Tagesschau"}, {"title": "Europawahl: Tausende Wahlhelfer in Niedersachsen gesucht", "url": "https://www.tagesschau.de/inland/regional/niedersachsen/ndr-europawahl-tausende-wahlhelfer-in-niedersachsen-gesucht-100.html", "thumbnailUrl": "https://images.tagesschau.de/image/c85f30a6-ff00-49f3-89dd-eba981c6fdd0/AAABjp5L4TY/AAABjcWesUg/16x9-512.jpg", "date": "2024-04-02T12:09:00.000+02:00", "lat": 52.6367, "lon": 10.4515, "intensity": 0.7, "source": "Tagesschau"}, {"title": "Ex-Verfassungssch\u00fctzer in Wien festgenommen", "url": "https://www.tagesschau.de/ausland/europa/wien-spionage-verdacht-russland-100.html", "thumbnailUrl": "https://images.tagesschau.de/image/d690c2b6-c60b-4abc-8173-a986ee13c5d1/AAABhpghIXg/AAABjcWesUg/16x9-512.jpg", "date": "2024-04-02T12:08:23.089+02:00", "lat": 48.2082, "lon": 16.3738, "intensity": 0.8, "source": "Tagesschau"}, {"title": "Eintracht: +++ Larsson zur\u00fcck im Eintracht-Training +++ Das Union-Spiel im Highlight-Video +++ Uzun vermeidet Bekenntnis zur Eintracht +++", "url": "https://www.tagesschau.de/inland/regional/hessen/hr--eintracht-wohl-mit-chaibi-einig--glasner-fast-nur-kolo-muani-der-tore-erzielt--bericht-eintracht-sagt-aouar-ab-100.html", "thumbnailUrl": "https://images.tagesschau.de/image/88eae9a0-5cf3-489c-a7e6-7f2fc07b78c3/AAABjp5H84k/AAABjcWesUg/16x9-512.jpg", "date": "2024-04-02T12:07:49.265+02:00", "lat": 50.1109, "lon": 8.6821, "intensity": 0.5, "source": "Tagesschau"}, {"title": "Erneuerung des Gerichtsviertels in Frankfurt dauert Jahre und kostet Millionen", "url": "https://www.tagesschau.de/inland/regional/hessen/hr-erneuerung-des-gerichtsviertels-in-frankfurt-dauert-jahre-und-kostet-millionen-100.html", "thumbnailUrl": "https://images.tagesschau.de/image/17f649ed-0826-498d-ac55-02e0bb7d172d/AAABjp5GAio/AAABjcWesUg/16x9-512.jpg", "date": "2024-04-02T12:05:08.387+02:00", "lat": 50.1109, "lon": 8.6821, "intensity": 0.7, "source": "Tagesschau"}, {"title": "Lebensmittelpreise nur noch wenig gestiegen", "url": "https://www.tagesschau.de/inland/regional/saarland/sr-lebensmittelpreise-nur-noch-wenig-gestiegen-100.html", "thumbnailUrl": "https://images.tagesschau.de/image/60268631-f904-4870-abe1-a3af5c2662c3/AAABjp5Hu3U/AAABjcWesUg/16x9-512.jpg", "date": "2024-04-02T12:05:00.000+02:00", "lat": 49.3964, "lon": 7.0, "intensity": 0.3, "source": "Tagesschau"}, {"title": "AKN: Einschr\u00e4nkungen zwischen Norderstedt und Neum\u00fcnster", "url": "https://www.tagesschau.de/inland/regional/schleswigholstein/ndr-akn-einschraenkungen-zwischen-norderstedt-und-neumuenster-100.html", "thumbnailUrl": "https://images.tagesschau.de/image/ecb94389-6574-45d5-b11a-2d3f1eb95acd/AAABjp5pF1o/AAABjcWesUg/16x9-512.jpg", "date": "2024-04-02T12:04:00.000+02:00", "lat": 54.0784, "lon": 9.9793, "intensity": 0.7, "source": "Tagesschau"}, {"title": "Darmstadt 98: +++ M\u00fcller nimmt Holtmann in Schutz +++ M\u00fcller hofft auf Topleistung und Matchgl\u00fcck +++ Das Highlight-Video vom Punktgewinn in Bochum +++", "url": "https://www.tagesschau.de/inland/regional/hessen/hr--tietz-vermisst-fehlende-gier--lilien-fans-liefern-sich-raststaetten-pruegelei--die-niederlage-der-lilien-in-der-video-zusammenfassung-102.html", "thumbnailUrl": "https://images.tagesschau.de/image/2f6e2391-3955-4c73-884b-d4c968fbc75c/AAABjp47Fx8/AAABjcWesUg/16x9-512.jpg", "date": "2024-04-02T11:54:00.521+02:00", "lat": 49.8728, "lon": 8.6512, "intensity": 0.4, "source": "Tagesschau"}, {"title": "Resistenter Keim in Kinderspielzeug entdeckt", "url": "https://www.tagesschau.de/inland/regional/saarland/sr-resistenter-keim-in-kinderspielzeug-entdeckt-100.html", "thumbnailUrl": "https://images.tagesschau.de/image/1179c259-a8ec-47ea-bcb3-a4e64bea1fe2/AAABjp463kI/AAABjcWesUg/16x9-512.jpg", "date": "2024-04-02T11:46:00.000+02:00", "lat": 49.3964, "lon": 6.9754, "intensity": 0.7, "source": "Tagesschau"}, {"title": "Pfefferspray im Schnellrestaurant verspr\u00fcht - 15 Verletzte", "url": "https://www.tagesschau.de/inland/regional/niedersachsen/ndr-pfefferspray-im-schnellrestaurant-versprueht-15-verletzte-100.html", "thumbnailUrl": "https://images.tagesschau.de/image/c83bf4b3-8dd9-40d0-bbcd-6dbc0987d5fe/AAABjp45hQo/AAABjcWesUg/16x9-512.jpg", "date": "2024-04-02T11:44:00.000+02:00", "lat": 53.0793, "lon": 8.8086, "intensity": 0.9, "source": "Tagesschau"}, {"title": "Zwei Wohnungen noch unbewohnbar nach Hochhaus-Brand in Krefeld", "url": "https://www.tagesschau.de/inland/regional/nordrheinwestfalen/wdr-im-siebten-stock-brand-in-hochhaus-in-krefeld-100.html", "thumbnailUrl": "https://images.tagesschau.de/image/d4affa58-8ba0-4baa-9983-057ebcc8ac28/AAABjp5b0Vk/AAABjcWesUg/16x9-512.jpg", "date": "2024-04-02T11:40:00.000+02:00", "lat": 51.3387, "lon": 6.5734, "intensity": 0.8, "source": "Tagesschau"}, {"title": "Pflegenotstand: Brasilianer starten Ausbildung in G\u00f6ttingen", "url": "https://www.tagesschau.de/inland/regional/niedersachsen/ndr-pflegenotstand-brasilianer-starten-ausbildung-in-goettingen-100.html", "thumbnailUrl": "https://images.tagesschau.de/image/efc7d166-256e-45ef-97ec-dec0a43954bb/AAABjp4wYpM/AAABjcWesUg/16x9-512.jpg", "date": "2024-04-02T11:36:00.000+02:00", "lat": 51.5413, "lon": 9.9356, "intensity": 0.8, "source": "Tagesschau"}, {"title": "Insolvenzverfahren f\u00fcr Galeria Karstadt Kaufhof er\u00f6ffnet", "url": "https://www.tagesschau.de/inland/regional/nordrheinwestfalen/wdr-insolvenzverfahren-fuer-galeria-karstadt-kaufhof-eroeffnet-100.html", "thumbnailUrl": "https://images.tagesschau.de/image/4e2ffc92-c501-49f6-a474-fb8ae18ee743/AAABjp5Hra4/AAABjcWesUg/16x9-512.jpg", "date": "2024-04-02T11:34:00.000+02:00", "lat": 51.4556, "lon": 7.0116, "intensity": 0.8, "source": "Tagesschau"}, {"title": "Kommunalwahlen 2024: Brandenburg w\u00e4hlt mehr als 10.000 Kommunalpolitiker:innen", "url": "https://www.tagesschau.de/inland/regional/brandenburg/rbb-kommunalwahlen-2024-brandenburg-waehlt-mehr-als-10-000-kommunalpolitikerinnen-100.html", "thumbnailUrl": "https://images.tagesschau.de/image/eee60d54-1cf0-4ebd-a198-e76e8552cc72/AAABjp4NfTw/AAABjcWesUg/16x9-512.jpg", "date": "2024-04-02T11:30:46.000+02:00", "lat": 52.520008, "lon": 13.404954, "intensity": 0.7, "source": "Tagesschau"}, {"title": "Auff\u00fcll-Arbeiten von Erdl\u00f6chern beginnen versp\u00e4tet", "url": "https://www.tagesschau.de/inland/regional/thueringen/mdr-erneut-tut-sich-erde-im-unstrut-hainich-kreis-auf-100.html", "thumbnailUrl": "https://images.tagesschau.de/image/a68ead6d-f2e6-4735-916b-8036343fe3be/AAABjp5ETp4/AAABjcWesUg/16x9-512.jpg", "date": "2024-04-02T11:30:00.000+02:00", "lat": 51.1614, "lon": 10.6652, "intensity": 0.5, "source": "Tagesschau"}, {"title": "Entenfamilie l\u00f6st Unfall auf A61 aus, Schwan auf A60 unterwegs", "url": "https://www.tagesschau.de/inland/regional/rheinlandpfalz/swr-entenfamilie-loest-unfall-auf-a61-bei-gensingen-aus-100.html", "thumbnailUrl": "https://images.tagesschau.de/image/5ebcc044-e9d6-4fe5-b524-e323a8f02150/AAABjp4CJYw/AAABjcWesUg/16x9-512.jpg", "date": "2024-04-02T11:22:00.000+02:00", "lat": 49.9613, "lon": 7.9002, "intensity": 0.4, "source": "Tagesschau"}, {"title": "Verdi ruft Postbankbesch\u00e4ftigte erneut zu Streiks auf", "url": "https://www.tagesschau.de/inland/regional/saarland/sr-verdi-ruft-postbankbeschaeftigte-erneut-zu-streiks-auf-100.html", "thumbnailUrl": "https://images.tagesschau.de/image/18eb5b36-c5eb-424c-b3bc-0d77131dd0a7/AAABjp4fZsQ/AAABjcWesUg/16x9-512.jpg", "date": "2024-04-02T11:20:00.000+02:00", "lat": 49.2354, "lon": 6.9815, "intensity": 0.8, "source": "Tagesschau"}, {"title": "Einbrecher \"mit gro\u00dfen Z\u00e4hnen\" - Vierj\u00e4hriger w\u00e4hlt Notruf", "url": "https://www.tagesschau.de/inland/regional/niedersachsen/ndr-einbrecher-mit-grossen-zaehnen-vierjaehriger-waehlt-notruf-100.html", "thumbnailUrl": "https://images.tagesschau.de/image/0ff08dfa-fee2-4f4c-a618-ea8ab7d83169/AAABjp4f4Hw/AAABjcWesUg/16x9-512.jpg", "date": "2024-04-02T11:17:00.000+02:00", "lat": 52.2694, "lon": 10.4705, "intensity": 0.6, "source": "Tagesschau"}, {"title": "Markenrecht verletzt? Natursch\u00fctzer kritisieren DDR-Wanderweg", "url": "https://www.tagesschau.de/inland/regional/niedersachsen/ndr-markenrecht-verletzt-naturschuetzer-kritisieren-ddr-wanderweg-100.html", "thumbnailUrl": "https://images.tagesschau.de/image/051f8f76-50f6-40ae-9d20-2373d655788c/AAABjp4XNGE/AAABjcWesUg/16x9-512.jpg", "date": "2024-04-02T11:13:00.000+02:00", "lat": 52.4167, "lon": 11.1333, "intensity": 0.6, "source": "Tagesschau"}, {"title": "Mann in der N\u00e4he des Hamburger Hauptbahnhofs niedergeschossen", "url": "https://www.tagesschau.de/inland/regional/hamburg/ndr-mann-in-der-naehe-des-hamburger-hauptbahnhofs-niedergeschossen-100.html", "thumbnailUrl": "https://images.tagesschau.de/image/e706aec3-efa8-41ef-8e8d-955aad9cab6b/AAABjpOhoQY/AAABjcWesUg/16x9-512.jpg", "date": "2024-04-02T11:11:00.000+02:00", "lat": 53.5526, "lon": 10.0106, "intensity": 0.8, "source": "Tagesschau"}, {"title": "400 Millionen Euro Auftrag f\u00fcr IONOS aus Montabaur", "url": "https://www.tagesschau.de/inland/regional/rheinlandpfalz/swr-400-millionen-euro-auftrag-fuer-ionos-aus-montabaur-100.html", "thumbnailUrl": "https://images.tagesschau.de/image/a70f03c4-8efd-4baf-9b1e-e403f7b016b7/AAABjp4k-dg/AAABjcWesUg/16x9-512.jpg", "date": "2024-04-02T11:06:43.000+02:00", "lat": 50.4354, "lon": 7.8189, "intensity": 0.8, "source": "Tagesschau"}, {"title": "Verletzte nach Sch\u00fcssen an finnischer Grundschule", "url": "https://www.tagesschau.de/ausland/europa/finnland-schuesse-schule-100.html", "thumbnailUrl": "https://images.tagesschau.de/image/fe727d3c-0e83-4a30-aacf-ca343f50af6b/AAABjp3tusQ/AAABjcWesUg/16x9-512.jpg", "date": "2024-04-02T11:00:15.174+02:00", "lat": 60.1695, "lon": 25.0136, "intensity": 0.8, "source": "Tagesschau"}, {"title": "Frachter mit Uran an Bord in Rostock festgehalten", "url": "https://www.tagesschau.de/inland/regional/mecklenburgvorpommern/ndr-russischer-frachter-mit-uran-an-bord-in-rostock-festgehalten-100.html", "thumbnailUrl": "https://images.tagesschau.de/image/8c237333-dc83-4bea-9a9f-2e616fe43150/AAABjp4Jfzo/AAABjcWesUg/16x9-512.jpg", "date": "2024-04-02T10:56:00.000+02:00", "lat": 54.0924, "lon": 12.1148, "intensity": 0.8, "source": "Tagesschau"}, {"title": "Drogentod einer 16-J\u00e4hrigen in Hamburg: Dealer vor Gericht", "url": "https://www.tagesschau.de/inland/regional/hamburg/ndr-drogentod-einer-16-jaehrigen-in-hamburg-dealer-vor-gericht-100.html", "thumbnailUrl": "https://images.tagesschau.de/image/01deb6f4-3a59-4be4-b277-2f8d5c3a36d9/AAABjp4GLNg/AAABjcWesUg/16x9-512.jpg", "date": "2024-04-02T10:52:00.000+02:00", "lat": 53.5511, "lon": 10.0018, "intensity": 0.8, "source": "Tagesschau"}, {"title": "Gericht er\u00f6ffnet Insolvenzverfahren f\u00fcr Galeria Karstadt Kaufhof", "url": "https://www.tagesschau.de/inland/regional/brandenburg/rbb-filialen-auch-in-berlin-und-brandenburg-gericht-eroeffnet-insolvenzverfahren-fuer-galeria-karstadt-kaufhof-100.html", "thumbnailUrl": "https://images.tagesschau.de/image/3c520841-76d9-4b61-bd0c-9f1ee3996254/AAABjp3-uQQ/AAABjcWesUg/16x9-512.jpg", "date": "2024-04-02T10:45:00.000+02:00", "lat": 52.520008, "lon": 13.404954, "intensity": 0.8, "source": "Tagesschau"}, {"title": "Bobbahn am Marzahner Kienberg wird nach Brandstiftung wieder aufgebaut", "url": "https://www.tagesschau.de/inland/regional/berlin/rbb-bobbahn-am-marzahner-kienberg-wird-nach-brandstiftung-wieder-aufgebaut-100.html", "thumbnailUrl": "https://images.tagesschau.de/image/3103656c-8b01-4047-b27c-46a6fb69a6e4/AAABjp37L-Q/AAABjcWesUg/16x9-512.jpg", "date": "2024-04-02T10:42:38.000+02:00", "lat": 52.5186, "lon": 13.6114, "intensity": 0.7, "source": "Tagesschau"}, {"title": "Von W\u00fcrde, Respekt und Anerkennung", "url": "https://www.tagesschau.de/inland/innenpolitik/mindestlohn-einfuehrung-100.html", "thumbnailUrl": "https://images.tagesschau.de/image/5e39d839-edc2-4440-adae-b5ee1c6d1f56/AAABi-bDF6s/AAABjcWesUg/16x9-512.jpg", "date": "2024-04-02T10:41:58.022+02:00", "lat": 51.1657, "lon": 10.4515, "intensity": 0.5, "source": "Tagesschau"}, {"title": "Angriff auf Botschaft - was bislang bekannt ist", "url": "https://www.tagesschau.de/ausland/asien/angriff-botschaft-iran-israel-100.html", "thumbnailUrl": "https://images.tagesschau.de/image/344749d6-36f1-4c87-9cf8-f98e1bf55e7f/AAABjp34Z3I/AAABjcWesUg/16x9-512.jpg", "date": "2024-04-02T10:41:26.408+02:00", "lat": 33.5138, "lon": 36.32, "intensity": 0.8, "source": "Tagesschau"}, {"title": "Reglose Person in Bankfiliale: Mann schl\u00e4ft beim Geldabheben ein", "url": "https://www.tagesschau.de/inland/regional/niedersachsen/ndr-reglose-person-in-bankfiliale-mann-schlaeft-beim-geldabheben-ein-100.html", "thumbnailUrl": "https://images.tagesschau.de/image/1940cecd-5be1-4549-9e56-6e5f4e5b7a80/AAABjp35Zbk/AAABjcWesUg/16x9-512.jpg", "date": "2024-04-02T10:40:00.000+02:00", "lat": 53.1636, "lon": 8.8312, "intensity": 0.3, "source": "Tagesschau"}, {"title": "Schlie\u00dfungspl\u00e4ne von M\u00fcller: Gespr\u00e4che \u00fcber Landliebe-Zukunft starten", "url": "https://www.tagesschau.de/inland/regional/badenwuerttemberg/swr-schliessungsplaene-von-mueller-gespraeche-ueber-landliebe-zukunft-starten-100.html", "thumbnailUrl": "https://images.tagesschau.de/image/e499de30-86f4-4624-ae28-109e4d4a9b01/AAABjp4WTCk/AAABjcWesUg/16x9-512.jpg", "date": "2024-04-02T10:39:50.000+02:00", "lat": 49.1427, "lon": 9.2219, "intensity": 0.8, "source": "Tagesschau"}, {"title": "Kultur : +++ Doch keine Goldmaske des Tutanchamun in Frankfurt +++ Gro\u00dfes Glockengel\u00e4ute zu Ostern in Frankfurt +++ Filmdreh in Marburg mit Kinostar Tony Leung +++", "url": "https://www.tagesschau.de/inland/regional/hessen/hr--schauspiel-frankfurt-bringt-putin-und-macbeth-zusammen--die-filmfestival-saison-2023-startet--lichter-filmfest-zum-thema-liebe-startet-am-dienstag-100.html", "thumbnailUrl": "https://images.tagesschau.de/image/a7c56f39-bfd0-4c9e-9aba-df12eb240b46/AAABjpjsivA/AAABjcWesUg/16x9-512.jpg", "date": "2024-04-02T10:38:20.541+02:00", "lat": 50.1109, "lon": 8.6821, "intensity": 0.5, "source": "Tagesschau"}, {"title": "Seltene Funde an der Nordsee: Kehren verschwundene Arten zur\u00fcck?", "url": "https://www.tagesschau.de/inland/regional/schleswigholstein/ndr-seltene-funde-an-der-nordsee-kehren-verschwundene-arten-zurueck-100.html", "thumbnailUrl": "https://images.tagesschau.de/image/66d39a31-4098-40c1-b670-8ff72574ed96/AAABjp5BBJ4/AAABjcWesUg/16x9-512.jpg", "date": "2024-04-02T10:38:00.000+02:00", "lat": 53.5444, "lon": 8.8139, "intensity": 0.7, "source": "Tagesschau"}, {"title": "Schl\u00e4gerei am Osterfeuer eskaliert: Polizist leicht verletzt", "url": "https://www.tagesschau.de/inland/regional/niedersachsen/ndr-schlaegerei-am-osterfeuer-eskaliert-polizist-leicht-verletzt-100.html", "thumbnailUrl": "https://images.tagesschau.de/image/53a614c6-5d70-4e52-811d-6f91f10de0ee/AAABjp5nQWM/AAABjcWesUg/16x9-512.jpg", "date": "2024-04-02T10:36:00.000+02:00", "lat": 53.2378, "lon": 9.9711, "intensity": 0.7, "source": "Tagesschau"}, {"title": "Barnim: Motorradfahrer stirbt bei Verkehrsunfall in Joachimsthal", "url": "https://www.tagesschau.de/inland/regional/brandenburg/rbb-barnim-motorradfahrer-stirbt-bei-verkehrsunfall-in-joachimsthal-100.html", "thumbnailUrl": "https://images.tagesschau.de/image/812a582d-431a-4416-a855-c1c28bcbfb65/AAABjp3wBng/AAABjcWesUg/16x9-512.jpg", "date": "2024-04-02T10:27:16.000+02:00", "lat": 53.0472, "lon": 13.7458, "intensity": 0.8, "source": "Tagesschau"}, {"title": "Abbau von \"Section Control\": B6 Richtung Laatzen gesperrt", "url": "https://www.tagesschau.de/inland/regional/niedersachsen/ndr-abbau-von-section-control-b6-richtung-laatzen-gesperrt-100.html", "thumbnailUrl": "https://images.tagesschau.de/image/37305dec-4d3f-4227-9a12-2cd96ec0b085/AAABjp3z6Oo/AAABjcWesUg/16x9-512.jpg", "date": "2024-04-02T10:26:00.000+02:00", "lat": 52.3015, "lon": 9.822, "intensity": 0.7, "source": "Tagesschau"}, {"title": "Lagerhalle in Flammen: Rauchs\u00e4ule zieht \u00fcber Hannover", "url": "https://www.tagesschau.de/inland/regional/niedersachsen/ndr-lagerhalle-in-flammen-80-feuerwehrleute-bei-brand-im-einsatz-100.html", "thumbnailUrl": "https://images.tagesschau.de/image/0c164e77-d37a-457b-8de0-6c36ea09da48/AAABjp5PZoI/AAABjcWesUg/16x9-512.jpg", "date": "2024-04-02T10:23:00.000+02:00", "lat": 52.3759, "lon": 9.7332, "intensity": 0.8, "source": "Tagesschau"}, {"title": "Milder Winter: Kr\u00f6tenwanderung endet in diesem Jahr fr\u00fcher", "url": "https://www.tagesschau.de/inland/regional/niedersachsen/ndr-milder-winter-kroetenwanderung-endet-in-diesem-jahr-frueher-100.html", "thumbnailUrl": "https://images.tagesschau.de/image/e920d905-ce2a-4571-b2db-892bc9713701/AAABjp3fwSk/AAABjcWesUg/16x9-512.jpg", "date": "2024-04-02T10:13:00.000+02:00", "lat": 52.2864, "lon": 10.4274, "intensity": 0.6, "source": "Tagesschau"}, {"title": "Radwege in Hamburg: Wie Verb\u00e4nde den Ausbau bewerten", "url": "https://www.tagesschau.de/inland/regional/hamburg/ndr-radwege-in-hamburg-wie-verbaende-den-ausbau-bewerten-100.html", "thumbnailUrl": "https://images.tagesschau.de/image/d8c52d9f-1222-4631-a5e8-4b01fdf34fff/AAABjp3d1dg/AAABjcWesUg/16x9-512.jpg", "date": "2024-04-02T10:09:00.000+02:00", "lat": 53.55, "lon": 10.0, "intensity": 0.7, "source": "Tagesschau"}, {"title": "Martin Matz: Berliner SPD-Innenexperte erwartet kaum Probleme durch Cannabis-Teil-Legalisierung", "url": "https://www.tagesschau.de/inland/regional/berlin/rbb-martin-matz-berliner-spd-innenexperte-erwartet-kaum-probleme-durch-cannabis-teil-legalisierung-100.html", "thumbnailUrl": "https://images.tagesschau.de/image/cd364f0d-34ef-4e15-be92-bf6b1ff40b2f/AAABjp3eGdA/AAABjcWesUg/16x9-512.jpg", "date": "2024-04-02T10:08:29.000+02:00", "lat": 52.520008, "lon": 13.404954, "intensity": 0.3, "source": "Tagesschau"}, {"title": "Nach AWO-Aff\u00e4re: Wohlfahrtsverb\u00e4nde meiden Transparenz-Plattform", "url": "https://www.tagesschau.de/inland/regional/hessen/hr-nach-awo-affaere-wohlfahrtsverbaende-meiden-transparenz-plattform-100.html", "thumbnailUrl": "https://images.tagesschau.de/image/5bbffba3-135e-48d0-a97d-83b199a1595d/AAABjp3WXPc/AAABjcWesUg/16x9-512.jpg", "date": "2024-04-02T10:03:35.634+02:00", "lat": 50.6411, "lon": 9.6756, "intensity": 0.5, "source": "Tagesschau"}, {"title": "Hessen am Morgen: +++ Lagerhalle in Lich in Flammen +++ Polizei stoppt Auto mit 39 M\u00e4ngeln +++ CDU bei Google zwangsgegendert +++", "url": "https://www.tagesschau.de/inland/regional/hessen/hr-hessen-am-morgen--lagerhalle-in-lich-in-flammen-100.html", "thumbnailUrl": "https://images.tagesschau.de/image/a4ff5d2b-9ff3-42e8-9ddd-9c0d40f743a1/AAABjpz4yX8/AAABjcWesUg/16x9-512.jpg", "date": "2024-04-02T10:00:20.407+02:00", "lat": 50.5358, "lon": 8.8197, "intensity": 0.7, "source": "Tagesschau"}, {"title": "Halmich-Comeback im Box-Ring gegen Stefan Raab? Verkaufsstopp von DFB-Trikot wegen Nazi-Symbolik, Details zu t\u00f6dlichem Autounfall bei VS", "url": "https://www.tagesschau.de/inland/regional/badenwuerttemberg/swr-bw-newsticker-am-morgen-halmich-comeback-im-box-ring-gegen-stefan-raab-schnitzeljagd-legt-skigebiet-lahm-100.html", "thumbnailUrl": "https://images.tagesschau.de/image/d774ac47-3bb4-44cf-8197-679f7e8e06e1/AAABjp0SW1M/AAABjcWesUg/16x9-512.jpg", "date": "2024-04-02T10:00:00.000+02:00", "lat": 48.7858, "lon": 9.9937, "intensity": 0.7, "source": "Tagesschau"}, {"title": "Kein Kiffen in vielen Kneipen, FCK spielt um Pokalfinale, Gro\u00dfauftrag f\u00fcr Cloudanbieter aus RLP", "url": "https://www.tagesschau.de/inland/regional/rheinlandpfalz/swr-fck-im-dfb-pokal-dreyer-reist-nach-ruanda-ankiffen-in-mainz-100.html", "thumbnailUrl": "https://images.tagesschau.de/image/8e7bbe2d-6644-40d0-b5dd-fe099f80df71/AAABjp1FoL4/AAABjcWesUg/16x9-512.jpg", "date": "2024-04-02T10:00:00.000+02:00", "lat": 49.9929, "lon": 7.2662, "intensity": 0.5, "source": "Tagesschau"}, {"title": "Grundsteuer: 400.000 Einspr\u00fcche bei drei Millionen Bescheiden", "url": "https://www.tagesschau.de/inland/regional/niedersachsen/ndr-grundsteuer-400-000-einsprueche-bei-drei-millionen-bescheiden-100.html", "thumbnailUrl": "https://images.tagesschau.de/image/8ef3bb0c-10d0-4a8c-a9a9-07c4c7cd5df7/AAABjp3NeNY/AAABjcWesUg/16x9-512.jpg", "date": "2024-04-02T09:52:00.000+02:00", "lat": 52.4387, "lon": 9.7627, "intensity": 0.7, "source": "Tagesschau"}, {"title": "++ Belarus startet Man\u00f6ver an EU-Grenze ++", "url": "https://www.tagesschau.de/newsticker/liveblog-ukraine-dienstag-336.html", "thumbnailUrl": "https://images.tagesschau.de/image/5b073b67-29bf-4703-b6b1-71469e4c25bb/AAABizMn-kk/AAABjcWesUg/16x9-512.jpg", "date": "2024-04-02T09:36:56.163+02:00", "lat": 53.7098, "lon": 27.9534, "intensity": 0.8, "source": "Tagesschau"}, {"title": "Prozess: Bilder und Videos nackter Kinder ins Netz gestellt?", "url": "https://www.tagesschau.de/inland/regional/niedersachsen/ndr-prozess-bilder-und-videos-nackter-kinder-ins-netz-gestellt-100.html", "thumbnailUrl": "https://images.tagesschau.de/image/46ac13b3-c189-4075-8527-7b34eb89c236/AAABjp3Cg_M/AAABjcWesUg/16x9-512.jpg", "date": "2024-04-02T09:33:00.000+02:00", "lat": 52.2799, "lon": 8.0476, "intensity": 0.8, "source": "Tagesschau"}, {"title": "Gerettet per Kran: Pferd st\u00fcrzt zw\u00f6lf Meter tiefen Hang hinab ", "url": "https://www.tagesschau.de/inland/regional/thueringen/mdr-gerettet-per-kran-pferd-stuerzt-zwoelf-meter-tiefen-hang-hinab-100.html", "thumbnailUrl": "https://images.tagesschau.de/image/9bafbb42-7877-44ec-a7e4-3ec6b97dc0f8/AAABjp262Nc/AAABjcWesUg/16x9-512.jpg", "date": "2024-04-02T09:32:35.000+02:00", "lat": 50.4303, "lon": 10.8533, "intensity": 0.7, "source": "Tagesschau"}, {"title": "Bund l\u00e4sst sichere Cloud von Ionos aufbauen", "url": "https://www.tagesschau.de/wirtschaft/ionos-cloud-bund-100.html", "thumbnailUrl": "https://images.tagesschau.de/image/af4ed1b6-721f-495f-979d-23bd6997b355/AAABjp1aU5Y/AAABjcWesUg/16x9-512.jpg", "date": "2024-04-02T09:26:39.176+02:00", "lat": 52.52, "lon": 13.405, "intensity": 0.7, "source": "Tagesschau"}, {"title": "Arsen-belastete B\u00fccher nicht ablecken: Was der Bibliotheksverband empfiehlt", "url": "https://www.tagesschau.de/inland/regional/nordrheinwestfalen/wdr-arsen-belastete-buecher-nicht-ablecken-was-der-bibliotheksverband-empfiehlt-100.html", "thumbnailUrl": "https://images.tagesschau.de/image/7d112c9a-3292-4187-b0be-9497583fbec5/AAABjp3vzsU/AAABjcWesUg/16x9-512.jpg", "date": "2024-04-02T09:19:00.000+02:00", "lat": 51.322328, "lon": 8.801693, "intensity": 0.7, "source": "Tagesschau"}, {"title": "Baustellen f\u00fchren zu Verkehrseinschr\u00e4nkungen auf Stra\u00dfe und Schiene", "url": "https://www.tagesschau.de/inland/regional/brandenburg/rbb-grosser-stern-markgrafendamm-re1-baustellen-fuehren-zu-verkehrseinschraenkungen-auf-strasse-und-schiene-100.html", "thumbnailUrl": "https://images.tagesschau.de/image/995d9549-e87f-4442-bb6c-bad4dedfce9f/AAABjp2sZiI/AAABjcWesUg/16x9-512.jpg", "date": "2024-04-02T09:14:26.000+02:00", "lat": 52.5141, "lon": 13.3623, "intensity": 0.6, "source": "Tagesschau"}, {"title": "Neue K\u00f6hlbrandbr\u00fccke soll bis zu 5,3 Milliarden Euro kosten", "url": "https://www.tagesschau.de/inland/regional/hamburg/ndr-koehlbrandbruecke-leonhard-will-neue-plaene-praesentieren-100.html", "thumbnailUrl": "https://images.tagesschau.de/image/acaf40ed-50c3-402c-b0e9-4304cfe7e813/AAABjp0jC34/AAABjcWesUg/16x9-512.jpg", "date": "2024-04-02T09:06:00.000+02:00", "lat": 53.5461, "lon": 9.9869, "intensity": 0.7, "source": "Tagesschau"}, {"title": "Unfall auf A30: Kleinwagen schleudert in Leitplanke", "url": "https://www.tagesschau.de/inland/regional/niedersachsen/ndr-unfall-auf-a30-kleinwagen-schleudert-in-leitplanke-100.html", "thumbnailUrl": "https://images.tagesschau.de/image/ae074b8e-f3c7-4dc2-bb41-936e6128a166/AAABjp2aLok/AAABjcWesUg/16x9-512.jpg", "date": "2024-04-02T08:55:00.000+02:00", "lat": 52.279, "lon": 8.0419, "intensity": 0.6, "source": "Tagesschau"}, {"title": "Luftangriff t\u00f6tet Mitarbeiter von Hilfsorganisation", "url": "https://www.tagesschau.de/ausland/asien/nahost-isreal-luftangriff-hilfsorganisation-100.html", "thumbnailUrl": "https://images.tagesschau.de/image/41451e04-9c88-4998-9401-205cb03cca2a/AAABjp0PR6w/AAABjcWesUg/16x9-512.jpg", "date": "2024-04-02T08:48:16.355+02:00", "lat": 31.5204, "lon": 34.3447, "intensity": 0.9, "source": "Tagesschau"}, {"title": "Cannabis-Freigabe: Ankl\u00e4ger pr\u00fcfen Tausende Drogen-Verfahren", "url": "https://www.tagesschau.de/inland/regional/niedersachsen/ndr-cannabis-freigabe-anklaeger-pruefen-tausende-drogen-verfahren-100.html", "thumbnailUrl": "https://images.tagesschau.de/image/39d69996-f32f-4d8b-a87c-449d6e2f7cca/AAABjp3dlQ4/AAABjcWesUg/16x9-512.jpg", "date": "2024-04-02T08:47:00.000+02:00", "lat": 52.268874, "lon": 10.52677, "intensity": 0.8, "source": "Tagesschau"}, {"title": "Berlin: Autofahrer st\u00f6\u00dft mit Motorradfahrer in Kreuzberg zusammen", "url": "https://www.tagesschau.de/inland/regional/berlin/rbb-berlin-autofahrer-stoesst-mit-motorradfahrer-in-kreuzberg-zusammen-100.html", "thumbnailUrl": "https://images.tagesschau.de/image/6e793ff6-98d7-477d-b3d4-52dd427654b3/AAABjp2EIs0/AAABjcWesUg/16x9-512.jpg", "date": "2024-04-02T08:32:30.000+02:00", "lat": 52.52, "lon": 13.4105, "intensity": 0.7, "source": "Tagesschau"}, {"title": "Nach Strafbefehl: Waldorfschule Schw\u00e4bisch Hall um Ver\u00e4nderung bem\u00fcht", "url": "https://www.tagesschau.de/inland/regional/badenwuerttemberg/swr-nach-strafbefehl-waldorfschule-schwaebisch-hall-um-veraenderung-bemueht-100.html", "thumbnailUrl": "https://images.tagesschau.de/image/674ecbd9-f1cc-4684-8a97-dafc5316f242/AAABjp2za8k/AAABjcWesUg/16x9-512.jpg", "date": "2024-04-02T08:30:48.000+02:00", "lat": 49.1144, "lon": 9.7415, "intensity": 0.7, "source": "Tagesschau"}, {"title": "Filmemacherin Annekatrin Hendel: \"F\u00fcr mich ist Union Berlin ein Betrieb und keine Familie, wie oft gesagt wird\"", "url": "https://www.tagesschau.de/inland/regional/berlin/rbb-filmemacherin-annekatrin-hendel-fuer-mich-ist-union-berlin-ein-betrieb-und-keine-familie-wie-oft-gesagt-wird-102.html", "thumbnailUrl": "https://images.tagesschau.de/image/07e5ea3c-63a7-49de-a0b5-64e5a5ade4f9/AAABjp2AlGU/AAABjcWesUg/16x9-512.jpg", "date": "2024-04-02T08:28:55.000+02:00", "lat": 52.52, "lon": 13.4754, "intensity": 0.9, "source": "Tagesschau"}, {"title": "Unfall bei Villingen-Schwenningen: Zwei Autofahrer tot", "url": "https://www.tagesschau.de/inland/regional/badenwuerttemberg/swr-unfall-bei-villingen-schwenningen-zwei-autofahrer-tot-100.html", "thumbnailUrl": "https://images.tagesschau.de/image/041a152c-8579-45c8-a645-0f376e7a25ac/AAABjp5m1X4/AAABjcWesUg/16x9-512.jpg", "date": "2024-04-02T08:12:00.000+02:00", "lat": 48.0602, "lon": 8.4626, "intensity": 0.8, "source": "Tagesschau"}, {"title": "Niederlage gegen Osnabr\u00fcck: SV Wehen Wiesbaden zwischen Schiri-Frust und Abstiegsangst", "url": "https://www.tagesschau.de/inland/regional/hessen/hr-niederlage-gegen-osnabrueck-sv-wehen-wiesbaden-zwischen-schiri-frust-und-abstiegsangst-102.html", "thumbnailUrl": "https://images.tagesschau.de/image/e7a9a87d-15d1-4a9e-8fe3-91b0ef8ddaad/AAABjp4otvE/AAABjcWesUg/16x9-512.jpg", "date": "2024-04-02T08:07:47.895+02:00", "lat": 50.953865, "lon": 8.051587, "intensity": 0.7, "source": "Tagesschau"}, {"title": "Hilfe f\u00fcr die Menschen in der Ukraine", "url": "https://www.tagesschau.de/spendenkonten/spendenkonten-133.html", "thumbnailUrl": "https://images.tagesschau.de/image/af005073-bb3d-428a-b6f8-a685c725811f/AAABh4VRChA/AAABjcWesUg/16x9-512.jpg", "date": "2024-04-02T08:07:12.688+02:00", "lat": 50.4501, "lon": 30.5234, "intensity": 0.7, "source": "Tagesschau"}, {"title": "iRobot Factory: Wie Sch\u00fcler spielerisch programmieren lernen", "url": "https://www.tagesschau.de/inland/regional/niedersachsen/ndr-irobot-factory-wie-schueler-spielerisch-programmieren-lernen-100.html", "thumbnailUrl": "https://images.tagesschau.de/image/ec5ceb90-dd44-4f18-8eef-fb905f599082/AAABjp1nEIs/AAABjcWesUg/16x9-512.jpg", "date": "2024-04-02T07:59:00.000+02:00", "lat": 52.3759, "lon": 10.4667, "intensity": 0.6, "source": "Tagesschau"}, {"title": "Leonhard: Reise ins Baltikum soll Wirtschaftsbeziehungen st\u00e4rken", "url": "https://www.tagesschau.de/inland/regional/hamburg/ndr-leonhard-reise-ins-baltikum-fuer-wirtschaftsbeziehungen-100.html", "thumbnailUrl": "https://images.tagesschau.de/image/7f6e6747-c41e-4616-9971-4ac33cfd71cf/AAABjp4jXc8/AAABjcWesUg/16x9-512.jpg", "date": "2024-04-02T07:50:00.000+02:00", "lat": 53.5511, "lon": 10.0003, "intensity": 0.8, "source": "Tagesschau"}, {"title": "Hilfe f\u00fcr zwei R\u00e4der gefragt - Fahrradwerkst\u00e4tten am Limit", "url": "https://www.tagesschau.de/inland/regional/schleswigholstein/ndr-hilfe-fuer-zwei-raeder-gefragt-fahrradwerkstaetten-am-limit-100.html", "thumbnailUrl": "https://images.tagesschau.de/image/a8c70b1b-1568-4dbf-86a6-2fee38182cbf/AAABjp3AhnA/AAABjcWesUg/16x9-512.jpg", "date": "2024-04-02T07:35:00.000+02:00", "lat": 54.526, "lon": 9.985, "intensity": 0.7, "source": "Tagesschau"}, {"title": "Saarl\u00e4nder leiden besonders h\u00e4ufig unter chronischen Schmerzen", "url": "https://www.tagesschau.de/inland/regional/saarland/sr-saarlaender-leiden-besonders-haeufig-unter-chronischen-schmerzen-100.html", "thumbnailUrl": "https://images.tagesschau.de/image/72e1460c-9683-4682-a13e-6518be279821/AAABjp2JRjs/AAABjcWesUg/16x9-512.jpg", "date": "2024-04-02T07:24:00.000+02:00", "lat": 49.3964, "lon": 7.0, "intensity": 0.8, "source": "Tagesschau"}, {"title": "Mega-Bauarbeiten an Darmverschlingung Bingen beginnen", "url": "https://www.tagesschau.de/inland/regional/rheinlandpfalz/swr-mega-bauarbeiten-an-darmverschlingung-bingen-beginnen-100.html", "thumbnailUrl": "https://images.tagesschau.de/image/41c12c64-b9aa-4a7e-b3cd-f147632b093c/AAABjp5jM1I/AAABjcWesUg/16x9-512.jpg", "date": "2024-04-02T07:15:00.000+02:00", "lat": 49.9667, "lon": 7.8749, "intensity": 0.7, "source": "Tagesschau"}, {"title": "Nordkorea testet offenbar Mittelstreckenrakete", "url": "https://www.tagesschau.de/ausland/asien/nordkorea-raketentest-332.html", "thumbnailUrl": "https://images.tagesschau.de/image/91e4c98d-b7f2-4eb7-8a5b-915af0544729/AAABjp03h_c/AAABjcWesUg/16x9-512.jpg", "date": "2024-04-02T07:10:46.530+02:00", "lat": 39.0392, "lon": 125.7625, "intensity": 0.8, "source": "Tagesschau"}, {"title": "Sicherheitsrisiko: E-Roller in Hannovers Bussen und Bahnen verboten", "url": "https://www.tagesschau.de/inland/regional/niedersachsen/ndr-sicherheitsrisiko-e-roller-in-hannovers-bussen-und-bahnen-verboten-100.html", "thumbnailUrl": "https://images.tagesschau.de/image/a7c4e095-9113-4396-8a4b-7a4d0775064c/AAABjp3H_DQ/AAABjcWesUg/16x9-512.jpg", "date": "2024-04-02T07:08:00.000+02:00", "lat": 52.3759, "lon": 9.7332, "intensity": 0.6, "source": "Tagesschau"}, {"title": "Aus rbbKultur wird radio3 - \"Die Klassik bleibt journalistisches Thema\"", "url": "https://www.tagesschau.de/inland/regional/berlin/rbb-aus-rbbkultur-wird-radio3-die-klassik-bleibt-journalistisches-thema-100.html", "thumbnailUrl": "https://images.tagesschau.de/image/32ba47e3-369c-4197-bfc6-4ea0436147c1/AAABjp0xjAs/AAABjcWesUg/16x9-512.jpg", "date": "2024-04-02T06:59:39.000+02:00", "lat": 52.520008, "lon": 13.404954, "intensity": 0.6, "source": "Tagesschau"}, {"title": "Schleuse Banzkow: Schweriner Seen wieder f\u00fcr Boote erreichbar", "url": "https://www.tagesschau.de/inland/regional/mecklenburgvorpommern/ndr-schleuse-banzkow-schweriner-seen-wieder-fuer-boote-erreichbar-100.html", "thumbnailUrl": "https://images.tagesschau.de/image/b4c873b0-0514-4a72-8bc5-ac8a2c63806f/AAABjp34-To/AAABjcWesUg/16x9-512.jpg", "date": "2024-04-02T06:55:00.000+02:00", "lat": 53.6269, "lon": 11.4501, "intensity": 0.6, "source": "Tagesschau"}, {"title": "Spannung vor dem DFB-Pokal-Halbfinale 1. FC Saarbr\u00fccken gegen 1. FC Kaiserslautern", "url": "https://www.tagesschau.de/inland/regional/saarland/sr-countdown-zum-pokalhalbfinale-1-fc-saarbruecken-gegen-1-fc-kaiserlautern-100.html", "thumbnailUrl": "https://images.tagesschau.de/image/8f0d814d-b0c3-4e93-8b8a-6dcd285c1fe3/AAABjp4uCws/AAABjcWesUg/16x9-512.jpg", "date": "2024-04-02T06:48:00.000+02:00", "lat": 49.35, "lon": 7.0, "intensity": 0.8, "source": "Tagesschau"}, {"title": "Senioren hinter Gittern: So leben \u00fcber 60-J\u00e4hrige in Berlin Haft", "url": "https://www.tagesschau.de/inland/regional/brandenburg/rbb-senioren-hinter-gittern-so-leben-ueber-60-jaehrige-in-berlin-haft-100.html", "thumbnailUrl": "https://images.tagesschau.de/image/2c04c053-2648-475d-ae2b-00e306084c3d/AAABjp0k2a8/AAABjcWesUg/16x9-512.jpg", "date": "2024-04-02T06:45:41.000+02:00", "lat": 52.520008, "lon": 13.404954, "intensity": 0.7, "source": "Tagesschau"}, {"title": "Femizid: Selbsthilfegruppe f\u00fcr Angeh\u00f6rige in Ludwigshafen gegr\u00fcndet", "url": "https://www.tagesschau.de/inland/regional/rheinlandpfalz/swr-femizid-selbsthilfegruppe-fuer-angehoerige-in-ludwigshafen-gegruendet-102.html", "thumbnailUrl": "https://images.tagesschau.de/image/628b704a-28f8-464d-9175-3027a26c155f/AAABjp11Ob4/AAABjcWesUg/16x9-512.jpg", "date": "2024-04-02T06:45:03.000+02:00", "lat": 49.4844443, "lon": 8.4407293, "intensity": 0.8, "source": "Tagesschau"}, {"title": "B72: Autofahrer zur K\u00fcste m\u00fcssen monatelang weite Umwege fahren", "url": "https://www.tagesschau.de/inland/regional/niedersachsen/ndr-b72-autofahrer-zur-kueste-muessen-monatelang-weite-umwege-fahren-100.html", "thumbnailUrl": "https://images.tagesschau.de/image/9c966a88-374c-490a-b977-8baca1a1637c/AAABjp3z9m4/AAABjcWesUg/16x9-512.jpg", "date": "2024-04-02T06:38:00.000+02:00", "lat": 53.6596, "lon": 7.5541, "intensity": 0.6, "source": "Tagesschau"}, {"title": "Alkoholverbot am Hamburger Hauptbahnhof wird heute wirksam", "url": "https://www.tagesschau.de/inland/regional/hamburg/ndr-alkoholverbot-am-hamburger-hauptbahnhof-tritt-am-dienstag-in-kraft-100.html", "thumbnailUrl": "https://images.tagesschau.de/image/bdfdee54-9063-47c5-b8f0-dc4bd5349b67/AAABjp0xuDA/AAABjcWesUg/16x9-512.jpg", "date": "2024-04-02T06:33:00.000+02:00", "lat": 53.5526, "lon": 9.9937, "intensity": 0.8, "source": "Tagesschau"}, {"title": "Das sind die Stra\u00dfensperrungen zum DFB-Pokal-Spiel", "url": "https://www.tagesschau.de/inland/regional/saarland/sr-das-sind-die-strassensperrungen-zum-dfb-pokal-spiel-100.html", "thumbnailUrl": "https://images.tagesschau.de/image/ada4a336-6a7c-4144-91a9-e902a40657ee/AAABjp0OkoE/AAABjcWesUg/16x9-512.jpg", "date": "2024-04-02T06:25:00.000+02:00", "lat": 49.233, "lon": 7.009, "intensity": 0.8, "source": "Tagesschau"}, {"title": "Tierheim randvoll: Weil das Homeoffice leer bleibt? ", "url": "https://www.tagesschau.de/inland/regional/badenwuerttemberg/swr-tierheim-randvoll-weil-das-homeoffice-leer-bleibt-100.html", "thumbnailUrl": "https://images.tagesschau.de/image/ae913e9f-e38c-41f4-b67a-d147da744179/AAABjp2hNTY/AAABjcWesUg/16x9-512.jpg", "date": "2024-04-02T06:24:27.000+02:00", "lat": 48.7758, "lon": 9.1919, "intensity": 0.6, "source": "Tagesschau"}, {"title": "Saisonstart in MV: Tourismusbranche zufrieden mit dem Ostergesch\u00e4ft", "url": "https://www.tagesschau.de/inland/regional/mecklenburgvorpommern/ndr-saisonstart-in-mv-tourismusbranche-zufrieden-mit-dem-ostergeschaeft-100.html", "thumbnailUrl": "https://images.tagesschau.de/image/cef98533-7c61-43f7-8fd8-763616c96cd6/AAABjp4AUeA/AAABjcWesUg/16x9-512.jpg", "date": "2024-04-02T06:14:00.000+02:00", "lat": 53.6127, "lon": 12.5655, "intensity": 0.8, "source": "Tagesschau"}, {"title": "B\u00e4cker aus Serrig: \"Kleine B\u00e4ckereien auf dem Land werden verschwinden\" ", "url": "https://www.tagesschau.de/inland/regional/rheinlandpfalz/swr-baecker-aus-serrig-kleine-baeckereien-auf-dem-land-werden-verschwinden-102.html", "thumbnailUrl": "https://images.tagesschau.de/image/9b14f521-c2db-498e-ae01-eb3e9afd31e6/AAABjp31Zrc/AAABjcWesUg/16x9-512.jpg", "date": "2024-04-02T06:07:16.000+02:00", "lat": 49.7566, "lon": 6.7987, "intensity": 0.7, "source": "Tagesschau"}, {"title": "St\u00e4rkere Stimme f\u00fcr Kinder und Jugendliche in MVs Politik", "url": "https://www.tagesschau.de/inland/regional/mecklenburgvorpommern/ndr-staerkere-stimme-fuer-kinder-und-jugendliche-in-mvs-politik-100.html", "thumbnailUrl": "https://images.tagesschau.de/image/b189e7ad-bab5-42c3-8230-62b05796b98c/AAABjp38pbY/AAABjcWesUg/16x9-512.jpg", "date": "2024-04-02T06:06:00.000+02:00", "lat": 53.6127, "lon": 13.2394, "intensity": 0.6, "source": "Tagesschau"}, {"title": "Campino h\u00e4lt erste Vorlesung als Gastprofessor in D\u00fcsseldorf", "url": "https://www.tagesschau.de/inland/regional/nordrheinwestfalen/wdr-campino-haelt-erste-vorlesung-als-gastprofessor-in-duesseldorf-100.html", "thumbnailUrl": "https://images.tagesschau.de/image/e9da32b1-57ce-4195-82e2-fdc58304969f/AAABjp0K79g/AAABjcWesUg/16x9-512.jpg", "date": "2024-04-02T06:00:00.000+02:00", "lat": 51.2277, "lon": 6.7715, "intensity": 0.7, "source": "Tagesschau"}, {"title": "Falsch bef\u00fcllte Biotonnen in Aachen werden nicht mehr geleert", "url": "https://www.tagesschau.de/inland/regional/nordrheinwestfalen/wdr-falsch-befuellte-biotonnen-in-aachen-werden-nicht-mehr-geleert-102.html", "thumbnailUrl": "https://images.tagesschau.de/image/872e514e-85f8-40ef-9c0a-41f4452ac3cd/AAABjp3bp-I/AAABjcWesUg/16x9-512.jpg", "date": "2024-04-02T06:00:00.000+02:00", "lat": 50.7753, "lon": 6.083, "intensity": 0.6, "source": "Tagesschau"}, {"title": "Das Westfalenstadion: Gr\u00f6\u00dfte Fu\u00dfball-Kultst\u00e4tte wird 50", "url": "https://www.tagesschau.de/inland/regional/nordrheinwestfalen/wdr-das-westfalenstadion-100.html", "thumbnailUrl": "https://images.tagesschau.de/image/99d008c6-d381-4a21-8fd1-e21db4610db0/AAABjp5zshc/AAABjcWesUg/16x9-512.jpg", "date": "2024-04-02T06:00:00.000+02:00", "lat": 51.4926, "lon": 7.4516, "intensity": 0.8, "source": "Tagesschau"}, {"title": "Israel will Sender Al Jazeera abschalten", "url": "https://www.tagesschau.de/ausland/asien/israel-gesetz-al-jazeera-100.html", "thumbnailUrl": "https://images.tagesschau.de/image/303acc43-d709-47c7-8c87-d18683f43c91/AAABjXlxmsc/AAABjcWesUg/16x9-512.jpg", "date": "2024-04-02T05:06:35.955+02:00", "lat": 31.7683, "lon": 35.2137, "intensity": 0.8, "source": "Tagesschau"}, {"title": "\"Team nebenan\": 1.000 Euro f\u00fcr eine Idee", "url": "https://www.tagesschau.de/inland/regional/hamburg/ndr-team-nebenan-1-000-euro-fuer-eine-idee-100.html", "thumbnailUrl": "https://images.tagesschau.de/image/3f02b3f4-0eb7-4235-9427-2fc3ac61bd1c/AAABjpzANPE/AAABjcWesUg/16x9-512.jpg", "date": "2024-04-02T05:00:00.000+02:00", "lat": 53.5511, "lon": 9.9937, "intensity": 0.8, "source": "Tagesschau"}, {"title": "Musikschulen in Schleswig-Holstein bangen um ihre Existenz", "url": "https://www.tagesschau.de/inland/regional/schleswigholstein/ndr-musikschulen-in-schleswig-holstein-bangen-um-ihre-existenz-100.html", "thumbnailUrl": "https://images.tagesschau.de/image/c41dfc03-5f08-4263-b201-17dec24f6a09/AAABjp4ukoo/AAABjcWesUg/16x9-512.jpg", "date": "2024-04-02T05:00:00.000+02:00", "lat": 54.438, "lon": 9.9888, "intensity": 0.7, "source": "Tagesschau"}, {"title": "Signalrakete gez\u00fcndet: Segelboot ger\u00e4t auf dem Bodensee in Not", "url": "https://www.tagesschau.de/inland/regional/badenwuerttemberg/swr-signalrakete-gezuendet-segelboot-geraet-auf-dem-bodensee-in-seenot-100.html", "thumbnailUrl": "https://images.tagesschau.de/image/7eb4256f-6d49-4847-a77e-9963fc05acf7/AAABjpYtHhw/AAABjcWesUg/16x9-512.jpg", "date": "2024-04-02T03:42:00.000+02:00", "lat": 47.6244, "lon": 9.5901, "intensity": 0.7, "source": "Tagesschau"}, {"title": "\"Russland zur Verantwortung ziehen\"", "url": "https://www.tagesschau.de/ausland/europa/ukraine-konferenz-den-haag-100.html", "thumbnailUrl": "https://images.tagesschau.de/image/eb3d950f-4829-486b-b1a2-199386a98828/AAABjpsu1T0/AAABjcWesUg/16x9-512.jpg", "date": "2024-04-02T03:31:09.152+02:00", "lat": 50.4501, "lon": 30.5234, "intensity": 0.6, "source": "Tagesschau"}, {"title": "Drei Tote nach Lawine bei Zermatt", "url": "https://www.tagesschau.de/ausland/europa/zermatt-lawine-100.html", "thumbnailUrl": "https://images.tagesschau.de/image/694c65f7-1b97-44b0-ab95-bc14122e246d/AAABjpxg7Bc/AAABjcWesUg/16x9-512.jpg", "date": "2024-04-02T03:25:32.693+02:00", "lat": 46.0207, "lon": 7.7439, "intensity": 0.9, "source": "Tagesschau"}, {"title": "Sorge vor Eskalation nach Angriff auf iranische Botschaft", "url": "https://www.tagesschau.de/ausland/asien/damaskus-explosion-iran-botschaft-102.html", "thumbnailUrl": "https://images.tagesschau.de/image/1886863b-49f1-47ca-8a35-18432ba8a835/AAABjpvNylw/AAABjcWesUg/16x9-512.jpg", "date": "2024-04-02T00:45:47.888+02:00", "lat": 33.5138, "lon": 36.3033, "intensity": 0.8, "source": "Tagesschau"}, {"title": "Cannabis-Bef\u00fcrworter in Mainz feiern Teillegalisierung", "url": "https://www.tagesschau.de/inland/regional/rheinlandpfalz/swr-cannabis-befuerworter-in-mainz-feiern-teillegalisierung-102.html", "thumbnailUrl": "https://images.tagesschau.de/image/b2ff0170-2d7b-45c2-b143-46654ca26461/AAABjp3CCww/AAABjcWesUg/16x9-512.jpg", "date": "2024-04-02T00:06:41.000+02:00", "lat": 50.002541, "lon": 8.247252, "intensity": 0.8, "source": "Tagesschau"}, {"title": "60 Jahre Kampfschwimmer: Die Bundeswehr-Elite in Eckernf\u00f6rde", "url": "https://www.tagesschau.de/inland/regional/schleswigholstein/ndr-60-jahre-kampfschwimmer-die-bundeswehr-elite-in-eckernfoerde-100.html", "thumbnailUrl": "https://images.tagesschau.de/image/8fc59b10-318e-4564-8a39-b12f6b72fc0f/AAABjpuxQdE/AAABjcWesUg/16x9-512.jpg", "date": "2024-04-02T00:04:00.000+02:00", "lat": 54.4773, "lon": 9.8347, "intensity": 0.8, "source": "Tagesschau"}, {"title": "Mehrere L\u00e4nder verlangen Erkl\u00e4rungen nach Angriff auf Gaza", "url": "https://www.br.de/nachrichten/meldungen/index.html#n1", "thumbnailUrl": null, "date": "2024-04-02T13:01:03+02:00", "lat": 30.0444, "lon": 31.2357, "intensity": 0.8, "source": "Bayrischer Rundfunk"}, {"title": "Irans Staatsoberhaupt Chamenei droht Israel mit Vergeltung", "url": "https://www.br.de/nachrichten/meldungen/index.html#n2", "thumbnailUrl": null, "date": "2024-04-02T13:01:03+02:00", "lat": 33.5138, "lon": 36.2021, "intensity": 0.8, "source": "Bayrischer Rundfunk"}, {"title": "Galeria: Amtsgericht Essen leitetet Insolvenzverfahren ein", "url": "https://www.br.de/nachrichten/meldungen/index.html#n3", "thumbnailUrl": null, "date": "2024-04-02T13:01:03+02:00", "lat": 39.9334, "lon": 32.8597, "intensity": 0.8, "source": "Bayrischer Rundfunk"}, {"title": "Internationale Konferenz spricht \u00fcber Kriegsverbrechen in der Ukraine", "url": "https://www.br.de/nachrichten/meldungen/index.html#n4", "thumbnailUrl": null, "date": "2024-04-02T13:01:03+02:00", "lat": 52.520008, "lon": 13.404954, "intensity": 0.7, "source": "Bayrischer Rundfunk"}, {"title": "Kind stirbt bei Schusswaffenangriff in finnischer Schule", "url": "https://www.br.de/nachrichten/meldungen/index.html#n5", "thumbnailUrl": null, "date": "2024-04-02T13:01:03+02:00", "lat": 52.520008, "lon": 13.404954, "intensity": 0.6, "source": "Bayrischer Rundfunk"}, {"title": "Grillkohle war vermutlich Ursache f\u00fcr Gro\u00dfbrand in Niederbayern", "url": "https://www.br.de/nachrichten/meldungen/index.html#n6", "thumbnailUrl": null, "date": "2024-04-02T13:01:03+02:00", "lat": 48.135125, "lon": 11.581981, "intensity": 0.6, "source": "Bayrischer Rundfunk"}, {"title": "Prozess gegen mutma\u00dfliche Reichsb\u00fcrger-Gruppe beginnt im Mai", "url": "https://www.br.de/nachrichten/meldungen/index.html#n7", "thumbnailUrl": null, "date": "2024-04-02T13:01:03+02:00", "lat": 50.110922, "lon": 8.682127, "intensity": 0.8, "source": "Bayrischer Rundfunk"}, {"title": "Ermittlungen zu geklauten Payback-Punkten f\u00fchren zu Anklage", "url": "https://www.br.de/nachrichten/meldungen/index.html#n8", "thumbnailUrl": null, "date": "2024-04-02T13:01:03+02:00", "lat": 47.8684, "lon": 12.6394, "intensity": 0.8, "source": "Bayrischer Rundfunk"}, {"title": "Im M\u00fcnchner \u00d6PNV sind E-Roller seit heute verboten", "url": "https://www.br.de/nachrichten/meldungen/index.html#n9", "thumbnailUrl": null, "date": "2024-04-02T13:01:03+02:00", "lat": 48.5844, "lon": 13.6722, "intensity": 0.8, "source": "Bayrischer Rundfunk"}, {"title": "Das Wetter: Sehr wechselhaft, lebhafter Wind", "url": "https://www.br.de/nachrichten/meldungen/index.html#n10", "thumbnailUrl": null, "date": "2024-04-02T13:01:03+02:00", "lat": 53.5396, "lon": 8.5761, "intensity": 0.4, "source": "Bayrischer Rundfunk"}, {"title": "Tesla-Fabrik: Zugshuttle zwischen Berlin und Gr\u00fcnheide gestartet", "url": "https://www.rbb24.de/wirtschaft/beitrag/2024/04/tesla-zug-shuttle-start-lichtenberg-berlin-gruenheide-brandenburg-.html", "thumbnailUrl": null, "date": "Tue, 02 Apr 2024 12:46:28 +0200", "lat": 52.303487, "lon": 13.589326, "intensity": 0.8, "source": "RBB"}, {"title": "\"Reichsb\u00fcrger\"-Netzwerk: Prozess gegen Malsack-Winkemann und acht weitere Angeklagte startet im Mai", "url": "https://www.rbb24.de/panorama/beitrag/2024/04/prozess-reichsbrger-frankfurt-verfahren-berliner-richterin-malsack-winkemann.html", "thumbnailUrl": null, "date": "Tue, 02 Apr 2024 12:32:40 +0200", "lat": 50.1109, "lon": 8.6821, "intensity": 0.8, "source": "RBB"}, {"title": "Trotz Warnstreiks bei Lidl und Kaufland in Berlin und Brandenburg sind keine Filialschlie\u00dfungen zu erwarten", "url": "https://www.rbb24.de/wirtschaft/beitrag/2024/04/warnstreik-kaufland-lidl-verdi-tarifstreit-lohn-luebbenau.html", "thumbnailUrl": null, "date": "Tue, 02 Apr 2024 12:29:59 +0200", "lat": 52.520008, "lon": 13.404954, "intensity": 0.7, "source": "RBB"}, {"title": "Burg im Spreewald: 22-J\u00e4hriger von Vermummtem attackiert - Sch\u00e4delbruch", "url": "https://www.rbb24.de/panorama/beitrag/2024/04/brandenburg-mueschen-burg-angriff-osterfeuer-auf-mann-schaedelbruch-polizei.html", "thumbnailUrl": null, "date": "Tue, 02 Apr 2024 12:23:00 +0200", "lat": 52.033, "lon": 14.065, "intensity": 0.8, "source": "RBB"}, {"title": "Kommunalwahlen 2024: Brandenburg w\u00e4hlt mehr als 10.000 Kommunalpolitiker:innen", "url": "https://www.rbb24.de/politik/wahl/kommunalwahlen/2024/brandenburg-buergermeister-kreistage-stadtverordnete-gemeinden-ortsbeiraete.html", "thumbnailUrl": null, "date": "Tue, 02 Apr 2024 11:30:46 +0200", "lat": 52.6367, "lon": 13.7373, "intensity": 0.5, "source": "RBB"}, {"title": "Kommunalwahlen 2024: Brandenburg w\u00e4hlt mehr als 10.000 Kommunalpolitiker:innen", "url": "https://www.rbb24.de/politik/wahl/kommunalwahlen/2024/brandenburg-buergermeister-kreistage-stadtverordnete-gemeinden-ortsbeiraete.html", "thumbnailUrl": null, "date": "Tue, 02 Apr 2024 11:30:46 +0200", "lat": 52.6367, "lon": 13.7373, "intensity": 0.5, "source": "RBB"}, {"title": "Gericht er\u00f6ffnet Insolvenzverfahren f\u00fcr Galeria Karstadt Kaufhof", "url": "https://www.rbb24.de/wirtschaft/beitrag/2024/04/berlin-brandenburg-amtsgericht-essen-insolvenzverfahren-warenhauskonzern-galeria-karstadt-kaufhof.html", "thumbnailUrl": null, "date": "Tue, 02 Apr 2024 10:45:00 +0200", "lat": 51.4556, "lon": 7.0131, "intensity": 0.8, "source": "RBB"}, {"title": "Bob-Bahn am Marzahner Kienberg wird nach Brandstiftung wieder aufgebaut", "url": "https://www.rbb24.de/panorama/beitrag/2024/04/bobbahn-rodelbahn-gaerten-der-welt-kienberg-marzahn.html", "thumbnailUrl": null, "date": "Tue, 02 Apr 2024 10:42:00 +0200", "lat": 52.5407, "lon": 13.6298, "intensity": 0.8, "source": "RBB"}, {"title": "Barnim: Motorradfahrer stirbt bei Verkehrsunfall in Joachimsthal", "url": "https://www.rbb24.de/panorama/beitrag/2024/04/motorrad-fahrer-tot-verkehr-unfall-joachimsthal-barnim-brandenburg.html", "thumbnailUrl": null, "date": "Tue, 02 Apr 2024 10:27:16 +0200", "lat": 52.9821, "lon": 13.7858, "intensity": 0.8, "source": "RBB"}, {"title": "Martin Matz: Berliner SPD-Innenexperte erwartet kaum Probleme durch Cannabis-Teil-Legalisierung", "url": "https://www.rbb24.de/politik/beitrag/2024/04/innenexperte-spd-martin-matz-legalisierung-cannabis-wenige-probleme.html", "thumbnailUrl": null, "date": "Tue, 02 Apr 2024 10:08:00 +0200", "lat": 52.520008, "lon": 13.404954, "intensity": 0.2, "source": "RBB"}, {"title": "Gro\u00dfer Stern, Markgrafendamm, RE1: Baustellen behindern Stra\u00dfen- und Bahnverkehr in Berlin und Brandenburg", "url": "https://www.rbb24.de/panorama/beitrag/2024/04/berlin-brandenburg-verkehr-einschraenkungen-grosser-stern-ampelanlage-kraneinsatz-tiefbauarbeiten-re1-bahn-a100.html", "thumbnailUrl": null, "date": "Tue, 02 Apr 2024 09:14:00 +0200", "lat": 52.517, "lon": 13.3696, "intensity": 0.6, "source": "RBB"}, {"title": "Berlin: Autofahrer st\u00f6\u00dft mit Motorradfahrer in Kreuzberg zusammen", "url": "https://www.rbb24.de/panorama/beitrag/2024/04/motorradfahrer-berlin-kreuzberg-auto-zusammengestossen-prinzenstrasse.html", "thumbnailUrl": null, "date": "Tue, 02 Apr 2024 08:32:30 +0200", "lat": 52.4931, "lon": 13.3986, "intensity": 0.6, "source": "RBB"}, {"title": "Gro\u00dfer Stern in Berlin-Tiergarten f\u00fcr vier Tage gesperrt", "url": "https://www.rbb24.de/panorama/beitrag/2024/03/berlin-tiergarten-grosser-stern-sperrung-neue-ampeln.html", "thumbnailUrl": null, "date": "Tue, 02 Apr 2024 06:52:56 +0200", "lat": 52.5146, "lon": 13.3503, "intensity": 0.6, "source": "RBB"}, {"title": "Senioren hinter Gittern: So leben \u00fcber 60-J\u00e4hrige in Berlin Haft", "url": "https://www.rbb24.de/panorama/beitrag/2024/04/senioren-aeltere-menschen-im-gefaengnis-haft-berlin.html", "thumbnailUrl": null, "date": "Tue, 02 Apr 2024 06:45:00 +0200", "lat": 52.52, "lon": 13.4073, "intensity": 0.7, "source": "RBB"}, {"title": "Landkreis Spree-Nei\u00dfe: Vier Menschen bei Verkehrsunfall in Kolkwitz schwer verletzt", "url": "https://www.rbb24.de/panorama/beitrag/2024/03/brandenburg-kolkwitz-verkehrsunfall-verletzte.html", "thumbnailUrl": null, "date": "Mon, 01 Apr 2024 14:53:24 +0200", "lat": 51.722, "lon": 14.308, "intensity": 0.8, "source": "RBB"}, {"title": "Berlin-Nikolassee: Zwei Schwerverletzte nach mutma\u00dflichem illegalen Rennen", "url": "https://www.rbb24.de/panorama/beitrag/2024/04/illegales-rennen-unfall-zehlendorf.html", "thumbnailUrl": null, "date": "Mon, 01 Apr 2024 13:47:00 +0200", "lat": 52.431, "lon": 13.2377, "intensity": 0.8, "source": "RBB"}, {"title": "Kind mit Spielzeugwaffe auf A11 l\u00f6st Polizeieinsatz aus", "url": "https://www.rbb24.de/panorama/beitrag/2024/04/polizeieinsatz-kind-spielzeugwaffe-autobahn-11-prenzlau.html", "thumbnailUrl": null, "date": "Mon, 01 Apr 2024 12:39:31 +0200", "lat": 52.518, "lon": 11.632, "intensity": 0.6, "source": "RBB"}, {"title": "Hunderte feiern Cannabis-Legalisierung in Berlin", "url": "https://www.rbb24.de/panorama/beitrag/2024/04/cannabis-legalisierung-feier.html", "thumbnailUrl": null, "date": "Mon, 01 Apr 2024 12:31:00 +0200", "lat": 52.5166, "lon": 13.3777, "intensity": 0.7, "source": "RBB"}, {"title": "Waldbrandgefahr im Brandenburger S\u00fcden steigt leicht", "url": "https://www.rbb24.de/panorama/beitrag/2024/04/suedbrandenburg-waldbrandgefahr-steigt-leicht.html", "thumbnailUrl": null, "date": "Mon, 01 Apr 2024 12:20:00 +0200", "lat": 52.5016, "lon": 13.3326, "intensity": 0.4, "source": "RBB"}, {"title": "Invasive Art: Imkerverband will Ausbreitung der Asiatischen Hornisse in Berlin verhindern", "url": "https://www.rbb24.de/panorama/beitrag/2024/04/berlin-imkerverband-schulungen-asiatische-hornisse.html", "thumbnailUrl": null, "date": "Mon, 01 Apr 2024 09:13:21 +0200", "lat": 52.520008, "lon": 13.404954, "intensity": 0.6, "source": "RBB"}, {"title": "Berliner Psychiater warnt: Cannabiskonsum kann vor allem bei jungen M\u00e4nnern zu Psychosen f\u00fchren", "url": "https://www.rbb24.de/panorama/beitrag/2024/04/cannabis-konsum-jugendliche-maenner-psychosen-psychiatrie-berlin.html", "thumbnailUrl": null, "date": "Mon, 01 Apr 2024 08:20:00 +0200", "lat": 52.52, "lon": 13.4229, "intensity": 0.7, "source": "RBB"}, {"title": "Video: Union Berlin entf\u00fchrt einen Punkt aus Frankfurt", "url": "https://www.rbb24.de/sport/beitrag/av7/video-fussball-berlin-1-fc-union-bundesliga-eintracht-frankfurt.html", "thumbnailUrl": null, "date": "Mon, 01 Apr 2024 00:00:00 +0200", "lat": 52.457778, "lon": 13.494167, "intensity": 0.7, "source": "RBB"}, {"title": "Video: Hertha und N\u00fcrnberg trennen sich nach furiosem Spiel mit 3:3", "url": "https://www.rbb24.de/sport/beitrag/av7/video-fussball-berlin-hertha-bsc-zweite-bundesliga-1-fc-nuernberg.html", "thumbnailUrl": null, "date": "Mon, 01 Apr 2024 00:00:00 +0200", "lat": 52.52, "lon": 13.5007, "intensity": 0.8, "source": "RBB"}, {"title": "Video | Spreewald: Sorbische Ostern", "url": "https://www.rbb24.de/panorama/beitrag/av7/video-sorbisch-ostern-ostersingen-tradition.html", "thumbnailUrl": null, "date": "Sun, 31 Mar 2024 21:40:56 +0200", "lat": 51.8667, "lon": 14.0833, "intensity": 0.2, "source": "RBB"}, {"title": "Erzbischof Koch zu Synodalem Weg: Katholische Kirche verliert Glaubw\u00fcrdigkeit wegen fehlender Gleichberechtigung", "url": "https://www.rbb24.de/panorama/beitrag/2024/03/katholische-kirche-frauen-synodaler-weg-erzbischof-heiner-koch.html", "thumbnailUrl": null, "date": "Sun, 31 Mar 2024 21:09:00 +0200", "lat": 51.225, "lon": 9.976, "intensity": 0.7, "source": "RBB"}, {"title": "Saisonstart auf Galopprennbahn: Mr. Hollywood bezwingt in Hoppegarten Derbysieger Fantastic Moon", "url": "https://www.rbb24.de/sport/beitrag/2024/03/saisonauftakt-hoppegarten-galopprennbahn-mr-hollywood-andrasch-starke.html", "thumbnailUrl": null, "date": "Sun, 31 Mar 2024 18:32:00 +0200", "lat": 52.5123, "lon": 13.6355, "intensity": 0.4, "source": "RBB"}, {"title": "85:65 gegen Hamburg: Alba Berlin gelingt achter Liga-Sieg in Serie - Schneider stellt BBL-Rekord auf", "url": "https://www.rbb24.de/sport/beitrag/2024/03/basketball-bundesliga-alba-berlin-hamburg-towers-spielbericht.html", "thumbnailUrl": null, "date": "Sun, 31 Mar 2024 17:53:00 +0200", "lat": 52.5065, "lon": 13.4633, "intensity": 0.7, "source": "RBB"}, {"title": "2. Fu\u00dfball-Bundesliga: Turbine klettert durch Sieg in Frankfurt auf Platz zwei", "url": "https://www.rbb24.de/sport/beitrag/2024/03/fussball-brandenburg-turbine-zweite-bundesliga-eintracht-frankfurt.html", "thumbnailUrl": null, "date": "Sun, 31 Mar 2024 16:30:00 +0200", "lat": 50.1109, "lon": 8.6821, "intensity": 0.6, "source": "RBB"}, {"title": "Regionalliga Nordost: Viktoria Berlin holt trotz vieler Chancen nur einen Punkt gegen Babelsberg", "url": "https://www.rbb24.de/sport/beitrag/2024/03/fussball-regionalliga-nordost-viktoria-berlin-babelsberg-03-spielbericht.html", "thumbnailUrl": null, "date": "Sun, 31 Mar 2024 16:01:45 +0200", "lat": 52.376, "lon": 13.0511, "intensity": 0.6, "source": "RBB"}, {"title": "Zwei Bl\u00f6cke im Kohlekraftwerk J\u00e4nschwalde vom Netz genommen", "url": "https://www.rbb24.de/wirtschaft/beitrag/2024/03/zwei-bloecke-kohlekraftwerk-jaenschwalde-vom-netz-genommen-spree-neisse-brandenburg.html", "thumbnailUrl": null, "date": "Sun, 31 Mar 2024 14:29:00 +0200", "lat": 51.8149, "lon": 14.26172, "intensity": 0.8, "source": "RBB"}, {"title": "Bundesverteidigungsministerium: Bundeswehr stellte 2023 weniger Soldaten in Berlin und Brandenburg ein", "url": "https://www.rbb24.de/panorama/beitrag/2024/03/bundeswehr-berlin-brandenburg-weniger-soldatinnen-soldaten-eingestellt.html", "thumbnailUrl": null, "date": "Sun, 31 Mar 2024 13:43:00 +0200", "lat": 52.520008, "lon": 13.404954, "intensity": 0.4, "source": "RBB"}, {"title": "Hallen-Weltcup in Frankreich: Potsdamer Triathletin Lindemann gelingt Sieg beim Jahresauftakt", "url": "https://www.rbb24.de/sport/beitrag/2024/03/triathlon-laura-lindemann-potsdam-sieg-hallen-weltcup-frankreich.html", "thumbnailUrl": null, "date": "Sun, 31 Mar 2024 10:43:51 +0200", "lat": 48.8566, "lon": 2.3522, "intensity": 0.7, "source": "RBB"}, {"title": "Letzter DDR-Bildungsminister Hans Joachim Meyer gestorben", "url": "https://www.rbb24.de/panorama/beitrag/2024/03/ddr-bildungsminister-hans-joachim-meyer.html", "thumbnailUrl": null, "date": "Sat, 30 Mar 2024 20:26:00 +0100", "lat": 52.520008, "lon": 13.404954, "intensity": 0.6, "source": "RBB"}, {"title": "Nach 3:1-Sieg in L\u00fcneburg: BR Volleys stehen kurz vor dreizehntem Final-Einzug in Folge", "url": "https://www.rbb24.de/sport/beitrag/2024/03/volleyball-vbl-playoffs-halbfinale-br-volleys-lueneburg-spiel-2-spielbericht.html", "thumbnailUrl": null, "date": "Sat, 30 Mar 2024 20:22:13 +0100", "lat": 53.2402, "lon": 10.4367, "intensity": 0.8, "source": "RBB"}, {"title": "Regionalliga Nordost: Hertha BSC II und Lok Leipzig teilen sich die Punkte,  Altglienicke schl\u00e4gt BAK", "url": "https://www.rbb24.de/sport/beitrag/2024/03/fussball-regionalliga-nordost-hertha-bsc-berlin-u23-lok-leipzig.html", "thumbnailUrl": null, "date": "Sat, 30 Mar 2024 15:12:13 +0100", "lat": 52.5109, "lon": 13.4345, "intensity": 0.5, "source": "RBB"}, {"title": "Gesundbrunnen: Drei E-Scooter-Fahrer pr\u00fcgeln auf Ehepaar ein", "url": "https://www.rbb24.de/panorama/beitrag/2024/03/berlin-gesundbrunne-e-scooter-fahrer-pruegel-ehepaar-polizei.html", "thumbnailUrl": null, "date": "Sat, 30 Mar 2024 12:44:00 +0100", "lat": 52.5489, "lon": 13.3897, "intensity": 0.7, "source": "RBB"}, {"title": "Video | Baustopp: Wie es um das Bauprojekt \"Upside Berlin\" steht", "url": "https://www.rbb24.de/panorama/beitrag/av7/video-baustopp-hochhaeuser-friedrichshain-berlin.html", "thumbnailUrl": null, "date": "Fri, 29 Mar 2024 21:13:11 +0100", "lat": 52.466, "lon": 13.739, "intensity": 0.8, "source": "RBB"}, {"title": "Video | Lost Place Fotografie: Auf den Spuren der Tuberkuloseklinik Kolkwitz", "url": "https://www.rbb24.de/panorama/beitrag/av7/video-lost-place-fotografie-kunst-verborgen.html", "thumbnailUrl": null, "date": "Fri, 29 Mar 2024 20:57:05 +0100", "lat": 51.751525, "lon": 14.323335, "intensity": 0.7, "source": "RBB"}, {"title": "Video | Frankfurt-Oder: Experimentelles Ballett im Kleist Forum", "url": "https://www.rbb24.de/kultur/beitrag/av7/video-kleist-ballett-tanz-kultur-kunst.html", "thumbnailUrl": null, "date": "Fri, 29 Mar 2024 20:50:15 +0100", "lat": 52.3412, "lon": 14.5471, "intensity": 0.4, "source": "RBB"}, {"title": "Video | Teltow-Fl\u00e4ming: Wie die Evangelische Kirche mit sexualisierter Gewalt umgeht", "url": "https://www.rbb24.de/panorama/beitrag/av7/video-sexualisiert-gewalt-evangelisch-kirche-konfirmanten.html", "thumbnailUrl": null, "date": "Fri, 29 Mar 2024 20:41:17 +0100", "lat": 52.3321, "lon": 13.2457, "intensity": 0.6, "source": "RBB"}, {"title": "Video | Senftenberg: \"Santa Barbara\" wieder auf dem Senftenberger See unterwegs", "url": "https://www.rbb24.de/panorama/beitrag/av7/video-solar-senftenberg-gaeste-restaurant-fruehling.html", "thumbnailUrl": null, "date": "Fri, 29 Mar 2024 20:39:28 +0100", "lat": 51.5259, "lon": 13.9706, "intensity": 0.3, "source": "RBB"}, {"title": "Video | L\u00fcbben: Ferienhaussiedlung vor dem Aus", "url": "https://www.rbb24.de/panorama/beitrag/av7/video-ferienhaus-siedlung-luebben-weigern-sich-auszug.html", "thumbnailUrl": null, "date": "Fri, 29 Mar 2024 20:27:01 +0100", "lat": 51.9346, "lon": 13.8613, "intensity": 0.8, "source": "RBB"}, {"title": "Signa-Immobilie KaDeWe wird verkauft - Gl\u00e4ubiger stimmen zu", "url": "https://www.rbb24.de/wirtschaft/beitrag/2024/03/signa-insolvenz-kadewe-berlin-wird-verkauft.html", "thumbnailUrl": null, "date": "Mon, 18 Mar 2024 19:19:20 +0100", "lat": 52.5072, "lon": 13.3375, "intensity": 0.8, "source": "RBB"}, {"title": "Wahlen 2024 in Brandenburg: Mit Volldampf in ein Superwahljahr", "url": "https://www.rbb24.de/politik/beitrag/2024/01/politische-jahresvorschau-brandenburg-landtagswahl-kommunalwahl.html", "thumbnailUrl": null, "date": "Tue, 02 Jan 2024 06:16:00 +0100", "lat": 52.3989, "lon": 13.0583, "intensity": 0.8, "source": "RBB"}, {"title": "Seltene Funde an der Nordsee: Kehren verschwundene Arten zur\u00fcck?", "url": "https://www.ndr.de/nachrichten/niedersachsen/Seltene-Funde-an-der-Nordsee-Kehren-verschwundene-Arten-zurueck,seepferdchen162.html", "thumbnailUrl": "https://www.ndr.de/nachrichten/niedersachsen/seepferdchen164_v-contentwidescreen.jpg", "date": "2024-04-02T12:00:16.054+02:00", "lat": 54.45, "lon": 8.9, "intensity": 0.7, "source": "NDR"}, {"title": "Musikschulen in Schleswig-Holstein bangen um ihre Existenz", "url": "https://www.ndr.de/nachrichten/schleswig-holstein/Musikschulen-in-SH-bangen-um-ihre-Existenz,musikschulen108.html", "thumbnailUrl": "https://www.ndr.de/nachrichten/schleswig-holstein/musikschule158_v-contentwidescreen.jpg", "date": "2024-04-02T11:39:01.641+02:00", "lat": 54.129, "lon": 9.409, "intensity": 0.7, "source": "NDR"}, {"title": "Alkoholverbot am Hamburger Hauptbahnhof wird heute wirksam", "url": "https://www.ndr.de/nachrichten/hamburg/Alkoholverbot-am-Hamburger-Hauptbahnhof-wird-heute-wirksam,hauptbahnhof686.html", "thumbnailUrl": "https://www.ndr.de/nachrichten/hamburg/hauptbahnhof688_v-contentwidescreen.jpg", "date": "2024-04-02T10:31:48.282+02:00", "lat": 53.5526, "lon": 9.9937, "intensity": 0.8, "source": "NDR"}, {"title": "Caspar David Friedrich-Schau: Besucherrekord f\u00fcr Kunsthalle", "url": "https://www.ndr.de/kultur/kunst/hamburg/Caspar-David-Friedrich-Schau-Besucherrekord-fuer-Kunsthalle,caspardavidfriedrich160.html", "thumbnailUrl": "https://www.ndr.de/kultur/kunst/hamburg/caspardavidfriedrich162_v-contentwidescreen.jpg", "date": "2024-04-02T12:11:21.611+02:00", "lat": 53.5511, "lon": 9.9937, "intensity": 0.8, "source": "NDR"}, {"title": "Frachter mit Uran an Bord in Rostock festgehalten", "url": "https://www.ndr.de/nachrichten/mecklenburg-vorpommern/Frachter-mit-Uran-an-Bord-in-Rostock-festgehalten,frachtschiff128.html", "thumbnailUrl": "https://www.ndr.de/nachrichten/schleswig-holstein/zoll1050_v-contentwidescreen.jpg", "date": "2024-04-02T11:39:40.583+02:00", "lat": 54.0834, "lon": 12.1336, "intensity": 0.8, "source": "NDR"}, {"title": "Radwege in Hamburg: Wie Verb\u00e4nde den Ausbau bewerten", "url": "https://www.ndr.de/nachrichten/hamburg/Radwege-in-Hamburg-Wie-Verbaende-den-Ausbau-bewerten,radwege298.html", "thumbnailUrl": "https://www.ndr.de/nachrichten/hamburg/radweg428_v-contentwidescreen.jpg", "date": "2024-04-02T11:13:52.701+02:00", "lat": 53.551086, "lon": 9.993682, "intensity": 0.7, "source": "NDR"}, {"title": "Prora-Zentrum auf R\u00fcgen meldet Insolvenz an", "url": "https://www.ndr.de/nachrichten/mecklenburg-vorpommern/Prora-Zentrum-auf-Ruegen-meldet-Insolvenz-an,prora416.html", "thumbnailUrl": "https://www.ndr.de/kultur/prora410_v-contentwidescreen.jpg", "date": "2024-04-02T10:37:51.225+02:00", "lat": 54.3991, "lon": 13.6074, "intensity": 0.8, "source": "NDR"}, {"title": "Neue K\u00f6hlbrandbr\u00fccke soll bis zu 5,3 Milliarden Euro kosten", "url": "https://www.ndr.de/nachrichten/hamburg/Neue-Koehlbrandbruecke-soll-bis-zu-53-Milliarden-Euro-kosten,koehlbrandbruecke384.html", "thumbnailUrl": "https://www.ndr.de/nachrichten/hamburg/koehlbrandbruecke386_v-contentwidescreen.jpg", "date": "2024-04-02T12:28:06.729+02:00", "lat": 53.5317, "lon": 9.9522, "intensity": 0.8, "source": "NDR"}, {"title": "Abbau von \"Section Control\": B6 Richtung Laatzen gesperrt", "url": "https://www.ndr.de/nachrichten/niedersachsen/hannover_weser-leinegebiet/Abbau-von-Section-Control-B6-Richtung-Laatzen-gesperrt,sectioncontrol150.html", "thumbnailUrl": "https://www.ndr.de/nachrichten/niedersachsen/hannover_weser-leinegebiet/sectioncontrol148_v-contentwidescreen.jpg", "date": "2024-04-02T10:35:50.171+02:00", "lat": 52.3418, "lon": 9.7909, "intensity": 0.6, "source": "NDR"}, {"title": "Saisonstart in MV: Tourismusbranche zufrieden mit dem Ostergesch\u00e4ft", "url": "https://www.ndr.de/nachrichten/mecklenburg-vorpommern/Saisonstart-in-MV-Tourismusbranche-zufrieden-mit-dem-Ostergeschaeft,saisonstart164.html", "thumbnailUrl": "https://www.ndr.de/ostern1418_v-contentwidescreen.jpg", "date": "2024-04-02T10:48:18.932+02:00", "lat": 53.612, "lon": 12.623, "intensity": 0.7, "source": "NDR"}, {"title": "St\u00e4rkere Stimme f\u00fcr Kinder und Jugendliche in MVs Politik", "url": "https://www.ndr.de/nachrichten/mecklenburg-vorpommern/Staerkere-Stimme-fuer-Kinder-und-Jugendliche-in-MVs-Politik,jugendundpolitik100.html", "thumbnailUrl": "https://www.ndr.de/nachrichten/niedersachsen/jugendparlament130_v-contentwidescreen.jpg", "date": "2024-04-02T10:44:33.107+02:00", "lat": 54.0924, "lon": 12.1378, "intensity": 0.7, "source": "NDR"}, {"title": "Cannabis-Legalisierung: Erstes \u00f6ffentliches Kiffen in Hannover", "url": "https://www.ndr.de/fernsehen/sendungen/hallo_niedersachsen/Cannabis-Legalisierung-Erstes-oeffentliches-Kiffen-in-Hannover,hallonds86652.html", "thumbnailUrl": "https://www.ndr.de/fernsehen/screenshot1725246_v-contentwidescreen.jpg", "date": "2024-04-02T06:31:06.111+02:00", "lat": 52.37589, "lon": 9.73322, "intensity": 0.7, "source": "NDR"}, {"title": "Hamburger Ostermarsch: Kritik am Regierungskurs", "url": "https://www.ndr.de/fernsehen/sendungen/hamburg_journal/Hamburger-Ostermarsch-Kritik-am-Regierungskurs,hamj145650.html", "thumbnailUrl": "https://www.ndr.de/fernsehen/screenshot1725468_v-contentwidescreen.jpg", "date": "2024-04-02T09:18:17.352+02:00", "lat": 53.5511, "lon": 9.9937, "intensity": 0.7, "source": "NDR"}, {"title": "In Banzkow wird wieder geschleust", "url": "https://www.ndr.de/fernsehen/sendungen/nordmagazin/In-Banzkow-wird-wieder-geschleust,nordmagazin116850.html", "thumbnailUrl": "https://www.ndr.de/fernsehen/screenshot1725408_v-contentwidescreen.jpg", "date": "2024-04-01T21:39:21.862+02:00", "lat": 53.4856, "lon": 11.4581, "intensity": 0.6, "source": "NDR"}, {"title": "Forscher in Niedersachsen testen: Wie stabil sind Windr\u00e4der?", "url": "https://www.ndr.de/fernsehen/sendungen/hallo_niedersachsen/Forscher-in-Niedersachsen-testen-Wie-stabil-sind-Windraeder,hallonds86660.html", "thumbnailUrl": "https://www.ndr.de/fernsehen/screenshot1725346_v-contentwidescreen.jpg", "date": "2024-04-02T06:17:21.791+02:00", "lat": 52.3759, "lon": 9.7301, "intensity": 0.8, "source": "NDR"}, {"title": "Kommentar zur Wahl in der T\u00fcrkei: Erdogan kassiert Denkzettel", "url": "https://www.ndr.de/nachrichten/info/Kommentar-zur-Wahl-in-der-Tuerkei-Erdogan-kassiert-Denkzettel,audio1605194.html", "thumbnailUrl": "https://www.ndr.de/nachrichten/info/erdogan498_v-contentwidescreen.jpg", "date": "2024-04-01T16:52:21.439+02:00", "lat": 38.9637, "lon": 35.2433, "intensity": 0.9, "source": "NDR"}, {"title": "Soziologin: Aufregung um Elterngeld-\u00c4nderungen \u00fcbertrieben", "url": "https://www.ndr.de/nachrichten/info/Soziologin-Aufregung-um-Elterngeld-Aenderungen-uebertrieben,audio1605156.html", "thumbnailUrl": "https://www.ndr.de/kultur/sendungen/ard_radiofestival/juttaallmendinger100_v-contentwidescreen.jpg", "date": "2024-04-01T16:28:38.763+02:00", "lat": 51.1657, "lon": 10.4515, "intensity": 0.3, "source": "NDR"}, {"title": "Heute mitdiskutieren: Warum tun wir uns mit der EU so schwer?", "url": "https://www.ndr.de/nachrichten/info/epg/Zweckehe-statt-Liebe-warum-tun-wir-uns-mit-der-EU-so-schwer-,sendung1433278.html", "thumbnailUrl": "https://www.ndr.de/ndr1niedersachsen/europafahne100_v-contentwidescreen.jpg", "date": "2024-04-02T12:38:54.213+02:00", "lat": 51.5413, "lon": 9.9937, "intensity": 0.3, "source": "NDR"}, {"title": "\"W\u00fcnsch Dir Deinen NDR\" - Jetzt f\u00fcr die Publikumsaktion bewerben!", "url": "https://www.ndr.de/wuensch_dir_deinen_ndr/index.html", "thumbnailUrl": "https://www.ndr.de/der_ndr/wunschprogramm131_v-contentwidescreen.jpg", "date": "2024-03-26T07:59:24.876+01:00", "lat": 53.551086, "lon": 9.993682, "intensity": 0.2, "source": "NDR"}, {"title": "Relaunch der vier NDR L\u00e4nder-Apps: Nachrichten aus Ihrer Region!", "url": "https://www.ndr.de/Relaunch-der-vier-NDR-Laender-Apps-Nachrichten-aus-Ihrer-Region,laenderapprelaunch100.html", "thumbnailUrl": "https://www.ndr.de/laenderapprelaunch102_v-contentwidescreen.jpg", "date": "2024-03-19T09:22:34.719+01:00", "lat": 53.8659, "lon": 9.8606, "intensity": 0.4, "source": "NDR"}, {"title": "Gaspreis Dashboard", "url": "https://www.ndr.de/home/gaspreis176.html", "thumbnailUrl": null, "date": "2023-04-06T14:49:06.409+02:00", "lat": 51.3426, "lon": 9.9976, "intensity": 0.7, "source": "NDR"}, {"title": "NDR Radioprogramme", "url": "https://www.ndr.de/radio/radiologobox100.html", "thumbnailUrl": null, "date": "2020-12-01T14:04:26.700+01:00", "lat": 53.5511, "lon": 9.9937, "intensity": 0.3, "source": "NDR"}, {"title": "Krieg und Terror - Die Lage im Nahen Osten und in der Ukraine", "url": "https://www.ndr.de/nachrichten/info/podcast5342.html", "thumbnailUrl": "https://www.ndr.de/nachrichten/info/podcastbild412_v-contentwidescreen.jpg", "date": "2024-04-02T07:18:14.196+02:00", "lat": 46.79651, "lon": 30.739834, "intensity": 0.8, "source": "NDR"}, {"title": "Die Ern\u00e4hrungs-Docs - Essen als Medizin", "url": "https://www.ndr.de/fernsehen/sendungen/die-ernaehrungsdocs/audio-podcast/index.html", "thumbnailUrl": "https://www.ndr.de/fernsehen/sendungen/die-ernaehrungsdocs/podcastbild338_v-contentwidescreen.jpg", "date": "2024-03-27T08:00:08.131+01:00", "lat": 53.5511, "lon": 9.9876, "intensity": 0.3, "source": "NDR"}, {"title": "Unsere Comedy \"Die Kur-Oase\"!", "url": "https://www.ndr.de/ndr2/podcasts/podcast5816.html", "thumbnailUrl": "https://www.ndr.de/ndr2/podcasts/podcast5812_v-contentwidescreen.jpg", "date": "2024-04-02T12:31:32.548+02:00", "lat": 54.9069, "lon": 8.7386, "intensity": 0.2, "source": "NDR"}, {"title": "Organisiertes Verbrechen - Recherchen im Verborgenen", "url": "https://www.ndr.de/nachrichten/info/podcast4992.html", "thumbnailUrl": "https://www.ndr.de/nachrichten/info/podcastbildov100_v-contentwidescreen.jpg", "date": "2024-03-01T06:00:27.490+01:00", "lat": 45.9432, "lon": 24.9668, "intensity": 0.8, "source": "NDR"}, {"title": "eat.READ.sleep. B\u00fccher f\u00fcr dich", "url": "https://www.ndr.de/kultur/sendungen/eat_read_sleep/index.html", "thumbnailUrl": "https://www.ndr.de/mediathek/podcastbild434_v-contentwidescreen.jpg", "date": "2024-03-29T06:00:20.892+01:00", "lat": 53.5511, "lon": 9.9937, "intensity": 0.2, "source": "NDR"}, {"title": "Killed in Action: Afghanistan - Mission ohne Ziel", "url": "https://www.ndr.de/nachrichten/info/sendungen/podcast4574.html", "thumbnailUrl": "https://www.ndr.de/nachrichten/info/podcasts/podcastbild478_v-contentwidescreen.jpg", "date": "2024-02-16T17:44:01.214+01:00", "lat": 33.9391, "lon": 66.2385, "intensity": 0.8, "source": "NDR"}, {"title": "Streitkr\u00e4fte und Strategien", "url": "https://www.ndr.de/nachrichten/info/podcast2998.html", "thumbnailUrl": "https://www.ndr.de/mediathek/mediathekbild566_v-contentwidescreen.jpg", "date": "2024-03-26T17:22:43.541+01:00", "lat": 53.5511, "lon": 9.9937, "intensity": 0.8, "source": "NDR"}, {"title": "Standpunkte", "url": "https://www.ndr.de/nachrichten/info/podcast4700.html", "thumbnailUrl": "https://www.ndr.de/mediathek/podcast5332_v-contentwidescreen.jpg", "date": "2024-04-02T00:04:17.037+02:00", "lat": 53.5511, "lon": 9.9937, "intensity": 0.5, "source": "NDR"}, {"title": "Mein Einsatz - der Feuerwehr-Podcast von NDR Niedersachsen", "url": "https://www.ndr.de/ndr1niedersachsen/podcast5774.html", "thumbnailUrl": "https://www.ndr.de/ndr1niedersachsen/podcasts/podcastbild364_v-contentwidescreen.jpg", "date": "2024-03-28T04:00:07.923+01:00", "lat": 52.3759, "lon": 9.7345, "intensity": 0.7, "source": "NDR"}, {"title": "\"Feel Hamburg\" - alle Folgen", "url": "https://www.ndr.de/903/podcasts/podcast5108.html", "thumbnailUrl": "https://www.ndr.de/mediathek/mediathekbild514_v-contentwidescreen.jpg", "date": "2024-03-28T13:59:51.353+01:00", "lat": 53.55, "lon": 10.0, "intensity": 0.4, "source": "NDR"}, {"title": "Intensiv-Station - Satire von NDR Info", "url": "https://www.ndr.de/nachrichten/info/podcast4274.html", "thumbnailUrl": "https://www.ndr.de/nachrichten/info/programm/intensivstation3272_v-contentwidescreen.jpg", "date": "2024-03-25T22:56:23.803+01:00", "lat": 54.3706, "lon": 10.5038, "intensity": 0.8, "source": "NDR"}, {"title": "Amerika, wir m\u00fcssen reden!", "url": "https://www.ndr.de/nachrichten/info/podcast4932.html", "thumbnailUrl": "https://www.ndr.de/nachrichten/info/podcastbild488_v-contentwidescreen.jpg", "date": "2024-03-15T17:30:07.058+01:00", "lat": 39.78373, "lon": -100.445882, "intensity": 0.7, "source": "NDR"}, {"title": "Insolvenzverfahren f\u00fcr Galeria Karstadt Kaufhof er\u00f6ffnet", "url": "https://www1.wdr.de/nachrichten/ruhrgebiet/insolvenzverfahren-galeria-karstadt-kaufhof-100.html", "thumbnailUrl": null, "date": "2024-04-02T10:07:17Z", "lat": 51.462245, "lon": 7.014022, "intensity": 0.8, "source": "WDR"}, {"title": "Bilanz Winterhalbjahr: So viel Regen gab es in NRW noch nie", "url": "https://www1.wdr.de/nachrichten/wetter-niederschlag-winterhalbjahr-rekord-100.html", "thumbnailUrl": null, "date": "2024-04-02T10:50:33Z", "lat": 51.4332, "lon": 7.6261, "intensity": 0.8, "source": "WDR"}, {"title": "Das Westfalenstadion: Gr\u00f6\u00dfte Fu\u00dfball-Kultst\u00e4tte wird 50", "url": "https://www1.wdr.de/nachrichten/westfalenstadion-dortmund-fuenfzig-jahre-100.html", "thumbnailUrl": null, "date": "2024-04-02T10:53:52Z", "lat": 51.4926, "lon": 7.4513, "intensity": 0.8, "source": "WDR"}, {"title": "Arsen-belastete B\u00fccher in Unibibs laut Bibliotheksverband unbedenklich", "url": "https://www1.wdr.de/nachrichten/arsen-buecher-unbedenklich-bibliotheken-100.html", "thumbnailUrl": null, "date": "2024-04-02T08:29:12Z", "lat": 50.7753, "lon": 8.6761, "intensity": 0.4, "source": "WDR"}, {"title": "Falsch bef\u00fcllte Biotonnen in Aachen werden nicht mehr geleert", "url": "https://www1.wdr.de/nachrichten/rheinland/aachen-falsch-befuellte-biotonnen-100.html", "thumbnailUrl": null, "date": "2024-04-02T08:09:37Z", "lat": 50.77535, "lon": 6.08342, "intensity": 0.6, "source": "WDR"}, {"title": "Zwei Wohnungen noch unbewohnbar nach Hochhaus-Brand in Krefeld", "url": "https://www1.wdr.de/nachrichten/rheinland/brand-hochhaus-krefeld-100.html", "thumbnailUrl": null, "date": "2024-04-02T10:35:18Z", "lat": 51.3388, "lon": 6.5761, "intensity": 0.8, "source": "WDR"}, {"title": "Campino h\u00e4lt erste Vorlesung als Gastprofessor in D\u00fcsseldorf", "url": "https://www1.wdr.de/nachrichten/rheinland/duesseldorf-campino-gastprofessor-vorlesung-100.html", "thumbnailUrl": null, "date": "2024-04-02T05:30:56Z", "lat": 51.2277, "lon": 6.7924, "intensity": 0.5, "source": "WDR"}, {"title": "RWE nimmt Braunkohle-Bl\u00f6cke vom Netz", "url": "https://www1.wdr.de/nachrichten/rwe-braunkohle-stilllegung-100.html", "thumbnailUrl": null, "date": "2024-04-02T08:56:52Z", "lat": 51.4332, "lon": 6.9255, "intensity": 0.7, "source": "WDR"}, {"title": "Gegen Israel und NATO: Botschaften bei Osterm\u00e4rschen sorgen f\u00fcr Kritik", "url": "https://www1.wdr.de/nachrichten/ostermaersche-nrw-ueberblick-100.html", "thumbnailUrl": null, "date": "2024-04-01T16:35:14Z", "lat": 51.4556, "lon": 7.5976, "intensity": 0.6, "source": "WDR"}, {"title": "Krieg gegen die Ukraine: Ukraine-Liveblog: ++ Belarus startet Man\u00f6ver an EU-Grenze ++", "url": "https://www.tagesschau.de/newsticker/liveblog-ukraine-dienstag-336.html", "thumbnailUrl": null, "date": "2024-04-02T07:27:01Z", "lat": 50.4501, "lon": 30.5234, "intensity": 0.8, "source": "WDR"}, {"title": "Wegen Blockade von US-Hilfen: Selenskyj bef\u00fcrchtet R\u00fcckzug der Streitkr\u00e4fte wegen blockierter Hilfen", "url": "https://www.tagesschau.de/ausland/europa/ukraine-selenskyj-hilfen-usa-100.html", "thumbnailUrl": null, "date": "2024-03-30T15:06:03Z", "lat": 50.4501, "lon": 30.5234, "intensity": 0.8, "source": "WDR"}, {"title": "Ukraine gedenkt der Irpin-Opfer: Suche nach Erinnerungskultur zum Jahrestag der Irpin-Befreiung", "url": "https://www.tagesschau.de/ausland/europa/irpin-bruecke-ukraine-100.html", "thumbnailUrl": null, "date": "2024-03-29T21:36:02Z", "lat": 50.531783, "lon": 30.22409, "intensity": 0.8, "source": "WDR"}, {"title": "Ukraine: Zwischen Krieg und Normalit\u00e4t", "url": "https://www1.wdr.de/mediathek/audio/wdr5/wdr5-mittagsecho/audio-ukraine-zwischen-krieg-und-normalitaet-100.html", "thumbnailUrl": null, "date": "2024-03-27T13:17:56Z", "lat": 50.4501, "lon": 30.5234, "intensity": 0.7, "source": "WDR"}, {"title": "WDR aktuell Whatsapp-Kanal abonnieren - so geht's", "url": "https://www1.wdr.de/nachrichten/wdr-aktuell-whatsapp-kanal-100.html", "thumbnailUrl": null, "date": "2023-12-22T20:22:52Z", "lat": 51.4818, "lon": 7.6261, "intensity": 0.1, "source": "WDR"}, {"title": "Nahost-Krieg: Nahost-Liveblog: ++ Khamenei droht Israel mit Vergeltung ++", "url": "https://www.tagesschau.de/newsticker/liveblog-nahost-dienstag-124.html", "thumbnailUrl": null, "date": "2024-04-02T10:54:01Z", "lat": 31.7683, "lon": 35.2125, "intensity": 0.7, "source": "WDR"}, {"title": "Gazastreifen: Mitarbeiter von Hilfsorganisation im Gazastreifen get\u00f6tet", "url": "https://www.tagesschau.de/ausland/asien/nahost-isreal-luftangriff-hilfsorganisation-100.html", "thumbnailUrl": null, "date": "2024-04-02T06:51:01Z", "lat": 31.5107, "lon": 34.3956, "intensity": 0.8, "source": "WDR"}, {"title": "Israel: Zehntausende protestieren erneut gegen Netanyahu-Regierung", "url": "https://www.tagesschau.de/ausland/israel-lage-netanyahu-100.html", "thumbnailUrl": null, "date": "2024-04-01T06:54:03Z", "lat": 31.0461, "lon": 35.8436, "intensity": 0.8, "source": "WDR"}, {"title": "Israel: Israel: Wehrpflicht-Ausnahme f\u00fcr Ultraorthodoxe l\u00e4uft aus", "url": "https://www.tagesschau.de/ausland/israel-wehrpflicht-ultraorthodoxe-102.html", "thumbnailUrl": null, "date": "2024-03-31T22:18:02Z", "lat": 31.7683, "lon": 35.2137, "intensity": 0.8, "source": "WDR"}, {"title": "Die wichtigsten Fakten \u00fcber den Gazastreifen", "url": "https://www1.wdr.de/nachrichten/gaza-gazastreifen-israel-hintergrund-100.html", "thumbnailUrl": null, "date": "2023-10-11T15:33:25Z", "lat": 31.5107, "lon": 34.3445, "intensity": 0.8, "source": "WDR"}, {"title": "Vier Verletzte nach Kollision auf B 258 bei Roetgen - Vollsperrung aufgehoben", "url": "https://www1.wdr.de/nachrichten/rheinland/unfall-himmelsleiter-b258-100.html", "thumbnailUrl": null, "date": "2024-04-01T16:42:03Z", "lat": 50.6396, "lon": 6.2457, "intensity": 0.8, "source": "WDR"}, {"title": "Brandstiftung in Solingen: Verletzte au\u00dfer Lebensgefahr", "url": "https://www1.wdr.de/nachrichten/rheinland/brandstiftung-solingen-welches-motiv-100.html", "thumbnailUrl": null, "date": "2024-04-02T10:33:25Z", "lat": 51.1657, "lon": 7.0783, "intensity": 0.8, "source": "WDR"}, {"title": "Schwerer Unfall in Hagen: Linienbus kracht frontal in ein Auto", "url": "https://www1.wdr.de/nachrichten/unfall-hagen-linienbus-100.html", "thumbnailUrl": null, "date": "2024-03-31T14:43:23Z", "lat": 51.3607, "lon": 7.4717, "intensity": 0.8, "source": "WDR"}, {"title": "Gewitter am Ostersonntag \u00fcber NRW: Blitzeinschlag in Krefeld", "url": "https://www1.wdr.de/nachrichten/nrw-gewitter-ostersonntag-100.html", "thumbnailUrl": null, "date": "2024-04-01T09:29:40Z", "lat": 51.3387, "lon": 6.5657, "intensity": 0.7, "source": "WDR"}, {"title": "Rosa Spektakel - in Bonn bl\u00fchen die Kirschb\u00e4ume", "url": "https://www1.wdr.de/nachrichten/rheinland/kirschbluete-bonn-106.html", "thumbnailUrl": null, "date": "2024-03-30T19:11:07Z", "lat": 50.7374, "lon": 7.0982, "intensity": 0.2, "source": "WDR"}, {"title": "\"Ich musste mir einen Plan schmieden, aus der AfD rauszukommen\"", "url": "https://1.ard.de/afd-aussteiger-schild", "thumbnailUrl": null, "date": "2024-04-02T08:27:16Z", "lat": 51.959, "lon": 7.6261, "intensity": 0.3, "source": "WDR"}, {"title": "Verbote am Karfreitag: Das sind die Regeln in NRW", "url": "https://www1.wdr.de/nachrichten/landespolitik/tanzverbot-ostern-keine-aenderungen-100.html", "thumbnailUrl": null, "date": "2024-03-30T05:17:01Z", "lat": 51.9607, "lon": 7.5964, "intensity": 0.4, "source": "WDR"}, {"title": "Organspende: Laumann f\u00fcr Widerspruchsl\u00f6sung", "url": "https://www1.wdr.de/nachrichten/landespolitik/organspende-laumann-widerspruchsloesung-100.html", "thumbnailUrl": null, "date": "2024-03-28T19:23:22Z", "lat": 51.9607, "lon": 7.6261, "intensity": 0.8, "source": "WDR"}, {"title": "Warum viele Kinder in NRW nicht schwimmen k\u00f6nnen", "url": "https://www1.wdr.de/nachrichten/viele-kinder-koennen-nicht-schwimmen-100.html", "thumbnailUrl": null, "date": "2024-03-27T19:11:15Z", "lat": 51.4818, "lon": 7.6124, "intensity": 0.8, "source": "WDR"}, {"title": "Verfassungsbeschwerde: OVG wohl noch lange ohne neuen Chef", "url": "https://www1.wdr.de/nachrichten/landespolitik/besetzung-limbach-ovg-verfassungsbeschwerde-100.html", "thumbnailUrl": null, "date": "2024-03-27T13:49:43Z", "lat": 51.4818, "lon": 7.1443, "intensity": 0.6, "source": "WDR"}, {"title": "H\u00fcpfburg in Krefeld von Windsto\u00df erfasst - vier Kinder verletzt", "url": "https://www1.wdr.de/nachrichten/rheinland/huepfburg-krefeld-unfall-100.html", "thumbnailUrl": null, "date": "2024-03-31T19:04:37Z", "lat": 51.3331, "lon": 6.5629, "intensity": 0.7, "source": "WDR"}, {"title": "Autoposer-Treffen am \"Car-Freitag\" in NRW und den Niederlanden", "url": "https://www1.wdr.de/nachrichten/autoposer-treffen-nrw-100.html", "thumbnailUrl": null, "date": "2024-03-30T11:46:45Z", "lat": 51.6784, "lon": 6.155, "intensity": 0.7, "source": "WDR"}, {"title": "Karfreitags-Prozession - Der Kreuzweg f\u00fchrt durch Wuppertal", "url": "https://www1.wdr.de/nachrichten/wolfram-lumpe-kreuzweg-wuppertal-100.html", "thumbnailUrl": null, "date": "2024-03-30T05:17:09Z", "lat": 51.2647, "lon": 7.17, "intensity": 0.6, "source": "WDR"}, {"title": "T\u00f6dlicher Unfall in Essener Kletterhalle", "url": "https://www1.wdr.de/nachrichten/ruhrgebiet/unfall-kletterhalle-essen-102.html", "thumbnailUrl": null, "date": "2024-03-30T19:10:49Z", "lat": 51.4556, "lon": 7.0123, "intensity": 0.8, "source": "WDR"}, {"title": "Schw\u00e4cheanfall: Reisebus mit Sch\u00fclern bei Werl verungl\u00fcckt", "url": "https://www1.wdr.de/nachrichten/westfalen-lippe/busunfall-autobahn-unna-werl-100.html", "thumbnailUrl": null, "date": "2024-03-29T18:28:55Z", "lat": 51.5441, "lon": 7.8847, "intensity": 0.8, "source": "WDR"}, {"title": "Gedenken an Naziopfer in Dortmund", "url": "https://www1.wdr.de/nachrichten/ruhrgebiet/gedenkstunde-bittermark-dortmund-100.html", "thumbnailUrl": null, "date": "2024-03-30T08:18:20Z", "lat": 51.482901, "lon": 7.499172, "intensity": 0.8, "source": "WDR"}, {"title": "Osterr\u00e4derlauf in L\u00fcgde: Uralter Brauch am Ostersonntag", "url": "https://www1.wdr.de/nachrichten/westfalen-lippe/osterraeder-lauf-luegde-100.html", "thumbnailUrl": null, "date": "2024-04-02T05:40:30Z", "lat": 51.9774, "lon": 9.2522, "intensity": 0.7, "source": "WDR"}, {"title": "Lodernde Tradition: So spektakul\u00e4r war der Osterr\u00e4derlauf in L\u00fcgde", "url": "https://www1.wdr.de/nachrichten/westfalen-lippe/fotos-osterraeder-luegde-100.html", "thumbnailUrl": null, "date": "2024-04-01T04:49:25Z", "lat": 51.9776, "lon": 9.1177, "intensity": 0.8, "source": "WDR"}, {"title": "Besitz von Kinderpornografie: Priester aus Recklinghausen angeklagt", "url": "https://www1.wdr.de/nachrichten/ruhrgebiet/priester-recklinghausen-anklage-kinderpornografie-100.html", "thumbnailUrl": null, "date": "2024-03-28T18:14:47Z", "lat": 51.6142, "lon": 7.2016, "intensity": 0.9, "source": "WDR"}, {"title": "Die App WDR aktuell begleitet Sie durch den Tag", "url": "https://www1.wdr.de/nachrichten/wdr-aktuell-app-stores-100.html", "thumbnailUrl": null, "date": "2023-10-30T11:49:53Z", "lat": 51.4508, "lon": 7.6261, "intensity": 0.3, "source": "WDR"}, {"title": "WDR Newsroom: Informationen f\u00fcr den Westen rund um die Uhr auf allen Kan\u00e4len", "url": "https://www1.wdr.de/nachrichten/newsroom-information-nrw-westen-100.html", "thumbnailUrl": null, "date": "2021-04-14T22:00:15Z", "lat": 51.4556, "lon": 7.0116, "intensity": 0.1, "source": "WDR"}, {"title": "Das Leitungsteam des Newsrooms im WDR (Programmbereich Aktuelles)", "url": "https://www1.wdr.de/nachrichten/newsroom-leitung-team-programmbereich-aktuelles-100.html", "thumbnailUrl": null, "date": "2024-03-08T15:34:21Z", "lat": 51.460021, "lon": 7.014026, "intensity": 0.3, "source": "WDR"}, {"title": "Ex-Mitarbeiter von Baufirma zu rechtem Gedankengut: \"Die Situation hat mich wirklich schockiert\"", "url": "https://www.mdr.de/nachrichten/sachsen/bautzen/bautzen-hoyerswerda-kamenz/hentschke-bau-rechtsstreit-rechte-strukturen-100.html", "thumbnailUrl": null, "date": "Tue, 02 Apr 2024 06:00:00 +0200", "lat": 51.3397, "lon": 12.3713, "intensity": 0.6, "source": "MDR"}, {"title": "Theater Erfurt in der Krise: Stadtrat kritisiert Aufarbeitung und fehlende Transparenz", "url": "https://www.mdr.de/nachrichten/thueringen/mitte-thueringen/erfurt/theater-streit-stadtrat-finanzen-gleichstellung-kultur-news-100.html", "thumbnailUrl": null, "date": "Tue, 02 Apr 2024 10:54:57 +0200", "lat": 50.9773, "lon": 11.0286, "intensity": 0.7, "source": "MDR"}, {"title": "Studie: Jugendliche haben keine Lust mehr auf Komasaufen", "url": "https://www.mdr.de/nachrichten/deutschland/gesellschaft/komasaufen-jugendliche-100.html", "thumbnailUrl": null, "date": "Tue, 02 Apr 2024 11:08:22 +0200", "lat": 53.5511, "lon": 9.9937, "intensity": 0.7, "source": "MDR"}, {"title": "Warum Superm\u00e4rkte ihre Kassen mit Alkohol, S\u00fc\u00dfem und Tabak best\u00fccken d\u00fcrfen", "url": "https://www.mdr.de/nachrichten/deutschland/gesellschaft/supermarkt-kasse-alkohol-zigaretten-suessigkeiten-warum-erlaubt-100.html", "thumbnailUrl": null, "date": "Tue, 02 Apr 2024 07:24:39 +0200", "lat": 53.5511, "lon": 9.9937, "intensity": 0.8, "source": "MDR"}, {"title": "Ukraine-News: Drohnen-Angriff auf russische Raffinerie weit hinter der Frontlinie", "url": "https://www.mdr.de/nachrichten/welt/osteuropa/politik/ukraine-krieg-drohnen-angriff-russische-raffinerie-hinter-frontlinie-100.html", "thumbnailUrl": null, "date": "Tue, 02 Apr 2024 12:08:31 +0200", "lat": 55.787, "lon": 49.0943, "intensity": 0.8, "source": "MDR"}, {"title": "Sieben Tote bei israelischem Luftangriff im Gazastreifen", "url": "https://www.mdr.de/nachrichten/welt/politik/video-luftangriff-gaza-hilfsorganisation100.html", "thumbnailUrl": null, "date": "Tue, 02 Apr 2024 10:06:43 +0200", "lat": 31.5, "lon": 34.4375, "intensity": 1, "source": "MDR"}, {"title": "Reservistenverband wirbt f\u00fcr Ausbildung von Zivilisten im Osten", "url": "https://www.mdr.de/nachrichten/deutschland/politik/reservistenverband-lindner-bundeswehr-wehrpflicht-100.html", "thumbnailUrl": null, "date": "Tue, 02 Apr 2024 12:40:00 +0200", "lat": 51.4504, "lon": 11.077, "intensity": 0.8, "source": "MDR"}, {"title": "Drei Tote und eine verletzte Person nach Lawinenungl\u00fcck", "url": "https://www.mdr.de/nachrichten/welt/panorama/video-lawine-zermatt-schweiz100.html", "thumbnailUrl": null, "date": "Tue, 02 Apr 2024 11:39:47 +0200", "lat": 46.8182, "lon": 8.2275, "intensity": 0.8, "source": "MDR"}, {"title": "Wochenlang Zugausf\u00e4lle bei Abellio zwischen Halle und Aschersleben", "url": "https://www.mdr.de/nachrichten/sachsen-anhalt/abellio-bauarbeiten-halle-aschersleben-zugausfaelle-100.html", "thumbnailUrl": null, "date": "Tue, 02 Apr 2024 11:57:32 +0200", "lat": 51.5291, "lon": 11.5629, "intensity": 0.7, "source": "MDR"}, {"title": "\"Beitrag unverzichtbar\": Jeder vierte Krankenhaus-Arzt in Th\u00fcringen aus dem Ausland", "url": "https://www.mdr.de/nachrichten/thueringen/aerzte-auslaendisch-krankenhaus-100.html", "thumbnailUrl": null, "date": "Tue, 02 Apr 2024 11:47:49 +0200", "lat": 50.958086, "lon": 11.58198, "intensity": 0.8, "source": "MDR"}, {"title": "Eichenprozessionsspinner: Giftige Raupen werden wieder bek\u00e4mpft", "url": "https://www.mdr.de/nachrichten/sachsen-anhalt/dessau/dessau-rosslau/eichenprozessionsspinner-bekaempfen-raupen-100.html", "thumbnailUrl": null, "date": "Tue, 02 Apr 2024 11:36:22 +0200", "lat": 51.8297, "lon": 12.2361, "intensity": 0.6, "source": "MDR"}, {"title": "Osteuropa", "url": "https://www.mdr.de/nachrichten/welt/osteuropa/index.html", "thumbnailUrl": null, "date": "Tue, 25 Apr 2023 13:02:57 +0200", "lat": 45.9432, "lon": 23.8859, "intensity": 0.5, "source": "MDR"}, {"title": "Verkehr", "url": "https://www.mdrjump.de/verkehr/index.html", "thumbnailUrl": null, "date": "Thu, 09 Jun 2022 11:05:09 +0200", "lat": 51.1657, "lon": 11.6229, "intensity": 0.2, "source": "MDR"}, {"title": "So ver\u00e4ndert sich das Klima in Sachsen, Sachsen-Anhalt und Th\u00fcringen", "url": "https://www.mdr.de/nachrichten/deutschland/panorama/wetter-klima-wandel-daten-archiv-region-100.html", "thumbnailUrl": null, "date": "Mon, 04 Mar 2024 10:27:56 +0100", "lat": 51.339695, "lon": 12.496365, "intensity": 0.6, "source": "MDR"}, {"title": "40 Milliarden f\u00fcr den Ausstieg aus der Braunkohle", "url": "https://www.mdr.de/nachrichten/deutschland/wirtschaft/kohlemilliarden/kohle-ausstieg-foerderung-steuergeld-100.html", "thumbnailUrl": null, "date": "Thu, 07 Dec 2023 14:06:43 +0100", "lat": 52.52, "lon": 13.405, "intensity": 0.7, "source": "MDR"}, {"title": "Schaffen wir die Energiewende? Live-Daten zum Ausbau der Windkraft in Deutschland", "url": "https://www.mdr.de/wissen/windkraft-windenergie-ausbau-deutschland-live-daten-aktuell-100.html", "thumbnailUrl": null, "date": "Thu, 16 Mar 2023 10:28:43 +0100", "lat": 51.1657, "lon": 10.4515, "intensity": 0.8, "source": "MDR"}, {"title": "Angeklagt! Spannende Geschichten aus dem Gerichtssaal", "url": "https://www.mdr.de/mdr-thueringen/podcast/angeklagt/podcast-angeklagt-vor-gericht-reporter-verbrechen-100.html", "thumbnailUrl": null, "date": "Tue, 27 Feb 2024 15:16:27 +0100", "lat": 50.951948, "lon": 11.58198, "intensity": 0.3, "source": "MDR"}, {"title": "Th\u00fcringer Rennfahrer am Hockenheimring t\u00f6dlich verungl\u00fcckt", "url": "https://www.mdr.de/nachrichten/thueringen/ost-thueringen/saale-orla/troy-beinlich-unfall-motorrad-msc-100.html", "thumbnailUrl": null, "date": "Tue, 02 Apr 2024 08:49:50 +0200", "lat": 49.327771, "lon": 8.565695, "intensity": 1, "source": "MDR"}, {"title": "Hallescher FC: Diese Aufgaben warten auf den neuen Trainer Reisinger", "url": "https://www.mdr.de/sport/fussball_3l/hallescher-fc-diese-aufgaben-warten-auf-trainer-reisinger-100.html", "thumbnailUrl": null, "date": "Tue, 02 Apr 2024 12:46:38 +0200", "lat": 51.4808, "lon": 11.979, "intensity": 0.4, "source": "MDR"}, {"title": "Casar wechselt im Sommer vom HFC nach Dresden", "url": "https://www.mdr.de/sport/fussball_3l/hallescher-fc-aljaz-casar-unterschreibt-bei-sgd-100.html", "thumbnailUrl": null, "date": "Mon, 01 Apr 2024 20:01:31 +0200", "lat": 51.050409, "lon": 13.737262, "intensity": 0.7, "source": "MDR"}, {"title": "Regionalliga: Chemie Leipzig bringt gegen Meuselwitz knappen Vorsprung ins Ziel", "url": "https://www.mdr.de/sport/fussball_rl/spielbericht-regionalliga-nordost-bsg-chemie-leipzig-zfc-meuselwitz-100.html", "thumbnailUrl": null, "date": "Mon, 01 Apr 2024 15:08:00 +0200", "lat": 51.3127, "lon": 12.4245, "intensity": 0.6, "source": "MDR"}, {"title": "Gurtpflicht bei Busreisen schwer durchsetzbar", "url": "https://www.mdr.de/nachrichten/deutschland/panorama/bus-anschnallpflicht-durchsetzung-100.html", "thumbnailUrl": null, "date": "Tue, 02 Apr 2024 07:04:17 +0200", "lat": 51.5421, "lon": 9.9937, "intensity": 0.6, "source": "MDR"}, {"title": "Stadt Dresden: Anmeldeportal f\u00fcr Elbwiesenreinigung vorzeitig geschlossen", "url": "https://www.mdr.de/nachrichten/sachsen/dresden/dresden-radebeul/elbwiesen-reinigung-ansturm-muell-sammelaktion-100.html", "thumbnailUrl": null, "date": "Tue, 02 Apr 2024 10:46:44 +0200", "lat": 51.050409, "lon": 13.737262, "intensity": 0.8, "source": "MDR"}, {"title": "Wetter in Osterferien bietet Wind, Regen und Gef\u00fchl von Sommer", "url": "https://www.mdr.de/nachrichten/sachsen/wetter-osterferien-sturm-sonne-sommer-fruehling-100.html", "thumbnailUrl": null, "date": "Tue, 02 Apr 2024 10:38:21 +0200", "lat": 52.1348, "lon": 13.4085, "intensity": 0.6, "source": "MDR"}, {"title": "Bahn- und Busfahren im Raum Dresden und in Mittelsachsen jetzt teurer", "url": "https://www.mdr.de/nachrichten/sachsen/ticket-preis-erhoehung-bus-bahn-100.html", "thumbnailUrl": null, "date": "Mon, 01 Apr 2024 17:54:28 +0200", "lat": 51.0504, "lon": 13.7373, "intensity": 0.6, "source": "MDR"}, {"title": "K\u00f6nigspfalz Helfta bei Eisleben wird Freilichtmuseum", "url": "https://www.mdr.de/nachrichten/sachsen-anhalt/halle/mansfeld/helfta-koenigspfalz-freilicht-museum-archaeologie-100.html", "thumbnailUrl": null, "date": "Mon, 01 Apr 2024 16:24:08 +0200", "lat": 51.5272, "lon": 11.5934, "intensity": 0.6, "source": "MDR"}, {"title": "Theater in Leipzig und Halle: 8 sehenswerte St\u00fccke im April 2024", "url": "https://www.mdr.de/kultur/theater/leipzig-halle-theater-april-tipps-100.html", "thumbnailUrl": null, "date": "Tue, 02 Apr 2024 09:56:11 +0200", "lat": 51.343479, "lon": 12.387772, "intensity": 0.2, "source": "MDR"},