[{"title": "Bis Donnerstag bleibt es winterlich in Rheinland-Pfalz", "url": "https://www.tagesschau.de/inland/regional/rheinlandpfalz/swr-weiterhin-teils-winterliches-wetter-in-rheinland-pfalz-100.html", "thumbnailUrl": "https://images.tagesschau.de/image/539686be-9766-4f0c-a2cb-1dce97d3dff1/AAABjwvQr4w/AAABjwnlKNc/16x9-512.jpg", "date": "2024-04-24T03:20:00.000+02:00", "lat": 49.7923, "lon": 7.3189, "intensity": 0.6, "source": "Tagesschau"}, {"title": "Schwierige Gespr\u00e4che in schwierigen Zeiten", "url": "https://www.tagesschau.de/ausland/europa/steinmeier-erdogan-treffen-tuerkei-100.html", "thumbnailUrl": "https://images.tagesschau.de/image/14e7bad9-7e2f-4ed1-b815-de1c8dd7e1bb/AAABjw2qgbM/AAABjwnlKNc/16x9-512.jpg", "date": "2024-04-24T03:19:21.111+02:00", "lat": 39.9334, "lon": 32.8597, "intensity": 0.8, "source": "Tagesschau"}, {"title": "Massenproteste gegen K\u00fcrzungen von Pr\u00e4sident Milei", "url": "https://www.tagesschau.de/ausland/argentinien-proteste-kuerzungen-milei-100.html", "thumbnailUrl": "https://images.tagesschau.de/image/04d7dacc-d4fa-45de-ba0c-a134d49587b9/AAABjw2DKs0/AAABjwnlKNc/16x9-512.jpg", "date": "2024-04-24T03:11:37.439+02:00", "lat": -36.947027, "lon": -64.164335, "intensity": 0.9, "source": "Tagesschau"}, {"title": "++ Pentagon schn\u00fcrt offenbar Sofortpaket f\u00fcr Ukraine ++", "url": "https://www.tagesschau.de/newsticker/liveblog-ukraine-dienstag-344.html", "thumbnailUrl": "https://images.tagesschau.de/image/fa8f515a-815a-422b-9f92-31f26e5cceb7/AAABjwwXqbI/AAABjwnlKNc/16x9-512.jpg", "date": "2024-04-24T00:42:20.900+02:00", "lat": 47.0442, "lon": 38.8719, "intensity": 0.8, "source": "Tagesschau"}, {"title": "Gr\u00fcn-Schwarz beschlie\u00dft Paket zur Sprachf\u00f6rderung von Kindern in BW", "url": "https://www.tagesschau.de/inland/regional/badenwuerttemberg/swr-sprachfoerderung-in-kita-und-grundschule-bw-regierung-will-paket-beschliessen-100.html", "thumbnailUrl": "https://images.tagesschau.de/image/8b9ff563-4932-4980-b377-337e0ac25d49/AAABjwvK9ZQ/AAABjwnlKNc/16x9-512.jpg", "date": "2024-04-24T00:27:00.000+02:00", "lat": 48.6616, "lon": 9.9937, "intensity": 0.8, "source": "Tagesschau"}, {"title": "4:1-Sieg: Eisb\u00e4ren Berlin sichern sich gegen Fischtown Pinguins Matchball zur Meisterschaft", "url": "https://www.tagesschau.de/inland/regional/berlin/rbb-jetzt-live-hoeren-und-im-ticker-eisbaeren-berlin-wollen-im-del-finale-gegen-fischtown-pinguins-nachlegen-100.html", "thumbnailUrl": "https://images.tagesschau.de/image/8bef9032-7682-45f9-97ef-620fcebd9571/AAABjwzb0uM/AAABjwnlKNc/16x9-512.jpg", "date": "2024-04-23T23:25:30.000+02:00", "lat": 52.520008, "lon": 13.404954, "intensity": 0.8, "source": "Tagesschau"}, {"title": "++ Aufbau von Zelten f\u00fcr Gefl\u00fcchtete bei Chan Yunis ++", "url": "https://www.tagesschau.de/newsticker/liveblog-nahost-dienstag-130.html", "thumbnailUrl": "https://images.tagesschau.de/image/ea70da74-313b-436f-a460-2fd25736c74c/AAABjwvmQco/AAABjwnlKNc/16x9-512.jpg", "date": "2024-04-23T23:00:16.803+02:00", "lat": 31.3425, "lon": 34.4506, "intensity": 0.7, "source": "Tagesschau"}, {"title": "33:33-Remis im Hinspiel gegen Nantes: F\u00fcchse Berlin m\u00fcssen ums Weiterkommen in der European League bangen", "url": "https://www.tagesschau.de/inland/regional/berlin/rbb-3333-remis-im-hinspiel-gegen-nantes-fuechse-berlin-muessen-ums-weiterkommen-in-der-european-league-bangen-102.html", "thumbnailUrl": "https://images.tagesschau.de/image/95f871e0-2cfd-4974-92dc-1da9ca7c9dd9/AAABjwzEA5Y/AAABjwnlKNc/16x9-512.jpg", "date": "2024-04-23T22:56:26.000+02:00", "lat": 52.520008, "lon": 13.404954, "intensity": 0.4, "source": "Tagesschau"}, {"title": "Finalpleite in Regensburg: Kassel Huskies verpassen DEL-Aufstieg", "url": "https://www.tagesschau.de/inland/regional/hessen/hr-finalpleite-in-regensburg-kassel-huskies-verpassen-del-aufstieg-102.html", "thumbnailUrl": "https://images.tagesschau.de/image/ba1c0632-0563-48b9-8a14-f1e931c9632a/AAABjwysL2c/AAABjwnlKNc/16x9-512.jpg", "date": "2024-04-23T22:35:20.089+02:00", "lat": 49.013869, "lon": 12.099147, "intensity": 0.7, "source": "Tagesschau"}, {"title": "Wall-Street-Anleger kehren zur\u00fcck", "url": "https://www.tagesschau.de/wirtschaft/finanzen/marktberichte/marktbericht-dax-dow-boerse-100.html", "thumbnailUrl": "https://images.tagesschau.de/image/944b7fbd-ff5c-474f-86e0-061ac1ad50b3/AAABi_E78a4/AAABjwnlKNc/16x9-512.jpg", "date": "2024-04-23T22:15:18.374+02:00", "lat": 40.7128, "lon": -74.006, "intensity": 0.7, "source": "Tagesschau"}, {"title": "Urteil: Rindertransport nach Marokko war rechtens", "url": "https://www.tagesschau.de/inland/regional/niedersachsen/ndr-urteil-rindertransport-nach-marokko-war-rechtens-100.html", "thumbnailUrl": "https://images.tagesschau.de/image/a398d8a0-b634-4755-bb50-9699b6e081b4/AAABjwyol54/AAABjwnlKNc/16x9-512.jpg", "date": "2024-04-23T22:08:00.000+02:00", "lat": 52.2799, "lon": 7.0752, "intensity": 0.6, "source": "Tagesschau"}, {"title": "3:2-Sieg im vierten Finalspiel: BR Volleys halten in Friedrichshafen ihren Titeltraum am Leben", "url": "https://www.tagesschau.de/inland/regional/berlin/rbb-32-sieg-im-vierten-finalspiel-br-volleys-halten-in-friedrichshafen-ihren-titeltraum-am-leben-102.html", "thumbnailUrl": "https://images.tagesschau.de/image/146f311a-da22-4eb7-b81f-afd18df24e47/AAABjwx6yBo/AAABjwnlKNc/16x9-512.jpg", "date": "2024-04-23T21:36:47.000+02:00", "lat": 52.52, "lon": 13.4004, "intensity": 0.7, "source": "Tagesschau"}, {"title": "H\u00f6gel-Morde: Neue Gedenkst\u00e4tte f\u00fcr die Opfer des Ex-Pflegers", "url": "https://www.tagesschau.de/inland/regional/niedersachsen/ndr-hoegel-morde-neue-gedenkstaette-fuer-die-opfer-des-ex-pflegers-100.html", "thumbnailUrl": "https://images.tagesschau.de/image/a4a8a913-47c3-4683-a12b-580ec18651c7/AAABjwxv3Bo/AAABjwnlKNc/16x9-512.jpg", "date": "2024-04-23T21:25:00.000+02:00", "lat": 52.3759, "lon": 9.7306, "intensity": 0.8, "source": "Tagesschau"}, {"title": "\"Jugend debattiert\": Sch\u00fcler liefern sich Schlagabtausch im Landeshaus", "url": "https://www.tagesschau.de/inland/regional/schleswigholstein/ndr-jugend-debattiert-schueler-liefern-sich-schlagabtausch-im-landeshaus-100.html", "thumbnailUrl": "https://images.tagesschau.de/image/c3d21dc9-e048-4499-8cf6-3ab7769b8307/AAABjwxqVKM/AAABjwnlKNc/16x9-512.jpg", "date": "2024-04-23T21:20:00.000+02:00", "lat": 54.3234, "lon": 10.1234, "intensity": 0.5, "source": "Tagesschau"}, {"title": "Frau bei Wohnhausbrand in Kirkel gestorben", "url": "https://www.tagesschau.de/inland/regional/saarland/sr-leiche-nach-brand-in-kirkel-gefunden-100.html", "thumbnailUrl": "https://images.tagesschau.de/image/cb333918-2580-479f-9ce6-6e0d5de98559/AAABjwufAIo/AAABjwnlKNc/16x9-512.jpg", "date": "2024-04-23T21:00:00.000+02:00", "lat": 49.3021, "lon": 7.2552, "intensity": 0.8, "source": "Tagesschau"}, {"title": "Frankfurter Sch\u00fclervertretung droht mit Aufl\u00f6sung", "url": "https://www.tagesschau.de/inland/regional/hessen/hr-frankfurter-schuelervertretung-droht-mit-aufloesung-100.html", "thumbnailUrl": "https://images.tagesschau.de/image/3182780d-5125-418f-84cb-be45abd9464f/AAABjwxUU9k/AAABjwnlKNc/16x9-512.jpg", "date": "2024-04-23T20:57:54.065+02:00", "lat": 50.1109, "lon": 8.6821, "intensity": 0.6, "source": "Tagesschau"}, {"title": "Sechsj\u00e4hriger Junge vermisst: Polizei hofft auf \u00dcberwachungskameras", "url": "https://www.tagesschau.de/inland/regional/niedersachsen/ndr-sechsjaehriger-junge-vermisst-polizei-sucht-mit-grossaufgebot-100.html", "thumbnailUrl": "https://images.tagesschau.de/image/05786768-bf38-4b00-b22d-05a53e9386a3/AAABjwtHMSs/AAABjwnlKNc/16x9-512.jpg", "date": "2024-04-23T20:56:00.000+02:00", "lat": 53.4827, "lon": 9.1417, "intensity": 0.8, "source": "Tagesschau"}, {"title": "Bezirksamt Hamburg-Nord: Umzug ins Arne Jacobsen Haus", "url": "https://www.tagesschau.de/inland/regional/hamburg/ndr-bezirksamt-hamburg-nord-umzug-ins-arne-jacobsen-haus-100.html", "thumbnailUrl": "https://images.tagesschau.de/image/ef252f91-4358-401e-9dab-0d0866964dda/AAABjwk2Dcw/AAABjwnlKNc/16x9-512.jpg", "date": "2024-04-23T20:46:00.000+02:00", "lat": 53.5738, "lon": 10.0229, "intensity": 0.4, "source": "Tagesschau"}, {"title": "Berliner Schiedsrichter Siebert und Zwayer pfeifen bei der Fu\u00dfball-EM", "url": "https://www.tagesschau.de/inland/regional/berlin/rbb-berliner-schiedsrichter-siebert-und-zwayer-pfeifen-bei-der-fussball-em-102.html", "thumbnailUrl": "https://images.tagesschau.de/image/5ad7eb65-4d62-4f90-9f10-89708a5c8198/AAABjwx8lu4/AAABjwnlKNc/16x9-512.jpg", "date": "2024-04-23T20:44:28.000+02:00", "lat": 52.520008, "lon": 13.404954, "intensity": 0.6, "source": "Tagesschau"}, {"title": "Salmonellengefahr: Bio-Sonnenblumenkerne von Aldi S\u00fcd zur\u00fcckgerufen", "url": "https://www.tagesschau.de/inland/regional/saarland/sr-salmonellengefahr-bio-sonnenblumenkerne-von-aldi-sued-zurueckgerufen-100.html", "thumbnailUrl": "https://images.tagesschau.de/image/74884236-c110-468c-95ee-72ca44e148af/AAABjwxB9oY/AAABjwnlKNc/16x9-512.jpg", "date": "2024-04-23T20:33:00.000+02:00", "lat": 49.3964, "lon": 7.0, "intensity": 0.6, "source": "Tagesschau"}, {"title": "Fluten sp\u00fclen radioaktive Stoffe aus stillgelegten Minen", "url": "https://www.tagesschau.de/ausland/europa/russland-ural-ueberschwemmungen-verseuchung-100.html", "thumbnailUrl": "https://images.tagesschau.de/image/bdbce2b0-551c-4263-b5ac-b2d6858c41e9/AAABjwv2qTE/AAABjwnlKNc/16x9-512.jpg", "date": "2024-04-23T20:30:38.040+02:00", "lat": 57.153871, "lon": 75.667268, "intensity": 0.9, "source": "Tagesschau"}, {"title": "Sieg in S\u00e4vehof: Flensburg-Handewitt mit einem Bein im Final Four ", "url": "https://www.tagesschau.de/inland/regional/schleswigholstein/ndr-sieg-in-saevehof-flensburg-handewitt-mit-einem-bein-im-final-four-102.html", "thumbnailUrl": "https://images.tagesschau.de/image/70a7be88-66a5-4000-ba49-ed30236c89b5/AAABjww1Nlg/AAABjwnlKNc/16x9-512.jpg", "date": "2024-04-23T20:18:00.000+02:00", "lat": 54.793, "lon": 9.439, "intensity": 0.8, "source": "Tagesschau"}, {"title": "Nibelungen-Festspiele in Worms stellen Ensemble 2024 vor", "url": "https://www.tagesschau.de/inland/regional/rheinlandpfalz/swr-nibelungen-festspiele-in-worms-stellen-ensemble-2024-vor-100.html", "thumbnailUrl": "https://images.tagesschau.de/image/38ee3b39-f4d9-44aa-b85a-b5d9c33e59cd/AAABjwrmGXA/AAABjwnlKNc/16x9-512.jpg", "date": "2024-04-23T20:16:00.000+02:00", "lat": 49.63148, "lon": 8.36516, "intensity": 0.7, "source": "Tagesschau"}, {"title": "Suchaktion in Wiesbaden: Vermisste Seniorin lag tot auf Dach von Pflegeheim", "url": "https://www.tagesschau.de/inland/regional/hessen/hr-suchaktion-in-wiesbaden-vermisste-seniorin-lag-tot-auf-dach-von-pflegeheim-100.html", "thumbnailUrl": "https://images.tagesschau.de/image/fed226de-11d5-41d9-af2f-0e5ff3cc5a73/AAABjwwqNog/AAABjwnlKNc/16x9-512.jpg", "date": "2024-04-23T20:12:11.336+02:00", "lat": 50.078, "lon": 8.239, "intensity": 0.7, "source": "Tagesschau"}, {"title": "Landesregierung: Uniklinik Magdeburg soll neue Zentralklinik bekommen", "url": "https://www.tagesschau.de/inland/regional/sachsenanhalt/mdr-landesregierung-uniklinik-magdeburg-soll-neue-zentralklinik-bekommen-100.html", "thumbnailUrl": "https://images.tagesschau.de/image/c76f1088-3c39-4e8c-b968-a80de5f7987b/AAABjwzLXnQ/AAABjwnlKNc/16x9-512.jpg", "date": "2024-04-23T19:57:34.000+02:00", "lat": 52.1205, "lon": 11.6276, "intensity": 0.8, "source": "Tagesschau"}, {"title": "1. FC Saarbr\u00fccken muss erstes \"Endspiel\" gegen Essen bestehen ", "url": "https://www.tagesschau.de/inland/regional/saarland/sr-1-fc-saarbruecken-muss-erstes-endspiel-gegen-essen-bestehen-102.html", "thumbnailUrl": "https://images.tagesschau.de/image/759074e1-5f10-4921-a391-65375ab6e138/AAABjwxmlbA/AAABjwnlKNc/16x9-512.jpg", "date": "2024-04-23T19:53:00.000+02:00", "lat": 49.2331, "lon": 6.9814, "intensity": 0.6, "source": "Tagesschau"}, {"title": "Wetterlage und Temperaturen", "url": "https://www.tagesschau.de/wetter/europa-welt", "thumbnailUrl": "https://images.tagesschau.de/image/6e7d3b16-79c8-4308-822b-20c3035236b5/AAABjwpOnL8/AAABjwnlKNc/16x9-512.jpg", "date": "2024-04-23T19:52:58.923+02:00", "lat": 51.1657, "lon": 10.4515, "intensity": 0.3, "source": "Tagesschau"}, {"title": "Er rollt und rollt und rollt: 10 Jahre PlusBus in Brandenburg", "url": "https://www.tagesschau.de/inland/regional/brandenburg/rbb-er-rollt-und-rollt-und-rollt-10-jahre-plusbus-in-brandenburg-100.html", "thumbnailUrl": "https://images.tagesschau.de/image/99a5e5ed-cc01-4126-be32-7a0a8a2404ec/AAABjwwJO1c/AAABjwnlKNc/16x9-512.jpg", "date": "2024-04-23T19:33:50.000+02:00", "lat": 52.4125, "lon": 13.1696, "intensity": 0.5, "source": "Tagesschau"}, {"title": "S21-Mehrkosten: Droht in Stuttgart durch Klage ein finanzieller Kollaps?", "url": "https://www.tagesschau.de/inland/regional/badenwuerttemberg/swr-s21-mehrkosten-droht-in-stuttgart-durch-klage-ein-finanzieller-kollaps-100.html", "thumbnailUrl": "https://images.tagesschau.de/image/ecaaddcb-9408-440f-bf8e-4a6860ab9a52/AAABjwwUO9U/AAABjwnlKNc/16x9-512.jpg", "date": "2024-04-23T19:30:28.000+02:00", "lat": 48.7758, "lon": 9.1829, "intensity": 0.8, "source": "Tagesschau"}, {"title": "Fu\u00dfball-EM und andere Events: Stra\u00dfe des 17. Juni in Berlin wird f\u00fcr drei Monate gesperrt", "url": "https://www.tagesschau.de/inland/regional/berlin/rbb-fussball-em-und-andere-events-strasse-des-17-juni-in-berlin-wird-fuer-drei-monate-gesperrt-100.html", "thumbnailUrl": "https://images.tagesschau.de/image/42788a4e-fc6a-4516-a999-8f3524d5933c/AAABjwv8gLo/AAABjwnlKNc/16x9-512.jpg", "date": "2024-04-23T19:21:54.000+02:00", "lat": 52.508, "lon": 13.356, "intensity": 0.7, "source": "Tagesschau"}, {"title": "Polizeieinsatz mit Nachspiel: Mutter aus Ribnitz-Damgarten klagt", "url": "https://www.tagesschau.de/inland/regional/mecklenburgvorpommern/ndr-polizeieinsatz-mit-nachspiel-mutter-aus-ribnitz-damgarten-klagt-100.html", "thumbnailUrl": "https://images.tagesschau.de/image/5b3480f8-eac0-46f8-b6f6-70aa4fe567fa/AAABjwvQjt4/AAABjwnlKNc/16x9-512.jpg", "date": "2024-04-23T19:20:00.000+02:00", "lat": 54.24, "lon": 12.653, "intensity": 0.3, "source": "Tagesschau"}, {"title": "Mehr Gewalttaten im Umfeld von saarl\u00e4ndischen Schulen", "url": "https://www.tagesschau.de/inland/regional/saarland/sr-mehr-gewalttaten-im-umfeld-von-saarlaendischen-schulen-100.html", "thumbnailUrl": "https://images.tagesschau.de/image/5100c685-558e-4911-83ec-55c0eeec1dc9/AAABjwxfQfY/AAABjwnlKNc/16x9-512.jpg", "date": "2024-04-23T19:20:00.000+02:00", "lat": 49.3964, "lon": 7.0, "intensity": 0.8, "source": "Tagesschau"}, {"title": "Neue Zehn-Euro-Sammlerm\u00fcnze \"Polizei\" in Hamburg vorgestellt", "url": "https://www.tagesschau.de/inland/regional/hamburg/ndr-neue-zehn-euro-sammlermuenze-polizei-in-hamburg-vorgestellt-100.html", "thumbnailUrl": "https://images.tagesschau.de/image/72c0238f-85ee-49da-9583-ec749e52c80d/AAABjwv6mjE/AAABjwnlKNc/16x9-512.jpg", "date": "2024-04-23T19:18:00.000+02:00", "lat": 53.551086, "lon": 9.993682, "intensity": 0.6, "source": "Tagesschau"}, {"title": "Alte Synagoge in Fulda soll freigelegt werden ", "url": "https://www.tagesschau.de/inland/regional/hessen/hr-alte-synagoge-in-fulda-soll-freigelegt-werden-100.html", "thumbnailUrl": "https://images.tagesschau.de/image/ff311ae4-78f9-42fc-ba39-766df7805afb/AAABjwv27AA/AAABjwnlKNc/16x9-512.jpg", "date": "2024-04-23T19:17:38.819+02:00", "lat": 50.5586, "lon": 9.6712, "intensity": 0.7, "source": "Tagesschau"}, {"title": "Eintracht: +++ N'Dicka darf wieder trainieren +++ Eintracht-Sieg gegen FCA \"war erl\u00f6send\" +++ Max: Verst\u00e4ndnis f\u00fcr Hellmann-Ansage +++", "url": "https://www.tagesschau.de/inland/regional/hessen/hr--eintracht-wohl-mit-chaibi-einig--glasner-fast-nur-kolo-muani-der-tore-erzielt--bericht-eintracht-sagt-aouar-ab-100.html", "thumbnailUrl": "https://images.tagesschau.de/image/8f96bc4b-996e-4a90-873b-1c4ec4654bfa/AAABjwvxhE8/AAABjwnlKNc/16x9-512.jpg", "date": "2024-04-23T19:10:35.044+02:00", "lat": 50.110922, "lon": 8.682127, "intensity": 0.6, "source": "Tagesschau"}, {"title": "Osnabr\u00fcck: European Media Art Festival zeigt KI in der Kunst", "url": "https://www.tagesschau.de/inland/regional/niedersachsen/ndr-osnabrueck-european-media-art-festival-zeigt-ki-in-der-kunst-100.html", "thumbnailUrl": "https://images.tagesschau.de/image/0d10ca5c-07c2-4e18-a7d2-ab9e746f8588/AAABjwvr9ak/AAABjwnlKNc/16x9-512.jpg", "date": "2024-04-23T19:00:00.000+02:00", "lat": 52.2799, "lon": 8.0467, "intensity": 0.8, "source": "Tagesschau"}, {"title": "Unfallflucht auf A33: Mordprozess gegen 29-J\u00e4hrigen startet", "url": "https://www.tagesschau.de/inland/regional/niedersachsen/ndr-unfallflucht-auf-a33-mordprozess-gegen-29-jaehrigen-startet-100.html", "thumbnailUrl": "https://images.tagesschau.de/image/1dfc42d6-8cd3-46c6-aeb7-b173e6376f42/AAABjwwCC5g/AAABjwnlKNc/16x9-512.jpg", "date": "2024-04-23T18:58:00.000+02:00", "lat": 52.3796, "lon": 8.8379, "intensity": 0.8, "source": "Tagesschau"}, {"title": "D\u00fcrre bedroht 24 Millionen Menschen im S\u00fcden Afrikas", "url": "https://www.tagesschau.de/ausland/afrika/un-afrika-bedrohung-duerre-100.html", "thumbnailUrl": "https://images.tagesschau.de/image/6765226d-6231-498b-83c8-fd6d503d3b4c/AAABjwvb8Ls/AAABjwnlKNc/16x9-512.jpg", "date": "2024-04-23T18:48:55.642+02:00", "lat": -24.9884, "lon": 19.0154, "intensity": 0.8, "source": "Tagesschau"}, {"title": "Klima-Aktivisten nach Farbattacke zu Bew\u00e4hrungsstrafen verurteilt", "url": "https://www.tagesschau.de/inland/regional/berlin/rbb-prozess-um-farbattacke-am-brandenburger-tor-startet-drei-mitglieder-der-letzten-generation-angeklagt-100.html", "thumbnailUrl": "https://images.tagesschau.de/image/41905003-21f6-4145-a645-e31dd974ce9a/AAABjwtSJuQ/AAABjwnlKNc/16x9-512.jpg", "date": "2024-04-23T18:45:11.000+02:00", "lat": 52.516275, "lon": 13.377704, "intensity": 0.8, "source": "Tagesschau"}, {"title": "Massiver Stellenabbau bei Autozulieferer Adient", "url": "https://www.tagesschau.de/inland/regional/nordrheinwestfalen/wdr-massiver-stellenabbau-bei-autozulieferer-adient-100.html", "thumbnailUrl": "https://images.tagesschau.de/image/125640ac-d6c6-4fb1-ab86-15822cbdd196/AAABjwxfVh4/AAABjwnlKNc/16x9-512.jpg", "date": "2024-04-23T18:45:00.000+02:00", "lat": 51.1, "lon": 7.16, "intensity": 0.8, "source": "Tagesschau"}, {"title": "Lkw mit Blumenerde kippt um - Fahrerin aus Kabine befreit", "url": "https://www.tagesschau.de/inland/regional/niedersachsen/ndr-a1-lkw-mit-blumenerde-kippt-um-sperrung-bei-ahlhorn-droht-100.html", "thumbnailUrl": "https://images.tagesschau.de/image/11f8397d-2ae0-4383-8e47-405ef70870ee/AAABjwqFFGI/AAABjwnlKNc/16x9-512.jpg", "date": "2024-04-23T18:32:00.000+02:00", "lat": 52.3738, "lon": 9.7316, "intensity": 0.5, "source": "Tagesschau"}, {"title": "Alternativkonzept zum Job-Abbau bei Tadano in Zweibr\u00fccken soll Ende Mai stehen", "url": "https://www.tagesschau.de/inland/regional/saarland/sr-alternativkonzept-zum-job-abbau-bei-tadano-in-zweibruecken-soll-ende-mai-stehen-100.html", "thumbnailUrl": "https://images.tagesschau.de/image/21ded821-b078-4133-b603-c4b3b0096c7c/AAABjwvSRPw/AAABjwnlKNc/16x9-512.jpg", "date": "2024-04-23T18:31:00.000+02:00", "lat": 49.2537, "lon": 7.3601, "intensity": 0.7, "source": "Tagesschau"}, {"title": "Opel will mit neuem Grandland deutlich mehr Autos verkaufen", "url": "https://www.tagesschau.de/inland/regional/thueringen/mdr-opel-will-mit-neuem-grandland-deutlich-mehr-autos-verkaufen-100.html", "thumbnailUrl": "https://images.tagesschau.de/image/6d5fc8f4-9b64-48ca-8eb1-64068ecb569d/AAABjwzO_b0/AAABjwnlKNc/16x9-512.jpg", "date": "2024-04-23T18:27:27.000+02:00", "lat": 50.9812, "lon": 10.9842, "intensity": 0.7, "source": "Tagesschau"}, {"title": "Sammelklage gegen Vodafone", "url": "https://www.tagesschau.de/inland/regional/nordrheinwestfalen/wdr-sammelklage-gegen-vodafone-100.html", "thumbnailUrl": "https://images.tagesschau.de/image/437ffafc-284e-4ff6-83b4-21b4fa97011f/AAABjwxM8_k/AAABjwnlKNc/16x9-512.jpg", "date": "2024-04-23T18:23:00.000+02:00", "lat": 51.9607, "lon": 7.6261, "intensity": 0.7, "source": "Tagesschau"}, {"title": "Beschlossen: Hamburg bekommt eine Karl-Lagerfeld-Promenade", "url": "https://www.tagesschau.de/inland/regional/hamburg/ndr-beschlossen-hamburg-bekommt-eine-karl-lagerfeld-promenade-100.html", "thumbnailUrl": "https://images.tagesschau.de/image/7bb80a85-4cc6-4c0e-8e98-4a66ca36e161/AAABjwvizOA/AAABjwnlKNc/16x9-512.jpg", "date": "2024-04-23T18:16:00.000+02:00", "lat": 53.55, "lon": 9.995, "intensity": 0.7, "source": "Tagesschau"}, {"title": "Drittes Ma\u00dfnahmen-Paket: Wie Schleswig-Holstein Lehrkr\u00e4fte gewinnen will", "url": "https://www.tagesschau.de/inland/regional/schleswigholstein/ndr-drittes-massnahmen-paket-wie-schleswig-holstein-lehrkraefte-gewinnen-will-100.html", "thumbnailUrl": "https://images.tagesschau.de/image/c3fddf17-10a0-4f78-82a1-c95c0550444d/AAABjwtBsfc/AAABjwnlKNc/16x9-512.jpg", "date": "2024-04-23T18:16:00.000+02:00", "lat": 54.4889, "lon": 9.6961, "intensity": 0.7, "source": "Tagesschau"}, {"title": "Streik bei privaten Unternehmen: Hier sollen am Donnerstag in Hessen die Busse stillstehen", "url": "https://www.tagesschau.de/inland/regional/hessen/hr-busfahrer-streik-am-donnerstag-bei-privaten-unternehmen-in-hessen-100.html", "thumbnailUrl": "https://images.tagesschau.de/image/b21094a4-6fd6-4d08-a290-84daff1e84a3/AAABjwwvtV8/AAABjwnlKNc/16x9-512.jpg", "date": "2024-04-23T18:15:27.890+02:00", "lat": 50.5833, "lon": 9.3167, "intensity": 0.8, "source": "Tagesschau"}, {"title": "Gema-Geb\u00fchren bei Party-Musik: Hessen verhandelt \u00fcber Entlastung von Vereinen", "url": "https://www.tagesschau.de/inland/regional/hessen/hr-gema-gebuehren-bei-party-musik-hessen-verhandelt-ueber-entlastung-von-vereinen-100.html", "thumbnailUrl": "https://images.tagesschau.de/image/da4bafeb-e611-4092-bab9-cbe01b2eec6d/AAABjwu6hxY/AAABjwnlKNc/16x9-512.jpg", "date": "2024-04-23T18:11:52.712+02:00", "lat": 50.637, "lon": 9.271, "intensity": 0.7, "source": "Tagesschau"}, {"title": "UN warnen Israel vor Gro\u00dfangriff auf Rafah", "url": "https://www.tagesschau.de/ausland/asien/un-warnung-offensive-rafah-100.html", "thumbnailUrl": "https://images.tagesschau.de/image/9778aeed-909b-46b5-ac36-422093795936/AAABjwtgNtA/AAABjwnlKNc/16x9-512.jpg", "date": "2024-04-23T18:06:29.719+02:00", "lat": 31.2861, "lon": 34.2628, "intensity": 0.9, "source": "Tagesschau"}, {"title": "\"Der Iran hat genug Material f\u00fcr eine Atombombe\"", "url": "https://www.tagesschau.de/ausland/asien/iran-atomwaffen-iaea-100.html", "thumbnailUrl": "https://images.tagesschau.de/image/07b05a6f-b4e8-4a5b-a30a-b42a5270a386/AAABjvV6miA/AAABjwnlKNc/16x9-512.jpg", "date": "2024-04-23T17:53:31.399+02:00", "lat": 35.689506, "lon": 51.388973, "intensity": 0.8, "source": "Tagesschau"}, {"title": "Mertin zu Flutermittlungen: Das Verfahren ist noch nicht beendet", "url": "https://www.tagesschau.de/inland/regional/rheinlandpfalz/swr-justizminister-aeussert-sich-zu-eingestellten-ahrflut-ermittlungen-100.html", "thumbnailUrl": "https://images.tagesschau.de/image/e67a5220-8244-467a-94df-e2eb841d58cd/AAABjwptP08/AAABjwnlKNc/16x9-512.jpg", "date": "2024-04-23T17:35:00.000+02:00", "lat": 50.117, "lon": 7.266, "intensity": 0.5, "source": "Tagesschau"}, {"title": "Welttag des Buches: Wie B\u00fccher-Telefonzellen zum Lesen motivieren sollen", "url": "https://www.tagesschau.de/inland/regional/brandenburg/rbb-welttag-des-buches-wie-buecher-telefonzellen-zum-lesen-motivieren-sollen-100.html", "thumbnailUrl": "https://images.tagesschau.de/image/0bcb40cd-d2c0-480c-ae02-d092550e2db6/AAABjwuhGRM/AAABjwnlKNc/16x9-512.jpg", "date": "2024-04-23T17:34:58.000+02:00", "lat": 52.5218, "lon": 13.4634, "intensity": 0.6, "source": "Tagesschau"}, {"title": "CDU will Unis und Berufsschulen f\u00fcr Weiterbildung \u00f6ffnen", "url": "https://www.tagesschau.de/inland/regional/niedersachsen/ndr-cdu-will-unis-und-berufsschulen-fuer-weiterbildung-oeffnen-100.html", "thumbnailUrl": "https://images.tagesschau.de/image/ceefe623-4fda-4599-a7fc-aca1b9a51eb4/AAABjwyuRgQ/AAABjwnlKNc/16x9-512.jpg", "date": "2024-04-23T17:32:00.000+02:00", "lat": 51.1657, "lon": 10.4515, "intensity": 0.8, "source": "Tagesschau"}, {"title": "Neue Anlaufstelle f\u00fcr von h\u00e4uslicher Gewalt betroffene Kinder im Saarland", "url": "https://www.tagesschau.de/inland/regional/saarland/sr-neue-anlaufstelle-fuer-von-haeuslicher-gewalt-betroffene-kinder-im-saarland-100.html", "thumbnailUrl": "https://images.tagesschau.de/image/4a429348-51ca-4d76-85a1-2cc194b8bb6c/AAABjwuOh8c/AAABjwnlKNc/16x9-512.jpg", "date": "2024-04-23T17:20:25.712+02:00", "lat": 49.2402, "lon": 6.9969, "intensity": 0.8, "source": "Tagesschau"}, {"title": "Neue Spitze bei den Gr\u00fcnen im Landtag von MV", "url": "https://www.tagesschau.de/inland/regional/mecklenburgvorpommern/ndr-neue-spitze-bei-den-gruenen-im-landtag-von-mv-100.html", "thumbnailUrl": "https://images.tagesschau.de/image/dfcfb7b8-42e7-4d9b-aa98-15dcb32b8af9/AAABjwug2qg/AAABjwnlKNc/16x9-512.jpg", "date": "2024-04-23T17:20:00.000+02:00", "lat": 52.52, "lon": 13.4114, "intensity": 0.3, "source": "Tagesschau"}, {"title": "Tausende Verst\u00f6\u00dfe beim Blitzermarathon in Rheinland-Pfalz", "url": "https://www.tagesschau.de/inland/regional/rheinlandpfalz/swr-tausende-verstoesse-beim-blitzermarathon-in-rheinland-pfalz-100.html", "thumbnailUrl": "https://images.tagesschau.de/image/61fd8e6a-4e41-4fcb-9932-e27f253e5334/AAABjwuOnWU/AAABjwnlKNc/16x9-512.jpg", "date": "2024-04-23T17:19:08.000+02:00", "lat": 49.7636, "lon": 7.2663, "intensity": 0.8, "source": "Tagesschau"}, {"title": "Viele Beschwerden wegen \u00dcberwachungs-Kameras in Schleswig-Holstein", "url": "https://www.tagesschau.de/inland/regional/schleswigholstein/ndr-viele-beschwerden-wegen-ueberwachungskameras-in-schleswig-holstein-100.html", "thumbnailUrl": "https://images.tagesschau.de/image/abf0b720-8425-4a1c-931f-f438d95e8c72/AAABjwuV8EM/AAABjwnlKNc/16x9-512.jpg", "date": "2024-04-23T17:03:00.000+02:00", "lat": 54.6077, "lon": 9.6869, "intensity": 0.7, "source": "Tagesschau"}, {"title": "Juden in Stuttgart feiern Pessach-Fest: Mit strengen Regeln Halt geben", "url": "https://www.tagesschau.de/inland/regional/badenwuerttemberg/swr-juden-in-stuttgart-feiern-pessach-fest-mit-strengen-regeln-halt-geben-100.html", "thumbnailUrl": "https://images.tagesschau.de/image/c617963d-67bc-4f96-816e-6f533b054f80/AAABjwuZmg0/AAABjwnlKNc/16x9-512.jpg", "date": "2024-04-23T17:01:24.000+02:00", "lat": 48.7758, "lon": 9.1829, "intensity": 0.4, "source": "Tagesschau"}, {"title": "Kiew will Exil-Ukrainer zur Heimkehr bewegen", "url": "https://www.tagesschau.de/ausland/europa/ukraine-wehrpflichtige-ausland-100.html", "thumbnailUrl": "https://images.tagesschau.de/image/fda0d9ea-2ad7-4abb-adef-3824ea3e0650/AAABjwtalkI/AAABjwnlKNc/16x9-512.jpg", "date": "2024-04-23T16:55:48.404+02:00", "lat": 50.4501, "lon": 30.5234, "intensity": 0.6, "source": "Tagesschau"}, {"title": "Stets f\u00fcr \u00dcberraschungen gut: Das neue Programm der Elbphilharmonie", "url": "https://www.tagesschau.de/inland/regional/hamburg/ndr-stets-fuer-ueberraschungen-gut-das-neue-programm-der-elbphilharmonie-100.html", "thumbnailUrl": "https://images.tagesschau.de/image/60bc1ab7-2299-4238-9d66-721301abb917/AAABjwuJGeI/AAABjwnlKNc/16x9-512.jpg", "date": "2024-04-23T16:50:00.000+02:00", "lat": 53.551, "lon": 9.984, "intensity": 0.7, "source": "Tagesschau"}, {"title": "Tesla will 400 feste Stellen in Gr\u00fcnheide abbauen", "url": "https://www.tagesschau.de/inland/regional/brandenburg/rbb-tesla-will-400-feste-stellen-in-gruenheide-abbauen-100.html", "thumbnailUrl": "https://images.tagesschau.de/image/e3854116-d2a3-4837-b640-0f652b76e48d/AAABjwrrl80/AAABjwnlKNc/16x9-512.jpg", "date": "2024-04-23T16:48:51.000+02:00", "lat": 52.4136, "lon": 13.8258, "intensity": 0.8, "source": "Tagesschau"}, {"title": "Hamburger CDU will \"Muslim Interaktiv\" verbieten lassen", "url": "https://www.tagesschau.de/inland/regional/hamburg/ndr-hamburger-cdu-will-muslim-interaktiv-verbieten-lassen-100.html", "thumbnailUrl": "https://images.tagesschau.de/image/fe6804b7-6918-495b-80d6-8c438c620810/AAABjwtvc6I/AAABjwnlKNc/16x9-512.jpg", "date": "2024-04-23T16:46:00.000+02:00", "lat": 53.5511, "lon": 9.9937, "intensity": 0.6, "source": "Tagesschau"}, {"title": "Asien am st\u00e4rksten von Klimakatastrophen betroffen", "url": "https://www.tagesschau.de/wissen/asien-extremwetter-2023-100.html", "thumbnailUrl": "https://images.tagesschau.de/image/c5b9598f-ab0b-42c6-b3b3-4310a4e7dc81/AAABjwtpA_c/AAABjwnlKNc/16x9-512.jpg", "date": "2024-04-23T16:43:03.307+02:00", "lat": 4.6518, "lon": 112.2707, "intensity": 0.8, "source": "Tagesschau"}, {"title": "Nach Gest\u00e4ndnis im Pragsdorf-Prozess: Anklage pl\u00e4diert auf Mord", "url": "https://www.tagesschau.de/inland/regional/mecklenburgvorpommern/ndr-getoeteter-sechsjaehriger-aus-pragsdorf-plaedoyers-erwartet-100.html", "thumbnailUrl": "https://images.tagesschau.de/image/ac7a5c6f-c786-4ab6-bf86-52f8a7e8af04/AAABjwt6bqs/AAABjwnlKNc/16x9-512.jpg", "date": "2024-04-23T16:40:00.000+02:00", "lat": 53.5814, "lon": 13.6193, "intensity": 0.8, "source": "Tagesschau"}, {"title": "Schlechte Work-Life-Balance: Bankr\u00e4uber beklagen Fachkr\u00e4ftemangel", "url": "https://www.tagesschau.de/inland/regional/hessen/hr-schlechte-work-life-balance-bankraeuber-beklagen-fackraeftemangel-100.html", "thumbnailUrl": "https://images.tagesschau.de/image/f8adc797-8965-4f86-aa94-364410623f0a/AAABjwtkcQg/AAABjwnlKNc/16x9-512.jpg", "date": "2024-04-23T16:37:19.757+02:00", "lat": 50.5423, "lon": 9.0024, "intensity": 0.8, "source": "Tagesschau"}, {"title": "31. Internationales Trickfilmfestival in Stuttgart startet", "url": "https://www.tagesschau.de/inland/regional/badenwuerttemberg/swr-31-internationales-trickfilmfestival-in-stuttgart-startet-100.html", "thumbnailUrl": "https://images.tagesschau.de/image/b6a103a9-dcdb-42a4-a6bf-09eb104a60d9/AAABjwtDddo/AAABjwnlKNc/16x9-512.jpg", "date": "2024-04-23T16:32:00.000+02:00", "lat": 48.7758, "lon": 9.1775, "intensity": 0.6, "source": "Tagesschau"}, {"title": "Agentur f\u00fcr Arbeit zieht positive Bilanz zu Job-Turbo-Messe f\u00fcr Fl\u00fcchtlinge", "url": "https://www.tagesschau.de/inland/regional/saarland/sr-job-turbo-messe-fuer-fluechtlinge-im-saarbruecker-schloss-100.html", "thumbnailUrl": "https://images.tagesschau.de/image/f1c46f26-abba-49e3-a435-8e0b9a3acf11/AAABjwmL_sc/AAABjwnlKNc/16x9-512.jpg", "date": "2024-04-23T16:32:00.000+02:00", "lat": 51.1657, "lon": 10.4515, "intensity": 0.7, "source": "Tagesschau"}, {"title": "Mann an Haltestelle in Hannover erschossen - Urteil rechtskr\u00e4ftig", "url": "https://www.tagesschau.de/inland/regional/niedersachsen/ndr-mann-an-haltestelle-in-hannover-erschossen-urteil-rechtskraeftig-100.html", "thumbnailUrl": "https://images.tagesschau.de/image/0bca6bc7-e3d0-40bb-abb5-ef2191f80be9/AAABjwtiyY8/AAABjwnlKNc/16x9-512.jpg", "date": "2024-04-23T16:29:00.000+02:00", "lat": 52.37589, "lon": 9.73322, "intensity": 0.8, "source": "Tagesschau"}, {"title": "Ausschreitungen beim Schalke-Spiel: Polizei fahndet mit Fotos nach 27 Eintracht-Fans", "url": "https://www.tagesschau.de/inland/regional/hessen/hr-ausschreitungen-beim-schalke-spiel-polizei-fahndet-mit-fotos-nach-27-eintracht-fans-100.html", "thumbnailUrl": "https://images.tagesschau.de/image/9b9ccb66-9f2a-456e-9c8f-f7c93021c2a8/AAABjwtiuY4/AAABjwnlKNc/16x9-512.jpg", "date": "2024-04-23T16:28:06.257+02:00", "lat": 51.4863, "lon": 7.6124, "intensity": 0.8, "source": "Tagesschau"}, {"title": "\u00dcberdimensionaler Schriftzug \"#LEBEN\" wandert durch den Kreis Unna", "url": "https://www.tagesschau.de/inland/regional/nordrheinwestfalen/wdr-ueberdimensionaler-schriftzug-leben-wandert-durch-den-kreis-unna-104.html", "thumbnailUrl": "https://images.tagesschau.de/image/c849d2d1-bb3c-4b2d-8f9a-ca31e0ec403a/AAABjwt2u1g/AAABjwnlKNc/16x9-512.jpg", "date": "2024-04-23T16:27:00.000+02:00", "lat": 51.594444, "lon": 7.661111, "intensity": 0.5, "source": "Tagesschau"}, {"title": "Bj\u00f6rn H\u00f6cke in Halle vor Gericht: Keine Freiheitsstrafe f\u00fcr AfD-Politiker zu erwarten", "url": "https://www.tagesschau.de/inland/regional/sachsenanhalt/mdr-bjoern-hoecke-in-halle-vor-gericht-keine-freiheitsstrafe-fuer-afd-politiker-zu-erwarten-100.html", "thumbnailUrl": "https://images.tagesschau.de/image/e489a0d2-7d7f-442b-85b0-82c410873255/AAABjwzLqeg/AAABjwnlKNc/16x9-512.jpg", "date": "2024-04-23T16:21:25.000+02:00", "lat": 51.4828, "lon": 11.9678, "intensity": 0.7, "source": "Tagesschau"}, {"title": "\"Schlimmste Frostnacht im Fr\u00fchjahr\": Fr\u00fchjahrsfrost setzt Th\u00fcringer Obstbauern zu", "url": "https://www.tagesschau.de/inland/regional/thueringen/mdr-schlimmste-frostnacht-im-fruehjahr-fruehjahrsfrost-setzt-thueringer-obstbauern-zu-100.html", "thumbnailUrl": "https://images.tagesschau.de/image/10faee84-bbac-4800-9f19-b8d11a7b241a/AAABjwzPZtE/AAABjwnlKNc/16x9-512.jpg", "date": "2024-04-23T16:06:54.000+02:00", "lat": 50.9795, "lon": 11.3295, "intensity": 0.8, "source": "Tagesschau"}, {"title": "Frost im April: Landwirte in BW beklagen Sch\u00e4den", "url": "https://www.tagesschau.de/inland/regional/badenwuerttemberg/swr-verlief-auch-die-zweite-frostnacht-in-heilbronn-franken-glimpflich-100.html", "thumbnailUrl": "https://images.tagesschau.de/image/7279e215-116b-46d8-86c2-5a0933eed68f/AAABjwsHCCQ/AAABjwnlKNc/16x9-512.jpg", "date": "2024-04-23T16:06:00.000+02:00", "lat": 48.7758, "lon": 9.2265, "intensity": 0.7, "source": "Tagesschau"}, {"title": "Hannover Messe: Habeck informiert sich \u00fcber nachhaltige Produktion", "url": "https://www.tagesschau.de/inland/regional/niedersachsen/ndr-hannover-messe-2024-ki-als-chance-fuer-die-industrie-100.html", "thumbnailUrl": "https://images.tagesschau.de/image/f61a7b7b-c201-4ca6-8edc-745286cb2b31/AAABjwtJGH0/AAABjwnlKNc/16x9-512.jpg", "date": "2024-04-23T16:04:00.000+02:00", "lat": 52.3759, "lon": 9.7332, "intensity": 0.7, "source": "Tagesschau"}, {"title": "Mann aus Norderstedt wegen Stalkings verurteilt", "url": "https://www.tagesschau.de/inland/regional/schleswigholstein/ndr-mann-aus-norderstedt-wegen-stalkings-verurteilt-100.html", "thumbnailUrl": "https://images.tagesschau.de/image/653f004b-9624-4044-b44d-bef816c49437/AAABjwtV2E8/AAABjwnlKNc/16x9-512.jpg", "date": "2024-04-23T16:04:00.000+02:00", "lat": 53.7325, "lon": 10.0153, "intensity": 0.7, "source": "Tagesschau"}, {"title": "Auswilderung geplant: Hat das Birkhuhn in Sachsen trotz Wolf eine Chance? ", "url": "https://www.tagesschau.de/inland/regional/sachsen/mdr-auswilderung-geplant-hat-das-birkhuhn-in-sachsen-trotz-wolf-eine-chance-100.html", "thumbnailUrl": "https://images.tagesschau.de/image/52d1c8f2-fb1d-460c-85c5-7c9bec653e6d/AAABjwzRMZU/AAABjwnlKNc/16x9-512.jpg", "date": "2024-04-23T16:03:15.000+02:00", "lat": 51.485, "lon": 14.187, "intensity": 0.8, "source": "Tagesschau"}, {"title": "J\u00fcdisches Pessach-Fest in SH: \"Wir k\u00f6nnen nicht ausgelassen feiern\"", "url": "https://www.tagesschau.de/inland/regional/schleswigholstein/ndr-juedisches-pessach-fest-in-sh-wir-koennen-nicht-ausgelassen-feiern-100.html", "thumbnailUrl": "https://images.tagesschau.de/image/914ce06e-9c8a-4a7f-ac87-b43f506bc200/AAABjwtB-rQ/AAABjwnlKNc/16x9-512.jpg", "date": "2024-04-23T15:56:00.000+02:00", "lat": 54.4125, "lon": 9.9526, "intensity": 0.7, "source": "Tagesschau"}, {"title": "Nach Ostsee-Sturmflut: 50 Millionen Euro kommen vom Bund", "url": "https://www.tagesschau.de/inland/regional/schleswigholstein/ndr-nach-ostsee-sturmflut-50-millionen-euro-kommen-vom-bund-100.html", "thumbnailUrl": "https://images.tagesschau.de/image/7a9a122a-c443-4ea0-ae31-59fa5c13b952/AAABjwogolU/AAABjwnlKNc/16x9-512.jpg", "date": "2024-04-23T15:52:00.000+02:00", "lat": 54.3233, "lon": 9.9833, "intensity": 0.8, "source": "Tagesschau"}, {"title": "Festnahmen bei Razzia gegen nigerianische Mafia", "url": "https://www.tagesschau.de/inland/gesellschaft/razzia-nigerianische-maffia-100.html", "thumbnailUrl": "https://images.tagesschau.de/image/50164141-1ad5-4892-94f3-3d5eb0209d69/AAABjwsEOgI/AAABjwnlKNc/16x9-512.jpg", "date": "2024-04-23T15:37:21.218+02:00", "lat": 52.373, "lon": 9.9876, "intensity": 0.8, "source": "Tagesschau"}, {"title": "Prozessauftakt: Helferin bedauert t\u00f6dlichen Bob-Unfall in Oberhof", "url": "https://www.tagesschau.de/inland/regional/thueringen/mdr-prozessauftakt-helferin-bedauert-toedlichen-bob-unfall-in-oberhof-100.html", "thumbnailUrl": "https://images.tagesschau.de/image/12ef6dd6-03c6-4c10-9270-642be070b9a0/AAABjwzPSZc/AAABjwnlKNc/16x9-512.jpg", "date": "2024-04-23T15:32:00.000+02:00", "lat": 50.7063, "lon": 10.7009, "intensity": 0.7, "source": "Tagesschau"}, {"title": "Wasserstoff kann Erdgas erg\u00e4nzen - das zeigt ein Test in \u00d6hringen", "url": "https://www.tagesschau.de/inland/regional/badenwuerttemberg/swr-wasserstoff-kann-erdgas-ergaenzen-das-zeigt-ein-test-in-oehringen-100.html", "thumbnailUrl": "https://images.tagesschau.de/image/73092e6a-92ad-4d05-99e0-4f6df0d62aca/AAABjwug8ag/AAABjwnlKNc/16x9-512.jpg", "date": "2024-04-23T15:31:29.000+02:00", "lat": 49.2017, "lon": 9.4855, "intensity": 0.6, "source": "Tagesschau"}, {"title": "Nach Kritik: Pl\u00e4ne f\u00fcr Burchardplatz in Hamburg \u00fcberarbeitet", "url": "https://www.tagesschau.de/inland/regional/hamburg/ndr-nach-kritik-plaene-fuer-burchardplatz-in-hamburg-ueberarbeitet-100.html", "thumbnailUrl": "https://images.tagesschau.de/image/970037b5-1969-4fe8-8379-650349225296/AAABjwskmKk/AAABjwnlKNc/16x9-512.jpg", "date": "2024-04-23T15:27:00.000+02:00", "lat": 53.5503, "lon": 9.9869, "intensity": 0.3, "source": "Tagesschau"}, {"title": "Erdbeer-Saison 2024 kommt auf Touren", "url": "https://www.tagesschau.de/inland/regional/nordrheinwestfalen/wdr-erdbeer-saison-2024-kommt-auf-touren-100.html", "thumbnailUrl": "https://images.tagesschau.de/image/f16a639c-339c-46b3-9f9a-96476f2af031/AAABjwxkwqI/AAABjwnlKNc/16x9-512.jpg", "date": "2024-04-23T15:25:00.000+02:00", "lat": 51.372879, "lon": 7.299535, "intensity": 0.3, "source": "Tagesschau"}, {"title": "Studie dokumentiert: Westliche Unternehmen profitierten von DDR-Zwangsarbeit", "url": "https://www.tagesschau.de/inland/regional/brandenburg/rbb-studie-dokumentiert-westliche-unternehmen-profitierten-von-ddr-zwangsarbeit-100.html", "thumbnailUrl": "https://images.tagesschau.de/image/f23747b9-72b7-4360-b3c5-441d173c5937/AAABjwsoL9M/AAABjwnlKNc/16x9-512.jpg", "date": "2024-04-23T15:23:09.000+02:00", "lat": 52.520008, "lon": 13.404954, "intensity": 0.7, "source": "Tagesschau"}, {"title": "Senatorin warnt Schulen vor Fake News zu vermeintlichem \"Vergewaltigungstag\"", "url": "https://www.tagesschau.de/inland/regional/berlin/rbb-senatorin-warnt-schulen-vor-fake-news-zu-vermeintlichem-vergewaltigungstag-100.html", "thumbnailUrl": "https://images.tagesschau.de/image/1b127142-9a24-4e63-83b5-f4034c001af3/AAABjwsmNxE/AAABjwnlKNc/16x9-512.jpg", "date": "2024-04-23T15:21:31.000+02:00", "lat": 52.520008, "lon": 13.404954, "intensity": 0.7, "source": "Tagesschau"}, {"title": "Tesla will in Gr\u00fcnheide 400 feste Stellen abbauen", "url": "https://www.tagesschau.de/wirtschaft/unternehmen/tesla-gruenheide-stellenabbau-100.html", "thumbnailUrl": "https://images.tagesschau.de/image/cc6b8964-19ea-4052-9d74-5817b7f41b24/AAABjwrGZzE/AAABjwnlKNc/16x9-512.jpg", "date": "2024-04-23T15:13:59.299+02:00", "lat": 52.3598, "lon": 13.6926, "intensity": 0.8, "source": "Tagesschau"}, {"title": "Halles suspendierter OB Wiegand legt Revision gegen Urteil ein", "url": "https://www.tagesschau.de/inland/regional/sachsenanhalt/mdr-halles-suspendierter-ob-wiegand-legt-revision-gegen-urteil-ein-100.html", "thumbnailUrl": "https://images.tagesschau.de/image/bd5d1d14-3f4d-4600-8304-b702dc434e72/AAABjwzLfCE/AAABjwnlKNc/16x9-512.jpg", "date": "2024-04-23T15:11:26.000+02:00", "lat": 51.4918, "lon": 11.5836, "intensity": 0.7, "source": "Tagesschau"}, {"title": "Kultur: +++ Deutscher Sachbuchpreis 2024: Nominierte stehen fest  +++ Erster \u00f6ffentlicher Kinderb\u00fccherschrank in Bonames +++ Vorlese-Omas helfen beim Lesenlernen +++ ", "url": "https://www.tagesschau.de/inland/regional/hessen/hr--schauspiel-frankfurt-bringt-putin-und-macbeth-zusammen--die-filmfestival-saison-2023-startet--lichter-filmfest-zum-thema-liebe-startet-am-dienstag-100.html", "thumbnailUrl": "https://images.tagesschau.de/image/d5cb7628-47b2-4510-a00b-3658bd9be6b7/AAABjwsT8JI/AAABjwnlKNc/16x9-512.jpg", "date": "2024-04-23T15:09:54.409+02:00", "lat": 50.110922, "lon": 8.682127, "intensity": 0.7, "source": "Tagesschau"}, {"title": "Neuss wird bei Fu\u00dfball-EM zur Polizei-Hauptstadt", "url": "https://www.tagesschau.de/inland/regional/nordrheinwestfalen/wdr-neuss-wird-bei-fussball-em-zur-polizei-hauptstadt-106.html", "thumbnailUrl": "https://images.tagesschau.de/image/7797b0f9-9022-448e-857a-db540721b49c/AAABjwvoPrk/AAABjwnlKNc/16x9-512.jpg", "date": "2024-04-23T15:09:00.000+02:00", "lat": 51.2043, "lon": 6.6854, "intensity": 0.8, "source": "Tagesschau"}, {"title": "F\u00fcnf weitere Bushaltestellen-D\u00e4cher in Hamburg begr\u00fcnt", "url": "https://www.tagesschau.de/inland/regional/hamburg/ndr-fuenf-weitere-bushaltestellen-daecher-in-hamburg-begruent-100.html", "thumbnailUrl": "https://images.tagesschau.de/image/d41f3e98-0ea0-4c17-99ac-3fc0cdba35c0/AAABjwsSGD0/AAABjwnlKNc/16x9-512.jpg", "date": "2024-04-23T15:05:00.000+02:00", "lat": 53.5511, "lon": 9.9937, "intensity": 0.6, "source": "Tagesschau"}, {"title": "Gewerkschaft ruft f\u00fcr 22. Mai zu Warnstreik an Berliner Schulen auf", "url": "https://www.tagesschau.de/inland/regional/berlin/rbb-gewerkschaft-ruft-fuer-22-mai-zu-warnstreik-an-berliner-schulen-auf-100.html", "thumbnailUrl": "https://images.tagesschau.de/image/a3881b31-06c3-432f-a1d1-3a1fb4dcd14e/AAABjwsSRJU/AAABjwnlKNc/16x9-512.jpg", "date": "2024-04-23T15:01:50.000+02:00", "lat": 52.520008, "lon": 13.404954, "intensity": 0.8, "source": "Tagesschau"}, {"title": "Gesundheitsminister Jung kritisiert Lauterbachs Krankenhausreform ", "url": "https://www.tagesschau.de/inland/regional/saarland/sr-gesundheitsminister-jung-kritisiert-lauterbachs-krankenhausreform-100.html", "thumbnailUrl": "https://images.tagesschau.de/image/d3e231e7-3647-41e9-9955-47264511bba6/AAABjwsXgRA/AAABjwnlKNc/16x9-512.jpg", "date": "2024-04-23T14:57:00.000+02:00", "lat": 49.3964, "lon": 7.0233, "intensity": 0.6, "source": "Tagesschau"}, {"title": "Wissenswerkstatt in Saarbr\u00fccken vorerst gerettet ", "url": "https://www.tagesschau.de/inland/regional/saarland/sr-wissenswerkstatt-in-saarbruecken-vorerst-gerettet-100.html", "thumbnailUrl": "https://images.tagesschau.de/image/4fbe0d2d-9324-4284-b33a-b7928d7008ba/AAABjwsOWRw/AAABjwnlKNc/16x9-512.jpg", "date": "2024-04-23T14:55:00.000+02:00", "lat": 49.2402, "lon": 6.9969, "intensity": 0.7, "source": "Tagesschau"}, {"title": "Casting bei \"Rote Rosen\": H\u00fcndin \"Hermine Granger\" ausgew\u00e4hlt", "url": "https://www.tagesschau.de/inland/regional/niedersachsen/ndr-casting-bei-rote-rosen-huendin-hermine-granger-ausgewaehlt-100.html", "thumbnailUrl": "https://images.tagesschau.de/image/49db65d3-868d-40e7-8b57-1f1440295b97/AAABjwsBreM/AAABjwnlKNc/16x9-512.jpg", "date": "2024-04-23T14:47:00.000+02:00", "lat": 52.3759, "lon": 9.7354, "intensity": 0.6, "source": "Tagesschau"}, {"title": "Zahl verdoppelt: LKA ermittelt in vier F\u00e4llen von illegaler Wolfst\u00f6tung", "url": "https://www.tagesschau.de/inland/regional/sachsen/mdr-zahl-verdoppelt-lka-ermittelt-in-vier-faellen-von-illegaler-wolfstoetung-100.html", "thumbnailUrl": "https://images.tagesschau.de/image/f915f3d6-e1d3-4cfe-b2dd-300e27274b0a/AAABjwzRJII/AAABjwnlKNc/16x9-512.jpg", "date": "2024-04-23T14:34:26.000+02:00", "lat": 51.1045, "lon": 13.4125, "intensity": 0.7, "source": "Tagesschau"}, {"title": "So soll KI den Pflegenotstand beheben", "url": "https://www.tagesschau.de/inland/regional/nordrheinwestfalen/wdr-so-soll-ki-den-pflegenotstand-beheben-100.html", "thumbnailUrl": "https://images.tagesschau.de/image/77cf63a8-c40c-4c1f-a304-2431ee6fdd44/AAABjwsBlQg/AAABjwnlKNc/16x9-512.jpg", "date": "2024-04-23T14:26:00.000+02:00", "lat": 51.8133, "lon": 7.6261, "intensity": 0.8, "source": "Tagesschau"}, {"title": "Koschinat bleibt Trainer beim VfL Osnabr\u00fcck - auch im Abstiegsfall", "url": "https://www.tagesschau.de/inland/regional/niedersachsen/ndr-koschinat-bleibt-trainer-beim-vfl-osnabrueck-auch-im-abstiegsfall-102.html", "thumbnailUrl": "https://images.tagesschau.de/image/cc2070d7-3b5e-4077-b348-a82f38560415/AAABjwr6UEU/AAABjwnlKNc/16x9-512.jpg", "date": "2024-04-23T14:19:00.000+02:00", "lat": 52.2799, "lon": 8.0463, "intensity": 0.8, "source": "Tagesschau"}, {"title": "Ex-RAF-Mitglied Klette: Innenministerin kritisiert Soli-Demos", "url": "https://www.tagesschau.de/inland/regional/niedersachsen/ndr-ex-raf-mitglied-klette-innenministerin-kritisiert-soli-demos-100.html", "thumbnailUrl": "https://images.tagesschau.de/image/19240134-5342-4e61-8d55-92c867bde6e1/AAABjwr2pMA/AAABjwnlKNc/16x9-512.jpg", "date": "2024-04-23T14:09:00.000+02:00", "lat": 52.2799, "lon": 8.8017, "intensity": 0.7, "source": "Tagesschau"}, {"title": "Razzia gegen nigerianische Mafia in Baden-W\u00fcrttemberg", "url": "https://www.tagesschau.de/inland/regional/badenwuerttemberg/swr-razzia-gegen-nigerianische-mafia-in-baden-wuerttemberg-100.html", "thumbnailUrl": "https://images.tagesschau.de/image/3505f68f-8f86-428d-bf92-e4a5937537d7/AAABjwvQnVo/AAABjwnlKNc/16x9-512.jpg", "date": "2024-04-23T14:06:53.000+02:00", "lat": 48.7758, "lon": 9.7356, "intensity": 0.7, "source": "Tagesschau"}, {"title": "Wie sicher ist Ruanda wirklich?", "url": "https://www.tagesschau.de/ausland/afrika/abschiebungen-ruanda-100.html", "thumbnailUrl": "https://images.tagesschau.de/image/608a973e-4ad4-413a-b37e-9b5cbf77adef/AAABjwrZHmU/AAABjwnlKNc/16x9-512.jpg", "date": "2024-04-23T14:05:52.754+02:00", "lat": -1.9403, "lon": 30.2176, "intensity": 0.8, "source": "Tagesschau"}, {"title": "Norden: Mediziner kritisieren \"desolate\" Gesundheitsversorgung", "url": "https://www.tagesschau.de/inland/regional/niedersachsen/ndr-norden-mediziner-kritisieren-desolate-gesundheitsversorgung-100.html", "thumbnailUrl": "https://images.tagesschau.de/image/729c52cb-7b23-4a7f-a179-4f669dfd2c50/AAABjwrVpV8/AAABjwnlKNc/16x9-512.jpg", "date": "2024-04-23T13:57:00.000+02:00", "lat": 53.5966, "lon": 7.2089, "intensity": 0.8, "source": "Tagesschau"}, {"title": "Kupferkabel aus Windkraftanlage gestohlen: 300.000 Euro Schaden", "url": "https://www.tagesschau.de/inland/regional/niedersachsen/ndr-erneut-kupferkabel-aus-windkraftanlagen-in-meppen-gestohlen-100.html", "thumbnailUrl": "https://images.tagesschau.de/image/4f6e1dcc-474b-4f43-a5a3-26785b0501ff/AAABjwp2gtE/AAABjwnlKNc/16x9-512.jpg", "date": "2024-04-23T13:49:00.000+02:00", "lat": 52.6367, "lon": 10.7456, "intensity": 0.8, "source": "Tagesschau"}, {"title": "Saarbr\u00fccken erh\u00f6ht F\u00f6rderung f\u00fcr Kulturprojekte", "url": "https://www.tagesschau.de/inland/regional/saarland/sr-saarbruecken-erhoeht-foerderung-fuer-kulturprojekte-100.html", "thumbnailUrl": "https://images.tagesschau.de/image/39fece9f-142b-4e96-8d51-b70b53c8685f/AAABjwsZVs0/AAABjwnlKNc/16x9-512.jpg", "date": "2024-04-23T13:47:00.000+02:00", "lat": 49.2333, "lon": 6.9815, "intensity": 0.8, "source": "Tagesschau"}, {"title": "Karlsruhe pr\u00fcft Wahlrechtsreform der Ampel", "url": "https://www.tagesschau.de/inland/innenpolitik/wahlrechtsreform-klage-bundesverfassungsgericht-100.html", "thumbnailUrl": "https://images.tagesschau.de/image/2449a2a1-4ca4-4794-8e30-d2bb4aa78305/AAABhnjoHVw/AAABjwnlKNc/16x9-512.jpg", "date": "2024-04-23T13:43:23.179+02:00", "lat": 49.0069, "lon": 8.4037, "intensity": 0.7, "source": "Tagesschau"}, {"title": "Champions League: THW Kiel in Montpellier vor \"brutaler Herausforderung\"", "url": "https://www.tagesschau.de/inland/regional/schleswigholstein/ndr-champions-league-thw-kiel-in-montpellier-vor-brutaler-herausforderung-102.html", "thumbnailUrl": "https://images.tagesschau.de/image/4e95f95e-5194-4dfb-8b35-1ff9f83aace6/AAABjwrZX9I/AAABjwnlKNc/16x9-512.jpg", "date": "2024-04-23T13:39:00.000+02:00", "lat": 43.6114, "lon": 3.8793, "intensity": 0.8, "source": "Tagesschau"}, {"title": "Pl\u00e4ne f\u00fcr Hinterlandanbindung sorgen f\u00fcr Unmut in Bad Schwartau", "url": "https://www.tagesschau.de/inland/regional/schleswigholstein/ndr-plaene-fuer-hinterlandanbindung-sorgen-fuer-unmut-in-bad-schwartau-100.html", "thumbnailUrl": "https://images.tagesschau.de/image/cfeccf4a-632c-4bdf-aae4-6614218de5b6/AAABjwqtcZU/AAABjwnlKNc/16x9-512.jpg", "date": "2024-04-23T13:30:00.000+02:00", "lat": 53.8828, "lon": 10.6793, "intensity": 0.5, "source": "Tagesschau"}, {"title": "Ab 1. Mai: BVG verbietet Mitnahme von E-Rollern in ihren Fahrzeugen", "url": "https://www.tagesschau.de/inland/regional/berlin/rbb-ab-1-mai-bvg-verbietet-mitnahme-von-e-rollern-in-ihren-fahrzeugen-100.html", "thumbnailUrl": "https://images.tagesschau.de/image/9ef80c8d-5926-4f2a-b299-3c23d46620f3/AAABjwq6O8M/AAABjwnlKNc/16x9-512.jpg", "date": "2024-04-23T13:29:02.000+02:00", "lat": 52.520008, "lon": 13.404954, "intensity": 0.7, "source": "Tagesschau"}, {"title": "U-Ausschuss des Landtags zum Fall Yeboah beginnt Mitte Juni mit Beweisaufnahme", "url": "https://www.tagesschau.de/inland/regional/saarland/sr-u-ausschuss-des-landtags-zum-fall-yeboah-beginnt-mitte-juni-mit-beweisaufnahme-100.html", "thumbnailUrl": "https://images.tagesschau.de/image/97cf9e98-be24-4bc8-b993-d88dc8ac696e/AAABjwq6HoI/AAABjwnlKNc/16x9-512.jpg", "date": "2024-04-23T13:28:00.000+02:00", "lat": 49.2354, "lon": 6.9797, "intensity": 0.8, "source": "Tagesschau"}, {"title": "Ukrainischer Minister unter Korruptionsverdacht", "url": "https://www.tagesschau.de/ausland/europa/ukraine-minister-korruptionsverdacht-100.html", "thumbnailUrl": "https://images.tagesschau.de/image/b6eab4a8-e8d3-47f9-9f2a-c0cc88a7dd7c/AAABjwq1f9A/AAABjwnlKNc/16x9-512.jpg", "date": "2024-04-23T13:26:58.308+02:00", "lat": 50.4501, "lon": 30.5234, "intensity": 0.8, "source": "Tagesschau"}, {"title": "Zunehmende Gewalt an Schulen in BW - Forderungen nach Konsequenzen", "url": "https://www.tagesschau.de/inland/regional/badenwuerttemberg/swr-zunehmende-gewalt-an-schulen-in-bw-mehr-praevention-noetig-100.html", "thumbnailUrl": "https://images.tagesschau.de/image/b8709622-8caa-4a57-8a4f-3ad734c439af/AAABjwtxO58/AAABjwnlKNc/16x9-512.jpg", "date": "2024-04-23T13:25:32.000+02:00", "lat": 48.6616, "lon": 9.6672, "intensity": 0.8, "source": "Tagesschau"}, {"title": "Im Stadtwald in Frankfurt: Keltische H\u00fcgelgr\u00e4ber bei Forstarbeiten verunstaltet", "url": "https://www.tagesschau.de/inland/regional/hessen/hr-im-stadtwald-in-frankfurt-keltische-huegelgraeber-bei-forstarbeiten-verunstaltet-100.html", "thumbnailUrl": "https://images.tagesschau.de/image/91f26e74-bd30-40f1-99ff-fabbd5c83a9a/AAABjwq0x8M/AAABjwnlKNc/16x9-512.jpg", "date": "2024-04-23T13:25:30.073+02:00", "lat": 50.101507, "lon": 8.707463, "intensity": 0.8, "source": "Tagesschau"}, {"title": "Festanstellung statt eigene Praxis: Kleine Gemeinde findet \u00c4rzte", "url": "https://www.tagesschau.de/inland/regional/bayern/br-festanstellung-statt-eigene-praxis-kleine-gemeinde-findet-aerzte-102.html", "thumbnailUrl": "https://images.tagesschau.de/image/da0cefa9-d84b-4568-9bac-d370d1405aa6/AAABjwqvPAY/AAABjwnlKNc/16x9-512.jpg", "date": "2024-04-23T13:18:16.272+02:00", "lat": 48.1994, "lon": 10.5866, "intensity": 0.8, "source": "Tagesschau"}, {"title": "Ex-H\u00fclsta-Werken droht das Aus", "url": "https://www.tagesschau.de/inland/regional/nordrheinwestfalen/wdr-stadtlohn-westfalen-werke-melden-insolvenz-an-100.html", "thumbnailUrl": "https://images.tagesschau.de/image/dd94da43-8932-4d19-94fd-93d6bdbd9295/AAABjwq_vpg/AAABjwnlKNc/16x9-512.jpg", "date": "2024-04-23T13:17:00.000+02:00", "lat": 51.9955, "lon": 7.0116, "intensity": 0.8, "source": "Tagesschau"}, {"title": "Polizei gelingt Schlag gegen bundesweite Bande", "url": "https://www.tagesschau.de/inland/gesellschaft/betrug-whatsapp-100.html", "thumbnailUrl": "https://images.tagesschau.de/image/6c4564c8-643f-458a-9ab7-fc9d9eecc916/AAABi9d_EiE/AAABjwnlKNc/16x9-512.jpg", "date": "2024-04-23T13:15:02.603+02:00", "lat": 49.4475, "lon": 11.077, "intensity": 0.8, "source": "Tagesschau"}, {"title": "Tiefengeothermie in BW: Wie sicher sind die Bohrungen?", "url": "https://www.tagesschau.de/inland/regional/badenwuerttemberg/swr-energie-aus-der-erde-alles-wichtige-zur-tiefengeothermie-in-bw-100.html", "thumbnailUrl": "https://images.tagesschau.de/image/497c2ad6-01e4-43c1-a644-e07ad350266c/AAABjwqtTuc/AAABjwnlKNc/16x9-512.jpg", "date": "2024-04-23T13:12:00.000+02:00", "lat": 48.9476, "lon": 8.4085, "intensity": 0.7, "source": "Tagesschau"}, {"title": "Klimawandel: 80 Prozent der B\u00e4ume im Potsdamer Park Sanssouci sind gesch\u00e4digt", "url": "https://www.tagesschau.de/inland/regional/brandenburg/rbb-klimawandel-80-prozent-der-baeume-im-potsdamer-park-sanssouci-sind-geschaedigt-100.html", "thumbnailUrl": "https://images.tagesschau.de/image/cfc84314-6391-4884-b93a-a369cd196e8f/AAABjwqmCTc/AAABjwnlKNc/16x9-512.jpg", "date": "2024-04-23T13:01:55.000+02:00", "lat": 52.4, "lon": 13.0333, "intensity": 0.8, "source": "Tagesschau"}, {"title": "Das ARD-Studio Neu-Delhi", "url": "https://www.tagesschau.de/korrespondenten/studio-neu-delhi-101.html", "thumbnailUrl": "https://images.tagesschau.de/image/9702a3ec-431d-4255-afba-f4ed37d28c14/AAABhnQ_8CA/AAABjwnlKNc/16x9-512.jpg", "date": "2024-04-23T13:01:25.070+02:00", "lat": 28.6139, "lon": 77.209, "intensity": 0.8, "source": "Tagesschau"}, {"title": "Rostocker Schiedsrichter Dankert im VAR-Team bei Fu\u00dfball-EM", "url": "https://www.tagesschau.de/inland/regional/mecklenburgvorpommern/ndr-rostocker-schiedsrichter-dankert-im-var-team-bei-fussball-em-100.html", "thumbnailUrl": "https://images.tagesschau.de/image/9e1c53b5-30de-4ffa-8b64-ba1f53bf6db9/AAABjwr6N5k/AAABjwnlKNc/16x9-512.jpg", "date": "2024-04-23T13:00:00.000+02:00", "lat": 54.09244, "lon": 12.09915, "intensity": 0.6, "source": "Tagesschau"}, {"title": "Personalmangel: Hamburg will Fachkraftquote in Pflegeheimen senken", "url": "https://www.tagesschau.de/inland/regional/hamburg/ndr-personalmangel-hamburg-will-fachkraftquote-in-pflegeheimen-senken-100.html", "thumbnailUrl": "https://images.tagesschau.de/image/c0225c0f-cd07-4629-a4af-469b242ab293/AAABjwQPrj0/AAABjwnlKNc/16x9-512.jpg", "date": "2024-04-23T12:53:00.000+02:00", "lat": 53.55, "lon": 10.0, "intensity": 0.8, "source": "Tagesschau"}, {"title": "Bessere Sicherung von Saar-Archiven n\u00f6tig", "url": "https://www.tagesschau.de/inland/regional/saarland/sr-bessere-sicherung-von-saar-archiven-noetig-100.html", "thumbnailUrl": "https://images.tagesschau.de/image/9d2437c6-552a-4a48-8c04-922d7bfa5853/AAABjwqa_gQ/AAABjwnlKNc/16x9-512.jpg", "date": "2024-04-23T12:52:00.000+02:00", "lat": 49.2372, "lon": 6.9709, "intensity": 0.6, "source": "Tagesschau"}, {"title": "Hannover: 96-J\u00e4hrige stirbt nach Sturz in der Stadtbahn", "url": "https://www.tagesschau.de/inland/regional/niedersachsen/ndr-hannover-96-jaehrige-stirbt-nach-sturz-in-der-stadtbahn-100.html", "thumbnailUrl": "https://images.tagesschau.de/image/02983d1e-01b0-4baa-97b8-aea4b9fa191b/AAABjwqiaDc/AAABjwnlKNc/16x9-512.jpg", "date": "2024-04-23T12:49:00.000+02:00", "lat": 52.3759, "lon": 9.732, "intensity": 0.8, "source": "Tagesschau"}, {"title": "Regenradar f\u00fcr Deutschland", "url": "https://www.tagesschau.de/wetter/regenradar-deutschland/regenradar-deutschland-102.html", "thumbnailUrl": "https://images.tagesschau.de/image/a2f86566-1116-4ac5-ad70-54b055612381/AAABhunBOOM/AAABjwnlKNc/16x9-512.jpg", "date": "2024-04-23T12:47:55.713+02:00", "lat": 51.1657, "lon": 10.4515, "intensity": 0.2, "source": "Tagesschau"}, {"title": "Gegen den Ausverkauf der eigenen Heimat", "url": "https://www.tagesschau.de/wirtschaft/verbraucher/massentourismus-kanaren-protest-100.html", "thumbnailUrl": "https://images.tagesschau.de/image/d73c5672-28c1-44dd-8493-cf7d287e9876/AAABjwaikks/AAABjwnlKNc/16x9-512.jpg", "date": "2024-04-23T12:44:16.815+02:00", "lat": 28.0, "lon": -15.5, "intensity": 0.8, "source": "Tagesschau"}, {"title": "Schweiz streitet \u00fcber EGMR-Klimaurteil", "url": "https://www.tagesschau.de/ausland/europa/schweiz-egmr-klimaurteil-100.html", "thumbnailUrl": "https://images.tagesschau.de/image/8da66e80-e245-4a83-8a1b-951d1fdbf8be/AAABjwpj4BQ/AAABjwnlKNc/16x9-512.jpg", "date": "2024-04-23T12:40:48.613+02:00", "lat": 46.818188, "lon": 8.231973, "intensity": 0.7, "source": "Tagesschau"}, {"title": "M\u00f6belhersteller H\u00fclsta vor dem Aus", "url": "https://www.tagesschau.de/wirtschaft/unternehmen/huelsta-insolvenz-100.html", "thumbnailUrl": "https://images.tagesschau.de/image/dbf142c1-6176-47cf-94db-1ca5524cc540/AAABjwqmJ7Y/AAABjwnlKNc/16x9-512.jpg", "date": "2024-04-23T12:40:47.151+02:00", "lat": 51.96251, "lon": 7.68067, "intensity": 0.8, "source": "Tagesschau"}, {"title": "Eintracht Frankfurt: Was passierte in der Halbzeitpause gegen Augsburg?", "url": "https://www.tagesschau.de/inland/regional/hessen/hr-eintracht-frankfurt-was-passierte-in-der-halbzeitpause-gegen-augsburg-102.html", "thumbnailUrl": "https://images.tagesschau.de/image/49b1300c-6901-4e87-a0fa-66fd27684f77/AAABjwsp6bo/AAABjwnlKNc/16x9-512.jpg", "date": "2024-04-23T12:31:25.947+02:00", "lat": 50.1109, "lon": 8.6821, "intensity": 0.7, "source": "Tagesschau"}, {"title": "F\u00fcnf Migranten ertrinken im \u00c4rmelkanal", "url": "https://www.tagesschau.de/ausland/europa/tote-aermelkanal-100.html", "thumbnailUrl": "https://images.tagesschau.de/image/d63f571f-57f0-4b46-975a-6f6b5724a727/AAABjwpUTUA/AAABjwnlKNc/16x9-512.jpg", "date": "2024-04-23T12:18:52.436+02:00", "lat": 51.2194, "lon": 0.4162, "intensity": 0.9, "source": "Tagesschau"}, {"title": "Wetter in Hessen: Nach dem Wintereinbruch kommt der Fr\u00fchling wieder - und bleibt", "url": "https://www.tagesschau.de/inland/regional/hessen/hr-wetter-in-hessen-nach-dem-wintereinbruch-kommt-der-fruehling-wieder-und-bleibt-100.html", "thumbnailUrl": "https://images.tagesschau.de/image/fa0dc694-f323-4c58-8bb2-30114aef7236/AAABjwp0mNA/AAABjwnlKNc/16x9-512.jpg", "date": "2024-04-23T12:15:55.295+02:00", "lat": 50.584, "lon": 9.692, "intensity": 0.3, "source": "Tagesschau"}, {"title": "Obstbauern k\u00e4mpfen mit Feuer gegen den Frost", "url": "https://www.tagesschau.de/inland/regional/nordrheinwestfalen/wdr-obstbauern-kaempfen-mit-feuer-gegen-den-frost-100.html", "thumbnailUrl": "https://images.tagesschau.de/image/539c0454-c6c2-47f0-a894-4d274f4807ad/AAABjwsn-2w/AAABjwnlKNc/16x9-512.jpg", "date": "2024-04-23T12:14:00.000+02:00", "lat": 51.5954, "lon": 8.1053, "intensity": 0.8, "source": "Tagesschau"}, {"title": "Seltene Ehre: Papst erhebt M\u00fcnster Reichenau zur Basilica minor", "url": "https://www.tagesschau.de/inland/regional/badenwuerttemberg/swr-papst-erhebt-muenster-reichenau-zur-basilica-minor-100.html", "thumbnailUrl": "https://images.tagesschau.de/image/c72e25b3-9f10-4ae8-809b-f6092fccb05b/AAABjwqKhMY/AAABjwnlKNc/16x9-512.jpg", "date": "2024-04-23T12:08:52.000+02:00", "lat": 47.6887, "lon": 9.0701, "intensity": 0.8, "source": "Tagesschau"}, {"title": "Schwedt (Uckermark): Besch\u00e4digtes Auto mit Blutspuren aufgefunden", "url": "https://www.tagesschau.de/inland/regional/brandenburg/rbb-schwedt-uckermark-beschaedigtes-auto-mit-blutspuren-aufgefunden-100.html", "thumbnailUrl": "https://images.tagesschau.de/image/66ff0041-ca60-447c-983b-594eee874aa6/AAABjwppnhQ/AAABjwnlKNc/16x9-512.jpg", "date": "2024-04-23T12:01:18.000+02:00", "lat": 53.07516, "lon": 14.26104, "intensity": 0.7, "source": "Tagesschau"}, {"title": "Leiche in Wohnhaus gefunden: Tatverd\u00e4chtiger festgenommen", "url": "https://www.tagesschau.de/inland/regional/sachsen/mdr-leiche-in-wohnhaus-gefunden-tatverdaechtiger-festgenommen-100.html", "thumbnailUrl": "https://images.tagesschau.de/image/267ea797-4b94-46c2-8d36-64f741a265f0/AAABjwzRFvE/AAABjwnlKNc/16x9-512.jpg", "date": "2024-04-23T12:00:01.000+02:00", "lat": 51.0069, "lon": 13.6513, "intensity": 0.7, "source": "Tagesschau"}, {"title": "Widerstand gegen geplante Gefl\u00fcchtetenunterkunft in Dabel erntet Kritik", "url": "https://www.tagesschau.de/inland/regional/mecklenburgvorpommern/ndr-widerstand-gegen-geplante-gefluechtetenunterkunft-in-dabel-erntet-kritik-100.html", "thumbnailUrl": "https://images.tagesschau.de/image/89c98131-73c6-4dd2-929b-0c52af7f2d80/AAABjwqBg_s/AAABjwnlKNc/16x9-512.jpg", "date": "2024-04-23T11:51:00.000+02:00", "lat": 53.7301, "lon": 11.8695, "intensity": 0.8, "source": "Tagesschau"}, {"title": "Senegal will erneuerte Partnerschaft mit EU", "url": "https://www.tagesschau.de/ausland/afrika/senegal-eu-partnerschaft-100.html", "thumbnailUrl": "https://images.tagesschau.de/image/84fb7256-d58d-4616-bc92-78d9d01d75d5/AAABjwpWXQM/AAABjwnlKNc/16x9-512.jpg", "date": "2024-04-23T11:43:03.506+02:00", "lat": 14.4974, "lon": -17.366028, "intensity": 0.7, "source": "Tagesschau"}, {"title": "Braunschweig: Feuerwehr entdeckt leblose Frau in Wohnung", "url": "https://www.tagesschau.de/inland/regional/niedersachsen/ndr-braunschweig-feuerwehr-entdeckt-leblose-frau-in-wohnung-100.html", "thumbnailUrl": "https://images.tagesschau.de/image/e4825852-f602-4db4-8293-1065c69b8ef4/AAABjwpQC28/AAABjwnlKNc/16x9-512.jpg", "date": "2024-04-23T11:34:00.000+02:00", "lat": 52.2689, "lon": 10.5268, "intensity": 0.7, "source": "Tagesschau"}, {"title": "A40 bei Duisburg: Alte Rheinbr\u00fccke in zwei Teile geschnitten", "url": "https://www.tagesschau.de/inland/regional/nordrheinwestfalen/wdr-a40-bei-duisburg-alte-rheinbruecke-in-zwei-teile-geschnitten-102.html", "thumbnailUrl": "https://images.tagesschau.de/image/50d679a4-155d-4da9-a2f4-24385706a7b8/AAABjwqI4r4/AAABjwnlKNc/16x9-512.jpg", "date": "2024-04-23T11:20:00.000+02:00", "lat": 51.4344, "lon": 6.7535, "intensity": 0.8, "source": "Tagesschau"}, {"title": "Ruder-EM in Ungarn: Deutscher Frauenachter zwischen Olympia-Traum und Saison-Aus", "url": "https://www.tagesschau.de/inland/regional/brandenburg/rbb-ruder-em-in-ungarn-letzte-chance-fuer-den-deutschen-frauen-achter-102.html", "thumbnailUrl": "https://images.tagesschau.de/image/7518048f-ea01-439b-995f-77d1ad2618f8/AAABjwpDJL8/AAABjwnlKNc/16x9-512.jpg", "date": "2024-04-23T11:18:44.000+02:00", "lat": 46.252, "lon": 20.141, "intensity": 0.6, "source": "Tagesschau"}, {"title": "Prozess um zerst\u00fcckelte Leiche: Haftstrafen f\u00fcr die Angeklagten", "url": "https://www.tagesschau.de/inland/regional/mecklenburgvorpommern/ndr-urteil-im-prozess-um-zerstueckelte-leiche-erwartet-100.html", "thumbnailUrl": "https://images.tagesschau.de/image/494282ed-1068-4ad3-8d7e-c5f148c213de/AAABjwqKkww/AAABjwnlKNc/16x9-512.jpg", "date": "2024-04-23T11:10:00.000+02:00", "lat": 53.6, "lon": 13.3, "intensity": 0.8, "source": "Tagesschau"}, {"title": "Hessen am Morgen: +++ Auto auf A3 massiv mit Mineralwasser \u00fcberladen +++ Bunte Streifen weisen den Weg in die Innenstadt Frankfurts +++ Bauer m\u00e4ht Heiratsantrag in Rettichfeld +++", "url": "https://www.tagesschau.de/inland/regional/hessen/hr-hessen-am-morgen--feldfruechte-und-obst-leiden-unter-niedrigen-temperaturen-100.html", "thumbnailUrl": "https://images.tagesschau.de/image/e98acff6-56f0-44e8-8636-80ebcb214326/AAABjwpmAxo/AAABjwnlKNc/16x9-512.jpg", "date": "2024-04-23T11:01:49.063+02:00", "lat": 50.110922, "lon": 8.682127, "intensity": 0.6, "source": "Tagesschau"}, {"title": "So pessimistisch wie noch nie", "url": "https://www.tagesschau.de/inland/gesellschaft/studie-jugend-100.html", "thumbnailUrl": "https://images.tagesschau.de/image/e11ac88e-41b9-4f4c-9ac4-abf387418bfd/AAABjwovQx0/AAABjwnlKNc/16x9-512.jpg", "date": "2024-04-23T11:00:20.930+02:00", "lat": 51.1657, "lon": 10.4515, "intensity": 0.8, "source": "Tagesschau"}, {"title": "Jugendstudie: Gen Z ist verunsichert und unzufrieden", "url": "https://www.tagesschau.de/inland/regional/nordrheinwestfalen/wdr-jugendstudie-gen-z-ist-verunsichert-und-unzufrieden-100.html", "thumbnailUrl": "https://images.tagesschau.de/image/444acd35-cd81-413c-96bc-d9ac6072e215/AAABjwtHHbQ/AAABjwnlKNc/16x9-512.jpg", "date": "2024-04-23T11:00:00.000+02:00", "lat": 51.1657, "lon": 7.6261, "intensity": 0.8, "source": "Tagesschau"}, {"title": "Palmer gegen Graffiti-Szene in T\u00fcbingen: Wieder \u00c4rger mit Schmierereien", "url": "https://www.tagesschau.de/inland/regional/badenwuerttemberg/swr-palmer-gegen-graffiti-szene-in-tuebingen-wieder-aerger-mit-schmierereien-100.html", "thumbnailUrl": "https://images.tagesschau.de/image/22499e10-1eb3-4ad6-bda8-a2b2c1217ce1/AAABjwpOJiI/AAABjwnlKNc/16x9-512.jpg", "date": "2024-04-23T10:58:00.000+02:00", "lat": 48.5216, "lon": 9.1079, "intensity": 0.7, "source": "Tagesschau"}, {"title": "Hamburgs B\u00fcrgermeister Tschentscher trifft Klitschko in Kiew", "url": "https://www.tagesschau.de/inland/regional/hamburg/ndr-hamburgs-buergermeister-tschentscher-trifft-klitschko-in-kiew-100.html", "thumbnailUrl": "https://images.tagesschau.de/image/3195dc3a-0b88-4803-bf03-7d09d0e5a7df/AAABjwluwE8/AAABjwnlKNc/16x9-512.jpg", "date": "2024-04-23T10:54:00.000+02:00", "lat": 50.4501, "lon": 30.5234, "intensity": 0.6, "source": "Tagesschau"}, {"title": "Internationale Konferenz: Europ\u00e4ische Minderheiten ohne Mutterstaat treffen sich in L\u00fcbbenau", "url": "https://www.tagesschau.de/inland/regional/brandenburg/rbb-internationale-konferenz-europaeische-minderheiten-ohne-mutterstaat-treffen-sich-in-luebbenau-100.html", "thumbnailUrl": "https://images.tagesschau.de/image/f3e29f18-0232-485a-8d31-fede1e2de5e0/AAABjworXGg/AAABjwnlKNc/16x9-512.jpg", "date": "2024-04-23T10:51:51.000+02:00", "lat": 51.8696, "lon": 13.9702, "intensity": 0.8, "source": "Tagesschau"}, {"title": "Britisches Parlament genehmigt Abschiebungen nach Ruanda", "url": "https://www.tagesschau.de/ausland/grossbritannien-ruanda-abschiebegesetz-abstimmung-100.html", "thumbnailUrl": "https://images.tagesschau.de/image/3dac494c-ad81-40a6-8e30-e55906c79c3a/AAABjwhbg0A/AAABjwnlKNc/16x9-512.jpg", "date": "2024-04-23T10:47:38.939+02:00", "lat": 51.5074, "lon": -0.1276, "intensity": 0.8, "source": "Tagesschau"}, {"title": "Kotfressendes Supertalent: Der Stierk\u00e4fer liebt MV", "url": "https://www.tagesschau.de/inland/regional/mecklenburgvorpommern/ndr-kotfressendes-supertalent-der-stierkaefer-liebt-meck-pomm-100.html", "thumbnailUrl": "https://images.tagesschau.de/image/5726c68a-3fc6-408c-be9e-68fa64a0d393/AAABjwq0oS0/AAABjwnlKNc/16x9-512.jpg", "date": "2024-04-23T10:44:00.000+02:00", "lat": 53.6127, "lon": 13.1018, "intensity": 0.8, "source": "Tagesschau"}, {"title": "50 Cent f\u00fcr To-go-Geschirr: Zieht Freiburg bei der Verpackungssteuer nach?", "url": "https://www.tagesschau.de/inland/regional/badenwuerttemberg/swr-50-cent-fuer-to-go-geschirr-zieht-freiburg-bei-der-verpackungssteuer-nach-100.html", "thumbnailUrl": "https://images.tagesschau.de/image/0026a023-0dce-499c-9fce-08c2d527abc1/AAABjwpOS4s/AAABjwnlKNc/16x9-512.jpg", "date": "2024-04-23T10:36:00.000+02:00", "lat": 47.999, "lon": 7.8421, "intensity": 0.6, "source": "Tagesschau"}, {"title": "Warum es in Frankfurt so viele neue Kioske gibt", "url": "https://www.tagesschau.de/inland/regional/hessen/hr-warum-es-in-frankfurt-so-viele-neue-kioske-gibt-100.html", "thumbnailUrl": "https://images.tagesschau.de/image/53858e11-e845-4fbd-8e52-5ac2ca908aa9/AAABjwo6Ft8/AAABjwnlKNc/16x9-512.jpg", "date": "2024-04-23T10:29:49.348+02:00", "lat": 50.110922, "lon": 8.682127, "intensity": 0.6, "source": "Tagesschau"}, {"title": "Bewaffneter Mann \u00fcberf\u00e4llt Apotheke in Oldenburg und fl\u00fcchtet", "url": "https://www.tagesschau.de/inland/regional/niedersachsen/ndr-bewaffneter-mann-ueberfaellt-apotheke-in-oldenburg-und-fluechtet-100.html", "thumbnailUrl": "https://images.tagesschau.de/image/13640ee7-8888-4ff3-8ae8-7ae4e019b4d9/AAABjwoRzo4/AAABjwnlKNc/16x9-512.jpg", "date": "2024-04-23T10:26:00.000+02:00", "lat": 53.1435, "lon": 8.2158, "intensity": 0.7, "source": "Tagesschau"}, {"title": "Nachwuchsmangel: Kinderschutzbund Holzminden steht vor dem Aus", "url": "https://www.tagesschau.de/inland/regional/niedersachsen/ndr-nachwuchsmangel-kinderschutzbund-holzminden-steht-vor-dem-aus-100.html", "thumbnailUrl": "https://images.tagesschau.de/image/cd0a6397-b567-4bf2-a7ef-cba47ba35c04/AAABjwoMRj0/AAABjwnlKNc/16x9-512.jpg", "date": "2024-04-23T10:19:00.000+02:00", "lat": 51.8304, "lon": 9.4471, "intensity": 0.8, "source": "Tagesschau"}, {"title": "Kriegsverbrechen: Das dunkle Geheimnis von Treuenbrietzen ", "url": "https://www.tagesschau.de/inland/regional/brandenburg/rbb-kriegsverbrechen-das-dunkle-geheimnis-von-treuenbrietzen-100.html", "thumbnailUrl": "https://images.tagesschau.de/image/3a7556f8-ea1f-4e25-8b9a-709082090e6c/AAABjwoGtVs/AAABjwnlKNc/16x9-512.jpg", "date": "2024-04-23T10:12:17.000+02:00", "lat": 52.0257, "lon": 13.1924, "intensity": 0.8, "source": "Tagesschau"}, {"title": "Kein Schutz vor Insolvenz \u2013 K\u00e4ufer aus RLP bei Baupleite ruiniert", "url": "https://www.tagesschau.de/inland/regional/rheinlandpfalz/swr-kein-schutz-vor-insolvenz--kaeufer-bei-baupleite-ruiniert-100.html", "thumbnailUrl": "https://images.tagesschau.de/image/8b36b4d2-8cd8-43a6-8e80-d819bc386070/AAABjwoXMvI/AAABjwnlKNc/16x9-512.jpg", "date": "2024-04-23T10:10:45.000+02:00", "lat": 49.6116, "lon": 7.4666, "intensity": 0.8, "source": "Tagesschau"}, {"title": "Zensurvorwurf gegen Italiens Regierungschefin", "url": "https://www.tagesschau.de/ausland/europa/angriff-pressefreiheit-100.html", "thumbnailUrl": "https://images.tagesschau.de/image/37c617cc-89fb-4670-ba37-bc7da68325b9/AAABjwokrTo/AAABjwnlKNc/16x9-512.jpg", "date": "2024-04-23T10:06:49.263+02:00", "lat": 41.902783, "lon": 12.496365, "intensity": 0.8, "source": "Tagesschau"}, {"title": "Diskussion um Flutkatastrophe, Betrugsverdacht bei Lebenshilfe, Kaiserslautern erlaubt Kiffen auf Volksfesten", "url": "https://www.tagesschau.de/inland/regional/rheinlandpfalz/swr-diskussion-um-flutkatastrophe-betrugsverdacht-bei-lebenshilfe-hundewelpe-aus-rhein-gerettet-100.html", "thumbnailUrl": "https://images.tagesschau.de/image/8331a6fc-a489-46d8-8ca6-8b0f9dfa2a0e/AAABjwkh0a0/AAABjwnlKNc/16x9-512.jpg", "date": "2024-04-23T09:58:00.000+02:00", "lat": 49.6116, "lon": 7.6189, "intensity": 0.3, "source": "Tagesschau"}, {"title": "Cottbus: Polizei ermittelt nach Angriff auf JVA-Mitarbeiter", "url": "https://www.tagesschau.de/inland/regional/brandenburg/rbb-cottbus-polizei-ermittelt-nach-angriff-auf-jva-mitarbeiter-100.html", "thumbnailUrl": "https://images.tagesschau.de/image/67e96f0e-3c7a-4568-bbd1-507a287dca0b/AAABjwn4GQM/AAABjwnlKNc/16x9-512.jpg", "date": "2024-04-23T09:56:56.000+02:00", "lat": 51.7562, "lon": 14.3296, "intensity": 0.7, "source": "Tagesschau"}, {"title": "Tarifstreit bei der Telekom: Heute Warnstreik in Niedersachsen", "url": "https://www.tagesschau.de/inland/regional/niedersachsen/ndr-ver-di-ganztaegiger-warnstreik-bei-der-telekom-100.html", "thumbnailUrl": "https://images.tagesschau.de/image/c10fc7ab-95a4-4b9c-b3f6-0986b94697fe/AAABjwniJaY/AAABjwnlKNc/16x9-512.jpg", "date": "2024-04-23T09:33:00.000+02:00", "lat": 52.3738, "lon": 9.7356, "intensity": 0.8, "source": "Tagesschau"}, {"title": "BW-Newsticker am Morgen: BW-Regierung will mehr Sprachf\u00f6rderung f\u00fcr Grundschulen und Kitas beschlie\u00dfen, Raser-Prozess Heilbronn: Verteidigung will in Revision", "url": "https://www.tagesschau.de/inland/regional/badenwuerttemberg/swr-bw-newsticker-am-morgen-bw-regierung-will-mehr-sprachfoerderung-fuer-grundschulen-und-kitas-beschliessen-bahnstrecke-stuttgart-singen-wieder-normal-befahrbar-100.html", "thumbnailUrl": "https://images.tagesschau.de/image/d83dce5b-ac08-4827-84b3-dd233202155b/AAABjwkcW0E/AAABjwnlKNc/16x9-512.jpg", "date": "2024-04-23T09:30:00.000+02:00", "lat": 48.7911, "lon": 9.2093, "intensity": 0.5, "source": "Tagesschau"}, {"title": "Hilfe f\u00fcr die Menschen in der Ukraine", "url": "https://www.tagesschau.de/spendenkonten/spendenkonten-133.html", "thumbnailUrl": "https://images.tagesschau.de/image/af005073-bb3d-428a-b6f8-a685c725811f/AAABh4VRChA/AAABjwnlKNc/16x9-512.jpg", "date": "2024-04-23T09:28:54.976+02:00", "lat": 50.4501, "lon": 30.5234, "intensity": 0.8, "source": "Tagesschau"}, {"title": "Wolfsburg: Raser f\u00e4hrt mehr als 80 Kilometer pro Stunde zu schnell", "url": "https://www.tagesschau.de/inland/regional/niedersachsen/ndr-wolfsburg-raser-faehrt-mehr-als-80-kilometer-pro-stunde-zu-schnell-100.html", "thumbnailUrl": "https://images.tagesschau.de/image/bb3ec6df-5d6c-478b-9193-e61ee0de2be2/AAABjwnctFg/AAABjwnlKNc/16x9-512.jpg", "date": "2024-04-23T09:28:00.000+02:00", "lat": 52.4226, "lon": 10.75, "intensity": 0.6, "source": "Tagesschau"}, {"title": "Spionierte AfD-Mitarbeiter f\u00fcr China?", "url": "https://www.tagesschau.de/inland/spionage-china-afd-100.html", "thumbnailUrl": "https://images.tagesschau.de/image/623827dc-58dc-4393-97e3-f067a6845f13/AAABjwmbT1k/AAABjwnlKNc/16x9-512.jpg", "date": "2024-04-23T09:23:35.577+02:00", "lat": 51.050409, "lon": 13.737262, "intensity": 0.8, "source": "Tagesschau"}, {"title": "Mehrere Einbr\u00fcche im Saarland: 27-J\u00e4hriger in NRW festgenommen", "url": "https://www.tagesschau.de/inland/regional/saarland/sr-mehrere-einbrueche-im-saarland-27-jaehriger-in-nrw-festgenommen-100.html", "thumbnailUrl": "https://images.tagesschau.de/image/64ccec23-ea14-4de1-b53a-a83804ea0c2b/AAABjwt4kgI/AAABjwnlKNc/16x9-512.jpg", "date": "2024-04-23T09:22:00.000+02:00", "lat": 49.3964, "lon": 6.9969, "intensity": 0.7, "source": "Tagesschau"}, {"title": "Vorverkauf f\u00fcr das neue 29-Euro-Ticket in Berlin startet", "url": "https://www.tagesschau.de/inland/regional/berlin/rbb-vorverkauf-fuer-das-neue-29-euro-ticket-in-berlin-startet-100.html", "thumbnailUrl": "https://images.tagesschau.de/image/fb3b1b15-d046-40d5-9641-84ca6d0744a6/AAABjwnRoxA/AAABjwnlKNc/16x9-512.jpg", "date": "2024-04-23T09:15:54.000+02:00", "lat": 52.520008, "lon": 13.404954, "intensity": 0.7, "source": "Tagesschau"}, {"title": "Berlin-Gesundbrunnen: 34-J\u00e4hriger durch Sch\u00fcsse am Oberschenkel verletzt", "url": "https://www.tagesschau.de/inland/regional/berlin/rbb-berlin-gesundbrunnen-34-jaehriger-durch-schuesse-am-oberschenkel-verletzt-100.html", "thumbnailUrl": "https://images.tagesschau.de/image/1b442753-351e-4363-82ab-0033705b6ac7/AAABjwnOBKs/AAABjwnlKNc/16x9-512.jpg", "date": "2024-04-23T09:11:41.000+02:00", "lat": 52.5531, "lon": 13.3871, "intensity": 0.8, "source": "Tagesschau"}, {"title": "Frau in Mainz get\u00f6tet - Kann h\u00e4usliche Gewalt verhindert werden?", "url": "https://www.tagesschau.de/inland/regional/rheinlandpfalz/swr-frau-in-mainz-getoetet-kann-haeusliche-gewalt-verhindert-werden-100.html", "thumbnailUrl": "https://images.tagesschau.de/image/5d942639-f91e-454e-b568-2839f7fad108/AAABjwnpduM/AAABjwnlKNc/16x9-512.jpg", "date": "2024-04-23T09:10:23.000+02:00", "lat": 49.9929, "lon": 8.2473, "intensity": 0.8, "source": "Tagesschau"}, {"title": "Seenotretter helfen Seglern bei Norderney aus Lebensgefahr", "url": "https://www.tagesschau.de/inland/regional/niedersachsen/ndr-seenotretter-helfen-seglern-bei-norderney-aus-lebensgefahr-100.html", "thumbnailUrl": "https://images.tagesschau.de/image/8540598d-bb4d-41f1-b222-0b44d8024ce5/AAABjwb44g0/AAABjwnlKNc/16x9-512.jpg", "date": "2024-04-23T08:53:00.000+02:00", "lat": 53.7069, "lon": 7.1408, "intensity": 0.8, "source": "Tagesschau"}, {"title": "Meyer Werft will keine B\u00fcrgschaft vom Land Niedersachsen", "url": "https://www.tagesschau.de/inland/regional/niedersachsen/ndr-meyer-werft-will-keine-buergschaft-vom-land-niedersachsen-100.html", "thumbnailUrl": "https://images.tagesschau.de/image/3b4a2003-a99f-4566-9359-ac5c1a2f8621/AAABjwm2j2o/AAABjwnlKNc/16x9-512.jpg", "date": "2024-04-23T08:46:00.000+02:00", "lat": 52.373, "lon": 7.2276, "intensity": 0.8, "source": "Tagesschau"}, {"title": "Konzertkritik | The Notwist: So einen wilden Mix kriegt man auch in Berlin nicht alle Tage", "url": "https://www.tagesschau.de/inland/regional/berlin/rbb-konzertkritik--the-notwist-so-einen-wilden-mix-kriegt-man-auch-in-berlin-nicht-alle-tage-100.html", "thumbnailUrl": "https://images.tagesschau.de/image/da94b1ca-cfb3-4608-9acc-aecaacc934bd/AAABjwmu8wc/AAABjwnlKNc/16x9-512.jpg", "date": "2024-04-23T08:37:53.000+02:00", "lat": 52.520008, "lon": 13.404954, "intensity": 0.7, "source": "Tagesschau"}, {"title": "Wie das j\u00fcdische Pessachfest in Gelsenkirchen f\u00fcr Zusammenhalt sorgt", "url": "https://www.tagesschau.de/inland/regional/nordrheinwestfalen/wdr-wie-das-juedische-pessachfest-in-gelsenkirchen-fuer-zusammenhalt-sorgt-100.html", "thumbnailUrl": "https://images.tagesschau.de/image/d9e64dc6-7d4e-4b17-8438-21a8f949636f/AAABjwqBYkI/AAABjwnlKNc/16x9-512.jpg", "date": "2024-04-23T08:36:00.000+02:00", "lat": 51.5167, "lon": 7.1167, "intensity": 0.7, "source": "Tagesschau"}, {"title": "Studie vorgelegt: Unternehmen und Beh\u00f6rden deckten Nazi-Arzt Werner Catel", "url": "https://www.tagesschau.de/inland/regional/hessen/hr-studie-vorgelegt-unternehmen-und-behoerden-deckten-nazi-arzt-werner-catel-100.html", "thumbnailUrl": "https://images.tagesschau.de/image/50b8f000-e564-4e8a-a723-fe8eec6f6fed/AAABjwmj2Lg/AAABjwnlKNc/16x9-512.jpg", "date": "2024-04-23T08:27:30.352+02:00", "lat": 50.1109, "lon": 8.8017, "intensity": 0.8, "source": "Tagesschau"}, {"title": "Hochwasser verz\u00f6gert Saisonstart f\u00fcr die Sport-Schifffahrt", "url": "https://www.tagesschau.de/inland/regional/niedersachsen/ndr-hochwasser-verzoegert-saisonstart-fuer-die-sport-schifffahrt-100.html", "thumbnailUrl": "https://images.tagesschau.de/image/3e014592-c99c-4417-a88f-1790f802ab5e/AAABjwnRzuM/AAABjwnlKNc/16x9-512.jpg", "date": "2024-04-23T08:26:00.000+02:00", "lat": 52.8951, "lon": 7.3156, "intensity": 0.6, "source": "Tagesschau"}, {"title": "Vielfalts-Award: Region Hannover zeichnet Engagement aus", "url": "https://www.tagesschau.de/inland/regional/niedersachsen/ndr-vielfalts-award-region-hannover-zeichnet-engagement-aus-100.html", "thumbnailUrl": "https://images.tagesschau.de/image/c2930e96-c023-4d15-bcc6-55d16df41a45/AAABjwm79Y4/AAABjwnlKNc/16x9-512.jpg", "date": "2024-04-23T08:18:00.000+02:00", "lat": 52.3759, "lon": 9.7376, "intensity": 0.6, "source": "Tagesschau"}, {"title": "Helios-Klinik Schleswig: Sechs Verletzte nach Feuer in Psychiatrie", "url": "https://www.tagesschau.de/inland/regional/schleswigholstein/ndr-helios-klinik-schleswig-sechs-verletzte-nach-feuer-in-psychiatrie-100.html", "thumbnailUrl": "https://images.tagesschau.de/image/e1540315-cd50-4e57-b349-91fa2a553b09/AAABjwonr4Q/AAABjwnlKNc/16x9-512.jpg", "date": "2024-04-23T08:15:00.000+02:00", "lat": 54.5234, "lon": 9.5634, "intensity": 0.8, "source": "Tagesschau"}, {"title": "Fischtown Pinguins im vierten DEL-Finalspiel erstmals unter Druck", "url": "https://www.tagesschau.de/inland/regional/niedersachsen/ndr-fischtown-pinguins-im-vierten-del-finalspiel-erstmals-unter-druck-102.html", "thumbnailUrl": "https://images.tagesschau.de/image/df600c6c-1006-4ad7-9721-cedda8a5ac18/AAABjwmatcM/AAABjwnlKNc/16x9-512.jpg", "date": "2024-04-23T08:14:00.000+02:00", "lat": 53.5396, "lon": 8.5726, "intensity": 0.7, "source": "Tagesschau"}, {"title": "G\u00f6ttingen rechnet mit 40 Tonnen Sperrm\u00fcll vor Wohnkomplex", "url": "https://www.tagesschau.de/inland/regional/niedersachsen/ndr-goettingen-rechnet-mit-40-tonnen-sperrmuell-vor-wohnkomplex-100.html", "thumbnailUrl": "https://images.tagesschau.de/image/7e82e553-7ae3-476e-8481-b6710c1ae400/AAABjwmN7hw/AAABjwnlKNc/16x9-512.jpg", "date": "2024-04-23T07:53:00.000+02:00", "lat": 51.5413, "lon": 9.9356, "intensity": 0.8, "source": "Tagesschau"}, {"title": "China weist Spionage-Vorw\u00fcrfe zur\u00fcck", "url": "https://www.tagesschau.de/inland/spionage-china-reaktion-100.html", "thumbnailUrl": "https://images.tagesschau.de/image/6cb23f36-6ed7-4ad0-a221-01f0536139b7/AAABhn4O3-4/AAABjwnlKNc/16x9-512.jpg", "date": "2024-04-23T07:42:32.829+02:00", "lat": 35.86166, "lon": 104.195397, "intensity": 0.7, "source": "Tagesschau"}, {"title": "Verein Hamburger Spediteure klagt \u00fcber B\u00fcrokratie im Hafen", "url": "https://www.tagesschau.de/inland/regional/hamburg/ndr-verein-hamburger-spediteure-klagt-ueber-sinkende-umsaetze-100.html", "thumbnailUrl": "https://images.tagesschau.de/image/c11525aa-ce85-46ee-9d54-63b6f8b0d7ec/AAABjwmIYb4/AAABjwnlKNc/16x9-512.jpg", "date": "2024-04-23T07:42:00.000+02:00", "lat": 53.55, "lon": 10.0, "intensity": 0.8, "source": "Tagesschau"}, {"title": "Entscheidung \u00fcber Nationalpark-Bewerbung f\u00fcr Klever Reichswald", "url": "https://www.tagesschau.de/inland/regional/nordrheinwestfalen/wdr-entscheidung-ueber-nationalpark-bewerbung-fuer-klever-reichswald-102.html", "thumbnailUrl": "https://images.tagesschau.de/image/f5c83a95-db03-4bb1-9f63-503ee8db1608/AAABjwoDCCk/AAABjwnlKNc/16x9-512.jpg", "date": "2024-04-23T07:38:00.000+02:00", "lat": 51.8, "lon": 6.2, "intensity": 0.5, "source": "Tagesschau"}, {"title": "Kalter und nasser April mit Folgen f\u00fcr Mensch und Natur", "url": "https://www.tagesschau.de/inland/regional/nordrheinwestfalen/wdr-wetter-in-nrw-viel-regen-und-kaum-sonne-am-wochenende-100.html", "thumbnailUrl": "https://images.tagesschau.de/image/d6f507e8-c8a4-4e1a-85af-8bdc1895f4c5/AAABjwpOF7g/AAABjwnlKNc/16x9-512.jpg", "date": "2024-04-23T07:38:00.000+02:00", "lat": 51.9607, "lon": 7.6169, "intensity": 0.6, "source": "Tagesschau"}, {"title": "Schorndorf: Millionenschaden bei Feuer in Lagerhalle von Spielwaren-Hersteller ", "url": "https://www.tagesschau.de/inland/regional/badenwuerttemberg/swr-schorndorf-miedelsbach-lagerhalle-von-spielwaren-hersteller-brennt-100.html", "thumbnailUrl": "https://images.tagesschau.de/image/fd25d779-e7be-47cc-860a-ff955a517097/AAABjwdhMn0/AAABjwnlKNc/16x9-512.jpg", "date": "2024-04-23T07:36:00.000+02:00", "lat": 48.8022, "lon": 9.4833, "intensity": 0.8, "source": "Tagesschau"}, {"title": "Wichtige Pendlerstrecke zwischen Drochtersen und Stade gesperrt", "url": "https://www.tagesschau.de/inland/regional/niedersachsen/ndr-wichtige-pendlerstrecke-zwischen-drochtersen-und-stade-gesperrt-100.html", "thumbnailUrl": "https://images.tagesschau.de/image/a414f93d-85fb-4638-8cdc-8377d04ad46e/AAABjwl38R4/AAABjwnlKNc/16x9-512.jpg", "date": "2024-04-23T07:35:00.000+02:00", "lat": 53.5942, "lon": 9.2167, "intensity": 0.7, "source": "Tagesschau"}, {"title": "Kiloweise Drogen im Kofferraum - Fahnder stoppen Kurier", "url": "https://www.tagesschau.de/inland/regional/niedersachsen/ndr-kiloweise-drogen-im-kofferraum-fahnder-stoppen-kurier-100.html", "thumbnailUrl": "https://images.tagesschau.de/image/19bc8a91-6eec-426e-a40f-6d7c0b15c8ce/AAABjwl2Has/AAABjwnlKNc/16x9-512.jpg", "date": "2024-04-23T07:34:00.000+02:00", "lat": 52.3067, "lon": 7.1624, "intensity": 0.8, "source": "Tagesschau"}, {"title": "Wiesbadens Kapit\u00e4n Mockenhaupt: \"Der Druck wird nicht geringer\"", "url": "https://www.tagesschau.de/inland/regional/hessen/hr-wiesbadens-kapitaen-mockenhaupt-der-druck-wird-nicht-geringer-102.html", "thumbnailUrl": "https://images.tagesschau.de/image/ba3bd91f-b3c8-4fa3-b411-5950ea812a97/AAABjwntLI8/AAABjwnlKNc/16x9-512.jpg", "date": "2024-04-23T07:29:39.114+02:00", "lat": 50.08258, "lon": 8.23917, "intensity": 0.6, "source": "Tagesschau"}, {"title": "Telekom-Mitarbeiter im Saarland streiken weiter", "url": "https://www.tagesschau.de/inland/regional/saarland/sr-telekom-mitarbeiter-im-saarland-streiken-weiter-100.html", "thumbnailUrl": "https://images.tagesschau.de/image/f9db9e46-76ad-43f0-b583-b7b33b833df2/AAABjwlwh_k/AAABjwnlKNc/16x9-512.jpg", "date": "2024-04-23T07:29:00.000+02:00", "lat": 49.2402, "lon": 6.9964, "intensity": 0.8, "source": "Tagesschau"}, {"title": "Interview: Was auf die 1.600 Volunteers in Berlin bei der Fu\u00dfball-EM zukommt", "url": "https://www.tagesschau.de/inland/regional/berlin/rbb-interview-was-auf-die-1-600-volunteers-in-berlin-bei-der-fussball-em-zukommt-102.html", "thumbnailUrl": "https://images.tagesschau.de/image/134f2ea3-278f-4726-8318-25f1007f595e/AAABjwlncbA/AAABjwnlKNc/16x9-512.jpg", "date": "2024-04-23T07:18:46.000+02:00", "lat": 52.520008, "lon": 13.404954, "intensity": 0.8, "source": "Tagesschau"}, {"title": "Interview | Cyberstalking: \"Die H\u00e4lfte der bekannten Taten entsteht aus einer Beziehung heraus\" ", "url": "https://www.tagesschau.de/inland/regional/brandenburg/rbb-interview--cyberstalking-die-haelfte-der-bekannten-taten-entsteht-aus-einer-beziehung-heraus-100.html", "thumbnailUrl": "https://images.tagesschau.de/image/5203d67b-d82c-4240-885c-780d68a5de0f/AAABjwlY04M/AAABjwnlKNc/16x9-512.jpg", "date": "2024-04-23T07:02:56.000+02:00", "lat": 52.520008, "lon": 13.404954, "intensity": 0.8, "source": "Tagesschau"}, {"title": "Sonde schl\u00e4gt an: Schatzsucher finden 400 Jahre alte M\u00fcnzen", "url": "https://www.tagesschau.de/inland/regional/niedersachsen/ndr-sonde-schlaegt-an-schatzsucher-finden-400-jahre-alte-muenzen-100.html", "thumbnailUrl": "https://images.tagesschau.de/image/392f333c-ff82-4068-ad39-e2f6ee8ff35b/AAABjwlN3x4/AAABjwnlKNc/16x9-512.jpg", "date": "2024-04-23T07:02:00.000+02:00", "lat": 51.709533, "lon": 9.994667, "intensity": 0.4, "source": "Tagesschau"}, {"title": "Umgekippter LKW: Zugstrecke M\u00fcnster-Rheine wieder frei", "url": "https://www.tagesschau.de/inland/regional/nordrheinwestfalen/wdr-umgekippter-lkw-zugstrecke-muenster-rheine-wieder-frei-100.html", "thumbnailUrl": "https://images.tagesschau.de/image/c990467e-23be-4a2e-b77b-fa455ce12438/AAABjwlatKA/AAABjwnlKNc/16x9-512.jpg", "date": "2024-04-23T06:52:00.000+02:00", "lat": 51.9607, "lon": 7.6261, "intensity": 0.6, "source": "Tagesschau"}, {"title": "Cyberstalking einer Teenagerin: \"Ich wei\u00df, wo du schl\u00e4fst und wo dein Zimmer ist\"", "url": "https://www.tagesschau.de/inland/regional/brandenburg/rbb-cyberstalking-einer-teenagerin-ich-weiss-wo-du-schlaefst-und-wo-dein-zimmer-ist-100.html", "thumbnailUrl": "https://images.tagesschau.de/image/7c3f67a4-2060-4d31-a491-43e53a7cfd74/AAABjwsmOcE/AAABjwnlKNc/16x9-512.jpg", "date": "2024-04-23T06:49:28.000+02:00", "lat": 52.520008, "lon": 13.404954, "intensity": 0.7, "source": "Tagesschau"}, {"title": "Guten Morgen, NRW!", "url": "https://www.tagesschau.de/inland/regional/nordrheinwestfalen/wdr-guten-morgen-nrw-456.html", "thumbnailUrl": "https://images.tagesschau.de/image/cb6ac319-ce09-42c2-b0c6-5930f7c99b09/AAABjwlA7jo/AAABjwnlKNc/16x9-512.jpg", "date": "2024-04-23T06:30:00.000+02:00", "lat": 51.9607, "lon": 7.6261, "intensity": 0.8, "source": "Tagesschau"}, {"title": "Raser erh\u00e4lt neun Jahre Haft wegen Mordes", "url": "https://www.tagesschau.de/inland/regional/badenwuerttemberg/heilbronn-raser-prozess-100.html", "thumbnailUrl": "https://images.tagesschau.de/image/8e3133fd-1249-41c3-b61f-cb4271eaa2e1/AAABjwYtwhE/AAABjwnlKNc/16x9-512.jpg", "date": "2024-04-23T06:18:00.000+02:00", "lat": 49.1417, "lon": 9.2223, "intensity": 1, "source": "Tagesschau"}, {"title": "Rechtsextremistische Vorf\u00e4lle in Burg: Fast alle Verfahren eingestellt", "url": "https://www.tagesschau.de/inland/regional/brandenburg/rbb-rechtsextremistische-vorfaelle-in-burg-fast-alle-verfahren-eingestellt-100.html", "thumbnailUrl": "https://images.tagesschau.de/image/e8a1dcb0-3ac1-4d83-b203-169da975b401/AAABjwks_5A/AAABjwnlKNc/16x9-512.jpg", "date": "2024-04-23T06:14:16.000+02:00", "lat": 52.2565, "lon": 13.2017, "intensity": 0.7, "source": "Tagesschau"}, {"title": "Bremer Universit\u00e4t f\u00fchrt sch\u00e4rfere Regeln gegen Diskriminierung ein", "url": "https://www.tagesschau.de/inland/regional/bremen/rb-bremer-universitaet-weitet-schutz-vor-diskriminierung-aus-100.html", "thumbnailUrl": "https://images.tagesschau.de/image/b8077ff8-0d4b-4efa-ab03-5b6e73989938/AAABjwlrD78/AAABjwnlKNc/16x9-512.jpg", "date": "2024-04-23T06:12:00.000+02:00", "lat": 53.079296, "lon": 8.801694, "intensity": 0.8, "source": "Tagesschau"}, {"title": "Warum eine ukrainische \u00c4rztin in Trier als Verk\u00e4uferin arbeiten soll", "url": "https://www.tagesschau.de/inland/regional/rheinlandpfalz/swr-warum-eine-ukrainische-aerztin-in-trier-als-verkaeuferin-arbeiten-soll-102.html", "thumbnailUrl": "https://images.tagesschau.de/image/c4e35088-2bed-45be-a8e8-8fb77fc043cd/AAABjwnTfNg/AAABjwnlKNc/16x9-512.jpg", "date": "2024-04-23T06:10:49.000+02:00", "lat": 49.7493, "lon": 6.645, "intensity": 0.6, "source": "Tagesschau"}, {"title": "Osnabr\u00fcck: Mutma\u00dflicher Messerstecher sitzt in U-Haft", "url": "https://www.tagesschau.de/inland/regional/niedersachsen/ndr-osnabrueck-mutmasslicher-messerstecher-sitzt-in-u-haft-100.html", "thumbnailUrl": "https://images.tagesschau.de/image/971799aa-df1a-463a-b359-4ddd8c8ddb00/AAABjwlImCs/AAABjwnlKNc/16x9-512.jpg", "date": "2024-04-23T06:09:00.000+02:00", "lat": 52.2799, "lon": 8.0476, "intensity": 0.7, "source": "Tagesschau"}, {"title": "\"Welttag des Buches\": Warum lese ich eigentlich?", "url": "https://www.tagesschau.de/inland/regional/hamburg/ndr-welttag-des-buches-warum-lese-ich-eigentlich-100.html", "thumbnailUrl": "https://images.tagesschau.de/image/6f9290c2-f49b-45dd-b90c-e48507d2c896/AAABjwmwriU/AAABjwnlKNc/16x9-512.jpg", "date": "2024-04-23T06:00:00.000+02:00", "lat": 53.5511, "lon": 9.9937, "intensity": 0.3, "source": "Tagesschau"}, {"title": "\"Am Schlick\" - Krimi-H\u00f6rspielserie mit Peter Kurth und Bjarne M\u00e4del", "url": "https://www.tagesschau.de/inland/regional/mecklenburgvorpommern/ndr-am-schlick-krimi-hoerspielserie-mit-peter-kurth-und-bjarne-maedel-100.html", "thumbnailUrl": "https://images.tagesschau.de/image/0a5a89b6-a00a-4e52-b8ad-20521c42bda8/AAABjwrBdYc/AAABjwnlKNc/16x9-512.jpg", "date": "2024-04-23T06:00:00.000+02:00", "lat": 53.6127, "lon": 13.3677, "intensity": 0.5, "source": "Tagesschau"}, {"title": "Wahlrechtsreform auf dem Pr\u00fcfstand", "url": "https://www.tagesschau.de/inland/innenpolitik/bundesverfassungsgericht-wahlrecht-100.html", "thumbnailUrl": "https://images.tagesschau.de/image/1308c541-6a26-4ef7-878d-f242c5d848e9/AAABjBlMlnw/AAABjwnlKNc/16x9-512.jpg", "date": "2024-04-23T05:06:29.681+02:00", "lat": 51.5043, "lon": 10.2107, "intensity": 0.7, "source": "Tagesschau"}, {"title": "Hohe Preise f\u00fcr Fernw\u00e4rme in SH noch bis Jahresende", "url": "https://www.tagesschau.de/inland/regional/schleswigholstein/ndr-hohe-preise-fuer-fernwaerme-in-sh-noch-bis-jahresende-100.html", "thumbnailUrl": "https://images.tagesschau.de/image/576ce992-578f-464d-9b26-a2e827e693c4/AAABjwjlgWU/AAABjwnlKNc/16x9-512.jpg", "date": "2024-04-23T05:00:00.000+02:00", "lat": 54.7937, "lon": 9.6978, "intensity": 0.4, "source": "Tagesschau"}, {"title": "Ermittlungen wegen Betrugs bei der Lebenshilfe S\u00fcdliche Weinstra\u00dfe", "url": "https://www.tagesschau.de/inland/regional/rheinlandpfalz/swr-ermittlungen-wegen-betrugs-bei-der-lebenshilfe-suedliche-weinstrasse-100.html", "thumbnailUrl": "https://images.tagesschau.de/image/19d3b6f3-64a1-45bb-8aaa-815f48fc2039/AAABjwtFSKM/AAABjwnlKNc/16x9-512.jpg", "date": "2024-04-23T05:00:00.000+02:00", "lat": 49.2755, "lon": 8.1551, "intensity": 0.8, "source": "Tagesschau"}, {"title": "Auto prallt gegen Oberleitungsmast - Bahnstrecke Stuttgart-Singen wieder normal befahrbar", "url": "https://www.tagesschau.de/inland/regional/badenwuerttemberg/swr-autofahrer-rammt-in-eutingen-im-gaeu-einen-oberleitungsmasten-100.html", "thumbnailUrl": "https://images.tagesschau.de/image/693b4b7a-e853-4ac4-a23f-02f106c2d6e9/AAABjwkq_nQ/AAABjwnlKNc/16x9-512.jpg", "date": "2024-04-23T00:41:00.000+02:00", "lat": 48.4919, "lon": 8.615, "intensity": 0.7, "source": "Tagesschau"}, {"title": "AfD-Europakandidat Krah lehnt R\u00fccktritt trotz Spionageaff\u00e4re ab", "url": "https://www.br.de/nachrichten/meldungen/index.html#n1", "thumbnailUrl": null, "date": "2024-04-24T03:16:54+02:00", "lat": 30.0444, "lon": 31.2357, "intensity": 0.8, "source": "Bayrischer Rundfunk"}, {"title": "AfD-Bundesvorstand l\u00e4sst Parteiausschlussverfahrfen gegen Halemba vorbereiten", "url": "https://www.br.de/nachrichten/meldungen/index.html#n2", "thumbnailUrl": null, "date": "2024-04-24T03:16:54+02:00", "lat": 33.5138, "lon": 36.2021, "intensity": 0.8, "source": "Bayrischer Rundfunk"}, {"title": "Umweltbundesamt fordert weniger Tierhaltung in Deutschland f\u00fcr Klimaschutz", "url": "https://www.br.de/nachrichten/meldungen/index.html#n3", "thumbnailUrl": null, "date": "2024-04-24T03:16:54+02:00", "lat": 39.9334, "lon": 32.8597, "intensity": 0.8, "source": "Bayrischer Rundfunk"}, {"title": "Rechnungshof kritisiert EU-Hilfe f\u00fcr Fl\u00fcchtlinge in der T\u00fcrkei als nicht nachhaltig", "url": "https://www.br.de/nachrichten/meldungen/index.html#n4", "thumbnailUrl": null, "date": "2024-04-24T03:16:54+02:00", "lat": 52.520008, "lon": 13.404954, "intensity": 0.7, "source": "Bayrischer Rundfunk"}, {"title": "USA wollen Bau von Gaza-Hafen f\u00fcr humanit\u00e4re Hilfe bald beginnen", "url": "https://www.br.de/nachrichten/meldungen/index.html#n5", "thumbnailUrl": null, "date": "2024-04-24T03:16:54+02:00", "lat": 52.520008, "lon": 13.404954, "intensity": 0.6, "source": "Bayrischer Rundfunk"}, {"title": "Amnesty International sieht Menschenrechte weltweit bedroht", "url": "https://www.br.de/nachrichten/meldungen/index.html#n6", "thumbnailUrl": null, "date": "2024-04-24T03:16:54+02:00", "lat": 48.135125, "lon": 11.581981, "intensity": 0.6, "source": "Bayrischer Rundfunk"}, {"title": "Ukraine erh\u00f6ht Druck auf Auslands-B\u00fcrger im wehrf\u00e4higen Alter", "url": "https://www.br.de/nachrichten/meldungen/index.html#n7", "thumbnailUrl": null, "date": "2024-04-24T03:16:54+02:00", "lat": 50.110922, "lon": 8.682127, "intensity": 0.8, "source": "Bayrischer Rundfunk"}, {"title": "Saharastaub sorgt f\u00fcr gesundheitliche Beschwerden in Griechenland", "url": "https://www.br.de/nachrichten/meldungen/index.html#n8", "thumbnailUrl": null, "date": "2024-04-24T03:16:54+02:00", "lat": 47.8684, "lon": 12.6394, "intensity": 0.8, "source": "Bayrischer Rundfunk"}, {"title": "Berlin steht vor erneutem Gewinn der Deutschen Eishockey-Meisterschaft", "url": "https://www.br.de/nachrichten/meldungen/index.html#n9", "thumbnailUrl": null, "date": "2024-04-24T03:16:54+02:00", "lat": 48.5844, "lon": 13.6722, "intensity": 0.8, "source": "Bayrischer Rundfunk"}, {"title": "Das Wetter in Bayern: In der Nacht gebietsweise Regen oder Schnee", "url": "https://www.br.de/nachrichten/meldungen/index.html#n10", "thumbnailUrl": null, "date": "2024-04-24T03:16:54+02:00", "lat": 53.5396, "lon": 8.5761, "intensity": 0.4, "source": "Bayrischer Rundfunk"}, {"title": "4:1-Sieg: Eisb\u00e4ren Berlin sichern sich gegen Fischtown Pinguins Matchball zur Meisterschaft", "url": "https://www.rbb24.de/sport/beitrag/2024/04/deutsche-eishockey-liga-del-finale-playoffs-eisbaeren-berlin-fishtwon-pinguins.html", "thumbnailUrl": null, "date": "Tue, 23 Apr 2024 23:25:30 +0200", "lat": 52.52, "lon": 13.405, "intensity": 0.8, "source": "RBB"}, {"title": "33:33-Remis im Hinspiel gegen Nantes: F\u00fcchse Berlin m\u00fcssen ums Weiterkommen in der European League bangen", "url": "https://www.rbb24.de/sport/beitrag/2024/04/handball-european-league-fuechse-berlin-hbc-nantes.html", "thumbnailUrl": null, "date": "Tue, 23 Apr 2024 22:56:26 +0200", "lat": 52.52, "lon": 13.4023, "intensity": 0.6, "source": "RBB"}, {"title": "3:2-Sieg im vierten Finalspiel: BR Volleys halten in Friedrichshafen ihren Titeltraum am Leben", "url": "https://www.rbb24.de/sport/beitrag/2024/04/volleyball-bundesliga-playoffs-finale-br-volleys-vfl-friedrichshafen.html", "thumbnailUrl": null, "date": "Tue, 23 Apr 2024 21:36:47 +0200", "lat": 47.6542, "lon": 9.4806, "intensity": 0.8, "source": "RBB"}, {"title": "Video | \"Unser Dorf hat Zukunft\"-Gewinner: Was der Wettbewerb in Steckelsdorf ver\u00e4ndert hat", "url": "https://www.rbb24.de/panorama/beitrag/av7/video-besuch-unser-dorf-hat-zukunft-gewinner.html", "thumbnailUrl": null, "date": "Tue, 23 Apr 2024 21:09:00 +0200", "lat": 52.6625, "lon": 12.8955, "intensity": 0.3, "source": "RBB"}, {"title": "Berliner Schiedsrichter Siebert und Zwayer pfeifen bei der Fu\u00dfball-EM", "url": "https://www.rbb24.de/sport/beitrag/2024/04/fussball-berlin-brandenburg-em-europameisterschaft-schiedsrichter-siebert-zwayer.html", "thumbnailUrl": null, "date": "Tue, 23 Apr 2024 20:44:28 +0200", "lat": 52.520008, "lon": 13.404954, "intensity": 0.6, "source": "RBB"}, {"title": "Er rollt und rollt und rollt: 10 Jahre PlusBus in Brandenburg", "url": "https://www.rbb24.de/panorama/beitrag/2024/04/oepnv-brandenburg-zehn-jahre-plusbus.html", "thumbnailUrl": null, "date": "Tue, 23 Apr 2024 19:33:00 +0200", "lat": 52.3003, "lon": 13.1652, "intensity": 0.6, "source": "RBB"}, {"title": "Fu\u00dfball-EM und andere Events: Stra\u00dfe des 17. Juni in Berlin wird f\u00fcr drei Monate gesperrt", "url": "https://www.rbb24.de/panorama/beitrag/2024/04/berlin-strasse-des-17-juni-gesperrt-drei-monate-em-fanmeile.html", "thumbnailUrl": null, "date": "Tue, 23 Apr 2024 19:21:54 +0200", "lat": 52.5166, "lon": 13.3533, "intensity": 0.7, "source": "RBB"}, {"title": "Klima-Aktivisten nach Farbattacke zu Bew\u00e4hrungsstrafen verurteilt", "url": "https://www.rbb24.de/panorama/beitrag/2024/04/prozess-farbattacke-klimaaktivisten-brandenburger-tor-berlin.html", "thumbnailUrl": null, "date": "Tue, 23 Apr 2024 18:45:11 +0200", "lat": 52.516274, "lon": 13.377704, "intensity": 0.7, "source": "RBB"}, {"title": "Welttag des Buches: Wie B\u00fccher-Telefonzellen zum Lesen motivieren sollen", "url": "https://www.rbb24.de/panorama/beitrag/2024/04/buecher-literatur-buechertelefonzelle-frankfurt-welttag-kinder-bildung-brandenburg.html", "thumbnailUrl": null, "date": "Tue, 23 Apr 2024 17:34:58 +0200", "lat": 52.352, "lon": 14.5501, "intensity": 0.4, "source": "RBB"}, {"title": "Tesla will 400 feste Stellen in Gr\u00fcnheide abbauen", "url": "https://www.rbb24.de/wirtschaft/beitrag/2024/04/tesla-gruenheide-stellenabbau-leiharbeiter-400-betriebsrat-elonmusk-brandenburg-absatz-eautos.html", "thumbnailUrl": null, "date": "Tue, 23 Apr 2024 16:48:51 +0200", "lat": 52.404, "lon": 13.753, "intensity": 0.8, "source": "RBB"}, {"title": "Studie dokumentiert: Westliche Unternehmen profitierten von DDR-Zwangsarbeit", "url": "https://www.rbb24.de/politik/beitrag/2024/04/studie-westliche-unternehmen-ddr-zwangsarbeit-profit-berlin-brandenburg.html", "thumbnailUrl": null, "date": "Tue, 23 Apr 2024 15:23:09 +0200", "lat": 52.520008, "lon": 13.404954, "intensity": 0.8, "source": "RBB"}, {"title": "Gewerkschaft ruft f\u00fcr 22. Mai zu Warnstreik an Berliner Schulen auf", "url": "https://www.rbb24.de/wirtschaft/beitrag/2024/04/berlin-warnstreik-schulen-22-mai-gewerkschaft-gew.html", "thumbnailUrl": null, "date": "Tue, 23 Apr 2024 15:01:00 +0200", "lat": 52.520008, "lon": 13.404954, "intensity": 0.6, "source": "RBB"}, {"title": "Endg\u00fcltiges Ende der Kohlef\u00f6rderung: Letztes Kohlefl\u00f6z im Tagebau J\u00e4nschwalde abgebaggert", "url": "https://www.rbb24.de/panorama/beitrag/2024/04/letztes-floez-tagebau-jaenschwalde-abgebaggert.html", "thumbnailUrl": null, "date": "Tue, 23 Apr 2024 13:57:00 +0200", "lat": 51.806601, "lon": 14.369019, "intensity": 0.8, "source": "RBB"}, {"title": "Ab 1. Mai: BVG verbietet Mitnahme von E-Rollern in ihren Fahrzeugen", "url": "https://www.rbb24.de/panorama/beitrag/2024/04/bvg-e-roller-mitnahme-verbot-berlin-vdv-lithium-ionen-akkus.html", "thumbnailUrl": null, "date": "Tue, 23 Apr 2024 13:29:00 +0200", "lat": 52.52, "lon": 13.405, "intensity": 0.8, "source": "RBB"},