[{"title": "Polizeieinsatz in Halle: Z\u00fcndf\u00e4higer Sprengsatz gefunden", "url": "https://www.tagesschau.de/inland/regional/sachsenanhalt/mdr-polizeieinsatz-in-halle-verdacht-auf-bau-einer-bombe-100.html", "thumbnailUrl": "https://images.tagesschau.de/image/3f87823f-6f9d-4246-8e99-813faa48244e/AAABjrbfNDY/AAABjcWesUg/16x9-512.jpg", "date": "2024-04-07T08:59:29.000+02:00", "lat": 51.482504, "lon": 11.968802, "intensity": 0.8, "source": "Tagesschau"}, {"title": "Geht der deutsche Balkonsolar-Boom weiter?", "url": "https://www.tagesschau.de/wirtschaft/energie/balkonkraftwerke-balkonsolar-100.html", "thumbnailUrl": "https://images.tagesschau.de/image/89244a32-3100-467d-9ae8-563653ff37f2/AAABjIX75iM/AAABjcWesUg/16x9-512.jpg", "date": "2024-04-07T08:57:38.418+02:00", "lat": 51.1657, "lon": 10.4515, "intensity": 0.6, "source": "Tagesschau"}, {"title": "\"Unser Deutschlandm\u00e4rchen\" am Maxim-Gorki-Theater: Dichtende Arbeiterkinder ", "url": "https://www.tagesschau.de/inland/regional/berlin/rbb-unser-deutschlandmaerchen-am-maxim-gorki-theater-dichtende-arbeiterkinder-100.html", "thumbnailUrl": "https://images.tagesschau.de/image/cd773e04-31bd-4f6f-861c-153fc3c0af07/AAABjrdb3ek/AAABjcWesUg/16x9-512.jpg", "date": "2024-04-07T08:56:32.000+02:00", "lat": 52.517, "lon": 13.3889, "intensity": 0.5, "source": "Tagesschau"}, {"title": "Berlin: A111 nach t\u00f6dlichem Quad-Unfall wieder freigegeben", "url": "https://www.tagesschau.de/inland/regional/berlin/rbb-berlin-nach-toedlichem-quad-unfall-ist-a111-auf-hoehe-schulzendorfer-strasse-gesperrt-100.html", "thumbnailUrl": "https://images.tagesschau.de/image/8709b977-ac6f-40e4-b758-5c891076b3e6/AAABjrdYEfc/AAABjcWesUg/16x9-512.jpg", "date": "2024-04-07T08:55:20.000+02:00", "lat": 52.5613, "lon": 13.3244, "intensity": 0.7, "source": "Tagesschau"}, {"title": "Sexuelle N\u00f6tigung: Freispruch f\u00fcr rangh\u00f6chsten BW-Polizisten wohl rechtskr\u00e4ftig ", "url": "https://www.tagesschau.de/inland/regional/badenwuerttemberg/swr-sexuelle-noetigung-freispruch-fuer-ranghoechsten-bw-polizisten-wohl-rechtskraeftig-100.html", "thumbnailUrl": "https://images.tagesschau.de/image/8e6d33df-5888-4397-8c3d-a23f940bed1c/AAABjrdXySM/AAABjcWesUg/16x9-512.jpg", "date": "2024-04-07T08:50:27.000+02:00", "lat": 48.6616, "lon": 9.9937, "intensity": 0.8, "source": "Tagesschau"}, {"title": "Sprinkleranlage im Gro\u00dfen Haus des Berliner Ensembles ausgel\u00f6st", "url": "https://www.tagesschau.de/inland/regional/berlin/rbb-buehne-unter-wasser-sprinkleranlage-im-grossen-haus-des-berliner-ensembles-ausgeloest-100.html", "thumbnailUrl": "https://images.tagesschau.de/image/a30f7a2f-14be-44e5-95d7-a6439089f0c8/AAABjrdUXTw/AAABjcWesUg/16x9-512.jpg", "date": "2024-04-07T08:50:16.000+02:00", "lat": 52.528013, "lon": 13.387652, "intensity": 0.7, "source": "Tagesschau"}, {"title": "Hamburger Hochbahn baut Solaranlagen auf Busbahnh\u00f6fe", "url": "https://www.tagesschau.de/inland/regional/hamburg/ndr-hamburger-hochbahn-baut-solaranlagen-auf-busbahnhoefe-100.html", "thumbnailUrl": "https://images.tagesschau.de/image/06a9624e-75a9-4240-8811-ec8002a6f734/AAABjrdWLw8/AAABjcWesUg/16x9-512.jpg", "date": "2024-04-07T08:47:00.000+02:00", "lat": 53.5511, "lon": 9.9937, "intensity": 0.8, "source": "Tagesschau"}, {"title": "Defekte Trafostationen: Stromausfall in Cottbus gr\u00f6\u00dftenteils behoben", "url": "https://www.tagesschau.de/inland/regional/brandenburg/rbb-defekte-trafostationen-stromausfall-in-cottbus-groesstenteils-behoben-100.html", "thumbnailUrl": "https://images.tagesschau.de/image/816ff92c-b4dc-47d8-a70a-ff87bd5d2528/AAABjrdJN-Q/AAABjcWesUg/16x9-512.jpg", "date": "2024-04-07T08:35:18.000+02:00", "lat": 51.7562, "lon": 14.3356, "intensity": 0.8, "source": "Tagesschau"}, {"title": "Brand in Mehrfamilienhaus: Polizist rettet Seniorin aus Wohnung", "url": "https://www.tagesschau.de/inland/regional/niedersachsen/ndr-brand-in-mehrfamilienhaus-polizist-rettet-seniorin-aus-wohnung-100.html", "thumbnailUrl": "https://images.tagesschau.de/image/28034501-bd48-4cb0-8c8f-99a6452d40b2/AAABjrdHpUE/AAABjcWesUg/16x9-512.jpg", "date": "2024-04-07T08:34:00.000+02:00", "lat": 52.2826, "lon": 9.2633, "intensity": 0.8, "source": "Tagesschau"}, {"title": "Das erwartet Berlin und die Fans aus aller Welt bei der Fu\u00dfball-EM", "url": "https://www.tagesschau.de/inland/regional/berlin/rbb-fanmeile-sicherheit-verkehr-das-erwartet-berlin-und-die-fans-aus-aller-welt-bei-der-em-102.html", "thumbnailUrl": "https://images.tagesschau.de/image/18f23fd5-d79d-4d2c-bca4-40b4c92cf5ad/AAABjrdASIE/AAABjcWesUg/16x9-512.jpg", "date": "2024-04-07T08:27:23.000+02:00", "lat": 52.520008, "lon": 13.404954, "intensity": 0.8, "source": "Tagesschau"}, {"title": "Schwertransport im Emsland: Bahnhof zeitweise gesperrt", "url": "https://www.tagesschau.de/inland/regional/niedersachsen/ndr-schwertransport-im-emsland-bahnhof-leschede-gesperrt-100.html", "thumbnailUrl": "https://images.tagesschau.de/image/53600d54-d610-444e-b338-ab5cf1975524/AAABjrc7Dck/AAABjcWesUg/16x9-512.jpg", "date": "2024-04-07T08:22:00.000+02:00", "lat": 52.2811, "lon": 7.3296, "intensity": 0.7, "source": "Tagesschau"}, {"title": "Feuerwehreinsatz auf ehemaligem Gie\u00dfereigel\u00e4nde in Ottweiler dauert an", "url": "https://www.tagesschau.de/inland/regional/saarland/sr-feuerwehreinsatz-auf-ehemaligem-giessereigelaende-in-ottweiler-dauert-an-100.html", "thumbnailUrl": "https://images.tagesschau.de/image/59d3f0f7-4a67-4cd3-8ab2-d78055ec866a/AAABjrdSNNs/AAABjcWesUg/16x9-512.jpg", "date": "2024-04-07T08:22:00.000+02:00", "lat": 49.3661, "lon": 7.1682, "intensity": 0.7, "source": "Tagesschau"}, {"title": "Nach Sonne und Sommerw\u00e4rme: Erst Wolken, dann Aprilwetter", "url": "https://www.tagesschau.de/inland/regional/hamburg/ndr-wetter-am-wochenende-temperatursprung-auf-ueber-20-grad-im-norden-100.html", "thumbnailUrl": "https://images.tagesschau.de/image/32a23675-41cb-4899-8d53-a0d2608679f4/AAABjrc3HOA/AAABjcWesUg/16x9-512.jpg", "date": "2024-04-07T08:19:00.000+02:00", "lat": 53.5511, "lon": 9.9937, "intensity": 0.8, "source": "Tagesschau"}, {"title": "K.o. in der elften Runde: Jack Culcay verpasst WM-Titel im Superweltergewicht", "url": "https://www.tagesschau.de/inland/regional/berlin/rbb-k-o-in-der-elften-runde-jack-culcay-verpasst-wm-titel-im-superweltergewicht-102.html", "thumbnailUrl": "https://images.tagesschau.de/image/53b49549-2046-400a-8447-71d3ccddf74d/AAABjrc8ZOU/AAABjcWesUg/16x9-512.jpg", "date": "2024-04-07T08:17:43.000+02:00", "lat": 52.520008, "lon": 13.404954, "intensity": 0.8, "source": "Tagesschau"}, {"title": "S\u00e4ugling in Neubrandenburg offenbar zu Tode gesch\u00fcttelt", "url": "https://www.tagesschau.de/inland/regional/mecklenburgvorpommern/ndr-saeugling-in-neubrandenburg-offenbar-zu-tode-geschuettet-100.html", "thumbnailUrl": "https://images.tagesschau.de/image/f85f984d-5b82-468f-8d57-b71c601482a9/AAABjrc4m3M/AAABjcWesUg/16x9-512.jpg", "date": "2024-04-07T08:05:00.000+02:00", "lat": 53.57444, "lon": 13.26007, "intensity": 0.8, "source": "Tagesschau"}, {"title": "Geliebt, gew\u00e4hlt, gescholten - Altkanzler Gerhard Schr\u00f6der wird 80", "url": "https://www.tagesschau.de/inland/regional/niedersachsen/ndr-geliebt-100.html", "thumbnailUrl": "https://images.tagesschau.de/image/2d7b47bd-d2e4-4845-9820-be6836057270/AAABjq07Crc/AAABjcWesUg/16x9-512.jpg", "date": "2024-04-07T08:03:00.000+02:00", "lat": 52.52, "lon": 10.4234, "intensity": 0.7, "source": "Tagesschau"}, {"title": "++ \"Sechs Monate eines blutigen Krieges\" ++", "url": "https://www.tagesschau.de/newsticker/liveblog-nahost-sonntag-128.html", "thumbnailUrl": "https://images.tagesschau.de/image/5265221a-7518-46a2-9d79-f7ab4f3943c1/AAABjYd_fLk/AAABjcWesUg/16x9-512.jpg", "date": "2024-04-07T07:45:11.467+02:00", "lat": 31.046051, "lon": 34.851612, "intensity": 0.8, "source": "Tagesschau"}, {"title": "Flohm\u00e4rkte in SH: Hier k\u00f6nnen sie Schn\u00e4ppchen finden", "url": "https://www.tagesschau.de/inland/regional/schleswigholstein/ndr-flohmaerkte-in-sh-hier-koennen-sie-schnaeppchen-finden-100.html", "thumbnailUrl": "https://images.tagesschau.de/image/4f22ed7b-aa8e-42b9-b5ac-6e9ca7cd7fc9/AAABjrcSfsI/AAABjcWesUg/16x9-512.jpg", "date": "2024-04-07T07:38:00.000+02:00", "lat": 54.3233, "lon": 10.1276, "intensity": 0.4, "source": "Tagesschau"}, {"title": "++ Tote und Verletzte in der Region Donezk ++", "url": "https://www.tagesschau.de/newsticker/liveblog-ukraine-sonntag-412.html", "thumbnailUrl": "https://images.tagesschau.de/image/5b073b67-29bf-4703-b6b1-71469e4c25bb/AAABizMn-kk/AAABjcWesUg/16x9-512.jpg", "date": "2024-04-07T07:28:38.097+02:00", "lat": 48.0159, "lon": 37.8044, "intensity": 0.8, "source": "Tagesschau"}, {"title": "Zu hohe Abgas-Werte: Monstertruck-Show in Hamburg abgesagt", "url": "https://www.tagesschau.de/inland/regional/hamburg/ndr-zu-hohe-abgas-werte-monstertruck-show-in-hamburg-abgesagt-100.html", "thumbnailUrl": "https://images.tagesschau.de/image/22559d30-d2ec-4c2a-a4e4-a7c50fb91116/AAABjrcJQQg/AAABjcWesUg/16x9-512.jpg", "date": "2024-04-07T07:28:00.000+02:00", "lat": 53.5586, "lon": 10.0046, "intensity": 0.7, "source": "Tagesschau"}, {"title": "Stichwahl in Rottenburg: Neher und Weber wollen OB werden", "url": "https://www.tagesschau.de/inland/regional/badenwuerttemberg/swr-stichwahl-in-rottenburg-neher-und-weber-wollen-ob-werden-100.html", "thumbnailUrl": "https://images.tagesschau.de/image/2f040ef5-ead3-4544-8d68-a75c3c2e44cf/AAABjrbkWjE/AAABjcWesUg/16x9-512.jpg", "date": "2024-04-07T06:47:00.000+02:00", "lat": 48.4775, "lon": 8.9342, "intensity": 0.8, "source": "Tagesschau"}, {"title": "Landwirte fordern B\u00fcrokratieabbau und Entlastungen \u2013 auf Kosten der Umwelt? ", "url": "https://www.tagesschau.de/inland/regional/badenwuerttemberg/swr-landwirte-fordern-buerokratieabbau-und-entlastungen--auf-kosten-der-umwelt-100.html", "thumbnailUrl": "https://images.tagesschau.de/image/c5b5995e-b33d-47cc-a35b-8797e0547948/AAABjrac99w/AAABjcWesUg/16x9-512.jpg", "date": "2024-04-07T06:27:00.000+02:00", "lat": 48.7758, "lon": 9.7356, "intensity": 0.8, "source": "Tagesschau"}, {"title": "Wetter am Wochenende: W\u00e4rme-Rekord mit 30 Grad und es bleibt angenehm", "url": "https://www.tagesschau.de/inland/regional/badenwuerttemberg/swr-sommerwetter-am-wochenende-bis-zu-30-grad-in-bw-moeglich-100.html", "thumbnailUrl": "https://images.tagesschau.de/image/26faf9e6-46d7-4a2e-901b-f1ae10d1ecb2/AAABjrOYVOs/AAABjcWesUg/16x9-512.jpg", "date": "2024-04-07T06:00:00.000+02:00", "lat": 48.771508, "lon": 9.005963, "intensity": 0.8, "source": "Tagesschau"}, {"title": "\"Man fragt sich: Wof\u00fcr k\u00e4mpfen wir?\"", "url": "https://www.tagesschau.de/ausland/asien/israel-sechs-monate-nach-angriff-hamas-100.html", "thumbnailUrl": "https://images.tagesschau.de/image/b9c35cd1-c2e7-423c-8440-83dd97c87b6c/AAABjpDbVwc/AAABjcWesUg/16x9-512.jpg", "date": "2024-04-07T05:49:35.338+02:00", "lat": 31.5257, "lon": 34.4354, "intensity": 0.8, "source": "Tagesschau"}, {"title": "Budanow rechnet mit russischer Offensive im Fr\u00fchjahr", "url": "https://www.tagesschau.de/ausland/ukraine-geheimdienstchef-interview-100.html", "thumbnailUrl": "https://images.tagesschau.de/image/657fe08e-8342-4e0b-908e-afcd0759d324/AAABjraJ-kw/AAABjcWesUg/16x9-512.jpg", "date": "2024-04-07T05:11:20.191+02:00", "lat": 50.4501, "lon": 30.5234, "intensity": 0.7, "source": "Tagesschau"}, {"title": "\"Schwere Verst\u00f6\u00dfe gegen das V\u00f6lkerrecht\"", "url": "https://www.tagesschau.de/ausland/amerika/ecuador-botschaft-mexiko-100.html", "thumbnailUrl": "https://images.tagesschau.de/image/cf505950-8219-4a6b-801c-8c6478004ae5/AAABjrZzZ_k/AAABjcWesUg/16x9-512.jpg", "date": "2024-04-07T04:46:40.635+02:00", "lat": -0.180653, "lon": -78.467834, "intensity": 0.8, "source": "Tagesschau"}, {"title": "Weltkriegsbombe in Bitburg wird heute entsch\u00e4rft", "url": "https://www.tagesschau.de/inland/regional/rheinlandpfalz/swr-bombe-bei-bauarbeiten-an-grundschule-in-bitburg-gefunden-100.html", "thumbnailUrl": "https://images.tagesschau.de/image/7a53cdd4-a59f-4ff3-85b7-a2953210dd56/AAABjrZ2i_U/AAABjcWesUg/16x9-512.jpg", "date": "2024-04-07T03:44:00.000+02:00", "lat": 49.9675, "lon": 6.532, "intensity": 0.8, "source": "Tagesschau"}, {"title": "Pellegrini wird neuer Pr\u00e4sident der Slowakei", "url": "https://www.tagesschau.de/ausland/europa/slowakei-praesidentenwahl-pellegrini-100.html", "thumbnailUrl": "https://images.tagesschau.de/image/382169d5-b95f-4a84-9079-174eeb984917/AAABjrXMEGM/AAABjcWesUg/16x9-512.jpg", "date": "2024-04-07T03:21:31.676+02:00", "lat": 48.669026, "lon": 19.699024, "intensity": 0.7, "source": "Tagesschau"}, {"title": "Wenn das mobile Heim zur Falle wird", "url": "https://www.tagesschau.de/ausland/amerika/usa-trailerparks-100.html", "thumbnailUrl": "https://images.tagesschau.de/image/013d3fdf-ccab-4fa5-b888-b1d8fb95ea3c/AAABjrXqHNk/AAABjcWesUg/16x9-512.jpg", "date": "2024-04-07T02:16:44.618+02:00", "lat": 38.003385, "lon": -100.445882, "intensity": 0.8, "source": "Tagesschau"}, {"title": "Mehr als 30 Grad - H\u00f6chstwerte f\u00fcr Anfang April", "url": "https://www.tagesschau.de/inland/gesellschaft/wetter-april-temperaturen-100.html", "thumbnailUrl": "https://images.tagesschau.de/image/20a7b790-ac17-46d3-9895-225b68321d40/AAABjrcpUrw/AAABjcWesUg/16x9-512.jpg", "date": "2024-04-07T02:12:00.906+02:00", "lat": 51.315, "lon": 9.564, "intensity": 0.7, "source": "Tagesschau"}, {"title": "Zehntausende Menschen demonstrieren gegen Netanyahu", "url": "https://www.tagesschau.de/ausland/asien/proteste-netanyahu-israel-100.html", "thumbnailUrl": "https://images.tagesschau.de/image/6eeb20e4-28d5-41a3-8e84-2c74fefd9ec9/AAABjrVybNg/AAABjcWesUg/16x9-512.jpg", "date": "2024-04-07T00:05:59.145+02:00", "lat": 31.7683, "lon": 35.2137, "intensity": 0.8, "source": "Tagesschau"}, {"title": "++ Deutsche Fregatte wehrt Angriff auf Frachtschiff ab ++", "url": "https://www.tagesschau.de/newsticker/liveblog-nahost-samstag-122.html", "thumbnailUrl": "https://images.tagesschau.de/image/e472f3b9-744f-4ed5-9b4c-12e6b0888d82/AAABje1WsbQ/AAABjcWesUg/16x9-512.jpg", "date": "2024-04-07T00:05:36.415+02:00", "lat": 37.09024, "lon": -95.712891, "intensity": 0.8, "source": "Tagesschau"}, {"title": "++ Ukraine dementiert russischen Durchbruch im Osten ++", "url": "https://www.tagesschau.de/newsticker/liveblog-ukraine-samstag-376.html", "thumbnailUrl": "https://images.tagesschau.de/image/a4b88fd7-b3bc-4cf5-870c-3fc1abf9df00/AAABjrLvGFM/AAABjcWesUg/16x9-512.jpg", "date": "2024-04-07T00:04:35.988+02:00", "lat": 47.8388, "lon": 35.1396, "intensity": 0.8, "source": "Tagesschau"}, {"title": "1:2 in Karlsruhe: St. Pauli kassiert dritte Saisonniederlage", "url": "https://www.tagesschau.de/inland/regional/hamburg/ndr-12-in-karlsruhe-st-pauli-kassiert-dritte-saisonniederlage-102.html", "thumbnailUrl": "https://images.tagesschau.de/image/ecd46897-851a-438c-89fe-a3bb8a20a3a0/AAABjrUkDqE/AAABjcWesUg/16x9-512.jpg", "date": "2024-04-06T23:32:00.000+02:00", "lat": 49.0097, "lon": 8.4669, "intensity": 0.8, "source": "Tagesschau"}, {"title": "Wieder Gro\u00dfdemonstration gegen Orban", "url": "https://www.tagesschau.de/ausland/europa/proteste-ungarn-orban-102.html", "thumbnailUrl": "https://images.tagesschau.de/image/13c840bd-e081-4448-b9e4-a18b234fe171/AAABjrQhRW0/AAABjcWesUg/16x9-512.jpg", "date": "2024-04-06T23:03:58.640+02:00", "lat": 47.4979, "lon": 19.0402, "intensity": 0.8, "source": "Tagesschau"}, {"title": "THW Kiel gewinnt gegen HC Erlangen, Flensburg-Handewitt nur remis", "url": "https://www.tagesschau.de/inland/regional/schleswigholstein/ndr-dank-leistungssteigerung-thw-kiel-gewinnt-gegen-hc-erlangen-100.html", "thumbnailUrl": "https://images.tagesschau.de/image/c46fbee2-3a44-42e8-985f-43f9168130f3/AAABjrUa668/AAABjcWesUg/16x9-512.jpg", "date": "2024-04-06T22:54:00.000+02:00", "lat": 54.3213, "lon": 10.1305, "intensity": 0.8, "source": "Tagesschau"}, {"title": "20 Paraden in Handball-Bundesliga: Starker Nebojsa Simic \u00fcberragt bei Remis der MT Melsungen", "url": "https://www.tagesschau.de/inland/regional/hessen/hr-20-paraden-in-handball-bundesliga-starker-nebojsa-simic-ueberragt-bei-remis-der-mt-melsungen-102.html", "thumbnailUrl": "https://images.tagesschau.de/image/64cc65cb-560a-426f-9b3e-59b9784ac3de/AAABjrUgPJM/AAABjcWesUg/16x9-512.jpg", "date": "2024-04-06T22:29:15.185+02:00", "lat": 51.312711, "lon": 9.368289, "intensity": 0.7, "source": "Tagesschau"}, {"title": "Eintracht: +++ Verfolger Freiburg patzt +++ Kr\u00f6sche-Kritik nach Werder-Remis +++ \"V\u00f6llig unn\u00f6tig\": Deutliche Kritik f\u00fcr Tuta +++", "url": "https://www.tagesschau.de/inland/regional/hessen/hr--eintracht-wohl-mit-chaibi-einig--glasner-fast-nur-kolo-muani-der-tore-erzielt--bericht-eintracht-sagt-aouar-ab-100.html", "thumbnailUrl": "https://images.tagesschau.de/image/a8aebbd7-d61a-4f89-87b2-9b25a667631e/AAABjrT2Hok/AAABjcWesUg/16x9-512.jpg", "date": "2024-04-06T21:46:55.809+02:00", "lat": 50.1109, "lon": 8.6821, "intensity": 0.7, "source": "Tagesschau"}, {"title": "Volleyballerinnen des SC Potsdam scheiden im Playoff-Halbfinale gegen Schwerin aus", "url": "https://www.tagesschau.de/inland/regional/brandenburg/rbb-volleyballerinnen-des-sc-potsdam-scheiden-im-playoff-halbfinale-gegen-schwerin-aus-102.html", "thumbnailUrl": "https://images.tagesschau.de/image/c7771af0-89f9-4dfc-934c-01ed3ae776bb/AAABjrTne98/AAABjcWesUg/16x9-512.jpg", "date": "2024-04-06T21:36:02.000+02:00", "lat": 52.3906, "lon": 13.0657, "intensity": 0.3, "source": "Tagesschau"}, {"title": "Hamburger Linke: Parteitag vor Bezirks- und Europawahlen", "url": "https://www.tagesschau.de/inland/regional/hamburg/ndr-hamburger-linke-will-sich-bei-parteitag-neu-aufstellen-100.html", "thumbnailUrl": "https://images.tagesschau.de/image/f9ce9a48-e82f-4d89-8564-a3470927b3e7/AAABjrM1qVw/AAABjcWesUg/16x9-512.jpg", "date": "2024-04-06T21:00:00.000+02:00", "lat": 53.55, "lon": 10.0, "intensity": 0.8, "source": "Tagesschau"}, {"title": "Volleyball: SSC Schwerin schl\u00e4gt Potsdam und steht im Endspiel", "url": "https://www.tagesschau.de/inland/regional/mecklenburgvorpommern/ndr-volleyball-ssc-schwerin-schlaegt-potsdam-und-steht-im-endspiel-106.html", "thumbnailUrl": "https://images.tagesschau.de/image/56fbcf44-b26e-4e2b-b43a-78dab83580c7/AAABjrT5p-Q/AAABjcWesUg/16x9-512.jpg", "date": "2024-04-06T20:59:00.000+02:00", "lat": 53.628, "lon": 11.4134, "intensity": 0.6, "source": "Tagesschau"}, {"title": "Analyse der Niederlage des 1. FC Union gegen Leverkusen: Keine Partycrasher ", "url": "https://www.tagesschau.de/inland/regional/berlin/rbb-analyse-der-niederlage-des-1-fc-union-gegen-leverkusen-keine-partycrasher-102.html", "thumbnailUrl": "https://images.tagesschau.de/image/0761cbe5-285a-42f5-8558-26d15303e7a1/AAABjrTcotU/AAABjcWesUg/16x9-512.jpg", "date": "2024-04-06T20:42:37.000+02:00", "lat": 52.52, "lon": 13.4073, "intensity": 0.6, "source": "Tagesschau"}, {"title": "A7-Sperrungen in Hamburg am Wochenende: Elbtunnel betroffen", "url": "https://www.tagesschau.de/inland/regional/hamburg/ndr-a7-in-hamburg-vollsperrung-des-elbtunnels-am-wochenende-100.html", "thumbnailUrl": "https://images.tagesschau.de/image/22c53553-1e52-4d31-88f4-23b04d67d78e/AAABjrINCZQ/AAABjcWesUg/16x9-512.jpg", "date": "2024-04-06T20:14:00.000+02:00", "lat": 53.5511, "lon": 9.9526, "intensity": 0.7, "source": "Tagesschau"}, {"title": "Nach Gro\u00dfbrand in der Billstra\u00dfe: Ermittlungen eingestellt", "url": "https://www.tagesschau.de/inland/regional/hamburg/ndr-grossbrand-in-der-billstrasse-ermittlungen-eingestellt-100.html", "thumbnailUrl": "https://images.tagesschau.de/image/96cc9517-095c-40a4-b435-7d87117dac56/AAABjrIzhEQ/AAABjcWesUg/16x9-512.jpg", "date": "2024-04-06T20:07:00.000+02:00", "lat": 53.548, "lon": 10.0314, "intensity": 0.8, "source": "Tagesschau"}, {"title": "Dammbruch am Fluss Ural - Tausende evakuiert", "url": "https://www.tagesschau.de/ausland/ueberschwemmungen-russland-kasachstan-100.html", "thumbnailUrl": "https://images.tagesschau.de/image/7a4a19c7-3aad-490a-b4dc-3a419101224b/AAABjrRraJA/AAABjcWesUg/16x9-512.jpg", "date": "2024-04-06T20:06:31.329+02:00", "lat": 51.375801, "lon": 55.103083, "intensity": 0.8, "source": "Tagesschau"}, {"title": "FDP-Landesparteitag: Junge Liberale stellen sich gegen Parteif\u00fchrung", "url": "https://www.tagesschau.de/inland/regional/sachsenanhalt/mdr-fdp-landesparteitag-junge-liberale-stellen-sich-gegen-parteifuehrung-100.html", "thumbnailUrl": "https://images.tagesschau.de/image/adb51bb1-c490-4325-ab65-ffa6e098ab27/AAABjradmc0/AAABjcWesUg/16x9-512.jpg", "date": "2024-04-06T19:49:57.000+02:00", "lat": 51.362, "lon": 11.985, "intensity": 0.8, "source": "Tagesschau"}, {"title": "Wenn junge Menschen t\u00f6ten: Nicht mehr F\u00e4lle, aber Brutalit\u00e4t nimmt zu", "url": "https://www.tagesschau.de/inland/regional/nordrheinwestfalen/wdr-wenn-junge-menschen-toeten-nicht-mehr-faelle-aber-brutalitaet-nimmt-zu-100.html", "thumbnailUrl": "https://images.tagesschau.de/image/33efe11a-626a-46de-b2df-547830fafb85/AAABjrSNlzg/AAABjcWesUg/16x9-512.jpg", "date": "2024-04-06T19:46:00.000+02:00", "lat": 51.5136, "lon": 7.4686, "intensity": 0.8, "source": "Tagesschau"}, {"title": "Schwerer Motorradunfall bei Neuhaus", "url": "https://www.tagesschau.de/inland/regional/saarland/sr-schwerer-motorradunfall-bei-neuhaus-100.html", "thumbnailUrl": "https://images.tagesschau.de/image/899df124-8ea3-4ffa-9b97-8de5cfb8ec85/AAABjrdSNzA/AAABjcWesUg/16x9-512.jpg", "date": "2024-04-06T19:42:00.000+02:00", "lat": 49.2994, "lon": 7.0362, "intensity": 0.8, "source": "Tagesschau"}, {"title": "Pforzheim: Brand in Supermarkt - eine Person verletzt", "url": "https://www.tagesschau.de/inland/regional/badenwuerttemberg/swr-pforzheim-brand-in-supermarkt-eine-person-verletzt-100.html", "thumbnailUrl": "https://images.tagesschau.de/image/b8c8f993-15e6-4775-941b-e95656fe2a26/AAABjrSCpIc/AAABjcWesUg/16x9-512.jpg", "date": "2024-04-06T19:35:00.000+02:00", "lat": 48.892222, "lon": 8.694722, "intensity": 0.8, "source": "Tagesschau"}, {"title": "Darmstadt 98: +++ Lieberknecht spricht \u00fcber Wehlmann-Abschied +++ Klassenerhalt fast unm\u00f6glich: \"Realismus ist angebracht\" +++ Niemeyer wohl nicht zu Lilien +++ ", "url": "https://www.tagesschau.de/inland/regional/hessen/hr--tietz-vermisst-fehlende-gier--lilien-fans-liefern-sich-raststaetten-pruegelei--die-niederlage-der-lilien-in-der-video-zusammenfassung-102.html", "thumbnailUrl": "https://images.tagesschau.de/image/cf94d3c6-68fa-4eba-9fce-b769b43490c6/AAABjrRq9X8/AAABjcWesUg/16x9-512.jpg", "date": "2024-04-06T19:15:50.551+02:00", "lat": 49.8717, "lon": 8.65, "intensity": 0.5, "source": "Tagesschau"}, {"title": "Entsetzen nach Anschlag auf Synagoge in Oldenburg", "url": "https://www.tagesschau.de/inland/regional/niedersachsen/brandsatz-synagoge-oldenburg-100.html", "thumbnailUrl": "https://images.tagesschau.de/image/8bccb72a-c351-40fd-b6be-3755d0109e80/AAABjrJSuVE/AAABjcWesUg/16x9-512.jpg", "date": "2024-04-06T18:50:00.000+02:00", "lat": 53.1434, "lon": 8.2154, "intensity": 0.6, "source": "Tagesschau"}, {"title": "Sommer im fr\u00fchen April: Temperatur-Rekord mit \u00fcber 27 Grad in S\u00fcdhessen", "url": "https://www.tagesschau.de/inland/regional/hessen/hr-sommer-im-fruehen-april-temperatur-rekord-mit-ueber-27-grad-in-suedhessen-100.html", "thumbnailUrl": "https://images.tagesschau.de/image/f12e1abc-ca9e-4ed5-8e39-ae59a758f7ea/AAABjrRPekE/AAABjcWesUg/16x9-512.jpg", "date": "2024-04-06T18:47:13.959+02:00", "lat": 49.6815, "lon": 8.9771, "intensity": 0.8, "source": "Tagesschau"}, {"title": "R\u00fcckreiseverkehr nach den Osterferien: Hier wird es voll", "url": "https://www.tagesschau.de/inland/regional/nordrheinwestfalen/wdr-rueckreiseverkehr-nach-den-osterferien-hier-wird-es-voll-100.html", "thumbnailUrl": "https://images.tagesschau.de/image/2e6efd51-fcb4-40c9-ab2b-91f5038f51d0/AAABjrdXr-Q/AAABjcWesUg/16x9-512.jpg", "date": "2024-04-06T18:45:00.000+02:00", "lat": 51.9607, "lon": 7.6261, "intensity": 0.8, "source": "Tagesschau"}, {"title": "Sch\u00fctzenfest und Sch\u00fctzenhilfe: Mainz 05 hat Klassenerhalt wieder im Blick", "url": "https://www.tagesschau.de/inland/regional/rheinlandpfalz/swr-schuetzenfest-und-schuetzenhilfe-mainz-05-hat-klassenerhalt-wieder-im-blick-102.html", "thumbnailUrl": "https://images.tagesschau.de/image/55b548a1-a8e6-4117-aff4-5ec194108bfe/AAABjrRNhnw/AAABjcWesUg/16x9-512.jpg", "date": "2024-04-06T18:37:08.000+02:00", "lat": 49.992, "lon": 8.273, "intensity": 0.8, "source": "Tagesschau"}, {"title": "Nullnummer gegen Verl: VfB L\u00fcbeck wie ein sicherer Absteiger", "url": "https://www.tagesschau.de/inland/regional/schleswigholstein/ndr-nullnummer-gegen-verl-vfb-luebeck-wie-ein-sicherer-absteiger-102.html", "thumbnailUrl": "https://images.tagesschau.de/image/f1a828ca-5a20-4773-8d36-0f679f32a73d/AAABjrO17os/AAABjcWesUg/16x9-512.jpg", "date": "2024-04-06T18:29:00.000+02:00", "lat": 53.866206, "lon": 10.686559, "intensity": 0.8, "source": "Tagesschau"}, {"title": "Die Lilien-Stimmen zum Spiel in Mainz: \"Wollen uns mit W\u00fcrde verabschieden\"", "url": "https://www.tagesschau.de/inland/regional/hessen/hr-darmstadt-98-naehert-sich-abstieg-die-stimmen-zum-spiel-in-mainz-102.html", "thumbnailUrl": "https://images.tagesschau.de/image/9a99986d-f0a2-4654-a871-57c9f1c7035c/AAABjrREkj0/AAABjcWesUg/16x9-512.jpg", "date": "2024-04-06T18:11:20.373+02:00", "lat": 49.992862, "lon": 8.247252, "intensity": 0.8, "source": "Tagesschau"}, {"title": "Hamburger Tafel startet Sammelaktion in Einkaufszentren", "url": "https://www.tagesschau.de/inland/regional/hamburg/ndr-hamburger-tafel-startet-sammelaktion-in-einkaufszentren-100.html", "thumbnailUrl": "https://images.tagesschau.de/image/435cbc76-7a7a-415c-a912-b92192e6a14d/AAABjrbFfHk/AAABjcWesUg/16x9-512.jpg", "date": "2024-04-06T18:10:00.000+02:00", "lat": 53.5511, "lon": 9.9937, "intensity": 0.7, "source": "Tagesschau"}, {"title": "Erfurter Theater-Aff\u00e4re: Stadt hat bereits Hunderttausende Euro ausgegeben", "url": "https://www.tagesschau.de/inland/regional/thueringen/mdr-erfurter-theater-affaere-stadt-hat-bereits-hunderttausende-euro-ausgegeben-100.html", "thumbnailUrl": "https://images.tagesschau.de/image/0e994519-4c81-47d7-9bd3-70cf81cc4c00/AAABjraXma4/AAABjcWesUg/16x9-512.jpg", "date": "2024-04-06T17:59:12.000+02:00", "lat": 50.9848, "lon": 11.0299, "intensity": 0.8, "source": "Tagesschau"}, {"title": "Drei Motorradfahrer st\u00fcrzen - 43-J\u00e4hrige verletzt sich schwer", "url": "https://www.tagesschau.de/inland/regional/niedersachsen/ndr-drei-motorradfahrer-stuerzen-43-jaehrige-verletzt-sich-schwer-100.html", "thumbnailUrl": "https://images.tagesschau.de/image/c86b4ba7-d5e7-4811-a87a-38970bd92d37/AAABjrQj1xk/AAABjcWesUg/16x9-512.jpg", "date": "2024-04-06T17:55:00.000+02:00", "lat": 51.9875, "lon": 9.9261, "intensity": 0.7, "source": "Tagesschau"}, {"title": "Erste Schritte in NRW f\u00fcr das B\u00fcndnis Sahra Wagenknecht", "url": "https://www.tagesschau.de/inland/regional/nordrheinwestfalen/wdr-erste-schritte-in-nrw-fuer-das-buendnis-sahra-wagenknecht-100.html", "thumbnailUrl": "https://images.tagesschau.de/image/39b0d303-582b-4941-b8e5-9a55e365f928/AAABjrTaevY/AAABjcWesUg/16x9-512.jpg", "date": "2024-04-06T17:44:00.000+02:00", "lat": 51.481845, "lon": 7.216236, "intensity": 0.6, "source": "Tagesschau"}, {"title": "Hans-Christoph Berndt zum Spitzenkadidaten f\u00fcr Landtagswahl gew\u00e4hlt", "url": "https://www.tagesschau.de/inland/regional/brandenburg/rbb-afd-parteitag-in-jueterbog-gestartet-berndt-vor-spitzenkandidatur-100.html", "thumbnailUrl": "https://images.tagesschau.de/image/8de1b42c-a4af-4907-948f-c6330ca678b9/AAABjrPaWyY/AAABjcWesUg/16x9-512.jpg", "date": "2024-04-06T17:39:20.000+02:00", "lat": 52.5166, "lon": 13.4251, "intensity": 0.4, "source": "Tagesschau"}, {"title": "Union Berlin verliert in Unterzahl gegen Bundesliga-Spitzenreiter Leverkusen ", "url": "https://www.tagesschau.de/inland/regional/berlin/rbb-live-hoeren-und-im-ticker-kann-union-berlin-gegen-uebermaechtiges-leverkusen-ueberraschen-102.html", "thumbnailUrl": "https://images.tagesschau.de/image/d5add2cb-8252-4801-9958-47b95750d324/AAABjrTcqug/AAABjcWesUg/16x9-512.jpg", "date": "2024-04-06T17:33:14.000+02:00", "lat": 52.52, "lon": 13.4049, "intensity": 0.7, "source": "Tagesschau"}, {"title": "Auftakt f\u00fcr die Spargelsaison in Mecklenburg-Vorpommern", "url": "https://www.tagesschau.de/inland/regional/mecklenburgvorpommern/ndr-auftakt-fuer-die-spargelsaison-in-mecklenburg-vorpommern-100.html", "thumbnailUrl": "https://images.tagesschau.de/image/370f0531-4296-408d-b586-67e0057c1916/AAABjrMZ6Tc/AAABjcWesUg/16x9-512.jpg", "date": "2024-04-06T17:31:00.000+02:00", "lat": 53.6127, "lon": 13.5899, "intensity": 0.3, "source": "Tagesschau"}, {"title": "A1: Auto prallt auf Baustellenanh\u00e4nger - zwei Schwerverletzte", "url": "https://www.tagesschau.de/inland/regional/niedersachsen/ndr-a1-auto-prallt-auf-baustellenanhaenger-zwei-schwerverletzte-100.html", "thumbnailUrl": "https://images.tagesschau.de/image/40a5a9dc-92f8-4031-b081-7f38a801c76e/AAABjrQj5f8/AAABjcWesUg/16x9-512.jpg", "date": "2024-04-06T17:30:00.000+02:00", "lat": 52.375892, "lon": 9.73201, "intensity": 0.8, "source": "Tagesschau"}, {"title": "Klatsche in Mainz: Bei Darmstadt 98 gehen die Lichter aus", "url": "https://www.tagesschau.de/inland/regional/hessen/hr-klatsche-in-mainz-bei-darmstadt-98-gehen-die-lichter-aus-100.html", "thumbnailUrl": "https://images.tagesschau.de/image/83dc1605-9945-4378-ae3c-bb82aabd6c71/AAABjrQGZYk/AAABjcWesUg/16x9-512.jpg", "date": "2024-04-06T17:25:31.802+02:00", "lat": 49.992, "lon": 8.27111, "intensity": 0.7, "source": "Tagesschau"}, {"title": "\"Al-Quds-Tag\": Hunderte demonstrieren in Frankfurt gegen Israel", "url": "https://www.tagesschau.de/inland/regional/hessen/hr-al-quds-tag-hunderte-demonstrieren-in-frankfurt-gegen-israel-100.html", "thumbnailUrl": "https://images.tagesschau.de/image/f0405252-8995-4116-a33c-ce3a03dd9a30/AAABjrQh0rc/AAABjcWesUg/16x9-512.jpg", "date": "2024-04-06T17:08:46.769+02:00", "lat": 50.1109, "lon": 8.6821, "intensity": 0.7, "source": "Tagesschau"}, {"title": "Jetzt live: Samstagsspiele des 28. Spieltags", "url": "https://www.sportschau.de/live-und-ergebnisse/fussball/deutschland-bundesliga/se51884/2023-2024/ro148505/spieltag/md28/spiele-und-ergebnisse/", "thumbnailUrl": "https://images.tagesschau.de/image/9f8165ba-ca30-4328-b2f7-799fe3637a8c/AAABiNkNSio/AAABjcWesUg/16x9-512.jpg", "date": "2024-04-06T17:06:27.585+02:00", "lat": 51.0113, "lon": 9.9576, "intensity": 0.5, "source": "Tagesschau"}, {"title": "Zweierteams stehen zur Wahl: Berliner SPD startet Mitgliederbefragung zur neuen Parteispitze", "url": "https://www.tagesschau.de/inland/regional/berlin/rbb-zweierteams-stehen-zur-wahl-berliner-spd-startet-mitgliederbefragung-zur-neuen-parteispitze-100.html", "thumbnailUrl": "https://images.tagesschau.de/image/92115ad7-00ea-4980-9cfa-8007cdc935db/AAABjrPyTmQ/AAABjcWesUg/16x9-512.jpg", "date": "2024-04-06T17:02:42.000+02:00", "lat": 52.520008, "lon": 13.404954, "intensity": 0.6, "source": "Tagesschau"}, {"title": "Der \"K\u00f6lsche Jesus\" und eine Gedenktafel f\u00fcr Deckenl\u00f6cher", "url": "https://www.tagesschau.de/inland/regional/nordrheinwestfalen/wdr-der-koelsche-jesus-und-eine-gedenktafel-fuer-deckenloecher-100.html", "thumbnailUrl": "https://images.tagesschau.de/image/46a459bc-0320-47eb-807f-6903b96065b7/AAABjrQd_OU/AAABjcWesUg/16x9-512.jpg", "date": "2024-04-06T17:01:00.000+02:00", "lat": 51.3397, "lon": 7.5733, "intensity": 0.8, "source": "Tagesschau"}, {"title": "Berlin-Malchow: 81-J\u00e4hriger nach Fahrrad-Sturz gestorben ", "url": "https://www.tagesschau.de/inland/regional/berlin/rbb-berlin-malchow-81-jaehriger-nach-fahrrad-sturz-gestorben-100.html", "thumbnailUrl": "https://images.tagesschau.de/image/812a582d-431a-4416-a855-c1c28bcbfb65/AAABjrPpMnE/AAABjcWesUg/16x9-512.jpg", "date": "2024-04-06T16:52:27.000+02:00", "lat": 52.625, "lon": 13.5725, "intensity": 0.6, "source": "Tagesschau"}, {"title": "Berlin: Bisherige Juso-Doppelspitze erneut ins Amt gew\u00e4hlt", "url": "https://www.tagesschau.de/inland/regional/berlin/rbb-berlin-bisherige-juso-doppelspitze-erneut-ins-amt-gewaehlt-100.html", "thumbnailUrl": "https://images.tagesschau.de/image/440c58c3-eb32-4cbb-a483-7c6ab1268646/AAABjrPnSPg/AAABjcWesUg/16x9-512.jpg", "date": "2024-04-06T16:50:23.000+02:00", "lat": 52.520008, "lon": 13.404954, "intensity": 0.5, "source": "Tagesschau"}, {"title": "Backhaus: Keine R\u00e4umungen auf Campingplatz Prerow in dieser Saison", "url": "https://www.tagesschau.de/inland/regional/mecklenburgvorpommern/ndr-backhaus-keine-raeumungen-auf-campingplatz-prerow-in-dieser-saison-100.html", "thumbnailUrl": "https://images.tagesschau.de/image/ec60d3d5-cf8b-4a1a-a837-04c9c99519b8/AAABjrNjLdk/AAABjcWesUg/16x9-512.jpg", "date": "2024-04-06T16:38:00.000+02:00", "lat": 54.4275, "lon": 12.5361, "intensity": 0.3, "source": "Tagesschau"}, {"title": "FCK rutscht auf Abstiegsplatz: Dem Pokalrausch folgt der Kater in der Liga", "url": "https://www.tagesschau.de/inland/regional/rheinlandpfalz/swr-fck-rutscht-auf-abstiegsplatz-dem-pokalrausch-folgt-der-kater-in-der-liga-100.html", "thumbnailUrl": "https://images.tagesschau.de/image/16a14530-1448-4e6c-b920-1b2b5423c418/AAABjrPm_UM/AAABjcWesUg/16x9-512.jpg", "date": "2024-04-06T16:27:53.000+02:00", "lat": 49.4431, "lon": 8.8017, "intensity": 0.8, "source": "Tagesschau"}, {"title": "Berlin-Wilmersdorf: 18-J\u00e4hriger f\u00e4hrt Radfahrer an und begeht Fahrerflucht", "url": "https://www.tagesschau.de/inland/regional/berlin/rbb-berlin-wilmersdorf-18-jaehriger-faehrt-radfahrer-an-und-begeht-fahrerflucht-100.html", "thumbnailUrl": "https://images.tagesschau.de/image/b484a393-2af9-4d00-b627-8053b2c379ce/AAABjrPRXNE/AAABjcWesUg/16x9-512.jpg", "date": "2024-04-06T16:27:14.000+02:00", "lat": 52.4873, "lon": 13.2951, "intensity": 0.7, "source": "Tagesschau"}, {"title": "Diese \u00f6ffentlichen Grillpl\u00e4tze gibt es im Saarland", "url": "https://www.tagesschau.de/inland/regional/saarland/sr-diese-oeffentlichen-grillplaetze-gibt-es-im-saarland-100.html", "thumbnailUrl": "https://images.tagesschau.de/image/119ce452-0c6b-4833-a754-7e55d9cb180d/AAABjrPH0_8/AAABjcWesUg/16x9-512.jpg", "date": "2024-04-06T16:19:39.490+02:00", "lat": 49.3964, "lon": 7.0094, "intensity": 0.3, "source": "Tagesschau"}, {"title": "Manipulierte Fotos und Videos: Facebook-Konzern Meta l\u00e4sst mehr KI-Inhalte mit Warnhinweisen zu", "url": "https://www.tagesschau.de/inland/regional/brandenburg/rbb-manipulierte-fotos-und-videos-facebook-konzern-meta-laesst-mehr-ki-inhalte-mit-warnhinweisen-zu-100.html", "thumbnailUrl": "https://images.tagesschau.de/image/7cfb3858-f318-4570-b8be-5cd2c4950538/AAABjrPEqNs/AAABjcWesUg/16x9-512.jpg", "date": "2024-04-06T16:13:59.000+02:00", "lat": 52.520008, "lon": 13.404954, "intensity": 0.7, "source": "Tagesschau"}, {"title": "Regionalliga S\u00fcdwest: Last-Minute-R\u00fcckschl\u00e4ge f\u00fcr FSV und OFC", "url": "https://www.tagesschau.de/inland/regional/hessen/hr-regionalliga-suedwest-last-minute-rueckschlaege-fuer-fsv-und-ofc-102.html", "thumbnailUrl": "https://images.tagesschau.de/image/cb4ad0ca-e774-4083-8aa5-1f743b4fcbb6/AAABjrPEhjU/AAABjcWesUg/16x9-512.jpg", "date": "2024-04-06T16:13:58.604+02:00", "lat": 50.1109, "lon": 8.6843, "intensity": 0.8, "source": "Tagesschau"}, {"title": "Tanzen, bis die Bagger kommen", "url": "https://www.tagesschau.de/inland/regional/berlin/a100-techno-100.html", "thumbnailUrl": "https://images.tagesschau.de/image/cff8c77c-b13b-4519-9ad3-b2f4803989c7/AAABjq4K8BM/AAABjcWesUg/16x9-512.jpg", "date": "2024-04-06T16:10:41.063+02:00", "lat": 52.52, "lon": 13.405, "intensity": 0.8, "source": "Tagesschau"}, {"title": "So geht sicheres Grillen - Tipps von der Feuerwehr", "url": "https://www.tagesschau.de/inland/regional/saarland/sr-so-geht-sicheres-grillen-tipps-von-der-feuerwehr-100.html", "thumbnailUrl": "https://images.tagesschau.de/image/2593f717-6084-40f0-9d09-49be2a76bf81/AAABjrPETPc/AAABjcWesUg/16x9-512.jpg", "date": "2024-04-06T16:06:00.000+02:00", "lat": 49.3794, "lon": 6.9986, "intensity": 0.7, "source": "Tagesschau"}, {"title": "Wetter in NRW: H\u00f6chstwert von 28 Grad m\u00f6glich", "url": "https://www.tagesschau.de/inland/regional/nordrheinwestfalen/wdr-aprilwetter-am-wochenende-gewitter-rekordverdaechtige-waerme-und-saharastaub-moeglich-100.html", "thumbnailUrl": "https://images.tagesschau.de/image/27012b8f-bcec-4bde-9451-9bcd9563bd39/AAABjrSEjA4/AAABjcWesUg/16x9-512.jpg", "date": "2024-04-06T15:53:00.000+02:00", "lat": 51.8133, "lon": 7.6261, "intensity": 0.8, "source": "Tagesschau"}, {"title": "Schwere Vorw\u00fcrfe gegen Israels Armee", "url": "https://www.tagesschau.de/ausland/israel-gazastreifen-ki-102.html", "thumbnailUrl": "https://images.tagesschau.de/image/3fae2e6d-e1f2-4df0-8ab5-388959e201e8/AAABjrMmKhQ/AAABjcWesUg/16x9-512.jpg", "date": "2024-04-06T15:52:24.796+02:00", "lat": 31.1656, "lon": 34.3955, "intensity": 0.8, "source": "Tagesschau"}, {"title": "Gewalttat auf Pannierstra\u00dfe: Frauenpaar in Neuk\u00f6lln angegriffen", "url": "https://www.tagesschau.de/inland/regional/berlin/rbb-gewalttat-auf-pannierstrasse-frauenpaar-in-neukoelln-angegriffen-100.html", "thumbnailUrl": "https://images.tagesschau.de/image/2e735df7-4cff-4579-b113-1928844b3993/AAABjrOuhKc/AAABjcWesUg/16x9-512.jpg", "date": "2024-04-06T15:48:37.000+02:00", "lat": 52.485288, "lon": 13.436943, "intensity": 0.7, "source": "Tagesschau"}, {"title": "Wie deutsche Autobauer den Regenwald bedrohen", "url": "https://www.tagesschau.de/wirtschaft/weltwirtschaft/autoindustrie-brasilien-leder-100.html", "thumbnailUrl": "https://images.tagesschau.de/image/3e81ea6e-d8c7-47fc-bcce-ce639cdcd373/AAABjqgXsEU/AAABjcWesUg/16x9-512.jpg", "date": "2024-04-06T15:44:17.215+02:00", "lat": -5.0, "lon": -55.0, "intensity": 0.7, "source": "Tagesschau"}, {"title": "Klimablockade am Kohlekraftwerk Scholven aufgel\u00f6st", "url": "https://www.tagesschau.de/inland/regional/nordrheinwestfalen/klimaaktivisten-blockieren-steinkohlekraftwerk-gelsenkirchen-100.html", "thumbnailUrl": "https://images.tagesschau.de/image/c68d7446-166d-482c-989b-e1e158804518/AAABjrMhwSM/AAABjcWesUg/16x9-512.jpg", "date": "2024-04-06T15:41:27.908+02:00", "lat": 51.5177, "lon": 7.0857, "intensity": 0.8, "source": "Tagesschau"}, {"title": "Th\u00fcringer FDP zieht mit Kemmerich in den Wahlkampf \u2013 Ziel: acht bis zehn Prozent", "url": "https://www.tagesschau.de/inland/regional/thueringen/mdr-thueringer-fdp-zieht-mit-kemmerich-in-den-wahlkampf--ziel-acht-bis-zehn-prozent-100.html", "thumbnailUrl": "https://images.tagesschau.de/image/4001e995-1716-486c-8ff7-7cb2757a1138/AAABjraX3Vo/AAABjcWesUg/16x9-512.jpg", "date": "2024-04-06T15:27:36.000+02:00", "lat": 50.9795, "lon": 11.3295, "intensity": 0.6, "source": "Tagesschau"}, {"title": "Vorerst kein weiterer Streik: Kompromiss im \u00d6PNV in Sachsen-Anhalt", "url": "https://www.tagesschau.de/inland/regional/sachsenanhalt/mdr-vorerst-kein-weiterer-streik-kompromiss-im-oepnv-in-sachsen-anhalt-100.html", "thumbnailUrl": "https://images.tagesschau.de/image/217645cc-9da0-4ea8-8c53-d41bf8f7b0b5/AAABjradZ-Y/AAABjcWesUg/16x9-512.jpg", "date": "2024-04-06T15:11:48.000+02:00", "lat": 52.1508, "lon": 11.6276, "intensity": 0.5, "source": "Tagesschau"}, {"title": "Junger Autofahrer f\u00e4hrt Polizistin an - Dienstwaffe abgefeuert", "url": "https://www.tagesschau.de/inland/regional/niedersachsen/ndr-junger-mann-faehrt-polizistin-an-dienstwaffe-abgefeuert-100.html", "thumbnailUrl": "https://images.tagesschau.de/image/ebf530ee-7dad-4c4d-909c-a69ef43f137f/AAABjrKAh7U/AAABjcWesUg/16x9-512.jpg", "date": "2024-04-06T15:00:00.000+02:00", "lat": 51.9085, "lon": 10.2879, "intensity": 0.8, "source": "Tagesschau"}, {"title": "Sieg gegen Kaiserslautern - HSV legt im Kampf um Platz 3 vor", "url": "https://www.tagesschau.de/inland/regional/hamburg/ndr-sieg-gegen-kaiserslautern-hsv-legt-im-kampf-um-platz-3-vor-102.html", "thumbnailUrl": "https://images.tagesschau.de/image/5559a9aa-a14e-4a1c-bfd5-da2c71e453fe/AAABjrOAvD4/AAABjcWesUg/16x9-512.jpg", "date": "2024-04-06T14:54:00.000+02:00", "lat": 53.5511, "lon": 10.0003, "intensity": 0.8, "source": "Tagesschau"}, {"title": "Klarer Sieg in N\u00fcrnberg - Holstein Kiel auf Bundesliga-Kurs", "url": "https://www.tagesschau.de/inland/regional/schleswigholstein/ndr-klarer-sieg-in-nuernberg-holstein-kiel-auf-bundesliga-kurs-102.html", "thumbnailUrl": "https://images.tagesschau.de/image/c5cde85f-9fb5-4414-933d-e7a7955cc306/AAABjrN7TeY/AAABjcWesUg/16x9-512.jpg", "date": "2024-04-06T14:51:00.000+02:00", "lat": 49.44746, "lon": 11.07944, "intensity": 0.6, "source": "Tagesschau"}, {"title": "Marburger Ginkgo spielt Hauptrolle in Silent Friend: Trotz Stinkefr\u00fcchten wird dieser Baum ein Kinostar", "url": "https://www.tagesschau.de/inland/regional/hessen/hr-marburger-ginkgo-spielt-hauptrolle-in-silent-friend-trotz-stinkefruechten-wird-dieser-baum-ein-kinostar-100.html", "thumbnailUrl": "https://images.tagesschau.de/image/6c563773-e9fe-4888-be1c-bdbbfd98dc8a/AAABjrNzxHM/AAABjcWesUg/16x9-512.jpg", "date": "2024-04-06T14:47:55.601+02:00", "lat": 50.8021, "lon": 8.7668, "intensity": 0.6, "source": "Tagesschau"}, {"title": "Cannabis auf Volksfesten? Viele Veranstalter noch unsicher", "url": "https://www.tagesschau.de/inland/regional/niedersachsen/ndr-cannabis-auf-volksfesten-viele-veranstalter-noch-unsicher-100.html", "thumbnailUrl": "https://images.tagesschau.de/image/f89e8606-9c56-4110-afac-8f82b744c275/AAABjrNyO08/AAABjcWesUg/16x9-512.jpg", "date": "2024-04-06T14:42:00.000+02:00", "lat": 52.3759, "lon": 9.7332, "intensity": 0.5, "source": "Tagesschau"}, {"title": "Anti-rechts-Protest: B\u00fcndnis aus Ostfriesland schl\u00e4gt neuen Weg ein", "url": "https://www.tagesschau.de/inland/regional/niedersachsen/ndr-anti-rechts-protest-buendnis-aus-ostfriesland-schlaegt-neuen-weg-ein-100.html", "thumbnailUrl": "https://images.tagesschau.de/image/ed174063-0647-4d49-b831-88d5be477ce8/AAABjrNf8HU/AAABjcWesUg/16x9-512.jpg", "date": "2024-04-06T14:33:00.000+02:00", "lat": 53.3643, "lon": 7.2061, "intensity": 0.5, "source": "Tagesschau"}, {"title": "Berlin: Zwei Verletzte bei Wohnungsbrand in Steglitz ", "url": "https://www.tagesschau.de/inland/regional/berlin/rbb-berlin-zwei-verletzte-bei-wohnungsbrand-in-steglitz-100.html", "thumbnailUrl": "https://images.tagesschau.de/image/8d810585-bbfc-4b14-8bc6-454b91dd0dbf/AAABjrNU5LM/AAABjcWesUg/16x9-512.jpg", "date": "2024-04-06T14:10:39.000+02:00", "lat": 52.4551, "lon": 13.3294, "intensity": 0.8, "source": "Tagesschau"}, {"title": "Neues Seenotrettungsboot in Laboe getauft", "url": "https://www.tagesschau.de/inland/regional/schleswigholstein/ndr-neues-seenotrettungsboot-in-laboe-getauft-100.html", "thumbnailUrl": "https://images.tagesschau.de/image/0bd956c7-5010-484f-846b-2d4bdf4fdd69/AAABjrNTCdM/AAABjcWesUg/16x9-512.jpg", "date": "2024-04-06T14:06:00.000+02:00", "lat": 54.404888, "lon": 10.390098, "intensity": 0.7, "source": "Tagesschau"}, {"title": "Auch nach Semesterstart: Viele Studierende ohne Wohnheimzimmer", "url": "https://www.tagesschau.de/inland/regional/nordrheinwestfalen/wdr-auch-nach-semesterstart-viele-studierende-ohne-wohnheimzimmer-100.html", "thumbnailUrl": "https://images.tagesschau.de/image/4073a948-cb4c-4051-ae7f-6e4e20491504/AAABjrRU348/AAABjcWesUg/16x9-512.jpg", "date": "2024-04-06T14:04:00.000+02:00", "lat": 51.9607, "lon": 7.5964, "intensity": 0.8, "source": "Tagesschau"}, {"title": "Ferienende, Halbmarathon, Baustellen: Staus ab Samstagnachmittag erwartet", "url": "https://www.tagesschau.de/inland/regional/brandenburg/rbb-ferienende-halbmarathon-baustellen-staus-ab-samstagnachmittag-erwartet-100.html", "thumbnailUrl": "https://images.tagesschau.de/image/1502df00-880a-4a41-b50f-9e5f93b4fdae/AAABjrM5S9Q/AAABjcWesUg/16x9-512.jpg", "date": "2024-04-06T13:38:01.000+02:00", "lat": 52.520008, "lon": 13.404954, "intensity": 0.7, "source": "Tagesschau"}, {"title": "DEL2: Die Kassel Huskies d\u00fcrfen jetzt um alles spielen", "url": "https://www.tagesschau.de/inland/regional/hessen/hr-del2-die-kassel-huskies-duerfen-jetzt-um-alles-spielen-100.html", "thumbnailUrl": "https://images.tagesschau.de/image/b377285f-91bf-4e38-a56d-66b0a41f332e/AAABjrM1f5Y/AAABjcWesUg/16x9-512.jpg", "date": "2024-04-06T13:36:18.098+02:00", "lat": 51.3125, "lon": 9.4815, "intensity": 0.8, "source": "Tagesschau"}, {"title": "Unfall in Dillenburger Wildpark: H\u00fctte in Tiergehege st\u00fcrzt \u00fcber Arbeiter ein", "url": "https://www.tagesschau.de/inland/regional/hessen/hr-unfall-in-dillenburger-wildpark-huette-in-tiergehege-stuerzt-ueber-arbeiter-ein-100.html", "thumbnailUrl": "https://images.tagesschau.de/image/5f4249c3-a80b-4a48-a71f-850b2f0c19c0/AAABjrNGBOM/AAABjcWesUg/16x9-512.jpg", "date": "2024-04-06T12:56:18.536+02:00", "lat": 50.746649, "lon": 8.289721, "intensity": 0.8, "source": "Tagesschau"}, {"title": "Luginger: 1. FC Saarbr\u00fccken wird immer beliebter", "url": "https://www.tagesschau.de/inland/regional/saarland/sr-luginger-1-fc-saarbruecken-wird-immer-beliebter-100.html", "thumbnailUrl": "https://images.tagesschau.de/image/43e6831b-ed76-4880-9d6c-87269a783ebe/AAABjrNHqR8/AAABjcWesUg/16x9-512.jpg", "date": "2024-04-06T12:55:00.000+02:00", "lat": 49.246, "lon": 6.981, "intensity": 0.7, "source": "Tagesschau"}, {"title": "Mehrere Tote bei russischem Angriff auf Charkiw", "url": "https://www.tagesschau.de/ausland/europa/ukraine-charkiw-136.html", "thumbnailUrl": "https://images.tagesschau.de/image/69a44791-6d8f-492b-bd68-b6268ed752e8/AAABjrL0YdE/AAABjcWesUg/16x9-512.jpg", "date": "2024-04-06T12:54:04.229+02:00", "lat": 49.9935, "lon": 36.231389, "intensity": 1, "source": "Tagesschau"}, {"title": "Mammut-Holzachterbahn in Tripsdrill bleibt stehen: 24 Fahrg\u00e4ste gerettet", "url": "https://www.tagesschau.de/inland/regional/badenwuerttemberg/swr-mammut-holzachterbahn-in-tripsdrill-bleibt-stehen-besucher-evakuiert-100.html", "thumbnailUrl": "https://images.tagesschau.de/image/08226a9e-9f34-4732-aca9-1cd92b26faef/AAABjrP-yuQ/AAABjcWesUg/16x9-512.jpg", "date": "2024-04-06T12:53:00.000+02:00", "lat": 49.0385, "lon": 9.081, "intensity": 0.7, "source": "Tagesschau"}, {"title": "Elversberg und Magdeburg trennen sich 0:0", "url": "https://www.tagesschau.de/inland/regional/saarland/sr-sv-elversberg-will-wiedergutmachung-gegen-magdeburg-100.html", "thumbnailUrl": "https://images.tagesschau.de/image/cc8834e3-0956-463c-92c1-2ebfb955e914/AAABjrN-lyI/AAABjcWesUg/16x9-512.jpg", "date": "2024-04-06T12:47:00.000+02:00", "lat": 49.3252, "lon": 7.0974, "intensity": 0.7, "source": "Tagesschau"}, {"title": "Gartenarbeit im Fr\u00fchling: Wohin mit dem Gr\u00fcnabfall?", "url": "https://www.tagesschau.de/inland/regional/schleswigholstein/ndr-gartenarbeit-im-fruehling-wohin-mit-dem-gruenabfall-100.html", "thumbnailUrl": "https://images.tagesschau.de/image/8ed6811d-4630-4ece-a0ba-687f5391e10a/AAABjrLS3Uw/AAABjcWesUg/16x9-512.jpg", "date": "2024-04-06T12:41:00.000+02:00", "lat": 54.4847, "lon": 9.9883, "intensity": 0.4, "source": "Tagesschau"}, {"title": "FC St. Pauli: Mit Kart-Philosophie heute beim Karlsruher SC bestehen", "url": "https://www.tagesschau.de/inland/regional/hamburg/ndr-fc-st-pauli-mit-kart-philosophie-beim-karlsruher-sc-bestehen-102.html", "thumbnailUrl": "https://images.tagesschau.de/image/83dbb76c-c8e0-4fbe-9028-5004ab5b4619/AAABjrMCbvo/AAABjcWesUg/16x9-512.jpg", "date": "2024-04-06T12:41:00.000+02:00", "lat": 53.551086, "lon": 9.98902, "intensity": 0.5, "source": "Tagesschau"}, {"title": "Ben\u00f6tigt die Meyer Werft 550 Millionen Euro?", "url": "https://www.tagesschau.de/inland/regional/niedersachsen/ndr-benoetigt-die-meyer-werft-550-millionen-euro-100.html", "thumbnailUrl": "https://images.tagesschau.de/image/3b4a2003-a99f-4566-9359-ac5c1a2f8621/AAABjq_2hzY/AAABjcWesUg/16x9-512.jpg", "date": "2024-04-06T12:27:00.000+02:00", "lat": 52.9986, "lon": 7.3139, "intensity": 0.8, "source": "Tagesschau"}, {"title": "Stadt Trier testet neue Sirenen", "url": "https://www.tagesschau.de/inland/regional/rheinlandpfalz/swr-stadt-trier-testet-heute-neue-sirenen-100.html", "thumbnailUrl": "https://images.tagesschau.de/image/415f2abb-686c-4e59-b0df-6d6707de4065/AAABjrFp77Y/AAABjcWesUg/16x9-512.jpg", "date": "2024-04-06T12:19:00.000+02:00", "lat": 49.7579, "lon": 6.6412, "intensity": 0.7, "source": "Tagesschau"}, {"title": "Medienbericht: Rechtsextreme Straftaten an Schulen verdreifacht", "url": "https://www.tagesschau.de/inland/regional/hessen/hr-medienbericht-rechtsextreme-straftaten-an-schulen-verdreifacht-100.html", "thumbnailUrl": "https://images.tagesschau.de/image/6ad5a032-4f22-4010-8719-3abfbdf787ff/AAABjrLqaOI/AAABjcWesUg/16x9-512.jpg", "date": "2024-04-06T12:17:24.843+02:00", "lat": 50.6521, "lon": 9.1625, "intensity": 0.8, "source": "Tagesschau"}, {"title": "Wie W\u00fcstensand von der Sahara bis nach NRW geweht wird", "url": "https://www.tagesschau.de/inland/regional/nordrheinwestfalen/wdr-wie-wuestensand-von-der-sahara-bis-nach-nrw-geweht-wird-100.html", "thumbnailUrl": "https://images.tagesschau.de/image/4160bd95-445c-4850-9439-2a9edb89009d/AAABjrSEeTc/AAABjcWesUg/16x9-512.jpg", "date": "2024-04-06T12:16:00.000+02:00", "lat": 51.4332, "lon": 7.6261, "intensity": 0.6, "source": "Tagesschau"}, {"title": "Ein \"Messias\" mischt Ungarns Opposition auf", "url": "https://www.tagesschau.de/ausland/europa/peter-magyar-102.html", "thumbnailUrl": "https://images.tagesschau.de/image/676d4f51-d6ff-46f6-a928-f340f3a57a56/AAABjrK32Dg/AAABjcWesUg/16x9-512.jpg", "date": "2024-04-06T11:52:20.520+02:00", "lat": 47.4979, "lon": 19.0402, "intensity": 0.8, "source": "Tagesschau"}, {"title": "Baumpaten in Th\u00fcringen starten Aufforstung f\u00fcr Rennsteig-W\u00e4lder", "url": "https://www.tagesschau.de/inland/regional/thueringen/mdr-baumpaten-in-thueringen-starten-aufforstung-fuer-rennsteig-waelder-100.html", "thumbnailUrl": "https://images.tagesschau.de/image/2d01d4c8-077a-460d-b95c-785a65761436/AAABjraYE3E/AAABjcWesUg/16x9-512.jpg", "date": "2024-04-06T11:49:24.000+02:00", "lat": 51.0109, "lon": 10.8453, "intensity": 0.6, "source": "Tagesschau"}, {"title": "BW-Gr\u00fcne nach Bericht \u00fcber \u00d6zdemir-Spitzenkandidatur: \"Es gibt keinen neuen Stand\"", "url": "https://www.tagesschau.de/inland/regional/badenwuerttemberg/swr-bw-gruene-nach-bericht-ueber-oezdemir-spitzenkandidatur-es-gibt-keinen-neuen-stand-100.html", "thumbnailUrl": "https://images.tagesschau.de/image/6c753bf2-8e49-41ac-892b-33b86ff28134/AAABjrLSgoU/AAABjcWesUg/16x9-512.jpg", "date": "2024-04-06T11:46:30.000+02:00", "lat": 48.7758, "lon": 9.793, "intensity": 0.4, "source": "Tagesschau"}, {"title": "Mann bei Wohnungsbrand in Berlin-Pankow verletzt", "url": "https://www.tagesschau.de/inland/regional/berlin/rbb-mann-bei-wohnungsbrand-in-berlin-pankow-verletzt-100.html", "thumbnailUrl": "https://images.tagesschau.de/image/184434b9-75a8-4eb1-a682-d663fe0fec52/AAABjrNU5q0/AAABjcWesUg/16x9-512.jpg", "date": "2024-04-06T11:43:57.000+02:00", "lat": 52.5703, "lon": 13.4396, "intensity": 0.7, "source": "Tagesschau"}, {"title": "B\u00fcrger f\u00fcr Binz machen Wahlwerbung in zwei Kitas auf R\u00fcgen", "url": "https://www.tagesschau.de/inland/regional/mecklenburgvorpommern/ndr-buerger-fuer-binz-machen-wahlwerbung-in-zwei-kitas-auf-ruegen-100.html", "thumbnailUrl": "https://images.tagesschau.de/image/690eb08a-588d-4d48-a66b-3958478aa9f3/AAABjrMFzGU/AAABjcWesUg/16x9-512.jpg", "date": "2024-04-06T11:30:00.000+02:00", "lat": 54.3836, "lon": 13.6065, "intensity": 0.6, "source": "Tagesschau"}, {"title": "Bremerhavener Koalition will Rechte f\u00fcr Einzelabgeordnete einschr\u00e4nken", "url": "https://www.tagesschau.de/inland/regional/bremen/rb-bremerhavener-koalition-will-rechte-fuer-einzelabgeordnete-einschraenken-100.html", "thumbnailUrl": "https://images.tagesschau.de/image/f7cbfc44-79d5-4480-81f9-e4d978c1a3b7/AAABjrKzY2w/AAABjcWesUg/16x9-512.jpg", "date": "2024-04-06T11:15:00.000+02:00", "lat": 53.5511, "lon": 8.8017, "intensity": 0.7, "source": "Tagesschau"}, {"title": "Richtungswahl in der Slowakei", "url": "https://www.tagesschau.de/ausland/europa/slowakei-stichwahl-praesident-100.html", "thumbnailUrl": "https://images.tagesschau.de/image/7370ca27-d16c-40f8-bb9e-2a68860ecb1c/AAABjrJ3eu0/AAABjcWesUg/16x9-512.jpg", "date": "2024-04-06T11:12:00.177+02:00", "lat": 48.669026, "lon": 19.699024, "intensity": 0.8, "source": "Tagesschau"}, {"title": "\"Rote Rosen\" suchen \"schlausten Hund der Welt\" - Casting im April", "url": "https://www.tagesschau.de/inland/regional/niedersachsen/ndr-rote-rosen-suchen-schlausten-hund-der-welt-casting-im-april-100.html", "thumbnailUrl": "https://images.tagesschau.de/image/089a4e92-e1c5-43ec-85dd-ca75b1664fa0/AAABjrKqmnA/AAABjcWesUg/16x9-512.jpg", "date": "2024-04-06T11:02:00.000+02:00", "lat": 53.2523, "lon": 10.4136, "intensity": 0.7, "source": "Tagesschau"}, {"title": "Erdbeer-Ernte in Hessen beginnt fr\u00fcher als \u00fcblich", "url": "https://www.tagesschau.de/inland/regional/hessen/hr-hessische-erdbeer-bauern-stehen-in-startloechern-100.html", "thumbnailUrl": "https://images.tagesschau.de/image/3c6b51f3-4040-4077-81b2-ef813c154632/AAABjrMEDjI/AAABjcWesUg/16x9-512.jpg", "date": "2024-04-06T10:55:35.130+02:00", "lat": 50.7374, "lon": 9.3803, "intensity": 0.5, "source": "Tagesschau"}, {"title": "A38 wird im Landkreis G\u00f6ttingen gesperrt - bis Ende April", "url": "https://www.tagesschau.de/inland/regional/niedersachsen/ndr-a38-wird-im-landkreis-goettingen-gesperrt-bis-ende-april-100.html", "thumbnailUrl": "https://images.tagesschau.de/image/e15fb7f1-6066-473a-abe9-9e798160a629/AAABjrKjUBs/AAABjcWesUg/16x9-512.jpg", "date": "2024-04-06T10:53:00.000+02:00", "lat": 51.53608, "lon": 9.95148, "intensity": 0.7, "source": "Tagesschau"}, {"title": "Heliumballon l\u00f6st Stromausfall in Wuppertal aus", "url": "https://www.tagesschau.de/inland/regional/nordrheinwestfalen/wdr-heliumballon-loest-stromausfall-in-wuppertal-aus-100.html", "thumbnailUrl": "https://images.tagesschau.de/image/4a7142c0-8813-42b8-99d6-2602d9e3b7b8/AAABjrMLPz4/AAABjcWesUg/16x9-512.jpg", "date": "2024-04-06T10:45:00.000+02:00", "lat": 51.26361, "lon": 7.13932, "intensity": 0.8, "source": "Tagesschau"}, {"title": "Zoll Karlsruhe: 330 Kilo Drogen in Lkw entdeckt", "url": "https://www.tagesschau.de/inland/regional/badenwuerttemberg/swr-zoll-karlsruhe-330-kilo-drogen-in-lkw-entdeckt-100.html", "thumbnailUrl": "https://images.tagesschau.de/image/704242bb-f68b-4a4f-9589-3a6f88aac258/AAABjrKxjJo/AAABjcWesUg/16x9-512.jpg", "date": "2024-04-06T10:41:41.000+02:00", "lat": 49.0069, "lon": 8.4037, "intensity": 0.9, "source": "Tagesschau"}, {"title": "Eintracht Frankfurt h\u00e4ngt in der ganz eigenen Wolke fest", "url": "https://www.tagesschau.de/inland/regional/hessen/hr-eintracht-frankfurt-haengt-in-der-ganz-eigenen-wolke-fest-102.html", "thumbnailUrl": "https://images.tagesschau.de/image/b90ad7f3-b781-46e7-8308-8f7b63f57e2c/AAABjrKUX8E/AAABjcWesUg/16x9-512.jpg", "date": "2024-04-06T10:41:27.919+02:00", "lat": 50.1109, "lon": 8.67, "intensity": 0.7, "source": "Tagesschau"}, {"title": "Corona-Folgen bei Kindern: Wie ein 13-J\u00e4hriger aus Wiesbaden gegen Long Covid k\u00e4mpft", "url": "https://www.tagesschau.de/inland/regional/hessen/hr-corona-folgen-bei-kindern-wie-ein-13-jaehriger-aus-wiesbaden-gegen-long-covid-kaempft-100.html", "thumbnailUrl": "https://images.tagesschau.de/image/a91fba23-db01-4bd7-9855-6ecc85d8b38b/AAABjrKJbMs/AAABjcWesUg/16x9-512.jpg", "date": "2024-04-06T10:31:23.881+02:00", "lat": 50.0782, "lon": 8.2394, "intensity": 0.8, "source": "Tagesschau"}, {"title": "Werder-Pechvogel Pieper: Comeback, dann im Gl\u00fcck \u2014 und wieder verletzt", "url": "https://www.tagesschau.de/inland/regional/bremen/rb-werder-pechvogel-pieper-comeback-dann-im-glueck--und-wieder-verletzt-100.html", "thumbnailUrl": "https://images.tagesschau.de/image/25c889ec-b63e-4a82-a58f-3a74c5be34e4/AAABjrKOzeA/AAABjcWesUg/16x9-512.jpg", "date": "2024-04-06T10:31:00.000+02:00", "lat": 53.079, "lon": 8.809, "intensity": 0.7, "source": "Tagesschau"}, {"title": "USA und Israel wegen Iran in Alarmbereitschaft", "url": "https://www.tagesschau.de/ausland/iran-israel-usa-100.html", "thumbnailUrl": "https://images.tagesschau.de/image/3ace7a8a-ae12-42b3-b54d-a46b12e5e638/AAABjrJpl9s/AAABjcWesUg/16x9-512.jpg", "date": "2024-04-06T09:57:28.660+02:00", "lat": 51.3963, "lon": 35.6895, "intensity": 0.8, "source": "Tagesschau"}, {"title": "Tauziehen um ecuadorianischen Ex-Vizepr\u00e4sidenten", "url": "https://www.tagesschau.de/ausland/amerika/ecuador-mexiko-ex-vizepraesident-100.html", "thumbnailUrl": "https://images.tagesschau.de/image/f7752b6f-47de-4423-98d6-3f219d3fff64/AAABjrKTyww/AAABjcWesUg/16x9-512.jpg", "date": "2024-04-06T09:45:41.203+02:00", "lat": -0.180653, "lon": -78.467834, "intensity": 0.8, "source": "Tagesschau"}, {"title": "Ein Schwerverletzter bei Schl\u00e4gerei in Sulzbach", "url": "https://www.tagesschau.de/inland/regional/saarland/sr-ein-schwerverletzter-bei-schlaegerei-in-sulzbach-100.html", "thumbnailUrl": "https://images.tagesschau.de/image/a6e498e6-1f72-403e-8c3a-c80ca38ebcbe/AAABjrdSOWo/AAABjcWesUg/16x9-512.jpg", "date": "2024-04-06T09:44:00.000+02:00", "lat": 49.3186, "lon": 7.0577, "intensity": 0.9, "source": "Tagesschau"}, {"title": "Motorradsaison startet: Polizei im Westen der Pfalz mahnt zur Vorsicht", "url": "https://www.tagesschau.de/inland/regional/rheinlandpfalz/swr-motorradsaison-startet-polizei-im-westen-der-pfalz-mahnt-zur-vorsicht-100.html", "thumbnailUrl": "https://images.tagesschau.de/image/8a8db1e9-b871-40a5-8d56-75a50d8c0f58/AAABjrJt4vo/AAABjcWesUg/16x9-512.jpg", "date": "2024-04-06T09:41:41.000+02:00", "lat": 49.3058, "lon": 7.9898, "intensity": 0.7, "source": "Tagesschau"}, {"title": "Verein findet bei Putzete in N\u00fcrtingen zwei Pistolen", "url": "https://www.tagesschau.de/inland/regional/badenwuerttemberg/swr-verein-findet-bei-putzete-in-nuertingen-zwei-pistolen-100.html", "thumbnailUrl": "https://images.tagesschau.de/image/d3f13a1f-387e-4f27-9d31-b810ad4ba805/AAABjrJofPY/AAABjcWesUg/16x9-512.jpg", "date": "2024-04-06T09:39:41.000+02:00", "lat": 48.6376, "lon": 9.3479, "intensity": 0.8, "source": "Tagesschau"}, {"title": "Zu hohe Kosten: \"Tagesspiegel\" und \"Berliner Morgenpost\" erscheinen sonntags nicht mehr gedruckt", "url": "https://www.tagesschau.de/inland/regional/berlin/rbb-zu-hohe-kosten-tagesspiegel-und-berliner-morgenpost-erscheinen-sonntags-nicht-mehr-gedruckt-100.html", "thumbnailUrl": "https://images.tagesschau.de/image/8f4153bd-6010-4d12-9034-981b64b0b00b/AAABjrJYIKQ/AAABjcWesUg/16x9-512.jpg", "date": "2024-04-06T09:35:55.000+02:00", "lat": 52.520008, "lon": 13.404954, "intensity": 0.7, "source": "Tagesschau"}, {"title": "HSV auch gegen Kaiserslautern ohne Torj\u00e4ger Robert Glatzel ", "url": "https://www.tagesschau.de/inland/regional/hamburg/ndr-hsv-auch-gegen-kaiserslautern-ohne-torjaeger-robert-glatzel-106.html", "thumbnailUrl": "https://images.tagesschau.de/image/84913972-c63c-45fc-bc1d-5cb9dc9284ef/AAABjqlpL1E/AAABjcWesUg/16x9-512.jpg", "date": "2024-04-06T09:26:00.000+02:00", "lat": 53.551086, "lon": 9.993682, "intensity": 0.7, "source": "Tagesschau"}, {"title": "Berlin-Marzahn: Feuerwehr l\u00f6scht Br\u00e4nde in f\u00fcnf Kellerverschl\u00e4gen", "url": "https://www.tagesschau.de/inland/regional/berlin/rbb-berlin-marzahn-feuerwehr-loescht-braende-in-fuenf-kellerverschlaegen-100.html", "thumbnailUrl": "https://images.tagesschau.de/image/f3aeb910-a3b1-46b9-9e86-df5bfe61f273/AAABjrJJd-s/AAABjcWesUg/16x9-512.jpg", "date": "2024-04-06T09:19:34.000+02:00", "lat": 52.5498, "lon": 13.5627, "intensity": 0.7, "source": "Tagesschau"}, {"title": "A8 bei Neunkirchen Richtung Pirmasens bis Montag voll gesperrt", "url": "https://www.tagesschau.de/inland/regional/saarland/sr-a8-bei-neunkirchen-richtung-pirmasens-bis-montag-voll-gesperrt-100.html", "thumbnailUrl": "https://images.tagesschau.de/image/0ccda861-3c7e-43e7-ba5f-61559e6a4a16/AAABjq1sEWQ/AAABjcWesUg/16x9-512.jpg", "date": "2024-04-06T09:05:00.000+02:00", "lat": 49.3436, "lon": 7.1814, "intensity": 0.8, "source": "Tagesschau"}, {"title": "Bus auf Abruf - Flitsaar startet in St. Wendel", "url": "https://www.tagesschau.de/inland/regional/saarland/sr-bus-auf-abruf-flitsaar-startet-in-st-wendel-102.html", "thumbnailUrl": "https://images.tagesschau.de/image/5de5cd64-79fe-4bd0-a9ac-26c27ef8bbf6/AAABjp81uu8/AAABjcWesUg/16x9-512.jpg", "date": "2024-04-02T16:24:00.000+02:00", "lat": 49.4614, "lon": 7.1763, "intensity": 0.7, "source": "Tagesschau"}, {"title": "SAP streicht in Deutschland Tausende Jobs", "url": "https://www.tagesschau.de/wirtschaft/unternehmen/sap-stellenabbau-deutschland-100.html", "thumbnailUrl": "https://images.tagesschau.de/image/592693e1-0732-4723-a392-93793a1ede7b/AAABipMvlbE/AAABjcWesUg/16x9-512.jpg", "date": "2024-04-06T08:45:31.139+02:00", "lat": 51.224556, "lon": 10.762622, "intensity": 0.8, "source": "Tagesschau"}, {"title": "T\u00f6dliches Schweigen?", "url": "https://www.tagesschau.de/inland/innenpolitik/voelkermord-ruanda-100.html", "thumbnailUrl": "https://images.tagesschau.de/image/32713471-b46d-4908-8187-19189b82e391/AAABhoCkGWM/AAABjcWesUg/16x9-512.jpg", "date": "2024-04-06T08:26:22.185+02:00", "lat": -1.940278, "lon": 30.059558, "intensity": 0.8, "source": "Tagesschau"}, {"title": "209 Namen bekannt: Berliner Staatsanwaltschaft bearbeitet rund 680 Verfahren zum Nahost-Konflikt", "url": "https://www.tagesschau.de/inland/regional/berlin/rbb-209-namen-bekannt-berliner-staatsanwaltschaft-bearbeitet-rund-680-verfahren-zum-nahost-konflikt-100.html", "thumbnailUrl": "https://images.tagesschau.de/image/c745b61e-635f-45ff-b056-2e6aa4f02f8b/AAABjrIWMpU/AAABjcWesUg/16x9-512.jpg", "date": "2024-04-06T08:22:09.000+02:00", "lat": 52.520008, "lon": 13.404953, "intensity": 0.8, "source": "Tagesschau"}, {"title": "Pragsdorf-Prozess: Angeklagter nennt angeblichen Mitt\u00e4ter", "url": "https://www.tagesschau.de/inland/regional/mecklenburgvorpommern/ndr-pragsdorf-prozess-angeklagter-nennt-angeblichen-mittaeter-100.html", "thumbnailUrl": "https://images.tagesschau.de/image/1a53ea90-82dc-4363-8ce5-ed5259a489d4/AAABjq8--Ig/AAABjcWesUg/16x9-512.jpg", "date": "2024-04-06T08:20:00.000+02:00", "lat": 53.6127, "lon": 13.4411, "intensity": 0.8, "source": "Tagesschau"}, {"title": "Betzdorf: Gesuchte \"Reichsb\u00fcrgerin\" verliert Geldb\u00f6rse und wird geschnappt", "url": "https://www.tagesschau.de/inland/regional/rheinlandpfalz/swr-betzdorf-gesuchte-reichsbuergerin-verliert-geldboerse-und-wird-geschnappt-100.html", "thumbnailUrl": "https://images.tagesschau.de/image/9f3c259e-2cb9-4b72-afb6-b01cb0850ca0/AAABjrISRyY/AAABjcWesUg/16x9-512.jpg", "date": "2024-04-06T08:19:49.000+02:00", "lat": 50.8086, "lon": 7.8559, "intensity": 0.6, "source": "Tagesschau"}, {"title": "Berliner Wohnungsbaugesellschaften unter Druck", "url": "https://www.tagesschau.de/inland/regional/berlin/rbb-berliner-wohnungsbaugesellschaften-unter-druck-hohe-schulden-hohe-ziele-100.html", "thumbnailUrl": "https://images.tagesschau.de/image/3a22a36f-c2da-4ff3-bd21-e5becb96cc35/AAABjrIO21M/AAABjcWesUg/16x9-512.jpg", "date": "2024-04-06T08:16:22.000+02:00", "lat": 52.520008, "lon": 13.404954, "intensity": 0.8, "source": "Tagesschau"}, {"title": "Jugendgruppe in Rostock schl\u00e4gt 17-J\u00e4hrigen nieder", "url": "https://www.tagesschau.de/inland/regional/mecklenburgvorpommern/ndr-jugendgruppe-in-rostock-schlaegt-17-jaehrigen-nieder-100.html", "thumbnailUrl": "https://images.tagesschau.de/image/e2df7ab9-608d-4300-b596-98e1a0bdd6b5/AAABjrI6ioQ/AAABjcWesUg/16x9-512.jpg", "date": "2024-04-06T08:00:00.000+02:00", "lat": 54.092441, "lon": 12.099147, "intensity": 0.8, "source": "Tagesschau"}, {"title": "Geb\u00fchren-\u00c4rger in Oberursel: Wann Anwohner f\u00fcr Feuerwehr-Eins\u00e4tze nach Hochwasser zahlen m\u00fcssen", "url": "https://www.tagesschau.de/inland/regional/hessen/hr-gebuehren-aerger-in-oberursel-wann-anwohner-fuer-feuerwehr-einsaetze-nach-hochwasser-zahlen-muessen-100.html", "thumbnailUrl": "https://images.tagesschau.de/image/12bf7ed3-b85a-414b-a8f5-08d6c6e8b787/AAABjrHg7bk/AAABjcWesUg/16x9-512.jpg", "date": "2024-04-06T07:26:46.648+02:00", "lat": 50.205226, "lon": 8.564073, "intensity": 0.7, "source": "Tagesschau"}, {"title": "\u00c4rzteausbildung in Brandenburg: Viele Medizin-Unis braucht das Land", "url": "https://www.tagesschau.de/inland/regional/brandenburg/rbb-aerzteausbildung-in-brandenburg-viele-medizin-unis-braucht-das-land-100.html", "thumbnailUrl": "https://images.tagesschau.de/image/f3408caa-8d71-4178-8b79-f1ab487aa001/AAABjrHXx-U/AAABjcWesUg/16x9-512.jpg", "date": "2024-04-06T07:13:56.000+02:00", "lat": 52.4226, "lon": 12.5597, "intensity": 0.8, "source": "Tagesschau"}, {"title": "Tod, Hunger, Hoffnungslosigkeit", "url": "https://www.tagesschau.de/ausland/asien/humanitaere-lage-norden-gaza-100.html", "thumbnailUrl": "https://images.tagesschau.de/image/99d2e78e-49ab-4117-a420-8f0b68418055/AAABjrHN6SM/AAABjcWesUg/16x9-512.jpg", "date": "2024-04-06T07:07:25.864+02:00", "lat": 31.534, "lon": 34.3547, "intensity": 0.8, "source": "Tagesschau"}, {"title": "Zwei Schwerverletzte bei Unfall zwischen Tamm und Asperg", "url": "https://www.tagesschau.de/inland/regional/badenwuerttemberg/swr-zwei-schwerverletzte-bei-unfall-zwischen-tamm-und-asperg-100.html", "thumbnailUrl": "https://images.tagesschau.de/image/a6a61a13-1ab5-431f-a490-443d0e0c9a95/AAABjrJ6l64/AAABjcWesUg/16x9-512.jpg", "date": "2024-04-06T07:04:34.000+02:00", "lat": 48.9314, "lon": 9.1584, "intensity": 0.8, "source": "Tagesschau"}, {"title": "\"Reichsb\u00fcrger\" nerven Stadtverwaltung in Landau mit Post", "url": "https://www.tagesschau.de/inland/regional/rheinlandpfalz/swr-reichsbuerger-nerven-stadtverwaltung-in-landau-mit-post-100.html", "thumbnailUrl": "https://images.tagesschau.de/image/df1e4dc1-c051-4f79-92b1-7d4e006aed8f/AAABjrISSYw/AAABjcWesUg/16x9-512.jpg", "date": "2024-04-06T06:36:27.000+02:00", "lat": 49.1951, "lon": 8.1219, "intensity": 0.5, "source": "Tagesschau"}, {"title": "Wie Ben und Henry ihren Alltag mit Autismus meistern", "url": "https://www.tagesschau.de/inland/regional/bremen/rb-wie-ben-und-henry-ihren-alltag-mit-autismus-meistern-100.html", "thumbnailUrl": "https://images.tagesschau.de/image/dfa82900-be09-4c71-9ce1-0fdf73158798/AAABjrGzCUU/AAABjcWesUg/16x9-512.jpg", "date": "2024-04-06T06:36:00.000+02:00", "lat": 53.079296, "lon": 8.801694, "intensity": 0.7, "source": "Tagesschau"}, {"title": "Nachts zwischen Haltestellen aussteigen? SPD Bremerhaven diskutiert", "url": "https://www.tagesschau.de/inland/regional/bremen/rb-nachts-zwischen-haltestellen-aussteigen-spd-bremerhaven-diskutiert-100.html", "thumbnailUrl": "https://images.tagesschau.de/image/1dc91e56-2928-4b24-8f8f-8726989c922f/AAABjrGoD-I/AAABjcWesUg/16x9-512.jpg", "date": "2024-04-06T06:20:00.000+02:00", "lat": 53.0793, "lon": 8.8017, "intensity": 0.3, "source": "Tagesschau"}, {"title": "Mehr als zehn Jahre Haft nach t\u00f6dlichem Messerangriff in Harburg", "url": "https://www.tagesschau.de/inland/regional/hamburg/ndr-gefaengnisstrafe-urteil-nach-toedlichem-messerangriff-in-harburg-100.html", "thumbnailUrl": "https://images.tagesschau.de/image/05abe293-e6c5-440c-8ace-279bdb7eb26e/AAABjrGxf0w/AAABjcWesUg/16x9-512.jpg", "date": "2024-04-06T06:15:00.000+02:00", "lat": 53.463, "lon": 9.985, "intensity": 0.8, "source": "Tagesschau"}, {"title": "Der tiefste Punkt Deutschlands - ein norddeutscher Streit", "url": "https://www.tagesschau.de/inland/regional/schleswigholstein/ndr-der-tiefste-punkt-deutschlands-ein-norddeutscher-streit-100.html", "thumbnailUrl": "https://images.tagesschau.de/image/4d3f5a6d-4be7-4b2f-ac56-8674c29e0fce/AAABjrGQqQI/AAABjcWesUg/16x9-512.jpg", "date": "2024-04-06T06:00:00.000+02:00", "lat": 54.6253, "lon": 9.6869, "intensity": 0.8, "source": "Tagesschau"}, {"title": "Schrottreifer Reisebus mit 70 Jugendlichen auf A4 gestoppt", "url": "https://www.tagesschau.de/inland/regional/thueringen/mdr-schrottreifer-reisebus-mit-70-jugendlichen-auf-a4-gestoppt-100.html", "thumbnailUrl": "https://images.tagesschau.de/image/2593aa99-4ddb-43d4-94a7-25756d42521a/AAABjrEroJQ/AAABjcWesUg/16x9-512.jpg", "date": "2024-04-06T05:21:00.000+02:00", "lat": 50.8278, "lon": 10.4515, "intensity": 0.8, "source": "Tagesschau"}, {"title": "Gef\u00e4hrliche Gesetzesl\u00fccke: \"Legales LSD\" aus Automaten in BW", "url": "https://www.tagesschau.de/inland/regional/badenwuerttemberg/swr-gefaehrliche-gesetzesluecke-legales-lsd-aus-automaten-in-bw-100.html", "thumbnailUrl": "https://images.tagesschau.de/image/28030314-eb51-4947-bba6-0d798f3557b5/AAABjrFtbs8/AAABjcWesUg/16x9-512.jpg", "date": "2024-04-06T05:18:49.000+02:00", "lat": 48.6617, "lon": 9.3566, "intensity": 0.8, "source": "Tagesschau"}, {"title": "Sicherheit contra Datenschutz: Wie ver\u00e4ndern Bodycams den regionalen Bahnverkehr?", "url": "https://www.tagesschau.de/inland/regional/badenwuerttemberg/swr-sicherheit-contra-datenschutz-wie-veraendern-bodycams-den-regionalen-bahnverkehr-100.html", "thumbnailUrl": "https://images.tagesschau.de/image/6d74359e-6c4a-48d3-9b14-d78d3cfa551b/AAABjrFpxP8/AAABjcWesUg/16x9-512.jpg", "date": "2024-04-06T05:14:19.000+02:00", "lat": 48.6616, "lon": 9.9937, "intensity": 0.7, "source": "Tagesschau"}, {"title": "Leichtes Beben in der Metropolregion New York", "url": "https://www.tagesschau.de/ausland/amerika/new-yorker-erdbeben-100.html", "thumbnailUrl": "https://images.tagesschau.de/image/fb77114e-4150-4715-a012-48ae6d090b2d/AAABjq9cpPo/AAABjcWesUg/16x9-512.jpg", "date": "2024-04-06T03:09:17.432+02:00", "lat": 40.7128, "lon": -74.0059, "intensity": 0.3, "source": "Tagesschau"}, {"title": "Selenskyj warnt erneut vor Munitionsmangel", "url": "https://www.br.de/nachrichten/meldungen/index.html#n1", "thumbnailUrl": null, "date": "2024-04-07T08:56:55+02:00", "lat": 30.0444, "lon": 31.2357, "intensity": 0.8, "source": "Bayrischer Rundfunk"}, {"title": "Pellegrini gewinnt Pr\u00e4sidentenwahl in der Slowakei", "url": "https://www.br.de/nachrichten/meldungen/index.html#n2", "thumbnailUrl": null, "date": "2024-04-07T08:56:55+02:00", "lat": 33.5138, "lon": 36.2021, "intensity": 0.8, "source": "Bayrischer Rundfunk"}, {"title": "Diakonie-Pr\u00e4sident warnt vor Scheitern der Kindergrundsicherung", "url": "https://www.br.de/nachrichten/meldungen/index.html#n3", "thumbnailUrl": null, "date": "2024-04-07T08:56:55+02:00", "lat": 39.9334, "lon": 32.8597, "intensity": 0.8, "source": "Bayrischer Rundfunk"}, {"title": "Arbeitgeberpr\u00e4sident kritisiert geplantes Rentenpaket II scharf", "url": "https://www.br.de/nachrichten/meldungen/index.html#n4", "thumbnailUrl": null, "date": "2024-04-07T08:56:55+02:00", "lat": 52.520008, "lon": 13.404954, "intensity": 0.7, "source": "Bayrischer Rundfunk"}, {"title": "AfD-Chef Chrupalla gibt beschuldigtem Europawahlkandidaten Bystron R\u00fcckendeckung", "url": "https://www.br.de/nachrichten/meldungen/index.html#n5", "thumbnailUrl": null, "date": "2024-04-07T08:56:55+02:00", "lat": 52.520008, "lon": 13.404954, "intensity": 0.6, "source": "Bayrischer Rundfunk"}, {"title": "Bahn zeigt sich besorgt \u00fcber Mehrkosten bei Trassenpreisen", "url": "https://www.br.de/nachrichten/meldungen/index.html#n6", "thumbnailUrl": null, "date": "2024-04-07T08:56:55+02:00", "lat": 48.135125, "lon": 11.581981, "intensity": 0.6, "source": "Bayrischer Rundfunk"}, {"title": "Solidarit\u00e4tskundgebung mit Israel in Berlin", "url": "https://www.br.de/nachrichten/meldungen/index.html#n7", "thumbnailUrl": null, "date": "2024-04-07T08:56:55+02:00", "lat": 50.110922, "lon": 8.682127, "intensity": 0.8, "source": "Bayrischer Rundfunk"}, {"title": "W\u00e4rmerekord f\u00fcr Aprilanfang in Bayern geknackt", "url": "https://www.br.de/nachrichten/meldungen/index.html#n8", "thumbnailUrl": null, "date": "2024-04-07T08:56:55+02:00", "lat": 47.8684, "lon": 12.6394, "intensity": 0.8, "source": "Bayrischer Rundfunk"}, {"title": "Fu\u00dfball Stuttgart siegt gegen Dortmund mit 1:0", "url": "https://www.br.de/nachrichten/meldungen/index.html#n9", "thumbnailUrl": null, "date": "2024-04-07T08:56:55+02:00", "lat": 48.5844, "lon": 13.6722, "intensity": 0.8, "source": "Bayrischer Rundfunk"}, {"title": "\u00dcberwiegend sonnig, Temperaturen zwischen 23 und 29 Grad", "url": "https://www.br.de/nachrichten/meldungen/index.html#n10", "thumbnailUrl": null, "date": "2024-04-07T08:56:55+02:00", "lat": 53.5396, "lon": 8.5761, "intensity": 0.4, "source": "Bayrischer Rundfunk"}, {"title": "\"Unser Deutschlandm\u00e4rchen\" am Maxim-Gorki-Theater: Dichtende Arbeiterkinder", "url": "https://www.rbb24.de/kultur/beitrag/2024/04/fruehkritik-maxim-gorki-theater-unser-deutschlandmaerchen-hakan-savas-mican-dincer-guecyeter.html", "thumbnailUrl": null, "date": "Sun, 07 Apr 2024 08:56:32 +0200", "lat": 52.5192, "lon": 13.3896, "intensity": 0.7, "source": "RBB"}, {"title": "Berlin: A111 nach t\u00f6dlichem Quad-Unfall wieder freigegeben", "url": "https://www.rbb24.de/panorama/beitrag/2024/04/unfall-quad-a111-schulzendorfer-strasse-reinickendorf-unfall-aut.html", "thumbnailUrl": null, "date": "Sun, 07 Apr 2024 08:55:20 +0200", "lat": 52.6159, "lon": 13.3113, "intensity": 0.8, "source": "RBB"}, {"title": "Sprinkleranlage im Gro\u00dfen Haus des Berliner Ensembles ausgel\u00f6st", "url": "https://www.rbb24.de/kultur/beitrag/2024/04/berlin-berliner-ensemble-wasserschaden-sprinkleranlage-theater-iwanow-buehne-wasser.html", "thumbnailUrl": null, "date": "Sun, 07 Apr 2024 08:50:16 +0200", "lat": 52.5225, "lon": 13.3917, "intensity": 0.6, "source": "RBB"}, {"title": "Defekte Trafostationen: Stromausfall in Cottbus gr\u00f6\u00dftenteils behoben", "url": "https://www.rbb24.de/panorama/beitrag/2024/04/brandenburg-lausitz-cottbus-stromausfall-groesstenteils-behoben.html", "thumbnailUrl": null, "date": "Sun, 07 Apr 2024 08:35:18 +0200", "lat": 51.7562, "lon": 14.3247, "intensity": 0.6, "source": "RBB"}, {"title": "Das erwartet Berlin und die Fans aus aller Welt bei der Fu\u00dfball-EM", "url": "https://www.rbb24.de/sport/beitrag/2024/04/fussball-em-2024-berlin-sicherheit-verkehr-kultur-fanmeile.html", "thumbnailUrl": null, "date": "Sun, 07 Apr 2024 08:27:23 +0200", "lat": 52.52, "lon": 13.405, "intensity": 0.6, "source": "RBB"}, {"title": "Desinformation: Ist die Kennzeichnung von KI sinnvoll?", "url": "https://www.rbb24.de/panorama/kuenstliche-intelligenz-buschmann-kennzeichnen-nicht-zielfuehrend-gefahr-wahlen-demokratie.html", "thumbnailUrl": null, "date": "Sun, 07 Apr 2024 08:21:00 +0200", "lat": 53.5511, "lon": 9.9937, "intensity": 0.3, "source": "RBB"}, {"title": "K.o. in der elften Runde: Jack Culcay verpasst WM-Titel im Superweltergewicht", "url": "https://www.rbb24.de/sport/beitrag/2024/04/berlin-brandenburg-falkensee-boxen-jack-culcay-bakhram-murtazaliev-weltmeister-kampf.html", "thumbnailUrl": null, "date": "Sun, 07 Apr 2024 08:17:43 +0200", "lat": 52.520008, "lon": 13.404954, "intensity": 0.8, "source": "RBB"}, {"title": "Video | Cannabis rauchen im Biergarten erlaubt?", "url": "https://www.rbb24.de/panorama/beitrag/av7/video-cannabis-legalisierung-deutschland-kiffen-gastronomie-berlin.html", "thumbnailUrl": null, "date": "Sat, 06 Apr 2024 21:28:28 +0200", "lat": 51.9612, "lon": 7.6299, "intensity": 0.6, "source": "RBB"}, {"title": "Volleyballerinnen des SC Potsdam scheiden im Playoff-Halbfinale gegen Schwerin aus", "url": "https://www.rbb24.de/sport/beitrag/2024/04/volleyball-bundesliga-vbl-playoffs-halbfinale-sc-potsdam-schwerin-spiel-zwei.html", "thumbnailUrl": null, "date": "Sat, 06 Apr 2024 21:16:00 +0200", "lat": 52.3906, "lon": 13.0645, "intensity": 0.6, "source": "RBB"}, {"title": "Video | Wassertourismus sorgt f\u00fcr Streit im Oderbruch", "url": "https://www.rbb24.de/panorama/beitrag/av7/video-wassertourismus-paddelstrecke-naturschutz-oderbruch-brandenburg.html", "thumbnailUrl": null, "date": "Sat, 06 Apr 2024 21:12:11 +0200", "lat": 52.6261, "lon": 14.6229, "intensity": 0.7, "source": "RBB"}, {"title": "Analyse der Niederlage des 1. FC Union gegen Leverkusen: Keine Partycrasher", "url": "https://www.rbb24.de/sport/beitrag/2024/04/fussball-bundesliga-union-berlin-bayer-leverkusen-analyse-statistik-meisterschaft.html", "thumbnailUrl": null, "date": "Sat, 06 Apr 2024 20:42:00 +0200", "lat": 52.520008, "lon": 13.409911, "intensity": 0.5, "source": "RBB"}, {"title": "Mark&Metropole: Big Image in Potsdam kann \u00fcberdimensional", "url": "https://www.rbb24.de/kultur/beitrag/av7/video-big-image-film-potsdam-babelsberg-kulissen-theater.html", "thumbnailUrl": null, "date": "Sat, 06 Apr 2024 20:39:10 +0200", "lat": 52.3906, "lon": 13.0645, "intensity": 0.8, "source": "RBB"}, {"title": "Biker zelebrieren in Biesenthal Saisobnstart", "url": "https://www.rbb24.de/panorama/beitrag/av7/video-biker-bisenthal-motorradfahrer-saisonstart-brandenburg-berlin.html", "thumbnailUrl": null, "date": "Sat, 06 Apr 2024 20:36:19 +0200", "lat": 52.7781, "lon": 13.6017, "intensity": 0.3, "source": "RBB"}, {"title": "Hans-Christoph Berndt zum Spitzenkadidaten f\u00fcr Landtagswahl gew\u00e4hlt", "url": "https://www.rbb24.de/politik/beitrag/2024/04/brandenburg-afd-parteitag-jueterbog-fraktionschef-berndt-spitzenkandidatur.html", "thumbnailUrl": null, "date": "Sat, 06 Apr 2024 17:39:00 +0200", "lat": 52.979367, "lon": 13.737262, "intensity": 0.6, "source": "RBB"}, {"title": "Union Berlin verliert in Unterzahl gegen Bundesliga-Spitzenreiter Leverkusen", "url": "https://www.rbb24.de/sport/beitrag/2024/04/fussball-bundesliga-live-union-berlin-bayer-leverkusen-ticker.html", "thumbnailUrl": null, "date": "Sat, 06 Apr 2024 17:33:00 +0200", "lat": 52.5118, "lon": 13.4858, "intensity": 0.7, "source": "RBB"}, {"title": "Zweierteams stehen zur Wahl: Berliner SPD startet Mitgliederbefragung zur neuen Parteispitze", "url": "https://www.rbb24.de/politik/beitrag/2024/04/berlin-spd-partei-spitze-landesvorstand-mitglieder-befragung.html", "thumbnailUrl": null, "date": "Sat, 06 Apr 2024 17:02:42 +0200", "lat": 52.52, "lon": 13.405, "intensity": 0.7, "source": "RBB"}, {"title": "Berlin-Malchow: 81-J\u00e4hriger nach Fahrrad-Sturz gestorben", "url": "https://www.rbb24.de/panorama/beitrag/2024/04/berlin-verkehr-unfall-malchow-tot.html", "thumbnailUrl": null, "date": "Sat, 06 Apr 2024 16:52:27 +0200", "lat": 52.5775, "lon": 13.5452, "intensity": 0.7, "source": "RBB"}, {"title": "Berlin: Bisherige Juso-Doppelspitze erneut ins Amt gew\u00e4hlt", "url": "https://www.rbb24.de/politik/beitrag/2024/04/berlin-politik-spd-jugend-jusos-doppelspitze-gewaehlt.html", "thumbnailUrl": null, "date": "Sat, 06 Apr 2024 16:50:23 +0200", "lat": 52.520008, "lon": 13.404954, "intensity": 0.4, "source": "RBB"}, {"title": "Berlin-Wilmersdorf: 18-J\u00e4hriger f\u00e4hrt Radfahrer an und begeht Fahrerflucht", "url": "https://www.rbb24.de/panorama/beitrag/2024/04/radfahrer-angefahren-schwer-verletzt-wilmersdorf-fahrerflucht-be.html", "thumbnailUrl": null, "date": "Sat, 06 Apr 2024 16:27:14 +0200", "lat": 52.4883, "lon": 13.3098, "intensity": 0.8, "source": "RBB"}, {"title": "Gewalttat auf Pannierstra\u00dfe: Frauenpaar in Neuk\u00f6lln angegriffen", "url": "https://www.rbb24.de/panorama/beitrag/2024/04/berlin-neukoelln-pannierstrasse-frauenpaar-angegriffen.html", "thumbnailUrl": null, "date": "Sat, 06 Apr 2024 15:48:37 +0200", "lat": 52.4815, "lon": 13.4458, "intensity": 0.7, "source": "RBB"}, {"title": "Regionalliga Nordost: Luckenwalde verliert bitter, Greifswald geht gegen Schlusslicht unter", "url": "https://www.rbb24.de/sport/beitrag/2024/04/fussball-regionalliga-nordost-greifswald-luckenwalde-cottbus.html", "thumbnailUrl": null, "date": "Sat, 06 Apr 2024 15:43:27 +0200", "lat": 52.1167, "lon": 13.1667, "intensity": 0.7, "source": "RBB"}, {"title": "Berlin: Zwei Verletzte bei Wohnungsbrand in Steglitz", "url": "https://www.rbb24.de/panorama/beitrag/2024/04/berlin-steglitz-brand-feuer-flammen-feuerwehr-wohnungsbrand-polizei.html", "thumbnailUrl": null, "date": "Sat, 06 Apr 2024 14:10:39 +0200", "lat": 52.4554, "lon": 13.3264, "intensity": 0.7, "source": "RBB"}, {"title": "Ferienende, Halbmarathon, Baustellen: Staus ab Samstagnachmittag erwartet", "url": "https://www.rbb24.de/panorama/beitrag/2024/04/stau-ostern-adac-berlin-brandenburg-verkehr-autobahn-auto.html", "thumbnailUrl": null, "date": "Sat, 06 Apr 2024 13:38:00 +0200", "lat": 51.5143, "lon": 9.9937, "intensity": 0.3, "source": "RBB"}, {"title": "Mann bei Wohnungsbrand in Berlin-Pankow verletzt", "url": "https://www.rbb24.de/panorama/beitrag/2024/04/berlin-wohnungsbrand-pankow-ein-mann-verletzt.html", "thumbnailUrl": null, "date": "Sat, 06 Apr 2024 11:43:57 +0200", "lat": 52.5694, "lon": 13.4325, "intensity": 0.8, "source": "RBB"}, {"title": "Zu hohe Kosten: \"Tagesspiegel\" und \"Berliner Morgenpost\" erscheinen sonntags nicht mehr gedruckt", "url": "https://www.rbb24.de/wirtschaft/beitrag/2024/04/berlin-zeitungen-morgenpost-tagesspiegel-keine-sonntagsausgaben-mehr.html", "thumbnailUrl": null, "date": "Sat, 06 Apr 2024 09:38:22 +0200", "lat": 52.520008, "lon": 13.404954, "intensity": 0.7, "source": "RBB"}, {"title": "Berlin-Marzahn: Feuerwehr l\u00f6scht Br\u00e4nde in f\u00fcnf Kellerverschl\u00e4gen", "url": "https://www.rbb24.de/panorama/beitrag/2024/04/berlin-feuer-flammen-brand-feuerwehr-marzahn-einsatz-treppenhaus.html", "thumbnailUrl": null, "date": "Sat, 06 Apr 2024 09:19:34 +0200", "lat": 52.5414, "lon": 13.5535, "intensity": 0.7, "source": "RBB"}, {"title": "209 Namen bekannt: Berliner Staatsanwaltschaft bearbeitet rund 680 Verfahren zum Nahost-Konflikt", "url": "https://www.rbb24.de/panorama/beitrag/2024/04/berlin-staatsanwaltschaft-verfahren-nahost-gaza-krieg-konflikt-hamas.html", "thumbnailUrl": null, "date": "Sat, 06 Apr 2024 08:22:00 +0200", "lat": 52.520008, "lon": 13.404954, "intensity": 0.7, "source": "RBB"}, {"title": "Nach 3:2 gegen Straubing: Eisb\u00e4ren stehen vor dem Finaleinzug", "url": "https://www.rbb24.de/sport/beitrag/2024/04/eishockey-del-halbfinale-spiel-drei-eisbaeren-straubing.html", "thumbnailUrl": null, "date": "Fri, 05 Apr 2024 22:19:00 +0200", "lat": 52.52, "lon": 13.4386, "intensity": 0.8, "source": "RBB"}, {"title": "Video | Zus\u00e4tzliche medizinische Leistungen: Berliner FDP-Politiker verteidigt IGel-Selbstzahlerleistungen", "url": "https://www.rbb24.de/panorama/beitrag/av7/video-igeL-leistungen-politik-fdp-berlin-brandenburg.html", "thumbnailUrl": null, "date": "Fri, 05 Apr 2024 21:43:58 +0200", "lat": 52.520008, "lon": 13.404954, "intensity": 0.3, "source": "RBB"}, {"title": "98:58 gegen Halle: Albas Frauen starten mit Kantersieg in die Halbfinal-Serie", "url": "https://www.rbb24.de/sport/beitrag/2024/04/basketball-frauen-halbfinale-spiel-eins-alba-berlin-halle.html", "thumbnailUrl": null, "date": "Fri, 05 Apr 2024 21:25:00 +0200", "lat": 51.4792, "lon": 12.0017, "intensity": 0.7, "source": "RBB"}, {"title": "Wer am Sonntag antritt, wo gelaufen wird und welche Stra\u00dfen gesperrt werden", "url": "https://www.rbb24.de/sport/beitrag/2024/04/berlin-halbmarathon-2024-laufen-sperrungen-strecke-verkehr-teilnehmer.html", "thumbnailUrl": null, "date": "Fri, 05 Apr 2024 15:32:00 +0200", "lat": 52.516, "lon": 13.378, "intensity": 0.8, "source": "RBB"}, {"title": "Saison er\u00f6ffnet: Berliner Brunnen sprudeln wieder", "url": "https://www.rbb24.de/panorama/beitrag/2024/04/berlin-wasserbetriebe-brunnensaison-eroeffnet.html", "thumbnailUrl": null, "date": "Fri, 05 Apr 2024 13:52:00 +0200", "lat": 52.520008, "lon": 13.404954, "intensity": 0.5, "source": "RBB"}, {"title": "BSR-Gebrauchtwarenkaufhaus \"NochMall\" verzeichnet mehr Nachfrage", "url": "https://www.rbb24.de/wirtschaft/beitrag/2024/04/berliner-stadtreinigung-bsr-gebrauchtwarenkaufhaus-nochmall-mehr-umsatz-mehr-kunden.html", "thumbnailUrl": null, "date": "Fri, 05 Apr 2024 12:31:00 +0200", "lat": 53.0736, "lon": 8.8076, "intensity": 0.6, "source": "RBB"}, {"title": "U19-Juniorenetappenfahrt: Internationaler Radsport-Nachwuchs tritt in Cottbus im Stra\u00dfenrennsport an", "url": "https://www.rbb24.de/sport/beitrag/2024/04/brandenburg-cottbus-juniorenetappenfahrt-strassenrennsport-rsc-wettkampf.html", "thumbnailUrl": null, "date": "Fri, 05 Apr 2024 12:13:04 +0200", "lat": 51.7562, "lon": 14.3356, "intensity": 0.4, "source": "RBB"}, {"title": "Berlin-Tiergarten: Stra\u00dfensperrungen durch Berliner Halbmarathon", "url": "https://www.rbb24.de/panorama/beitrag/2024/04/berlin-halbmarathon-strassensperrung-tiergarten-grosser-stern.html", "thumbnailUrl": null, "date": "Fri, 05 Apr 2024 11:28:00 +0200", "lat": 52.5166, "lon": 13.3789, "intensity": 0.6, "source": "RBB"}, {"title": "Einsatz in Berliner Rhinstra\u00dfe: M\u00e4nner werfen in Lichtenberg Fahrrad und Fernseher aus achtem Stock", "url": "https://www.rbb24.de/panorama/beitrag/2024/04/berlin-lichtenberg-rhinstrasse-fernseher-fahrrad-aus-achtem-stock-geworfen.html", "thumbnailUrl": null, "date": "Fri, 05 Apr 2024 09:50:00 +0200", "lat": 52.5256, "lon": 13.5034, "intensity": 0.7, "source": "RBB"}, {"title": "Handball-Bundesliga: F\u00fcchse Berlin nach Sieg in G\u00f6ppingen weiter Tabellenf\u00fchrer", "url": "https://www.rbb24.de/sport/beitrag/2024/04/berlin-sport-handball-bundesliga-goeppingen-fuechse-spielbericht.html", "thumbnailUrl": null, "date": "Fri, 05 Apr 2024 09:38:02 +0200", "lat": 48.7031, "lon": 9.6592, "intensity": 0.6, "source": "RBB"}, {"title": "Basketball-EuroLeague: Alba verliert letztes internationales Heimspiel gegen Partizan Belgrad", "url": "https://www.rbb24.de/sport/beitrag/2024/04/berlin-sport-basketball-euroleague-alba-partizan-belgrad-spielbericht.html", "thumbnailUrl": null, "date": "Thu, 04 Apr 2024 22:36:00 +0200", "lat": 52.52, "lon": 13.3833, "intensity": 0.7, "source": "RBB"}, {"title": "Politisch motivierte Dienstvergehen: Bei Berliner Polizei laufen 96 Disziplinarverfahren gegen Beamte", "url": "https://www.rbb24.de/panorama/beitrag/2024/04/disziplinarverfahren-berlin-polizei-beamte-dienstvergehen.html", "thumbnailUrl": null, "date": "Thu, 04 Apr 2024 19:32:59 +0200", "lat": 52.520008, "lon": 13.404954, "intensity": 0.8, "source": "RBB"}, {"title": "Hamas-\u00dcberfall und Gaza-Krieg: Was denken Betroffene im Norden?", "url": "https://www.ndr.de/nachrichten/info/Hamas-Ueberfall-und-Gaza-Krieg-Was-denken-Betroffene-im-Norden,nahost186.html", "thumbnailUrl": "https://www.ndr.de/nachrichten/info/hirsch390_v-contentwidescreen.jpg", "date": "2024-04-07T06:54:24.759+02:00", "lat": 51.1657, "lon": 10.4515, "intensity": 0.8, "source": "NDR"}, {"title": "S\u00e4ugling in Neubrandenburg offenbar zu Tode gesch\u00fcttelt", "url": "https://www.ndr.de/nachrichten/mecklenburg-vorpommern/Saeugling-in-Neubrandenburg-offenbar-zu-Tode-geschuettelt,baby894.html", "thumbnailUrl": "https://www.ndr.de/nachrichten/mecklenburg-vorpommern/staatsanwaltschaft156_v-contentwidescreen.jpg", "date": "2024-04-07T08:22:49.272+02:00", "lat": 53.5563, "lon": 13.2656, "intensity": 1, "source": "NDR"}, {"title": "Cannabis auf Volksfesten? Viele Veranstalter noch unsicher", "url": "https://www.ndr.de/nachrichten/niedersachsen/Cannabis-auf-Volksfesten-Viele-Veranstalter-noch-unsicher,cannabis846.html", "thumbnailUrl": "https://www.ndr.de/nachrichten/niedersachsen/hannover_weser-leinegebiet/hannopark114_v-contentwidescreen.jpg", "date": "2024-04-07T08:48:01.277+02:00", "lat": 52.37589, "lon": 9.73322, "intensity": 0.7, "source": "NDR"}, {"title": "Nach Sonne und Sommerw\u00e4rme: Erst Wolken, dann Aprilwetter", "url": "https://www.ndr.de/nachrichten/info/Nach-Sonne-und-Sommerwaerme-Erst-Wolken-dann-Aprilwetter,wetter8754.html", "thumbnailUrl": "https://www.ndr.de/nachrichten/schleswig-holstein/schleswig-holstein_magazin/hintergrundbilder13314_v-contentwidescreen.jpg", "date": "2024-04-07T08:33:20.681+02:00", "lat": 53.55, "lon": 10.0, "intensity": 0.6, "source": "NDR"}, {"title": "Geliebt, gew\u00e4hlt, gescholten - Altkanzler Gerhard Schr\u00f6der wird 80", "url": "https://www.ndr.de/nachrichten/niedersachsen/Geliebt-gewaehlt-gescholten-Altkanzler-Gerhard-Schroeder-feiert-seinen-80-Geburtstag,schroeder2246.html", "thumbnailUrl": "https://www.ndr.de/nachrichten/niedersachsen/hannover_weser-leinegebiet/schroeder2238_v-contentwidescreen.jpg", "date": "2024-04-07T08:04:18.546+02:00", "lat": 52.3738, "lon": 9.9937, "intensity": 0.3, "source": "NDR"}, {"title": "Zu hohe Abgas-Werte: Monstertruck-Show in Hamburg abgesagt", "url": "https://www.ndr.de/nachrichten/hamburg/Zu-hohe-Abgas-Werte-Monstertruck-Show-in-Hamburg-abgesagt,monsterjam100.html", "thumbnailUrl": "https://www.ndr.de/fernsehen/screenshot1728202_v-contentwidescreen.jpg", "date": "2024-04-07T08:55:51.368+02:00", "lat": 53.5511, "lon": 9.9937, "intensity": 0.7, "source": "NDR"}, {"title": "Brandanschlag auf Oldenburger Synagoge - Polizei wertet Spuren aus", "url": "https://www.ndr.de/nachrichten/niedersachsen/oldenburg_ostfriesland/Brandanschlag-auf-Oldenburger-Synagoge-Polizei-wertet-Spuren-aus,synagoge670.html", "thumbnailUrl": "https://www.ndr.de/nachrichten/niedersachsen/oldenburg_ostfriesland/synagoge682_v-contentwidescreen.jpg", "date": "2024-04-07T08:45:22.488+02:00", "lat": 53.14352, "lon": 8.221239, "intensity": 0.8, "source": "NDR"}, {"title": "Backhaus: Keine R\u00e4umungen auf Campingplatz Prerow in dieser Saison", "url": "https://www.ndr.de/nachrichten/mecklenburg-vorpommern/Backhaus-Keine-Raeumungen-auf-Campingplatz-Prerow-in-dieser-Saison,regenbogencamping100.html", "thumbnailUrl": "https://www.ndr.de/regenbogencamper100_v-contentwidescreen.jpg", "date": "2024-04-06T16:38:13.563+02:00", "lat": 54.4564, "lon": 12.5475, "intensity": 0.7, "source": "NDR"}, {"title": "Neues Seenotrettungsboot in Laboe getauft", "url": "https://www.ndr.de/nachrichten/schleswig-holstein/Neues-Seenotrettungsboot-in-Laboe-getauft,taufe442.html", "thumbnailUrl": "https://www.ndr.de/nachrichten/schleswig-holstein/dgzrs336_v-contentwidescreen.jpg", "date": "2024-04-06T16:18:26.720+02:00", "lat": 54.3956, "lon": 10.2327, "intensity": 0.6, "source": "NDR"}, {"title": "Junger Autofahrer f\u00e4hrt Polizistin an - Dienstwaffe abgefeuert", "url": "https://www.ndr.de/nachrichten/niedersachsen/braunschweig_harz_goettingen/Junger-Autofahrer-faehrt-Polizistin-an-Dienstwaffe-abgefeuert,goslar736.html", "thumbnailUrl": "https://www.ndr.de/nachrichten/niedersachsen/blaulicht214_v-contentwidescreen.jpg", "date": "2024-04-06T15:26:37.736+02:00", "lat": 51.8752, "lon": 10.2785, "intensity": 0.8, "source": "NDR"}, {"title": "A7-Sperrungen in Hamburg am Wochenende: Elbtunnel betroffen", "url": "https://www.ndr.de/nachrichten/hamburg/A7-Sperrungen-in-Hamburg-am-Wochenende-Elbtunnel-betroffen,asieben594.html", "thumbnailUrl": "https://www.ndr.de/nachrichten/hamburg/asieben596_v-contentwidescreen.jpg", "date": "2024-04-07T08:35:08.729+02:00", "lat": 53.5511, "lon": 9.9946, "intensity": 0.6, "source": "NDR"}, {"title": "Jugendgruppe in Rostock schl\u00e4gt 17-J\u00e4hrigen nieder", "url": "https://www.ndr.de/nachrichten/mecklenburg-vorpommern/Jugendgruppe-in-Rostock-schlaegt-17-Jaehrigen-nieder,rostock1720.html", "thumbnailUrl": "https://www.ndr.de/nachrichten/mecklenburg-vorpommern/rostock1722_v-contentwidescreen.jpg", "date": "2024-04-06T14:33:44.115+02:00", "lat": 54.0834, "lon": 12.1406, "intensity": 0.8, "source": "NDR"}, {"title": "Nach Gro\u00dfbrand in der Billstra\u00dfe: Ermittlungen eingestellt", "url": "https://www.ndr.de/nachrichten/hamburg/Nach-Grossbrand-in-der-Billstrasse-Ermittlungen-eingestellt,billstrasse168.html", "thumbnailUrl": "https://www.ndr.de/nachrichten/hamburg/billstrasse150_v-contentwidescreen.jpg", "date": "2024-04-06T20:08:35.244+02:00", "lat": 53.5286, "lon": 10.057, "intensity": 0.8, "source": "NDR"}, {"title": "Au\u00dfengastronomie und Cannabis: \u00c4rger im Biergarten?", "url": "https://www.ndr.de/fernsehen/sendungen/hallo_niedersachsen/Aussengastronomie-und-Cannabis-Aerger-im-Biergarten,hallonds86754.html", "thumbnailUrl": "https://www.ndr.de/fernsehen/screenshot1728162_v-contentwidescreen.jpg", "date": "2024-04-07T08:49:20.955+02:00", "lat": 52.268874, "lon": 10.52677, "intensity": 0.5, "source": "NDR"}, {"title": "Hamburg Ehrensache: Andocken - Hilfe f\u00fcr Menschen ohne Papiere", "url": "https://www.ndr.de/fernsehen/sendungen/hamburg_journal/Hamburg-Ehrensache-Andocken-Hilfe-fuer-Menschen-ohne-Papiere,hamj145828.html", "thumbnailUrl": "https://www.ndr.de/fernsehen/sendungen/hamburg_journal/logo1796_v-contentwidescreen.jpg", "date": "2024-04-06T20:28:13.027+02:00", "lat": 53.5511, "lon": 9.9417, "intensity": 0.6, "source": "NDR"}, {"title": "Soderstorf: 11.000 Euro Pr\u00e4mie f\u00fcr neue Gastro-Mitarbeitende", "url": "https://www.ndr.de/fernsehen/sendungen/hallo_niedersachsen/Soderstorf-11000-Euro-Praemie-fuer-neue-Gastromitarbeitende,hallonds86758.html", "thumbnailUrl": "https://www.ndr.de/fernsehen/screenshot1728052_v-contentwidescreen.jpg", "date": "2024-04-07T08:54:21.435+02:00", "lat": 53.1444, "lon": 10.359, "intensity": 0.8, "source": "NDR"}, {"title": "Hamburger Tafel startet Sammelaktion in Einkaufszentren", "url": "https://www.ndr.de/nachrichten/hamburg/Hamburger-Tafel-startet-Sammelaktion-in-Einkaufszentren,hamj145814.html", "thumbnailUrl": "https://www.ndr.de/nachrichten/hamburg/hamburgertafel168_v-contentwidescreen.jpg", "date": "2024-04-06T13:49:35.721+02:00", "lat": 53.5503, "lon": 10.0001, "intensity": 0.7, "source": "NDR"}, {"title": "\"W\u00fcnsch Dir Deinen NDR\" - Jetzt f\u00fcr die Publikumsaktion bewerben!", "url": "https://www.ndr.de/wuensch_dir_deinen_ndr/index.html", "thumbnailUrl": "https://www.ndr.de/der_ndr/wunschprogramm131_v-contentwidescreen.jpg", "date": "2024-03-26T07:59:24.876+01:00", "lat": 53.551086, "lon": 9.993682, "intensity": 0.2, "source": "NDR"}, {"title": "Relaunch der vier NDR L\u00e4nder-Apps: Nachrichten aus Ihrer Region!", "url": "https://www.ndr.de/Relaunch-der-vier-NDR-Laender-Apps-Nachrichten-aus-Ihrer-Region,laenderapprelaunch100.html", "thumbnailUrl": "https://www.ndr.de/laenderapprelaunch102_v-contentwidescreen.jpg", "date": "2024-03-19T09:22:34.719+01:00", "lat": 53.8659, "lon": 9.8606, "intensity": 0.4, "source": "NDR"}, {"title": "Gaspreis Dashboard", "url": "https://www.ndr.de/home/gaspreis176.html", "thumbnailUrl": null, "date": "2023-04-06T14:49:06.409+02:00", "lat": 51.3426, "lon": 9.9976, "intensity": 0.7, "source": "NDR"}, {"title": "NDR Radioprogramme", "url": "https://www.ndr.de/radio/radiologobox100.html", "thumbnailUrl": null, "date": "2020-12-01T14:04:26.700+01:00", "lat": 53.5511, "lon": 9.9937, "intensity": 0.3, "source": "NDR"}, {"title": "Krieg und Terror - Die Lage im Nahen Osten und in der Ukraine", "url": "https://www.ndr.de/nachrichten/info/podcast5342.html", "thumbnailUrl": "https://www.ndr.de/nachrichten/info/podcastbild412_v-contentwidescreen.jpg", "date": "2024-04-07T07:00:31.948+02:00", "lat": 46.79651, "lon": 30.739834, "intensity": 0.8, "source": "NDR"}, {"title": "Die Ern\u00e4hrungs-Docs - Essen als Medizin", "url": "https://www.ndr.de/fernsehen/sendungen/die-ernaehrungsdocs/audio-podcast/index.html", "thumbnailUrl": "https://www.ndr.de/fernsehen/sendungen/die-ernaehrungsdocs/podcastbild338_v-contentwidescreen.jpg", "date": "2024-04-04T13:51:10.657+02:00", "lat": 53.5511, "lon": 9.9876, "intensity": 0.3, "source": "NDR"}, {"title": "Unsere Comedy \"Die Kur-Oase\"!", "url": "https://www.ndr.de/ndr2/podcasts/podcast5816.html", "thumbnailUrl": "https://www.ndr.de/ndr2/podcasts/podcast5812_v-contentwidescreen.jpg", "date": "2024-04-05T07:15:05.477+02:00", "lat": 54.9069, "lon": 8.7386, "intensity": 0.2, "source": "NDR"}, {"title": "Organisiertes Verbrechen - Recherchen im Verborgenen", "url": "https://www.ndr.de/nachrichten/info/podcast4992.html", "thumbnailUrl": "https://www.ndr.de/nachrichten/info/podcastbildov100_v-contentwidescreen.jpg", "date": "2024-03-01T06:00:27.490+01:00", "lat": 45.9432, "lon": 24.9668, "intensity": 0.8, "source": "NDR"}, {"title": "eat.READ.sleep. B\u00fccher f\u00fcr dich", "url": "https://www.ndr.de/kultur/sendungen/eat_read_sleep/index.html", "thumbnailUrl": "https://www.ndr.de/mediathek/podcastbild434_v-contentwidescreen.jpg", "date": "2024-03-29T06:00:20.892+01:00", "lat": 53.5511, "lon": 9.9937, "intensity": 0.2, "source": "NDR"}, {"title": "Killed in Action: Afghanistan - Mission ohne Ziel", "url": "https://www.ndr.de/nachrichten/info/sendungen/podcast4574.html", "thumbnailUrl": "https://www.ndr.de/nachrichten/info/podcasts/podcastbild478_v-contentwidescreen.jpg", "date": "2024-02-16T17:44:01.214+01:00", "lat": 33.9391, "lon": 66.2385, "intensity": 0.8, "source": "NDR"}, {"title": "Streitkr\u00e4fte und Strategien", "url": "https://www.ndr.de/nachrichten/info/podcast2998.html", "thumbnailUrl": "https://www.ndr.de/mediathek/mediathekbild566_v-contentwidescreen.jpg", "date": "2024-04-05T16:30:08.852+02:00", "lat": 53.5511, "lon": 9.9937, "intensity": 0.8, "source": "NDR"}, {"title": "Standpunkte", "url": "https://www.ndr.de/nachrichten/info/podcast4700.html", "thumbnailUrl": "https://www.ndr.de/mediathek/podcast5332_v-contentwidescreen.jpg", "date": "2024-04-06T00:01:05.427+02:00", "lat": 53.5511, "lon": 9.9937, "intensity": 0.5, "source": "NDR"}, {"title": "Mein Einsatz - der Feuerwehr-Podcast von NDR Niedersachsen", "url": "https://www.ndr.de/ndr1niedersachsen/podcast5774.html", "thumbnailUrl": "https://www.ndr.de/ndr1niedersachsen/podcasts/podcastbild364_v-contentwidescreen.jpg", "date": "2024-03-28T04:00:07.923+01:00", "lat": 52.3759, "lon": 9.7345, "intensity": 0.7, "source": "NDR"}, {"title": "\"Feel Hamburg\" - alle Folgen", "url": "https://www.ndr.de/903/podcasts/podcast5108.html", "thumbnailUrl": "https://www.ndr.de/mediathek/mediathekbild514_v-contentwidescreen.jpg", "date": "2024-04-03T05:00:09.975+02:00", "lat": 53.55, "lon": 10.0, "intensity": 0.4, "source": "NDR"}, {"title": "Intensiv-Station - Satire von NDR Info", "url": "https://www.ndr.de/nachrichten/info/podcast4274.html", "thumbnailUrl": "https://www.ndr.de/nachrichten/info/programm/intensivstation3272_v-contentwidescreen.jpg", "date": "2024-03-25T22:56:23.803+01:00", "lat": 54.3706, "lon": 10.5038, "intensity": 0.8, "source": "NDR"}, {"title": "Amerika, wir m\u00fcssen reden!", "url": "https://www.ndr.de/nachrichten/info/podcast4932.html", "thumbnailUrl": "https://www.ndr.de/nachrichten/info/podcastbild488_v-contentwidescreen.jpg", "date": "2024-04-03T18:15:10.308+02:00", "lat": 39.78373, "lon": -100.445882, "intensity": 0.7, "source": "NDR"}, {"title": "Wenn junge Menschen t\u00f6ten: \"Tats\u00e4chlich eine Ver\u00e4nderung im T\u00e4terverhalten\"", "url": "https://www1.wdr.de/nachrichten/dortmund-obdachloser-erstochen-kinder-jugendliche-gewalt-100.html", "thumbnailUrl": null, "date": "2024-04-06T18:11:37Z", "lat": 51.5136, "lon": 7.4683, "intensity": 0.8, "source": "WDR"}, {"title": "Nachrichten f\u00fcr NRW am Morgen", "url": "https://www1.wdr.de/nachrichten/nrw-nachrichten-angriff-hamas-israel-sieben-monate-ferienende-karlspreis-100.html", "thumbnailUrl": null, "date": "2024-04-07T06:47:16Z", "lat": 32.109333, "lon": 34.851612, "intensity": 0.8, "source": "WDR"}, {"title": "Wie W\u00fcstensand von der Sahara bis nach NRW geweht wird", "url": "https://www1.wdr.de/nachrichten/wuestensand-sahara-staub-nrw-100.html", "thumbnailUrl": null, "date": "2024-04-06T17:45:17Z", "lat": 51.8133, "lon": 7.6288, "intensity": 0.6, "source": "WDR"}, {"title": "R\u00fcckreiseverkehr nach den Osterferien: Hier wird es voll", "url": "https://www1.wdr.de/nachrichten/rueckreiseverkehr-ostern-volle-autobahnen-100.html", "thumbnailUrl": null, "date": "2024-04-07T06:54:36Z", "lat": 51.3774, "lon": 10.8453, "intensity": 0.7, "source": "WDR"},